[
  {
    "service_request": "2026-1260585",
    "request_type": "General Services",
    "request_reason": "General Service Request",
    "date_created": "2026-02-24T23:57:29.000",
    "date_modified": "2026-02-24T23:57:31.000",
    "request_status": "Pending",
    "responsible_agency": "Orleans Parish Communication District",
    "final_address": "Elysian Fields Ave, New Orleans, Louisiana, 70122",
    "address_councildis": "C",
    "status": "Pending",
    "rowid": "1260585",
    "final_x": "3685173.27369",
    "final_y": "535276.443846",
    "longitude": "-90.05633927557189",
    "latitude": "29.965712570144284",
    "geocoded_column": {
      "latitude": "29.965712570144284",
      "longitude": "-90.05633927557189"
    }
  },
  {
    "service_request": "2026-1260584",
    "request_type": "Health Related Request",
    "request_reason": "Noise Ordinance Complaint",
    "date_created": "2026-02-24T23:17:36.000",
    "date_modified": "2026-02-24T23:17:37.000",
    "request_status": "Pending",
    "responsible_agency": "Health Department",
    "final_address": "800 Bourbon St",
    "address_councildis": "C",
    "status": "Pending",
    "rowid": "1260584",
    "final_x": "3682553.51528",
    "final_y": "533013.631428",
    "longitude": "-90.06469148499534",
    "latitude": "29.95957063099051",
    "geocoded_column": {
      "latitude": "29.95957063099051",
      "longitude": "-90.06469148499534"
    }
  },
  {
    "service_request": "2026-1260583",
    "request_type": "Health Related Request",
    "request_reason": "Noise Ordinance Complaint",
    "date_created": "2026-02-24T23:17:25.000",
    "date_modified": "2026-02-24T23:17:26.000",
    "request_status": "Pending",
    "responsible_agency": "Health Department",
    "final_address": "800 Bourbon St",
    "address_councildis": "C",
    "status": "Pending",
    "rowid": "1260583",
    "final_x": "3682553.51528",
    "final_y": "533013.631428",
    "longitude": "-90.06469148499534",
    "latitude": "29.95957063099051",
    "geocoded_column": {
      "latitude": "29.95957063099051",
      "longitude": "-90.06469148499534"
    }
  },
  {
    "service_request": "2026-1260582",
    "request_type": "Health Related Request",
    "request_reason": "Noise Ordinance Complaint",
    "date_created": "2026-02-24T23:17:10.000",
    "date_modified": "2026-02-24T23:17:11.000",
    "request_status": "Pending",
    "responsible_agency": "Health Department",
    "final_address": "800 Bourbon St",
    "address_councildis": "C",
    "status": "Pending",
    "rowid": "1260582",
    "final_x": "3682553.51528",
    "final_y": "533013.631428",
    "longitude": "-90.06469148499534",
    "latitude": "29.95957063099051",
    "geocoded_column": {
      "latitude": "29.95957063099051",
      "longitude": "-90.06469148499534"
    }
  },
  {
    "service_request": "2026-1260581",
    "request_type": "Health Related Request",
    "request_reason": "Noise Ordinance Complaint",
    "date_created": "2026-02-24T23:15:06.000",
    "date_modified": "2026-02-24T23:15:09.000",
    "request_status": "Pending",
    "responsible_agency": "Health Department",
    "final_address": "800 Bourbon St",
    "address_councildis": "C",
    "status": "Pending",
    "rowid": "1260581",
    "final_x": "3682553.51528",
    "final_y": "533013.631428",
    "longitude": "-90.06469148499534",
    "latitude": "29.95957063099051",
    "geocoded_column": {
      "latitude": "29.95957063099051",
      "longitude": "-90.06469148499534"
    }
  },
  {
    "service_request": "2026-1260580",
    "request_type": "Mosquito, Termite & Rodent Control",
    "request_reason": "Mosquito Complaint",
    "date_created": "2026-02-24T22:29:53.000",
    "date_modified": "2026-02-24T22:29:56.000",
    "request_status": "Pending",
    "responsible_agency": "Mosquito, Termite & Rodent Control Board",
    "final_address": "406 38Th St",
    "address_councildis": "A",
    "status": "Pending",
    "rowid": "1260580",
    "final_x": "3664918.89773",
    "final_y": "552657.589334",
    "longitude": "-90.11972076524341",
    "latitude": "30.01410994978017",
    "geocoded_column": {
      "latitude": "30.01410994978017",
      "longitude": "-90.11972076524341"
    }
  },
  {
    "service_request": "2026-1260579",
    "request_type": "Trash/Recycling",
    "request_reason": "Request a Large Item Pick Up",
    "date_created": "2026-02-24T22:18:32.000",
    "date_modified": "2026-02-24T22:18:42.000",
    "request_status": "Pending",
    "responsible_agency": "Department of Sanitation",
    "final_address": "4700 Cardenas Dr",
    "address_councildis": "E",
    "status": "Assigned to Contractor",
    "contractor": "Waste Pro",
    "rowid": "1260579",
    "final_x": "3713644.22271",
    "final_y": "556044.230809",
    "longitude": "-89.965647228498",
    "latitude": "30.021912872819005",
    "geocoded_column": {
      "latitude": "30.021912872819005",
      "longitude": "-89.965647228498"
    }
  },
  {
    "service_request": "2026-1260578",
    "request_type": "Trash/Recycling",
    "request_reason": "Replace Trash Cart",
    "date_created": "2026-02-24T21:37:12.000",
    "date_modified": "2026-02-24T21:37:14.000",
    "request_status": "Pending",
    "responsible_agency": "Department of Sanitation",
    "final_address": "4917 Magazine St",
    "address_councildis": "B",
    "status": "Assigned to Contractor",
    "contractor": "IV Waste",
    "rowid": "1260578",
    "final_x": "3668835.84775",
    "final_y": "518651.935991",
    "longitude": "-90.10849362182188",
    "latitude": "29.92049109061308",
    "geocoded_column": {
      "latitude": "29.92049109061308",
      "longitude": "-90.10849362182188"
    }
  },
  {
    "service_request": "2026-1260577",
    "request_type": "Utility Poles",
    "request_reason": "Wires Sagging/Hanging Low",
    "date_created": "2026-02-24T21:20:52.000",
    "date_modified": "2026-02-24T21:20:55.000",
    "request_status": "Pending",
    "responsible_agency": "Utility Company Collective",
    "final_address": "3957 Magazine St",
    "address_councildis": "B",
    "status": "Pending",
    "rowid": "1260577",
    "final_x": "3672606.13358",
    "final_y": "518983.918967",
    "longitude": "-90.0965812571415",
    "latitude": "29.921292581301394",
    "geocoded_column": {
      "latitude": "29.921292581301394",
      "longitude": "-90.0965812571415"
    }
  },
  {
    "service_request": "2026-1260576",
    "request_type": "Trash/Recycling",
    "request_reason": "Request a Large Item Pick Up",
    "date_created": "2026-02-24T21:01:26.000",
    "date_modified": "2026-02-24T21:01:27.000",
    "request_status": "Pending",
    "responsible_agency": "Department of Sanitation",
    "final_address": "1419 Joseph St",
    "address_councildis": "A",
    "status": "Assigned to Contractor",
    "contractor": "IV Waste",
    "rowid": "1260576",
    "final_x": "3666628.17908",
    "final_y": "521091.708857",
    "longitude": "-90.11538036719244",
    "latitude": "29.92726440138948",
    "geocoded_column": {
      "latitude": "29.92726440138948",
      "longitude": "-90.11538036719244"
    }
  },
  {
    "service_request": "2026-1260575",
    "request_type": "Streetlights",
    "request_reason": "Streetlight Outage/Malfunction",
    "date_created": "2026-02-24T20:14:34.000",
    "date_modified": "2026-02-24T20:14:36.000",
    "request_status": "Pending",
    "responsible_agency": "Department of Public Works",
    "final_address": "2112 Delachaise St",
    "address_councildis": "B",
    "status": "Pending",
    "rowid": "1260575",
    "final_x": "3673042.68564",
    "final_y": "523128.982075",
    "longitude": "-90.09506185676771",
    "latitude": "29.93267720883131",
    "geocoded_column": {
      "latitude": "29.93267720883131",
      "longitude": "-90.09506185676771"
    }
  },
  {
    "service_request": "2026-1260574",
    "request_type": "Streetlights",
    "request_reason": "Streetlight Outage/Malfunction",
    "date_created": "2026-02-24T19:25:57.000",
    "date_modified": "2026-02-24T19:25:59.000",
    "request_status": "Pending",
    "responsible_agency": "Department of Public Works",
    "final_address": "2120 Jena St",
    "address_councildis": "B",
    "status": "Pending",
    "rowid": "1260574",
    "final_x": "3670216.61985",
    "final_y": "522781.744122",
    "longitude": "-90.10399529974403",
    "latitude": "29.93180608942146",
    "geocoded_column": {
      "latitude": "29.93180608942146",
      "longitude": "-90.10399529974403"
    }
  },
  {
    "service_request": "2026-1260573",
    "request_type": "Roads and Streets",
    "request_reason": "Street Subsidence (Sinking)",
    "date_created": "2026-02-24T18:13:32.000",
    "date_modified": "2026-02-24T18:13:33.000",
    "request_status": "Pending",
    "responsible_agency": "Sewerage & Water Board",
    "final_address": "2501 St Ann St",
    "address_councildis": "D",
    "status": "Pending",
    "rowid": "1260573",
    "final_x": "3677728.22882",
    "final_y": "536659.567239",
    "longitude": "-90.07980268029661",
    "latitude": "29.969741732864403",
    "geocoded_column": {
      "latitude": "29.969741732864403",
      "longitude": "-90.07980268029661"
    }
  },
  {
    "service_request": "2026-1260572",
    "request_type": "Roads and Streets",
    "request_reason": "Pothole",
    "date_created": "2026-02-24T18:12:28.000",
    "date_modified": "2026-02-24T18:12:30.000",
    "request_status": "Pending",
    "responsible_agency": "Department of Public Works",
    "final_address": "838 Fourth St",
    "address_councildis": "B",
    "status": "Pending",
    "rowid": "1260572",
    "final_x": "3677709.03253",
    "final_y": "520312.45964",
    "longitude": "-90.08042779852737",
    "latitude": "29.924793205866127",
    "geocoded_column": {
      "latitude": "29.924793205866127",
      "longitude": "-90.08042779852737"
    }
  },
  {
    "service_request": "2026-1260571",
    "request_type": "Road Striping",
    "request_reason": "Lane Striping or other Pavement Markings",
    "date_created": "2026-02-24T17:58:23.000",
    "date_modified": "2026-02-24T17:58:26.000",
    "request_status": "Pending",
    "responsible_agency": "Department of Public Works",
    "final_address": "1315 Foucher St",
    "address_councildis": "B",
    "status": "Pending",
    "rowid": "1260571",
    "final_x": "3673940.36635",
    "final_y": "520153.185464",
    "longitude": "-90.09232969341609",
    "latitude": "29.924468023825387",
    "geocoded_column": {
      "latitude": "29.924468023825387",
      "longitude": "-90.09232969341609"
    }
  },
  {
    "service_request": "2026-1260569",
    "request_type": "Drainage",
    "request_reason": "Catch Basin Not Draining",
    "date_created": "2026-02-24T17:40:54.000",
    "date_modified": "2026-02-24T17:40:55.000",
    "request_status": "Pending",
    "responsible_agency": "Sewerage & Water Board",
    "final_address": "1017 N Galvez St",
    "address_councildis": "D",
    "status": "Pending",
    "rowid": "1260569",
    "final_x": "3679100.6845",
    "final_y": "536739.366599",
    "longitude": "-90.07546557407653",
    "latitude": "29.969919797818687",
    "geocoded_column": {
      "latitude": "29.969919797818687",
      "longitude": "-90.07546557407653"
    }
  },
  {
    "service_request": "2026-1260568",
    "request_type": "Trash/Recycling",
    "request_reason": "Request a Large Item Pick Up",
    "date_created": "2026-02-24T17:40:40.000",
    "date_modified": "2026-02-24T17:40:44.000",
    "request_status": "Pending",
    "responsible_agency": "Department of Sanitation",
    "final_address": "1039 Mazant St",
    "address_councildis": "C",
    "status": "Assigned to Contractor",
    "contractor": "IV Waste",
    "rowid": "1260568",
    "final_x": "3692102.15581",
    "final_y": "535065.859846",
    "longitude": "-90.03446574567955",
    "latitude": "29.964919391609374",
    "geocoded_column": {
      "latitude": "29.964919391609374",
      "longitude": "-90.03446574567955"
    }
  },
  {
    "service_request": "2026-1260567",
    "request_type": "Trash/Recycling",
    "request_reason": "Illegal Dumping",
    "date_created": "2026-02-24T17:00:37.000",
    "date_modified": "2026-02-24T17:00:39.000",
    "request_status": "Pending",
    "responsible_agency": "Department of Sanitation",
    "final_address": "2217 Port St",
    "address_councildis": "D",
    "status": "Pending",
    "rowid": "1260567",
    "final_x": "3688550.68495",
    "final_y": "540673.985995",
    "longitude": "-90.0454819883765",
    "latitude": "29.98044998263476",
    "geocoded_column": {
      "latitude": "29.98044998263476",
      "longitude": "-90.0454819883765"
    }
  },
  {
    "service_request": "2026-1260566",
    "request_type": "General Services",
    "request_reason": "General Service Request",
    "date_created": "2026-02-24T16:58:02.000",
    "date_modified": "2026-02-24T16:58:04.000",
    "request_status": "Pending",
    "responsible_agency": "Orleans Parish Communication District",
    "final_address": "624 Olivier St",
    "address_councildis": "C",
    "status": "Pending",
    "rowid": "1260566",
    "final_x": "3687344.95196",
    "final_y": "529272.867841",
    "longitude": "-90.04969360322367",
    "latitude": "29.949138078571732",
    "geocoded_column": {
      "latitude": "29.949138078571732",
      "longitude": "-90.04969360322367"
    }
  },
  {
    "service_request": "2026-1260565",
    "request_type": "Trash/Recycling",
    "request_reason": "Request a Large Item Pick Up",
    "date_created": "2026-02-24T16:56:51.000",
    "date_modified": "2026-02-24T16:56:54.000",
    "request_status": "Pending",
    "responsible_agency": "Department of Sanitation",
    "final_address": "720 Evelina St",
    "address_councildis": "C",
    "status": "Assigned to Contractor",
    "contractor": "Richards Disposal",
    "rowid": "1260565",
    "final_x": "3687665.87734",
    "final_y": "529547.909121",
    "longitude": "-90.04867056723658",
    "latitude": "29.94988445853775",
    "geocoded_column": {
      "latitude": "29.94988445853775",
      "longitude": "-90.04867056723658"
    }
  },
  {
    "service_request": "2026-1260564",
    "request_type": "Trash/Recycling",
    "request_reason": "Request a Large Item Pick Up",
    "date_created": "2026-02-24T16:54:20.000",
    "date_modified": "2026-02-24T16:54:21.000",
    "request_status": "Pending",
    "responsible_agency": "Department of Sanitation",
    "final_address": "5441 St Roch Ave",
    "address_councildis": "D",
    "status": "Assigned to Contractor",
    "contractor": "IV Waste",
    "rowid": "1260564",
    "final_x": "3685302.42773",
    "final_y": "553130.192855",
    "longitude": "-90.05530255351562",
    "latitude": "30.014800062106755",
    "geocoded_column": {
      "latitude": "30.014800062106755",
      "longitude": "-90.05530255351562"
    }
  },
  {
    "service_request": "2026-1260563",
    "request_type": "Street and Traffic Signs",
    "request_reason": "Traffic or Parking Sign Damaged or Missing",
    "date_created": "2026-02-24T16:53:00.000",
    "date_modified": "2026-02-24T16:53:01.000",
    "request_status": "Pending",
    "responsible_agency": "Department of Public Works",
    "final_address": "624 Olivier St",
    "address_councildis": "C",
    "status": "Pending",
    "rowid": "1260563",
    "final_x": "3687344.95196",
    "final_y": "529272.867841",
    "longitude": "-90.04969360322367",
    "latitude": "29.949138078571732",
    "geocoded_column": {
      "latitude": "29.949138078571732",
      "longitude": "-90.04969360322367"
    }
  },
  {
    "service_request": "2026-1260562",
    "request_type": "Trash/Recycling",
    "request_reason": "Damaged Caused By Contractor",
    "date_created": "2026-02-24T16:52:39.000",
    "date_modified": "2026-02-24T16:52:41.000",
    "request_status": "Pending",
    "responsible_agency": "Department of Sanitation",
    "final_address": "5818 Chamberlain Dr",
    "address_councildis": "D",
    "status": "Assigned to Contractor",
    "contractor": "IV Waste",
    "rowid": "1260562",
    "final_x": "3679253.11573",
    "final_y": "553984.510104",
    "longitude": "-90.07438580354349",
    "latitude": "30.01733326140651",
    "geocoded_column": {
      "latitude": "30.01733326140651",
      "longitude": "-90.07438580354349"
    }
  },
  {
    "service_request": "2026-1260561",
    "request_type": "Trash/Recycling",
    "request_reason": "Request a Large Item Pick Up",
    "date_created": "2026-02-24T16:34:52.000",
    "date_modified": "2026-02-24T16:34:53.000",
    "request_status": "Pending",
    "responsible_agency": "Department of Sanitation",
    "final_address": "4810 Major Dr",
    "address_councildis": "E",
    "status": "Assigned to Contractor",
    "contractor": "Waste Pro",
    "rowid": "1260561",
    "final_x": "3718117.0574",
    "final_y": "557331.366491",
    "longitude": "-89.95146534849277",
    "latitude": "30.025304426195316",
    "geocoded_column": {
      "latitude": "30.025304426195316",
      "longitude": "-89.95146534849277"
    }
  },
  {
    "service_request": "2026-1260560",
    "request_type": "Trash/Recycling",
    "request_reason": "Request a Large Item Pick Up",
    "date_created": "2026-02-24T16:34:18.000",
    "date_modified": "2026-02-24T16:34:20.000",
    "request_status": "Pending",
    "responsible_agency": "Department of Sanitation",
    "final_address": "5325 Wilton Dr",
    "address_councildis": "D",
    "status": "Assigned to Contractor",
    "contractor": "IV Waste",
    "rowid": "1260560",
    "final_x": "3681932.01608",
    "final_y": "552847.434327",
    "longitude": "-90.06596130059354",
    "latitude": "30.014125513797037",
    "geocoded_column": {
      "latitude": "30.014125513797037",
      "longitude": "-90.06596130059354"
    }
  },
  {
    "service_request": "2026-1260559",
    "request_type": "Trash/Recycling",
    "request_reason": "Request a Large Item Pick Up",
    "date_created": "2026-02-24T16:32:26.000",
    "date_modified": "2026-02-24T16:32:27.000",
    "request_status": "Pending",
    "responsible_agency": "Department of Sanitation",
    "final_address": "2226 Foucher St",
    "address_councildis": "B",
    "status": "Assigned to Contractor",
    "contractor": "IV Waste",
    "rowid": "1260559",
    "final_x": "3672657.42068",
    "final_y": "523531.390651",
    "longitude": "-90.09626439391717",
    "latitude": "29.93379514470543",
    "geocoded_column": {
      "latitude": "29.93379514470543",
      "longitude": "-90.09626439391717"
    }
  },
  {
    "service_request": "2026-1260558",
    "request_type": "Trash/Recycling",
    "request_reason": "Request a Large Item Pick Up",
    "date_created": "2026-02-24T16:31:50.000",
    "date_modified": "2026-02-24T16:31:52.000",
    "request_status": "Pending",
    "responsible_agency": "Department of Sanitation",
    "final_address": "4957 Pentland Dr",
    "address_councildis": "E",
    "status": "Assigned to Contractor",
    "contractor": "Waste Pro",
    "rowid": "1260558",
    "final_x": "3718733.56044",
    "final_y": "558333.340828",
    "longitude": "-89.94947907835831",
    "latitude": "30.02803899599615",
    "geocoded_column": {
      "latitude": "30.02803899599615",
      "longitude": "-89.94947907835831"
    }
  },
  {
    "service_request": "2026-1260557",
    "request_type": "Trash/Recycling",
    "request_reason": "Request a Large Item Pick Up",
    "date_created": "2026-02-24T16:31:20.000",
    "date_modified": "2026-02-24T16:31:21.000",
    "request_status": "Pending",
    "responsible_agency": "Department of Sanitation",
    "final_address": "2264 Mercedes Blvd",
    "address_councildis": "C",
    "status": "Assigned to Contractor",
    "contractor": "Richards Disposal",
    "rowid": "1260557",
    "final_x": "3698135.91299",
    "final_y": "522521.721146",
    "longitude": "-90.0158670938991",
    "latitude": "29.9302379603448",
    "geocoded_column": {
      "latitude": "29.9302379603448",
      "longitude": "-90.0158670938991"
    }
  },
  {
    "service_request": "2026-1260556",
    "request_type": "Trash/Recycling",
    "request_reason": "Request a Large Item Pick Up",
    "date_created": "2026-02-24T16:29:34.000",
    "date_modified": "2026-02-24T16:29:36.000",
    "request_status": "Pending",
    "responsible_agency": "Department of Sanitation",
    "final_address": "4127 Orleans Ave",
    "address_councildis": "A",
    "status": "Assigned to Contractor",
    "contractor": "IV Waste",
    "rowid": "1260556",
    "final_x": "3672476.12916",
    "final_y": "540436.942859",
    "longitude": "-90.09626052968329",
    "latitude": "29.980285176381592",
    "geocoded_column": {
      "latitude": "29.980285176381592",
      "longitude": "-90.09626052968329"
    }
  },
  {
    "service_request": "2026-1260555",
    "request_type": "Trash/Recycling",
    "request_reason": "Request a Large Item Pick Up",
    "date_created": "2026-02-24T16:26:44.000",
    "date_modified": "2026-02-24T16:26:46.000",
    "request_status": "Pending",
    "responsible_agency": "Department of Sanitation",
    "final_address": "2818 Second St",
    "address_councildis": "B",
    "status": "Assigned to Contractor",
    "contractor": "IV Waste",
    "rowid": "1260555",
    "final_x": "3674226.31105",
    "final_y": "526706.512894",
    "longitude": "-90.09120281217933",
    "latitude": "29.94247902692",
    "geocoded_column": {
      "latitude": "29.94247902692",
      "longitude": "-90.09120281217933"
    }
  },
  {
    "service_request": "2026-1260554",
    "request_type": "Trash/Recycling",
    "request_reason": "Order Recycling Cart",
    "date_created": "2026-02-24T16:25:27.000",
    "date_modified": "2026-02-24T16:25:29.000",
    "request_status": "Pending",
    "responsible_agency": "Department of Sanitation",
    "final_address": "5942 Orleans Ave",
    "address_councildis": "A",
    "status": "Pending",
    "rowid": "1260554",
    "final_x": "3670808.48852",
    "final_y": "546764.118865",
    "longitude": "-90.10131279042112",
    "latitude": "29.997732136395804",
    "geocoded_column": {
      "latitude": "29.997732136395804",
      "longitude": "-90.10131279042112"
    }
  },
  {
    "service_request": "2026-1260553",
    "request_type": "Trash/Recycling",
    "request_reason": "Repair Trash Cart",
    "date_created": "2026-02-24T16:23:29.000",
    "date_modified": "2026-02-24T16:23:31.000",
    "request_status": "Pending",
    "responsible_agency": "Department of Sanitation",
    "final_address": "6710 Lamb Rd",
    "address_councildis": "D",
    "status": "Assigned to Contractor",
    "contractor": "Waste Pro",
    "rowid": "1260553",
    "final_x": "3697882.97264",
    "final_y": "556281.182426",
    "longitude": "-90.0154398271148",
    "latitude": "30.0230722631437",
    "geocoded_column": {
      "latitude": "30.0230722631437",
      "longitude": "-90.0154398271148"
    }
  },
  {
    "service_request": "2026-1260552",
    "request_type": "Trash/Recycling",
    "request_reason": "Order Trash Cart",
    "date_created": "2026-02-24T16:20:25.000",
    "date_modified": "2026-02-24T16:20:27.000",
    "request_status": "Pending",
    "responsible_agency": "Department of Sanitation",
    "final_address": "2634 Myrtle St",
    "address_councildis": "D",
    "status": "Assigned to Contractor",
    "contractor": "IV Waste",
    "rowid": "1260552",
    "final_x": "3687479.14396",
    "final_y": "546043.739216",
    "longitude": "-90.04867622015563",
    "latitude": "29.995247958828195",
    "geocoded_column": {
      "latitude": "29.995247958828195",
      "longitude": "-90.04867622015563"
    }
  },
  {
    "service_request": "2026-1260551",
    "request_type": "Trash/Recycling",
    "request_reason": "Order Trash Cart",
    "date_created": "2026-02-24T16:18:55.000",
    "date_modified": "2026-02-24T16:18:56.000",
    "request_status": "Pending",
    "responsible_agency": "Department of Sanitation",
    "final_address": "2632 Myrtle St",
    "address_councildis": "D",
    "status": "Assigned to Contractor",
    "contractor": "IV Waste",
    "rowid": "1260551",
    "final_x": "3687466.88911",
    "final_y": "546042.36264",
    "longitude": "-90.04871498063275",
    "latitude": "29.995244551521644",
    "geocoded_column": {
      "latitude": "29.995244551521644",
      "longitude": "-90.04871498063275"
    }
  },
  {
    "service_request": "2026-1260550",
    "request_type": "Trash/Recycling",
    "request_reason": "Request a Large Item Pick Up",
    "date_created": "2026-02-24T16:16:50.000",
    "date_modified": "2026-02-24T16:16:53.000",
    "request_status": "Pending",
    "responsible_agency": "Department of Sanitation",
    "final_address": "6250 Eastover Dr",
    "address_councildis": "E",
    "status": "Assigned to Contractor",
    "contractor": "Waste Pro",
    "rowid": "1260550",
    "final_x": "3717356.36709",
    "final_y": "564382.706977",
    "longitude": "-89.95360069510028",
    "latitude": "30.044717969004484",
    "geocoded_column": {
      "latitude": "30.044717969004484",
      "longitude": "-89.95360069510028"
    }
  },
  {
    "service_request": "2026-1260549",
    "request_type": "Trash/Recycling",
    "request_reason": "Repair Trash Cart",
    "date_created": "2026-02-24T16:15:33.000",
    "date_modified": "2026-02-24T16:15:34.000",
    "request_status": "Pending",
    "responsible_agency": "Department of Sanitation",
    "final_address": "4027 Eagle St",
    "address_councildis": "A",
    "status": "Assigned to Contractor",
    "contractor": "IV Waste",
    "rowid": "1260549",
    "final_x": "3667029.08097",
    "final_y": "537474.732552",
    "longitude": "-90.11356427826578",
    "latitude": "29.9723006673176",
    "geocoded_column": {
      "latitude": "29.9723006673176",
      "longitude": "-90.11356427826578"
    }
  },
  {
    "service_request": "2026-1260548",
    "request_type": "Trash/Recycling",
    "request_reason": "Repair Trash Cart",
    "date_created": "2026-02-24T16:15:11.000",
    "date_modified": "2026-02-24T16:15:12.000",
    "request_status": "Pending",
    "responsible_agency": "Department of Sanitation",
    "final_address": "8625 Pear St",
    "address_councildis": "A",
    "status": "Assigned to Contractor",
    "contractor": "IV Waste",
    "rowid": "1260548",
    "final_x": "3667694.36173",
    "final_y": "537615.337224",
    "longitude": "-90.1114584649673",
    "latitude": "29.97266779318173",
    "geocoded_column": {
      "latitude": "29.97266779318173",
      "longitude": "-90.1114584649673"
    }
  },
  {
    "service_request": "2026-1260547",
    "request_type": "Trash/Recycling",
    "request_reason": "Repair Trash Cart",
    "date_created": "2026-02-24T16:13:26.000",
    "date_modified": "2026-02-24T16:13:54.000",
    "request_status": "Pending",
    "responsible_agency": "Department of Sanitation",
    "final_address": "1516 Soniat St",
    "address_councildis": "B",
    "status": "Assigned to Contractor",
    "contractor": "IV Waste",
    "rowid": "1260547",
    "final_x": "3668314.3753",
    "final_y": "520566.220216",
    "longitude": "-90.11007516436523",
    "latitude": "29.925770083884853",
    "geocoded_column": {
      "latitude": "29.925770083884853",
      "longitude": "-90.11007516436523"
    }
  },
  {
    "service_request": "2026-1260546",
    "request_type": "Trash/Recycling",
    "request_reason": "Repair Trash Cart",
    "date_created": "2026-02-24T16:11:45.000",
    "date_modified": "2026-02-24T16:11:47.000",
    "request_status": "Pending",
    "responsible_agency": "Department of Sanitation",
    "final_address": "4 Swan St",
    "address_councildis": "D",
    "status": "Assigned to Contractor",
    "contractor": "IV Waste",
    "rowid": "1260546",
    "final_x": "3672507.95406",
    "final_y": "557718.830043",
    "longitude": "-90.09557038878222",
    "latitude": "30.02780335003437",
    "geocoded_column": {
      "latitude": "30.02780335003437",
      "longitude": "-90.09557038878222"
    }
  },
  {
    "service_request": "2026-1260545",
    "request_type": "Safety & Permits",
    "request_reason": "Licenses & Permits",
    "date_created": "2026-02-24T16:10:34.000",
    "date_modified": "2026-02-24T16:14:44.000",
    "request_status": "Pending",
    "responsible_agency": "Safety and Permits",
    "final_address": "1432 Touro St",
    "address_councildis": "C",
    "status": "Pending",
    "rowid": "1260545",
    "final_x": "3684097.95157",
    "final_y": "537611.196104",
    "longitude": "-90.05965314158549",
    "latitude": "29.972165238059002",
    "geocoded_column": {
      "latitude": "29.972165238059002",
      "longitude": "-90.05965314158549"
    }
  },
  {
    "service_request": "2026-1260544",
    "request_type": "Health Related Request",
    "request_reason": "Homeless Encampment Complaint",
    "date_created": "2026-02-24T16:06:34.000",
    "date_modified": "2026-02-24T16:06:35.000",
    "request_status": "Pending",
    "responsible_agency": "Office Of Homeless Services And Strategy",
    "final_address": "2000 BLK Poydras St",
    "address_councildis": "B",
    "status": "Pending",
    "rowid": "1260544",
    "final_x": "3675765.73242",
    "final_y": "531399.436989",
    "longitude": "-90.08618123604627",
    "latitude": "29.955337035171556",
    "geocoded_column": {
      "latitude": "29.955337035171556",
      "longitude": "-90.08618123604627"
    }
  },
  {
    "service_request": "2026-1260543",
    "request_type": "Roads and Streets",
    "request_reason": "Pothole",
    "date_created": "2026-02-24T16:06:25.000",
    "date_modified": "2026-02-24T16:06:27.000",
    "request_status": "Pending",
    "responsible_agency": "Department of Public Works",
    "final_address": "DUMAINE ST & N DORGENOIS ST",
    "address_councildis": "D",
    "status": "Pending",
    "rowid": "1260543",
    "final_x": "3677595.3",
    "final_y": "537185.48",
    "longitude": "-90.08020431783564",
    "latitude": "29.97119181120918",
    "geocoded_column": {
      "latitude": "29.97119181120918",
      "longitude": "-90.08020431783564"
    }
  },
  {
    "service_request": "2026-1260542",
    "request_type": "Parks & Parkways",
    "request_reason": "Request Tree Service (Right of Way/Public Property)",
    "date_created": "2026-02-24T16:02:23.000",
    "date_modified": "2026-02-24T16:03:16.000",
    "request_status": "Pending",
    "responsible_agency": "Department of Parks & Parkway",
    "final_address": "2117 Danneel St",
    "address_councildis": "B",
    "status": "Pending",
    "rowid": "1260542",
    "final_x": "3676792.59368",
    "final_y": "525127.520125",
    "longitude": "-90.08315485849741",
    "latitude": "29.93806057336645",
    "geocoded_column": {
      "latitude": "29.93806057336645",
      "longitude": "-90.08315485849741"
    }
  },
  {
    "service_request": "2026-1260541",
    "request_type": "Trash/Recycling",
    "request_reason": "Repair Trash Cart",
    "date_created": "2026-02-24T16:02:21.000",
    "date_modified": "2026-02-24T16:02:24.000",
    "request_status": "Pending",
    "responsible_agency": "Department of Sanitation",
    "final_address": "511 Wallace Dr",
    "address_councildis": "D",
    "status": "Assigned to Contractor",
    "contractor": "IV Waste",
    "rowid": "1260541",
    "final_x": "3681540.98844",
    "final_y": "548783.993939",
    "longitude": "-90.06733859678941",
    "latitude": "30.002964404584514",
    "geocoded_column": {
      "latitude": "30.002964404584514",
      "longitude": "-90.06733859678941"
    }
  },
  {
    "service_request": "2026-1260540",
    "request_type": "Roads and Streets",
    "request_reason": "Pothole",
    "date_created": "2026-02-24T15:58:36.000",
    "date_modified": "2026-02-24T15:58:39.000",
    "request_status": "Pending",
    "responsible_agency": "Department of Public Works",
    "final_address": "3921 N Tonti St",
    "address_councildis": "D",
    "status": "Pending",
    "rowid": "1260540",
    "final_x": "3692789.28694",
    "final_y": "539947.951498",
    "longitude": "-90.03212075862359",
    "latitude": "29.978321975838508",
    "geocoded_column": {
      "latitude": "29.978321975838508",
      "longitude": "-90.03212075862359"
    }
  },
  {
    "service_request": "2026-1260539",
    "request_type": "Taxi Issues",
    "request_reason": "Taxi Lost & Found Item",
    "date_created": "2026-02-24T15:56:51.000",
    "date_modified": "2026-02-24T15:56:54.000",
    "request_status": "Pending",
    "responsible_agency": "Department of Public Works",
    "final_address": "1380 Port Of New Orleans Pl",
    "address_councildis": "B",
    "status": "Pending",
    "rowid": "1260539",
    "final_x": "3683646.7686",
    "final_y": "524090.247676",
    "longitude": "-90.06155199877962",
    "latitude": "29.93500101211487",
    "geocoded_column": {
      "latitude": "29.93500101211487",
      "longitude": "-90.06155199877962"
    }
  },
  {
    "service_request": "2026-1260538",
    "request_type": "Trash/Recycling",
    "request_reason": "Repair Recycling Cart",
    "date_created": "2026-02-24T15:48:16.000",
    "date_modified": "2026-02-24T15:48:18.000",
    "request_status": "Pending",
    "responsible_agency": "Department of Sanitation",
    "final_address": "412 S Genois St",
    "address_councildis": "B",
    "status": "Pending",
    "rowid": "1260538",
    "final_x": "3671763.0347",
    "final_y": "536036.838087",
    "longitude": "-90.0986625376729",
    "latitude": "29.96820752667173",
    "geocoded_column": {
      "latitude": "29.96820752667173",
      "longitude": "-90.0986625376729"
    }
  },
  {
    "service_request": "2026-1260537",
    "request_type": "Roads and Streets",
    "request_reason": "Pothole",
    "date_created": "2026-02-24T15:43:14.000",
    "date_modified": "2026-02-24T15:43:16.000",
    "request_status": "Pending",
    "responsible_agency": "Department of Public Works",
    "final_address": "10317 Willow Dr",
    "address_councildis": "C",
    "status": "Pending",
    "rowid": "1260537",
    "final_x": "3722314.98086",
    "final_y": "517240.380021",
    "longitude": "-89.93974143589126",
    "latitude": "29.914929619592506",
    "geocoded_column": {
      "latitude": "29.914929619592506",
      "longitude": "-89.93974143589126"
    }
  },
  {
    "service_request": "2026-1260536",
    "request_type": "Trash/Recycling",
    "request_reason": "Request a Large Item Pick Up",
    "date_created": "2026-02-24T15:43:00.000",
    "date_modified": "2026-02-24T15:43:01.000",
    "request_status": "Pending",
    "responsible_agency": "Department of Sanitation",
    "final_address": "11259 Midpoint Dr",
    "address_councildis": "E",
    "status": "Assigned to Contractor",
    "contractor": "Waste Pro",
    "rowid": "1260536",
    "final_x": "3718020.9413",
    "final_y": "559373.829213",
    "longitude": "-89.95169123739944",
    "latitude": "30.030923566250944",
    "geocoded_column": {
      "latitude": "30.030923566250944",
      "longitude": "-89.95169123739944"
    }
  },
  {
    "service_request": "2026-1260535",
    "request_type": "Trash/Recycling",
    "request_reason": "Order Recycling Cart",
    "date_created": "2026-02-24T15:41:04.000",
    "date_modified": "2026-02-24T15:41:06.000",
    "request_status": "Pending",
    "responsible_agency": "Department of Sanitation",
    "final_address": "1209 Sumner St",
    "address_councildis": "C",
    "status": "Pending",
    "rowid": "1260535",
    "final_x": "3691027.62915",
    "final_y": "526934.102846",
    "longitude": "-90.03814928723891",
    "latitude": "29.942593325447756",
    "geocoded_column": {
      "latitude": "29.942593325447756",
      "longitude": "-90.03814928723891"
    }
  },
  {
    "service_request": "2026-1260534",
    "request_type": "Trash/Recycling",
    "request_reason": "Replace Trash Cart",
    "date_created": "2026-02-24T15:32:09.000",
    "date_modified": "2026-02-24T15:32:12.000",
    "request_status": "Pending",
    "responsible_agency": "Department of Sanitation",
    "final_address": "901 Sixth St",
    "address_councildis": "B",
    "status": "Assigned to Contractor",
    "contractor": "IV Waste",
    "rowid": "1260534",
    "final_x": "3677052.54312",
    "final_y": "519976.010168",
    "longitude": "-90.08251171312416",
    "latitude": "29.923887800458083",
    "geocoded_column": {
      "latitude": "29.923887800458083",
      "longitude": "-90.08251171312416"
    }
  },
  {
    "service_request": "2026-1260533",
    "request_type": "Trash/Recycling",
    "request_reason": "Request a Large Item Pick Up",
    "date_created": "2026-02-24T15:18:47.000",
    "date_modified": "2026-02-24T15:18:49.000",
    "request_status": "Pending",
    "responsible_agency": "Department of Sanitation",
    "final_address": "2504 St Thomas St",
    "address_councildis": "B",
    "status": "Assigned to Contractor",
    "contractor": "IV Waste",
    "rowid": "1260533",
    "final_x": "3678798.3341",
    "final_y": "519745.726456",
    "longitude": "-90.07700884874653",
    "latitude": "29.923202078027707",
    "geocoded_column": {
      "latitude": "29.923202078027707",
      "longitude": "-90.07700884874653"
    }
  },
  {
    "service_request": "2026-1260532",
    "request_type": "Trash/Recycling",
    "request_reason": "Request a Large Item Pick Up",
    "date_created": "2026-02-24T15:12:22.000",
    "date_modified": "2026-02-24T15:12:23.000",
    "request_status": "Pending",
    "responsible_agency": "Department of Sanitation",
    "final_address": "144 Morrison Ct",
    "address_councildis": "E",
    "status": "Assigned to Contractor",
    "contractor": "Waste Pro",
    "rowid": "1260532",
    "final_x": "3703829.94404",
    "final_y": "561651.522719",
    "longitude": "-89.99645087087558",
    "latitude": "30.03764919444908",
    "geocoded_column": {
      "latitude": "30.03764919444908",
      "longitude": "-89.99645087087558"
    }
  },
  {
    "service_request": "2026-1260531",
    "request_type": "Trash/Recycling",
    "request_reason": "Request a Large Item Pick Up",
    "date_created": "2026-02-24T15:11:44.000",
    "date_modified": "2026-02-24T15:11:46.000",
    "request_status": "Pending",
    "responsible_agency": "Department of Sanitation",
    "final_address": "8621 Palm St",
    "address_councildis": "A",
    "status": "Assigned to Contractor",
    "contractor": "IV Waste",
    "rowid": "1260531",
    "final_x": "3666292.97434",
    "final_y": "536060.753671",
    "longitude": "-90.11593648300584",
    "latitude": "29.968434221178466",
    "geocoded_column": {
      "latitude": "29.968434221178466",
      "longitude": "-90.11593648300584"
    }
  },
  {
    "service_request": "2026-1260530",
    "request_type": "Trash/Recycling",
    "request_reason": "Request a Large Item Pick Up",
    "date_created": "2026-02-24T15:10:45.000",
    "date_modified": "2026-02-24T15:27:24.000",
    "request_status": "Pending",
    "responsible_agency": "Department of Sanitation",
    "final_address": "5800 Magazine St Apt 2B",
    "address_councildis": "A",
    "status": "Assigned to Contractor",
    "contractor": "IV Waste",
    "rowid": "1260530",
    "final_x": "3665432.6528",
    "final_y": "518979.188727",
    "longitude": "-90.1192250166634",
    "latitude": "29.921490523029593",
    "geocoded_column": {
      "latitude": "29.921490523029593",
      "longitude": "-90.1192250166634"
    }
  },
  {
    "service_request": "2026-1260529",
    "request_type": "Trash/Recycling",
    "request_reason": "Return Trash Cart",
    "date_created": "2026-02-24T15:09:28.000",
    "date_modified": "2026-02-24T15:09:30.000",
    "request_status": "Pending",
    "responsible_agency": "Department of Sanitation",
    "final_address": "1104 Dauphine St",
    "address_councildis": "C",
    "status": "Assigned to Contractor",
    "contractor": "IV Waste",
    "rowid": "1260529",
    "final_x": "3682901.87932",
    "final_y": "534076.817797",
    "longitude": "-90.06355422878521",
    "latitude": "29.962483419481018",
    "geocoded_column": {
      "latitude": "29.962483419481018",
      "longitude": "-90.06355422878521"
    }
  },
  {
    "service_request": "2026-1260528",
    "request_type": "Safety & Permits",
    "request_reason": "Licenses & Permits",
    "date_created": "2026-02-24T15:06:09.000",
    "date_modified": "2026-02-24T15:24:36.000",
    "case_close_date": "2026-02-24T09:24:35.000",
    "request_status": "Closed",
    "responsible_agency": "Safety and Permits",
    "final_address": "4511 Knight Dr",
    "address_councildis": "E",
    "status": "Resolved",
    "rowid": "1260528",
    "final_x": "3708346.486",
    "final_y": "554159.302232",
    "longitude": "-89.98245677715242",
    "latitude": "30.016902858339122",
    "geocoded_column": {
      "latitude": "30.016902858339122",
      "longitude": "-89.98245677715242"
    }
  },
  {
    "service_request": "2026-1260527",
    "request_type": "Trash/Recycling",
    "request_reason": "Illegal Dumping",
    "date_created": "2026-02-24T15:01:19.000",
    "date_modified": "2026-02-24T15:01:21.000",
    "request_status": "Pending",
    "responsible_agency": "Department of Sanitation",
    "final_address": "2600 BLK Reynes St",
    "address_councildis": "E",
    "status": "Pending",
    "rowid": "1260527",
    "final_x": "3697599.49387",
    "final_y": "540072.813015",
    "longitude": "-90.01692393821696",
    "latitude": "29.978514224658905",
    "geocoded_column": {
      "latitude": "29.978514224658905",
      "longitude": "-90.01692393821696"
    }
  },
  {
    "service_request": "2026-1260526",
    "request_type": "Trash/Recycling",
    "request_reason": "Order Trash Cart",
    "date_created": "2026-02-24T15:00:33.000",
    "date_modified": "2026-02-24T15:00:36.000",
    "request_status": "Pending",
    "responsible_agency": "Department of Sanitation",
    "final_address": "3034 Toledano St",
    "address_councildis": "B",
    "status": "Assigned to Contractor",
    "contractor": "IV Waste",
    "rowid": "1260526",
    "final_x": "3672270.0747",
    "final_y": "527008.336254",
    "longitude": "-90.09736883061737",
    "latitude": "29.943367107828642",
    "geocoded_column": {
      "latitude": "29.943367107828642",
      "longitude": "-90.09736883061737"
    }
  },
  {
    "service_request": "2026-1260525",
    "request_type": "Property Maintenance",
    "request_reason": "Property Maintenance",
    "date_created": "2026-02-24T14:57:19.000",
    "date_modified": "2026-02-24T15:02:37.000",
    "request_status": "Pending",
    "responsible_agency": "Department of Code Enforcement",
    "final_address": "7100 BLK Yorktown Dr",
    "address_councildis": "E",
    "status": "Pending",
    "rowid": "1260525",
    "final_x": "3705877.61413",
    "final_y": "561148.938841",
    "longitude": "-89.98999841329874",
    "latitude": "30.03620143747086",
    "geocoded_column": {
      "latitude": "30.03620143747086",
      "longitude": "-89.98999841329874"
    }
  },
  {
    "service_request": "2026-1260524",
    "request_type": "Trash/Recycling",
    "request_reason": "Illegal Dumping",
    "date_created": "2026-02-24T14:57:00.000",
    "date_modified": "2026-02-24T14:57:01.000",
    "request_status": "Pending",
    "responsible_agency": "Department of Sanitation",
    "final_address": "2601 Forstall St",
    "address_councildis": "E",
    "status": "Pending",
    "rowid": "1260524",
    "final_x": "3697881.44605",
    "final_y": "539842.695818",
    "longitude": "-90.01604178994187",
    "latitude": "29.977872575900392",
    "geocoded_column": {
      "latitude": "29.977872575900392",
      "longitude": "-90.01604178994187"
    }
  },
  {
    "service_request": "2026-1260523",
    "request_type": "Trash/Recycling",
    "request_reason": "Repair Recycling Cart",
    "date_created": "2026-02-24T14:56:23.000",
    "date_modified": "2026-02-24T14:56:25.000",
    "request_status": "Pending",
    "responsible_agency": "Department of Sanitation",
    "final_address": "5515 Durham Dr",
    "address_councildis": "C",
    "status": "Pending",
    "rowid": "1260523",
    "final_x": "3704345.3683",
    "final_y": "518736.704503",
    "longitude": "-89.9964043977103",
    "latitude": "29.919632706108462",
    "geocoded_column": {
      "latitude": "29.919632706108462",
      "longitude": "-89.9964043977103"
    }
  },
  {
    "service_request": "2026-1260522",
    "request_type": "Trash/Recycling",
    "request_reason": "Order Trash Cart",
    "date_created": "2026-02-24T14:56:19.000",
    "date_modified": "2026-02-24T14:56:20.000",
    "request_status": "Pending",
    "responsible_agency": "Department of Sanitation",
    "final_address": "3032 Toledano St",
    "address_councildis": "B",
    "status": "Assigned to Contractor",
    "contractor": "IV Waste",
    "rowid": "1260522",
    "final_x": "3672275.28302",
    "final_y": "526997.91955",
    "longitude": "-90.09735274133718",
    "latitude": "29.943338310820803",
    "geocoded_column": {
      "latitude": "29.943338310820803",
      "longitude": "-90.09735274133718"
    }
  },
  {
    "service_request": "2026-1260521",
    "request_type": "Trash/Recycling",
    "request_reason": "Illegal Dumping",
    "date_created": "2026-02-24T14:55:08.000",
    "date_modified": "2026-02-24T14:55:10.000",
    "request_status": "Pending",
    "responsible_agency": "Department of Sanitation",
    "final_address": "2640 Tupelo St",
    "address_councildis": "E",
    "status": "Pending",
    "rowid": "1260521",
    "final_x": "3701679.32119",
    "final_y": "539030.927114",
    "longitude": "-90.00407660448947",
    "latitude": "29.975519907712073",
    "geocoded_column": {
      "latitude": "29.975519907712073",
      "longitude": "-90.00407660448947"
    }
  },
  {
    "service_request": "2026-1260520",
    "request_type": "Roads and Streets",
    "request_reason": "Pothole",
    "date_created": "2026-02-24T14:51:31.000",
    "date_modified": "2026-02-24T14:51:33.000",
    "request_status": "Pending",
    "responsible_agency": "Department of Public Works",
    "final_address": "1400 BLK S Galvez St",
    "address_councildis": "B",
    "status": "Pending",
    "rowid": "1260520",
    "final_x": "3673644.55326",
    "final_y": "529240.575165",
    "longitude": "-90.09295295002862",
    "latitude": "29.949464192386092",
    "geocoded_column": {
      "latitude": "29.949464192386092",
      "longitude": "-90.09295295002862"
    }
  },
  {
    "service_request": "2026-1260519",
    "request_type": "Trash/Recycling",
    "request_reason": "Illegal Dumping",
    "date_created": "2026-02-24T14:49:30.000",
    "date_modified": "2026-02-24T14:49:32.000",
    "request_status": "Pending",
    "responsible_agency": "Department of Sanitation",
    "final_address": "9630 Lincoln Beach Blvd",
    "address_councildis": "E",
    "status": "Pending",
    "rowid": "1260519",
    "final_x": "3706682.38423",
    "final_y": "564793.307042",
    "longitude": "-89.98731991601589",
    "latitude": "30.046196037343538",
    "geocoded_column": {
      "latitude": "30.046196037343538",
      "longitude": "-89.98731991601589"
    }
  },
  {
    "service_request": "2026-1260518",
    "request_type": "Streetlights",
    "request_reason": "Streetlight Outage/Malfunction",
    "date_created": "2026-02-24T14:47:38.000",
    "date_modified": "2026-02-24T14:47:40.000",
    "request_status": "Pending",
    "responsible_agency": "Department of Public Works",
    "final_address": "3534 Pittari Pl",
    "address_councildis": "C",
    "status": "Pending",
    "rowid": "1260518",
    "final_x": "3709646.18033",
    "final_y": "517623.879094",
    "longitude": "-89.97971401062387",
    "latitude": "29.916401699322744",
    "geocoded_column": {
      "latitude": "29.916401699322744",
      "longitude": "-89.97971401062387"
    }
  },
  {
    "service_request": "2026-1260517",
    "request_type": "Trash/Recycling",
    "request_reason": "Illegal Dumping",
    "date_created": "2026-02-24T14:47:02.000",
    "date_modified": "2026-02-24T14:47:05.000",
    "request_status": "Pending",
    "responsible_agency": "Department of Sanitation",
    "final_address": "6900 BLK Wright Rd",
    "address_councildis": "E",
    "status": "Pending",
    "rowid": "1260517",
    "final_x": "3712543.18643",
    "final_y": "563486.637906",
    "longitude": "-89.96884615043675",
    "latitude": "30.042412620206466",
    "geocoded_column": {
      "latitude": "30.042412620206466",
      "longitude": "-89.96884615043675"
    }
  },
  {
    "service_request": "2026-1260516",
    "request_type": "Trash/Recycling",
    "request_reason": "Illegal Dumping",
    "date_created": "2026-02-24T14:43:50.000",
    "date_modified": "2026-02-24T14:43:51.000",
    "request_status": "Pending",
    "responsible_agency": "Department of Sanitation",
    "final_address": "10301 N Interstate 10 Service Rd",
    "address_councildis": "E",
    "status": "Pending",
    "rowid": "1260516",
    "final_x": "3711275.36338",
    "final_y": "562409.159263",
    "longitude": "-89.97289335832765",
    "latitude": "30.039491437081555",
    "geocoded_column": {
      "latitude": "30.039491437081555",
      "longitude": "-89.97289335832765"
    }
  },
  {
    "service_request": "2026-1260515",
    "request_type": "Abandoned Vehicles",
    "request_reason": "Abandoned/Junk Vehicles",
    "date_created": "2026-02-24T14:41:58.000",
    "date_modified": "2026-02-24T14:42:00.000",
    "request_status": "Pending",
    "responsible_agency": "Department of Public Works",
    "final_address": "6439 Music St",
    "address_councildis": "D",
    "status": "Pending",
    "rowid": "1260515",
    "final_x": "3685264.5798",
    "final_y": "556963.416346",
    "longitude": "-90.05528704950424",
    "latitude": "30.02534117386346",
    "geocoded_column": {
      "latitude": "30.02534117386346",
      "longitude": "-90.05528704950424"
    }
  },
  {
    "service_request": "2026-1260514",
    "request_type": "Trash/Recycling",
    "request_reason": "Illegal Dumping",
    "date_created": "2026-02-24T14:41:40.000",
    "date_modified": "2026-02-24T14:41:43.000",
    "request_status": "Pending",
    "responsible_agency": "Department of Sanitation",
    "final_address": "1000 BLK Interstate 10",
    "address_councildis": "E",
    "status": "Pending",
    "rowid": "1260514",
    "final_x": "3707568.05333",
    "final_y": "560250.494116",
    "longitude": "-89.98468976004716",
    "latitude": "30.033676468787675",
    "geocoded_column": {
      "latitude": "30.033676468787675",
      "longitude": "-89.98468976004716"
    }
  },
  {
    "service_request": "2026-1260513",
    "request_type": "Trash/Recycling",
    "request_reason": "Repair Trash Cart",
    "date_created": "2026-02-24T14:24:24.000",
    "date_modified": "2026-02-24T14:24:26.000",
    "request_status": "Pending",
    "responsible_agency": "Department of Sanitation",
    "final_address": "452 Audubon St",
    "address_councildis": "A",
    "status": "Assigned to Contractor",
    "contractor": "IV Waste",
    "rowid": "1260513",
    "final_x": "3662338.72384",
    "final_y": "523324.595579",
    "longitude": "-90.12884706489479",
    "latitude": "29.93352881061698",
    "geocoded_column": {
      "latitude": "29.93352881061698",
      "longitude": "-90.12884706489479"
    }
  },
  {
    "service_request": "2026-1260512",
    "request_type": "Trash/Recycling",
    "request_reason": "Request a Large Item Pick Up",
    "date_created": "2026-02-24T14:22:36.000",
    "date_modified": "2026-02-24T14:23:22.000",
    "request_status": "Pending",
    "responsible_agency": "Department of Sanitation",
    "final_address": "9114 Dixon St",
    "address_councildis": "A",
    "status": "Assigned to Contractor",
    "contractor": "IV Waste",
    "rowid": "1260512",
    "final_x": "3665700.1634",
    "final_y": "537903.008713",
    "longitude": "-90.11774689600438",
    "latitude": "29.97351711554177",
    "geocoded_column": {
      "latitude": "29.97351711554177",
      "longitude": "-90.11774689600438"
    }
  },
  {
    "service_request": "2026-1260511",
    "request_type": "Trash/Recycling",
    "request_reason": "Replace Recycling Cart",
    "date_created": "2026-02-24T14:20:45.000",
    "date_modified": "2026-02-24T14:20:48.000",
    "request_status": "Pending",
    "responsible_agency": "Department of Sanitation",
    "final_address": "1760 N Tonti St",
    "address_councildis": "D",
    "status": "Pending",
    "rowid": "1260511",
    "final_x": "3681091.20943",
    "final_y": "540406.432011",
    "longitude": "-90.06905152796952",
    "latitude": "29.979942723778375",
    "geocoded_column": {
      "latitude": "29.979942723778375",
      "longitude": "-90.06905152796952"
    }
  },
  {
    "service_request": "2026-1260510",
    "request_type": "Trash/Recycling",
    "request_reason": "Request a Large Item Pick Up",
    "date_created": "2026-02-24T14:19:46.000",
    "date_modified": "2026-02-24T14:19:48.000",
    "request_status": "Pending",
    "responsible_agency": "Department of Sanitation",
    "final_address": "10942 N Hardy St",
    "address_councildis": "E",
    "status": "Assigned to Contractor",
    "contractor": "Waste Pro",
    "rowid": "1260510",
    "final_x": "3712785.50149",
    "final_y": "562108.938143",
    "longitude": "-89.96813222387688",
    "latitude": "30.038616563297136",
    "geocoded_column": {
      "latitude": "30.038616563297136",
      "longitude": "-89.96813222387688"
    }
  },
  {
    "service_request": "2026-1260509",
    "request_type": "Trash/Recycling",
    "request_reason": "Repair Recycling Cart",
    "date_created": "2026-02-24T14:19:00.000",
    "date_modified": "2026-02-24T14:19:02.000",
    "request_status": "Pending",
    "responsible_agency": "Department of Sanitation",
    "final_address": "4516 Chantilly Dr",
    "address_councildis": "E",
    "status": "Pending",
    "rowid": "1260509",
    "final_x": "3700914.16778",
    "final_y": "552986.853399",
    "longitude": "-90.00598256577835",
    "latitude": "30.013917905389018",
    "geocoded_column": {
      "latitude": "30.013917905389018",
      "longitude": "-90.00598256577835"
    }
  },
  {
    "service_request": "2026-1260508",
    "request_type": "Trash/Recycling",
    "request_reason": "Illegal Dumping",
    "date_created": "2026-02-24T14:16:29.000",
    "date_modified": "2026-02-24T14:16:31.000",
    "request_status": "Pending",
    "responsible_agency": "Department of Sanitation",
    "final_address": "2613 Columbus St",
    "address_councildis": "D",
    "status": "Pending",
    "rowid": "1260508",
    "final_x": "3678557.08264",
    "final_y": "539681.696714",
    "longitude": "-90.07708044596058",
    "latitude": "29.978026591250625",
    "geocoded_column": {
      "latitude": "29.978026591250625",
      "longitude": "-90.07708044596058"
    }
  },
  {
    "service_request": "2026-1260507",
    "request_type": "Trash/Recycling",
    "request_reason": "Return Trash Cart",
    "date_created": "2026-02-24T14:16:06.000",
    "date_modified": "2026-02-24T14:16:08.000",
    "request_status": "Pending",
    "responsible_agency": "Department of Sanitation",
    "final_address": "5601 Rhodes Ave",
    "address_councildis": "C",
    "status": "Assigned to Contractor",
    "contractor": "Richards Disposal",
    "rowid": "1260507",
    "final_x": "3704180.40593",
    "final_y": "519805.226424",
    "longitude": "-89.99688575989819",
    "latitude": "29.92257606311712",
    "geocoded_column": {
      "latitude": "29.92257606311712",
      "longitude": "-89.99688575989819"
    }
  },
  {
    "service_request": "2026-1260506",
    "request_type": "Trash/Recycling",
    "request_reason": "Request a Large Item Pick Up",
    "date_created": "2026-02-24T14:14:58.000",
    "date_modified": "2026-02-24T14:14:59.000",
    "request_status": "Pending",
    "responsible_agency": "Department of Sanitation",
    "final_address": "8929 Colapissa St",
    "address_councildis": "A",
    "status": "Assigned to Contractor",
    "contractor": "IV Waste",
    "rowid": "1260506",
    "final_x": "3664299.49325",
    "final_y": "535487.690566",
    "longitude": "-90.12225115062259",
    "latitude": "29.966916573070687",
    "geocoded_column": {
      "latitude": "29.966916573070687",
      "longitude": "-90.12225115062259"
    }
  },
  {
    "service_request": "2026-1260505",
    "request_type": "Property Maintenance",
    "request_reason": "Property Maintenance",
    "date_created": "2026-02-24T14:13:35.000",
    "date_modified": "2026-02-24T14:35:58.000",
    "case_close_date": "2026-02-24T08:35:57.000",
    "request_status": "Closed",
    "responsible_agency": "Department of Code Enforcement",
    "final_address": "2505 Athis St",
    "address_councildis": "D",
    "status": "Referred to Code Enforcement",
    "rowid": "1260505",
    "final_x": "3685819.59689",
    "final_y": "554438.13596",
    "longitude": "-90.05362239912705",
    "latitude": "30.018380553771816",
    "geocoded_column": {
      "latitude": "30.018380553771816",
      "longitude": "-90.05362239912705"
    }
  },
  {
    "service_request": "2026-1260504",
    "request_type": "Trash/Recycling",
    "request_reason": "Request a Large Item Pick Up",
    "date_created": "2026-02-24T14:09:28.000",
    "date_modified": "2026-02-24T14:09:30.000",
    "request_status": "Pending",
    "responsible_agency": "Department of Sanitation",
    "final_address": "1626 Tricou St",
    "address_councildis": "E",
    "status": "Assigned to Contractor",
    "contractor": "Waste Pro",
    "rowid": "1260504",
    "final_x": "3700887.35933",
    "final_y": "535044.464326",
    "longitude": "-90.00672358567464",
    "latitude": "29.96458381381023",
    "geocoded_column": {
      "latitude": "29.96458381381023",
      "longitude": "-90.00672358567464"
    }
  },
  {
    "service_request": "2026-1260503",
    "request_type": "General Services",
    "request_reason": "General Service Request",
    "date_created": "2026-02-24T14:08:32.000",
    "date_modified": "2026-02-24T14:22:30.000",
    "case_close_date": "2026-02-24T08:22:29.000",
    "request_status": "Closed",
    "responsible_agency": "Orleans Parish Communication District",
    "final_address": "New Orleans, Louisiana",
    "address_councildis": "E",
    "status": "Additional information requested from citizen",
    "rowid": "1260503",
    "final_x": "3725131.4083",
    "final_y": "564393.680055",
    "longitude": "-89.92902788187175",
    "latitude": "30.04448842646984",
    "geocoded_column": {
      "latitude": "30.04448842646984",
      "longitude": "-89.92902788187175"
    }
  },
  {
    "service_request": "2026-1260502",
    "request_type": "Abandoned Vehicles",
    "request_reason": "Abandoned/Junk Vehicles",
    "date_created": "2026-02-24T14:08:29.000",
    "date_modified": "2026-02-24T14:08:32.000",
    "request_status": "Pending",
    "responsible_agency": "Department of Public Works",
    "final_address": "1824 Felicity St",
    "address_councildis": "B",
    "status": "Pending",
    "rowid": "1260502",
    "final_x": "3677655.14728",
    "final_y": "525241.925693",
    "longitude": "-90.08042774994463",
    "latitude": "29.938349245778337",
    "geocoded_column": {
      "latitude": "29.938349245778337",
      "longitude": "-90.08042774994463"
    }
  },
  {
    "service_request": "2026-1260501",
    "request_type": "Trash/Recycling",
    "request_reason": "Request a Large Item Pick Up",
    "date_created": "2026-02-24T14:03:55.000",
    "date_modified": "2026-02-24T14:03:56.000",
    "request_status": "Pending",
    "responsible_agency": "Department of Sanitation",
    "final_address": "1228 N Dorgenois St",
    "address_councildis": "D",
    "status": "Assigned to Contractor",
    "contractor": "IV Waste",
    "rowid": "1260501",
    "final_x": "3678433.30325",
    "final_y": "538251.124169",
    "longitude": "-90.07752090398269",
    "latitude": "29.974096740589733",
    "geocoded_column": {
      "latitude": "29.974096740589733",
      "longitude": "-90.07752090398269"
    }
  },
  {
    "service_request": "2026-1260500",
    "request_type": "Streetlights",
    "request_reason": "Streetlight Outage/Malfunction",
    "date_created": "2026-02-24T14:02:56.000",
    "date_modified": "2026-02-24T14:02:58.000",
    "request_status": "Pending",
    "responsible_agency": "Department of Public Works",
    "final_address": "2131 Delachaise St",
    "address_councildis": "B",
    "status": "Pending",
    "rowid": "1260500",
    "final_x": "3673051.54516",
    "final_y": "523273.593659",
    "longitude": "-90.09502895426952",
    "latitude": "29.93307458062401",
    "geocoded_column": {
      "latitude": "29.93307458062401",
      "longitude": "-90.09502895426952"
    }
  },
  {
    "service_request": "2026-1260499",
    "request_type": "Trash/Recycling",
    "request_reason": "Request a Large Item Pick Up",
    "date_created": "2026-02-24T14:02:33.000",
    "date_modified": "2026-02-24T14:02:35.000",
    "request_status": "Pending",
    "responsible_agency": "Department of Sanitation",
    "final_address": "4751 Eastview Dr",
    "address_councildis": "E",
    "status": "Assigned to Contractor",
    "contractor": "Waste Pro",
    "rowid": "1260499",
    "final_x": "3705143.15255",
    "final_y": "555459.714713",
    "longitude": "-89.99252981792566",
    "latitude": "30.020581943226095",
    "geocoded_column": {
      "latitude": "30.020581943226095",
      "longitude": "-89.99252981792566"
    }
  },
  {
    "service_request": "2026-1260498",
    "request_type": "Abandoned Vehicles",
    "request_reason": "Abandoned/Junk Vehicles",
    "date_created": "2026-02-24T14:00:19.000",
    "date_modified": "2026-02-24T14:00:21.000",
    "request_status": "Pending",
    "responsible_agency": "Department of Public Works",
    "final_address": "2428 Ap Tureaud Ave",
    "address_councildis": "D",
    "status": "Pending",
    "rowid": "1260498",
    "final_x": "3681524.634",
    "final_y": "541101.4587",
    "longitude": "-90.0676583472881",
    "latitude": "29.98184064786151",
    "geocoded_column": {
      "latitude": "29.98184064786151",
      "longitude": "-90.0676583472881"
    }
  },
  {
    "service_request": "2026-1260497",
    "request_type": "General Services",
    "request_reason": "General Service Request",
    "date_created": "2026-02-24T13:57:30.000",
    "date_modified": "2026-02-24T14:20:37.000",
    "case_close_date": "2026-02-24T08:20:36.000",
    "request_status": "Closed",
    "responsible_agency": "Orleans Parish Communication District",
    "final_address": "Lowerline St, New Orleans, Louisiana, 70118 and Benjamin St, New Orleans, Louisiana, 70115",
    "address_councildis": "A",
    "status": "Referred to External Agency",
    "rowid": "1260497",
    "final_x": "3661889.1",
    "final_y": "524164.38",
    "longitude": "-90.13023867361595",
    "latitude": "29.935850941304633",
    "geocoded_column": {
      "latitude": "29.935850941304633",
      "longitude": "-90.13023867361595"
    }
  },
  {
    "service_request": "2026-1260496",
    "request_type": "Trash/Recycling",
    "request_reason": "Request a Large Item Pick Up",
    "date_created": "2026-02-24T13:57:15.000",
    "date_modified": "2026-02-24T13:57:17.000",
    "request_status": "Pending",
    "responsible_agency": "Department of Sanitation",
    "final_address": "4650 Bonita Dr",
    "address_councildis": "E",
    "status": "Assigned to Contractor",
    "contractor": "Waste Pro",
    "rowid": "1260496",
    "final_x": "3704480.65207",
    "final_y": "554727.502744",
    "longitude": "-89.99465013392593",
    "latitude": "30.018589941489612",
    "geocoded_column": {
      "latitude": "30.018589941489612",
      "longitude": "-89.99465013392593"
    }
  },
  {
    "service_request": "2026-1260495",
    "request_type": "Trash/Recycling",
    "request_reason": "Request a Large Item Pick Up",
    "date_created": "2026-02-24T13:53:53.000",
    "date_modified": "2026-02-24T13:53:56.000",
    "request_status": "Pending",
    "responsible_agency": "Department of Sanitation",
    "final_address": "11401 Campbell Ln",
    "address_councildis": "E",
    "status": "Assigned to Contractor",
    "contractor": "Waste Pro",
    "rowid": "1260495",
    "final_x": "3717778.47993",
    "final_y": "561276.701022",
    "longitude": "-89.95238494384124",
    "latitude": "30.036163732709124",
    "geocoded_column": {
      "latitude": "30.036163732709124",
      "longitude": "-89.95238494384124"
    }
  },
  {
    "service_request": "2026-1260494",
    "request_type": "Abandoned Vehicles",
    "request_reason": "Abandoned/Junk Vehicles",
    "date_created": "2026-02-24T13:52:22.000",
    "date_modified": "2026-02-24T13:52:24.000",
    "request_status": "Pending",
    "responsible_agency": "Department of Public Works",
    "final_address": "8626 Palmetto St",
    "address_councildis": "A",
    "status": "Pending",
    "rowid": "1260494",
    "final_x": "3666583.50849",
    "final_y": "536452.270279",
    "longitude": "-90.11500581189368",
    "latitude": "29.969502271052107",
    "geocoded_column": {
      "latitude": "29.969502271052107",
      "longitude": "-90.11500581189368"
    }
  },
  {
    "service_request": "2026-1260493",
    "request_type": "Abandoned Vehicles",
    "request_reason": "Abandoned/Junk Vehicles",
    "date_created": "2026-02-24T13:50:57.000",
    "date_modified": "2026-02-24T13:50:59.000",
    "request_status": "Pending",
    "responsible_agency": "Department of Public Works",
    "final_address": "2428 Ap Tureaud Ave",
    "address_councildis": "D",
    "status": "Pending",
    "rowid": "1260493",
    "final_x": "3681524.634",
    "final_y": "541101.4587",
    "longitude": "-90.0676583472881",
    "latitude": "29.98184064786151",
    "geocoded_column": {
      "latitude": "29.98184064786151",
      "longitude": "-90.0676583472881"
    }
  },
  {
    "service_request": "2026-1260492",
    "request_type": "Street and Traffic Signs",
    "request_reason": "Traffic or Parking Sign Damaged or Missing",
    "date_created": "2026-02-24T13:50:56.000",
    "date_modified": "2026-02-24T13:50:58.000",
    "request_status": "Pending",
    "responsible_agency": "Department of Public Works",
    "final_address": "4600 St Charles Ave",
    "address_councildis": "B",
    "status": "Pending",
    "rowid": "1260492",
    "final_x": "3670036.8329",
    "final_y": "520679.569337",
    "longitude": "-90.1046340313551",
    "latitude": "29.9260310834917",
    "geocoded_column": {
      "latitude": "29.9260310834917",
      "longitude": "-90.1046340313551"
    }
  },
  {
    "service_request": "2026-1260491",
    "request_type": "Healthy Homes",
    "request_reason": "Healthy Homes",
    "date_created": "2026-02-24T13:49:16.000",
    "date_modified": "2026-02-24T14:25:40.000",
    "case_close_date": "2026-02-24T08:25:39.000",
    "request_status": "Closed",
    "responsible_agency": "Department of Code Enforcement",
    "final_address": "8200 Palm St",
    "address_councildis": "A",
    "status": "Referred to Code Enforcement",
    "rowid": "1260491",
    "final_x": "3667251.6322",
    "final_y": "534985.66151",
    "longitude": "-90.11294514425823",
    "latitude": "29.96545003364824",
    "geocoded_column": {
      "latitude": "29.96545003364824",
      "longitude": "-90.11294514425823"
    }
  },
  {
    "service_request": "2026-1260490",
    "request_type": "Abandoned Vehicles",
    "request_reason": "Abandoned/Junk Vehicles",
    "date_created": "2026-02-24T13:48:21.000",
    "date_modified": "2026-02-24T13:48:22.000",
    "request_status": "Pending",
    "responsible_agency": "Department of Public Works",
    "final_address": "1901 Washington Ave",
    "address_councildis": "B",
    "status": "Pending",
    "rowid": "1260490",
    "final_x": "3675333.1547",
    "final_y": "523495.798907",
    "longitude": "-90.0878184377481",
    "latitude": "29.93361757615141",
    "geocoded_column": {
      "latitude": "29.93361757615141",
      "longitude": "-90.0878184377481"
    }
  },
  {
    "service_request": "2026-1260489",
    "request_type": "Abandoned Vehicles",
    "request_reason": "Abandoned/Junk Vehicles",
    "date_created": "2026-02-24T13:44:00.000",
    "date_modified": "2026-02-24T13:44:02.000",
    "request_status": "Pending",
    "responsible_agency": "Department of Public Works",
    "final_address": "1828 Washington Ave",
    "address_councildis": "B",
    "status": "Pending",
    "rowid": "1260489",
    "final_x": "3675304.3844",
    "final_y": "523356.957947",
    "longitude": "-90.0879140282435",
    "latitude": "29.93323666860289",
    "geocoded_column": {
      "latitude": "29.93323666860289",
      "longitude": "-90.0879140282435"
    }
  },
  {
    "service_request": "2026-1260488",
    "request_type": "Roads and Streets",
    "request_reason": "Street Subsidence (Sinking)",
    "date_created": "2026-02-24T13:42:42.000",
    "date_modified": "2026-02-24T13:42:45.000",
    "request_status": "Pending",
    "responsible_agency": "Sewerage & Water Board",
    "final_address": "2640 Milan St",
    "address_councildis": "B",
    "status": "Pending",
    "rowid": "1260488",
    "final_x": "3671176.83963",
    "final_y": "524774.556604",
    "longitude": "-90.10089631832712",
    "latitude": "29.937257318835595",
    "geocoded_column": {
      "latitude": "29.937257318835595",
      "longitude": "-90.10089631832712"
    }
  },
  {
    "service_request": "2026-1260487",
    "request_type": "Safety & Permits",
    "request_reason": "Licenses & Permits",
    "date_created": "2026-02-24T13:40:51.000",
    "date_modified": "2026-02-24T15:23:03.000",
    "case_close_date": "2026-02-24T09:23:03.000",
    "request_status": "Closed",
    "responsible_agency": "Safety and Permits",
    "final_address": "915 Royal St",
    "address_councildis": "C",
    "status": "Resolved",
    "rowid": "1260487",
    "final_x": "3683047.22428",
    "final_y": "533166.505668",
    "longitude": "-90.06312711655507",
    "latitude": "29.959975943421917",
    "geocoded_column": {
      "latitude": "29.959975943421917",
      "longitude": "-90.06312711655507"
    }
  },
  {
    "service_request": "2026-1260486",
    "request_type": "Trash/Recycling",
    "request_reason": "Replace Trash Cart",
    "date_created": "2026-02-24T13:39:44.000",
    "date_modified": "2026-02-24T13:56:54.000",
    "request_status": "Pending",
    "responsible_agency": "Department of Sanitation",
    "final_address": "2814 Milan St",
    "address_councildis": "B",
    "status": "Assigned to Contractor",
    "contractor": "IV Waste",
    "rowid": "1260486",
    "final_x": "3671113.47892",
    "final_y": "525286.454781",
    "longitude": "-90.10107897281598",
    "latitude": "29.938666746737002",
    "geocoded_column": {
      "latitude": "29.938666746737002",
      "longitude": "-90.10107897281598"
    }
  },
  {
    "service_request": "2026-1260484",
    "request_type": "Streetlights",
    "request_reason": "Streetlight Outage/Malfunction",
    "date_created": "2026-02-24T13:36:13.000",
    "date_modified": "2026-02-24T13:41:51.000",
    "request_status": "Pending",
    "responsible_agency": "Department of Public Works",
    "final_address": "PARIS RD & CHEF MENTEUR HWY",
    "address_councildis": "E",
    "status": "Pending",
    "rowid": "1260484",
    "final_x": "3720112.5",
    "final_y": "557243.48",
    "longitude": "-89.94516349516627",
    "latitude": "30.024996453669143",
    "geocoded_column": {
      "latitude": "30.024996453669143",
      "longitude": "-89.94516349516627"
    }
  },
  {
    "service_request": "2026-1260483",
    "request_type": "Roads and Streets",
    "request_reason": "Street Subsidence (Sinking)",
    "date_created": "2026-02-24T13:34:45.000",
    "date_modified": "2026-02-24T14:23:05.000",
    "request_status": "Pending",
    "responsible_agency": "Sewerage & Water Board",
    "final_address": "2640 Milan St",
    "address_councildis": "B",
    "status": "Pending",
    "rowid": "1260483",
    "final_x": "3671176.83963",
    "final_y": "524774.556604",
    "longitude": "-90.10089631832712",
    "latitude": "29.937257318835595",
    "geocoded_column": {
      "latitude": "29.937257318835595",
      "longitude": "-90.10089631832712"
    }
  },
  {
    "service_request": "2026-1260482",
    "request_type": "Roads and Streets",
    "request_reason": "Street Subsidence (Sinking)",
    "date_created": "2026-02-24T13:32:01.000",
    "date_modified": "2026-02-24T13:32:03.000",
    "request_status": "Pending",
    "responsible_agency": "Sewerage & Water Board",
    "final_address": "2640 Milan St",
    "address_councildis": "B",
    "status": "Pending",
    "rowid": "1260482",
    "final_x": "3671176.83963",
    "final_y": "524774.556604",
    "longitude": "-90.10089631832712",
    "latitude": "29.937257318835595",
    "geocoded_column": {
      "latitude": "29.937257318835595",
      "longitude": "-90.10089631832712"
    }
  },
  {
    "service_request": "2026-1260481",
    "request_type": "Parks & Parkways",
    "request_reason": "Request Grass Cutting Service (City Owned Property)",
    "date_created": "2026-02-24T13:30:51.000",
    "date_modified": "2026-02-24T14:09:19.000",
    "case_close_date": "2026-02-24T08:09:18.000",
    "request_status": "Closed",
    "responsible_agency": "Department of Parks & Parkway",
    "final_address": "7310 Voyageur Dr",
    "address_councildis": "E",
    "status": "Referred to Property Owner",
    "rowid": "1260481",
    "final_x": "3726295.22925",
    "final_y": "569161.087782",
    "longitude": "-89.92516456422425",
    "latitude": "30.05755752907608",
    "geocoded_column": {
      "latitude": "30.05755752907608",
      "longitude": "-89.92516456422425"
    }
  },
  {
    "service_request": "2026-1260480",
    "request_type": "Roads and Streets",
    "request_reason": "Curb Damage",
    "date_created": "2026-02-24T13:23:30.000",
    "date_modified": "2026-02-24T13:23:32.000",
    "request_status": "Pending",
    "responsible_agency": "Department of Public Works",
    "final_address": "1174 City Park Ave",
    "address_councildis": "A",
    "status": "Pending",
    "rowid": "1260480",
    "final_x": "3673772.69198",
    "final_y": "541401.144076",
    "longitude": "-90.0921324392487",
    "latitude": "29.98289784579432",
    "geocoded_column": {
      "latitude": "29.98289784579432",
      "longitude": "-90.0921324392487"
    }
  },
  {
    "service_request": "2026-1260479",
    "request_type": "Trash/Recycling",
    "request_reason": "Request a Large Item Pick Up",
    "date_created": "2026-02-24T13:23:26.000",
    "date_modified": "2026-02-24T13:23:31.000",
    "request_status": "Pending",
    "responsible_agency": "Department of Sanitation",
    "final_address": "4883 Redwood St",
    "address_councildis": "E",
    "status": "Assigned to Contractor",
    "contractor": "Waste Pro",
    "rowid": "1260479",
    "final_x": "3712473.55531",
    "final_y": "557047.99721",
    "longitude": "-89.96930844198974",
    "latitude": "30.02471120407597",
    "geocoded_column": {
      "latitude": "30.02471120407597",
      "longitude": "-89.96930844198974"
    }
  },
  {
    "service_request": "2026-1260478",
    "request_type": "Trash/Recycling",
    "request_reason": "Request a Large Item Pick Up",
    "date_created": "2026-02-24T13:18:12.000",
    "date_modified": "2026-02-24T13:18:15.000",
    "request_status": "Pending",
    "responsible_agency": "Department of Sanitation",
    "final_address": "717 Nashville Ave Apt 1",
    "address_councildis": "A",
    "status": "Assigned to Contractor",
    "contractor": "IV Waste",
    "rowid": "1260478",
    "final_x": "3665548.85012",
    "final_y": "518785.221431",
    "longitude": "-90.11886472028122",
    "latitude": "29.920953787826218",
    "geocoded_column": {
      "latitude": "29.920953787826218",
      "longitude": "-90.11886472028122"
    }
  },
  {
    "service_request": "2026-1260477",
    "request_type": "General Services",
    "request_reason": "General Service Request",
    "date_created": "2026-02-24T13:15:41.000",
    "date_modified": "2026-02-24T13:15:43.000",
    "request_status": "Pending",
    "responsible_agency": "Orleans Parish Communication District",
    "final_address": "726 Antonine St, New Orleans, Louisiana, 70115",
    "address_councildis": "B",
    "status": "Pending",
    "rowid": "1260477",
    "final_x": "3674235.36001",
    "final_y": "517967.93599",
    "longitude": "-90.09147325917078",
    "latitude": "29.918450499832414",
    "geocoded_column": {
      "latitude": "29.918450499832414",
      "longitude": "-90.09147325917078"
    }
  },
  {
    "service_request": "2026-1260476",
    "request_type": "Trash/Recycling",
    "request_reason": "Order Second Trash Cart",
    "date_created": "2026-02-24T13:14:47.000",
    "date_modified": "2026-02-24T13:14:49.000",
    "request_status": "Pending",
    "responsible_agency": "Department of Sanitation",
    "final_address": "2570 Benefit St",
    "address_councildis": "D",
    "status": "Assigned to Contractor",
    "contractor": "IV Waste",
    "rowid": "1260476",
    "final_x": "3686840.55516",
    "final_y": "544559.407055",
    "longitude": "-90.0507459367528",
    "latitude": "29.991186248432616",
    "geocoded_column": {
      "latitude": "29.991186248432616",
      "longitude": "-90.0507459367528"
    }
  },
  {
    "service_request": "2026-1260475",
    "request_type": "Drainage",
    "request_reason": "Catch Basin Not Draining",
    "date_created": "2026-02-24T13:13:06.000",
    "date_modified": "2026-02-24T13:13:08.000",
    "request_status": "Pending",
    "responsible_agency": "Sewerage & Water Board",
    "final_address": "2336 Annunciation St",
    "address_councildis": "B",
    "status": "Pending",
    "rowid": "1260475",
    "final_x": "3678974.23586",
    "final_y": "520754.667193",
    "longitude": "-90.07641865827779",
    "latitude": "29.92597103234842",
    "geocoded_column": {
      "latitude": "29.92597103234842",
      "longitude": "-90.07641865827779"
    }
  },
  {
    "service_request": "2026-1260474",
    "request_type": "Abandoned Vehicles",
    "request_reason": "Abandoned/Junk Vehicles",
    "date_created": "2026-02-24T13:11:36.000",
    "date_modified": "2026-02-24T13:11:37.000",
    "request_status": "Pending",
    "responsible_agency": "Department of Public Works",
    "final_address": "300 BLK Notre Dame St",
    "address_councildis": "B",
    "status": "Pending",
    "rowid": "1260474",
    "final_x": "3682116.87392",
    "final_y": "527871.35579",
    "longitude": "-90.06624985919098",
    "latitude": "29.9454443991192",
    "geocoded_column": {
      "latitude": "29.9454443991192",
      "longitude": "-90.06624985919098"
    }
  },
  {
    "service_request": "2026-1260473",
    "request_type": "Roads and Streets",
    "request_reason": "Street Subsidence (Sinking)",
    "date_created": "2026-02-24T13:10:33.000",
    "date_modified": "2026-02-24T13:10:35.000",
    "request_status": "Pending",
    "responsible_agency": "Sewerage & Water Board",
    "final_address": "5700 BLK Bullard Ave",
    "address_councildis": "E",
    "status": "Pending",
    "rowid": "1260473",
    "final_x": "3716441.35317",
    "final_y": "562830.062448",
    "longitude": "-89.95655149158124",
    "latitude": "30.040479090485317",
    "geocoded_column": {
      "latitude": "30.040479090485317",
      "longitude": "-89.95655149158124"
    }
  },
  {
    "service_request": "2026-1260472",
    "request_type": "Abandoned Vehicles",
    "request_reason": "Abandoned/Junk Vehicles",
    "date_created": "2026-02-24T13:08:40.000",
    "date_modified": "2026-02-24T13:08:42.000",
    "request_status": "Pending",
    "responsible_agency": "Department of Public Works",
    "final_address": "1000 BLK Poe St",
    "address_councildis": "B",
    "status": "Pending",
    "rowid": "1260472",
    "final_x": "3682025.41413",
    "final_y": "526389.569712",
    "longitude": "-90.06659034814349",
    "latitude": "29.941372764351435",
    "geocoded_column": {
      "latitude": "29.941372764351435",
      "longitude": "-90.06659034814349"
    }
  },
  {
    "service_request": "2026-1260471",
    "request_type": "Parks & Parkways",
    "request_reason": "Request Tree Service (Right of Way/Public Property)",
    "date_created": "2026-02-24T13:00:25.000",
    "date_modified": "2026-02-24T13:00:26.000",
    "request_status": "Pending",
    "responsible_agency": "Department of Parks & Parkway",
    "final_address": "1174 City Park Ave",
    "address_councildis": "A",
    "status": "Pending",
    "rowid": "1260471",
    "final_x": "3673772.69198",
    "final_y": "541401.144076",
    "longitude": "-90.0921324392487",
    "latitude": "29.98289784579432",
    "geocoded_column": {
      "latitude": "29.98289784579432",
      "longitude": "-90.0921324392487"
    }
  },
  {
    "service_request": "2026-1260470",
    "request_type": "Road Striping",
    "request_reason": "Lane Striping or other Pavement Markings",
    "date_created": "2026-02-24T12:59:26.000",
    "date_modified": "2026-02-24T12:59:28.000",
    "request_status": "Pending",
    "responsible_agency": "Department of Public Works",
    "final_address": "5701 Bullard Ave",
    "address_councildis": "E",
    "status": "Pending",
    "rowid": "1260470",
    "final_x": "3716983.38597",
    "final_y": "562443.001631",
    "longitude": "-89.95485322485179",
    "latitude": "30.039396911398153",
    "geocoded_column": {
      "latitude": "30.039396911398153",
      "longitude": "-89.95485322485179"
    }
  },
  {
    "service_request": "2026-1260469",
    "request_type": "Traffic Signals",
    "request_reason": "Traffic Signal Malfunctioning or Damaged",
    "date_created": "2026-02-24T12:57:17.000",
    "date_modified": "2026-02-24T12:57:20.000",
    "request_status": "Pending",
    "responsible_agency": "Department of Public Works",
    "final_address": "I 10 E SERVICE RD & READ BLVD",
    "address_councildis": "E",
    "status": "Pending",
    "rowid": "1260469",
    "final_x": "3710488.9",
    "final_y": "561072.98",
    "longitude": "-89.97542883620564",
    "latitude": "30.035843128001222",
    "geocoded_column": {
      "latitude": "30.035843128001222",
      "longitude": "-89.97542883620564"
    }
  },
  {
    "service_request": "2026-1260468",
    "request_type": "General Services",
    "request_reason": "General Service Request",
    "date_created": "2026-02-24T12:55:41.000",
    "date_modified": "2026-02-24T12:55:43.000",
    "request_status": "Pending",
    "responsible_agency": "Orleans Parish Communication District",
    "final_address": "3516 Baudin St",
    "address_councildis": "B",
    "status": "Pending",
    "rowid": "1260468",
    "final_x": "3671745.39643",
    "final_y": "535783.151303",
    "longitude": "-90.09872687237791",
    "latitude": "29.967510495787824",
    "geocoded_column": {
      "latitude": "29.967510495787824",
      "longitude": "-90.09872687237791"
    }
  },
  {
    "service_request": "2026-1260467",
    "request_type": "Abandoned Vehicles",
    "request_reason": "Abandoned/Junk Vehicles",
    "date_created": "2026-02-24T12:55:23.000",
    "date_modified": "2026-02-24T12:55:24.000",
    "request_status": "Pending",
    "responsible_agency": "Department of Public Works",
    "final_address": "1217 Frenchmen St",
    "address_councildis": "C",
    "status": "Pending",
    "rowid": "1260467",
    "final_x": "3684578.27145",
    "final_y": "536780.318408",
    "longitude": "-90.05816541563995",
    "latitude": "29.969865923920686",
    "geocoded_column": {
      "latitude": "29.969865923920686",
      "longitude": "-90.05816541563995"
    }
  },
  {
    "service_request": "2026-1260466",
    "request_type": "Abandoned Vehicles",
    "request_reason": "Abandoned/Junk Vehicles",
    "date_created": "2026-02-24T12:49:05.000",
    "date_modified": "2026-02-24T12:50:53.000",
    "request_status": "Pending",
    "responsible_agency": "Department of Public Works",
    "final_address": "133 S Rendon St",
    "address_councildis": "B",
    "status": "Pending",
    "rowid": "1260466",
    "final_x": "3673378.64168",
    "final_y": "536235.212103",
    "longitude": "-90.09355359543002",
    "latitude": "29.96870502177909",
    "geocoded_column": {
      "latitude": "29.96870502177909",
      "longitude": "-90.09355359543002"
    }
  },
  {
    "service_request": "2026-1260465",
    "request_type": "Trash/Recycling",
    "request_reason": "Request a Large Item Pick Up",
    "date_created": "2026-02-24T12:47:41.000",
    "date_modified": "2026-02-24T14:58:17.000",
    "request_status": "Pending",
    "responsible_agency": "Department of Sanitation",
    "final_address": "4390 Trieste St",
    "address_councildis": "E",
    "status": "Assigned to Contractor",
    "contractor": "Waste Pro",
    "rowid": "1260465",
    "final_x": "3760158.04451",
    "final_y": "574001.513386",
    "longitude": "-89.81792905634154",
    "latitude": "30.069678741555546",
    "geocoded_column": {
      "latitude": "30.069678741555546",
      "longitude": "-89.81792905634154"
    }
  },
  {
    "service_request": "2026-1260464",
    "request_type": "Trash/Recycling",
    "request_reason": "Repair Trash Cart",
    "date_created": "2026-02-24T12:43:14.000",
    "date_modified": "2026-02-24T12:43:16.000",
    "request_status": "Pending",
    "responsible_agency": "Department of Sanitation",
    "final_address": "2823 St Thomas St",
    "address_councildis": "B",
    "status": "Assigned to Contractor",
    "contractor": "IV Waste",
    "rowid": "1260464",
    "final_x": "3677829.89147",
    "final_y": "519269.397047",
    "longitude": "-90.08008229923573",
    "latitude": "29.921921487541066",
    "geocoded_column": {
      "latitude": "29.921921487541066",
      "longitude": "-90.08008229923573"
    }
  },
  {
    "service_request": "2026-1260463",
    "request_type": "Trash/Recycling",
    "request_reason": "Replace Trash Cart",
    "date_created": "2026-02-24T12:42:27.000",
    "date_modified": "2026-02-24T13:56:17.000",
    "request_status": "Pending",
    "responsible_agency": "Department of Sanitation",
    "final_address": "1758 N Tonti St",
    "address_councildis": "D",
    "status": "Assigned to Contractor",
    "contractor": "IV Waste",
    "rowid": "1260463",
    "final_x": "3681072.87611",
    "final_y": "540405.876427",
    "longitude": "-90.06910945150494",
    "latitude": "29.97994175231305",
    "geocoded_column": {
      "latitude": "29.97994175231305",
      "longitude": "-90.06910945150494"
    }
  },
  {
    "service_request": "2026-1260462",
    "request_type": "Trash/Recycling",
    "request_reason": "Repair Recycling Cart",
    "date_created": "2026-02-24T12:42:19.000",
    "date_modified": "2026-02-24T12:42:20.000",
    "request_status": "Pending",
    "responsible_agency": "Department of Sanitation",
    "final_address": "2823 St Thomas St",
    "address_councildis": "B",
    "status": "Pending",
    "rowid": "1260462",
    "final_x": "3677829.89147",
    "final_y": "519269.397047",
    "longitude": "-90.08008229923573",
    "latitude": "29.921921487541066",
    "geocoded_column": {
      "latitude": "29.921921487541066",
      "longitude": "-90.08008229923573"
    }
  },
  {
    "service_request": "2026-1260461",
    "request_type": "Roads and Streets",
    "request_reason": "Pothole",
    "date_created": "2026-02-24T12:42:15.000",
    "date_modified": "2026-02-24T12:42:17.000",
    "request_status": "Pending",
    "responsible_agency": "Department of Public Works",
    "final_address": "7500 BLK Daniel Dr",
    "address_councildis": "E",
    "status": "Pending",
    "rowid": "1260461",
    "final_x": "3705146.68809",
    "final_y": "562740.893007",
    "longitude": "-89.99224938279035",
    "latitude": "30.040602225384834",
    "geocoded_column": {
      "latitude": "30.040602225384834",
      "longitude": "-89.99224938279035"
    }
  },
  {
    "service_request": "2026-1260460",
    "request_type": "Streetlights",
    "request_reason": "Streetlight Outage/Malfunction",
    "date_created": "2026-02-24T12:41:12.000",
    "date_modified": "2026-02-24T12:44:57.000",
    "request_status": "Pending",
    "responsible_agency": "Department of Public Works",
    "final_address": "2325 Bienville Ave",
    "address_councildis": "B",
    "status": "Pending",
    "rowid": "1260460",
    "final_x": "3677025.40603",
    "final_y": "534895.64487",
    "longitude": "-90.08208309079829",
    "latitude": "29.964912668762462",
    "geocoded_column": {
      "latitude": "29.964912668762462",
      "longitude": "-90.08208309079829"
    }
  },
  {
    "service_request": "2026-1260459",
    "request_type": "Abandoned Vehicles",
    "request_reason": "Abandoned/Junk Vehicles",
    "date_created": "2026-02-24T12:40:23.000",
    "date_modified": "2026-02-24T12:40:24.000",
    "request_status": "Pending",
    "responsible_agency": "Department of Public Works",
    "final_address": "2521 Danneel St",
    "address_councildis": "B",
    "status": "Pending",
    "rowid": "1260459",
    "final_x": "3675735.40213",
    "final_y": "524169.030844",
    "longitude": "-90.0865254359031",
    "latitude": "29.935456715461278",
    "geocoded_column": {
      "latitude": "29.935456715461278",
      "longitude": "-90.0865254359031"
    }
  },
  {
    "service_request": "2026-1260458",
    "request_type": "Trash/Recycling",
    "request_reason": "Request a Large Item Pick Up",
    "date_created": "2026-02-24T12:35:50.000",
    "date_modified": "2026-02-24T12:35:52.000",
    "request_status": "Pending",
    "responsible_agency": "Department of Sanitation",
    "final_address": "7612 Marquis St",
    "address_councildis": "E",
    "status": "Assigned to Contractor",
    "contractor": "Waste Pro",
    "rowid": "1260458",
    "final_x": "3711344.36107",
    "final_y": "566072.310563",
    "longitude": "-89.97253782369947",
    "latitude": "30.049561376107967",
    "geocoded_column": {
      "latitude": "30.049561376107967",
      "longitude": "-89.97253782369947"
    }
  },
  {
    "service_request": "2026-1260457",
    "request_type": "Streetlights",
    "request_reason": "Streetlight Outage/Malfunction",
    "date_created": "2026-02-24T12:33:10.000",
    "date_modified": "2026-02-24T12:33:12.000",
    "request_status": "Pending",
    "responsible_agency": "Department of Public Works",
    "final_address": "CROWDER BLVD & MORRISON RD",
    "address_councildis": "E",
    "status": "Pending",
    "rowid": "1260457",
    "final_x": "3703739.9",
    "final_y": "560831.58",
    "longitude": "-89.99676565482832",
    "latitude": "30.035397561791353",
    "geocoded_column": {
      "latitude": "30.035397561791353",
      "longitude": "-89.99676565482832"
    }
  },
  {
    "service_request": "2026-1260456",
    "request_type": "Trash/Recycling",
    "request_reason": "Request a Large Item Pick Up",
    "date_created": "2026-02-24T12:32:13.000",
    "date_modified": "2026-02-24T12:32:15.000",
    "request_status": "Pending",
    "responsible_agency": "Department of Sanitation",
    "final_address": "5453 Chartres St",
    "address_councildis": "E",
    "status": "Assigned to Contractor",
    "contractor": "Waste Pro",
    "rowid": "1260456",
    "final_x": "3697079.74448",
    "final_y": "532066.919427",
    "longitude": "-90.01885555795562",
    "latitude": "29.95651728432973",
    "geocoded_column": {
      "latitude": "29.95651728432973",
      "longitude": "-90.01885555795562"
    }
  },
  {
    "service_request": "2026-1260455",
    "request_type": "Trash/Recycling",
    "request_reason": "Request a Large Item Pick Up",
    "date_created": "2026-02-24T12:31:47.000",
    "date_modified": "2026-02-24T15:26:49.000",
    "request_status": "Pending",
    "responsible_agency": "Department of Sanitation",
    "final_address": "2551 Bay St",
    "address_councildis": "D",
    "status": "Assigned to Contractor",
    "contractor": "IV Waste",
    "rowid": "1260455",
    "final_x": "3687023.45302",
    "final_y": "545216.595663",
    "longitude": "-90.05014495856167",
    "latitude": "29.99298765112922",
    "geocoded_column": {
      "latitude": "29.99298765112922",
      "longitude": "-90.05014495856167"
    }
  },
  {
    "service_request": "2026-1260454",
    "request_type": "Trash/Recycling",
    "request_reason": "Order Recycling Cart",
    "date_created": "2026-02-24T12:29:37.000",
    "date_modified": "2026-02-24T12:29:38.000",
    "request_status": "Pending",
    "responsible_agency": "Department of Sanitation",
    "final_address": "315 S Alexander St",
    "address_councildis": "A",
    "status": "Pending",
    "rowid": "1260454",
    "final_x": "3669411.18574",
    "final_y": "538461.739721",
    "longitude": "-90.1060077722068",
    "latitude": "29.974944664440365",
    "geocoded_column": {
      "latitude": "29.974944664440365",
      "longitude": "-90.1060077722068"
    }
  },
  {
    "service_request": "2026-1260453",
    "request_type": "Safety & Permits",
    "request_reason": "Zoning Enforcement",
    "date_created": "2026-02-24T12:29:05.000",
    "date_modified": "2026-02-24T15:11:34.000",
    "case_close_date": "2026-02-24T09:11:34.000",
    "request_status": "Closed",
    "responsible_agency": "Safety and Permits",
    "final_address": "BENSON ST & ABERDEEN RD",
    "address_councildis": "E",
    "status": "Resolved",
    "rowid": "1260453",
    "final_x": "3704543.7",
    "final_y": "562208.88",
    "longitude": "-89.99417466209017",
    "latitude": "30.039158790578576",
    "geocoded_column": {
      "latitude": "30.039158790578576",
      "longitude": "-89.99417466209017"
    }
  },
  {
    "service_request": "2026-1260452",
    "request_type": "Trash/Recycling",
    "request_reason": "Dead Animal Pick Up",
    "date_created": "2026-02-24T12:25:17.000",
    "date_modified": "2026-02-24T15:05:19.000",
    "case_close_date": "2026-02-24T09:05:19.000",
    "request_status": "Closed",
    "responsible_agency": "Department of Sanitation",
    "final_address": "2950 St Bernard Ave",
    "address_councildis": "D",
    "status": "Assigned to Contractor",
    "contractor": "IV Waste",
    "contractor_action": "Completed",
    "rowid": "1260452",
    "final_x": "3679297.04482",
    "final_y": "543087.833613",
    "longitude": "-90.07462520984106",
    "latitude": "29.98736995474998",
    "geocoded_column": {
      "latitude": "29.98736995474998",
      "longitude": "-90.07462520984106"
    }
  },
  {
    "service_request": "2026-1260451",
    "request_type": "Trash/Recycling",
    "request_reason": "Request a Large Item Pick Up",
    "date_created": "2026-02-24T12:19:33.000",
    "date_modified": "2026-02-24T12:19:36.000",
    "request_status": "Pending",
    "responsible_agency": "Department of Sanitation",
    "final_address": "1032 Bourbon St",
    "address_councildis": "C",
    "status": "Assigned to Contractor",
    "contractor": "IV Waste",
    "rowid": "1260451",
    "final_x": "3683117.50517",
    "final_y": "533759.093893",
    "longitude": "-90.06288443750766",
    "latitude": "29.961603215673943",
    "geocoded_column": {
      "latitude": "29.961603215673943",
      "longitude": "-90.06288443750766"
    }
  },
  {
    "service_request": "2026-1260450",
    "request_type": "Trash/Recycling",
    "request_reason": "Request a Large Item Pick Up",
    "date_created": "2026-02-24T12:14:40.000",
    "date_modified": "2026-02-24T12:14:43.000",
    "request_status": "Pending",
    "responsible_agency": "Department of Sanitation",
    "final_address": "2445 N Villere St",
    "address_councildis": "C",
    "status": "Assigned to Contractor",
    "contractor": "IV Waste",
    "rowid": "1260450",
    "final_x": "3686859.58876",
    "final_y": "537604.373448",
    "longitude": "-90.05093169049088",
    "latitude": "29.972061781653462",
    "geocoded_column": {
      "latitude": "29.972061781653462",
      "longitude": "-90.05093169049088"
    }
  },
  {
    "service_request": "2026-1260449",
    "request_type": "Trash/Recycling",
    "request_reason": "Request a Large Item Pick Up",
    "date_created": "2026-02-24T12:14:38.000",
    "date_modified": "2026-02-24T12:14:40.000",
    "request_status": "Pending",
    "responsible_agency": "Department of Sanitation",
    "final_address": "2208 St Ann St",
    "address_councildis": "D",
    "status": "Assigned to Contractor",
    "contractor": "IV Waste",
    "rowid": "1260449",
    "final_x": "3678455.92245",
    "final_y": "535976.003655",
    "longitude": "-90.07752821655234",
    "latitude": "29.967840256914027",
    "geocoded_column": {
      "latitude": "29.967840256914027",
      "longitude": "-90.07752821655234"
    }
  },
  {
    "service_request": "2026-1260448",
    "request_type": "Healthy Homes",
    "request_reason": "Healthy Homes",
    "date_created": "2026-02-24T12:13:24.000",
    "date_modified": "2026-02-24T14:18:32.000",
    "case_close_date": "2026-02-24T08:18:31.000",
    "request_status": "Closed",
    "responsible_agency": "Department of Code Enforcement",
    "final_address": "5546 Pasteur Blvd",
    "address_councildis": "D",
    "status": "Referred to Code Enforcement",
    "rowid": "1260448",
    "final_x": "3682765.43477",
    "final_y": "553549.588055",
    "longitude": "-90.06330353140952",
    "latitude": "30.016030807763112",
    "geocoded_column": {
      "latitude": "30.016030807763112",
      "longitude": "-90.06330353140952"
    }
  },
  {
    "service_request": "2026-1260447",
    "request_type": "Trash/Recycling",
    "request_reason": "Replace Trash Cart",
    "date_created": "2026-02-24T12:13:22.000",
    "date_modified": "2026-02-24T12:13:23.000",
    "request_status": "Pending",
    "responsible_agency": "Department of Sanitation",
    "final_address": "321 Leboeuf St",
    "address_councildis": "C",
    "status": "Assigned to Contractor",
    "contractor": "Richards Disposal",
    "rowid": "1260447",
    "final_x": "3689835.08291",
    "final_y": "530495.899266",
    "longitude": "-90.04178766601764",
    "latitude": "29.952424054514974",
    "geocoded_column": {
      "latitude": "29.952424054514974",
      "longitude": "-90.04178766601764"
    }
  },
  {
    "service_request": "2026-1260446",
    "request_type": "Trash/Recycling",
    "request_reason": "Request a Large Item Pick Up",
    "date_created": "2026-02-24T12:13:14.000",
    "date_modified": "2026-02-24T12:13:18.000",
    "request_status": "Pending",
    "responsible_agency": "Department of Sanitation",
    "final_address": "10692 Lincoln Beach Blvd",
    "address_councildis": "E",
    "status": "Assigned to Contractor",
    "contractor": "Waste Pro",
    "rowid": "1260446",
    "final_x": "3708804.71012",
    "final_y": "566491.403555",
    "longitude": "-89.98054898006328",
    "latitude": "30.05079639897124",
    "geocoded_column": {
      "latitude": "30.05079639897124",
      "longitude": "-89.98054898006328"
    }
  },
  {
    "service_request": "2026-1260445",
    "request_type": "Roads and Streets",
    "request_reason": "Pothole",
    "date_created": "2026-02-24T12:10:29.000",
    "date_modified": "2026-02-24T12:10:32.000",
    "request_status": "Pending",
    "responsible_agency": "Department of Public Works",
    "final_address": "4800 BLK Laurel St",
    "address_councildis": "B",
    "status": "Pending",
    "rowid": "1260445",
    "final_x": "3669140.36674",
    "final_y": "517850.767892",
    "longitude": "-90.1075594480992",
    "latitude": "29.91827917710426",
    "geocoded_column": {
      "latitude": "29.91827917710426",
      "longitude": "-90.1075594480992"
    }
  },