[
  {
    "service_request": "2025-1161487",
    "request_type": "Abandoned Vehicles",
    "request_reason": "Vehicle Blocking Your Driveway",
    "date_created": "2025-01-12T23:14:53.000",
    "date_modified": "2025-01-12T23:14:58.000",
    "request_status": "Pending",
    "responsible_agency": "Department of Public Works",
    "final_address": "1225 Burdette St",
    "address_councildis": "A",
    "status": "Pending",
    "rowid": "1161487",
    "final_x": "3662955.78445",
    "final_y": "527735.557503",
    "longitude": "-90.12675239559748",
    "latitude": "29.94563970350235",
    "geocoded_column": {
      "latitude": "29.94563970350235",
      "longitude": "-90.12675239559748"
    }
  },
  {
    "service_request": "2025-1161486",
    "request_type": "Trash/Recycling",
    "request_reason": "Illegal Dumping",
    "date_created": "2025-01-12T22:47:16.000",
    "date_modified": "2025-01-12T22:47:20.000",
    "request_status": "Pending",
    "responsible_agency": "Department of Sanitation",
    "final_address": "205 N Tonti St",
    "address_councildis": "B",
    "status": "Pending",
    "rowid": "1161486",
    "final_x": "3676720.48296",
    "final_y": "534736.145158",
    "longitude": "-90.08305151564602",
    "latitude": "29.96448325070106",
    "geocoded_column": {
      "latitude": "29.96448325070106",
      "longitude": "-90.08305151564602"
    }
  },
  {
    "service_request": "2025-1161485",
    "request_type": "Drainage",
    "request_reason": "Catch Basin Clogged",
    "date_created": "2025-01-12T22:17:40.000",
    "date_modified": "2025-01-12T22:17:44.000",
    "request_status": "Pending",
    "responsible_agency": "Department of Public Works",
    "final_address": "3130 St Philip St",
    "address_councildis": "A",
    "status": "Pending",
    "rowid": "1161485",
    "final_x": "3675731.14651",
    "final_y": "539100.696842",
    "longitude": "-90.0860257340666",
    "latitude": "29.976513929106797",
    "geocoded_column": {
      "latitude": "29.976513929106797",
      "longitude": "-90.0860257340666"
    }
  },
  {
    "service_request": "2025-1161484",
    "request_type": "Trash/Recycling",
    "request_reason": "Missed Trash Pick-Up",
    "date_created": "2025-01-12T22:10:13.000",
    "date_modified": "2025-01-12T22:10:16.000",
    "request_status": "Pending",
    "responsible_agency": "Department of Sanitation",
    "final_address": "1031 Sixth St",
    "address_councildis": "B",
    "status": "Assigned to Contractor",
    "contractor": "IV Waste",
    "rowid": "1161484",
    "final_x": "3676713.55835",
    "final_y": "520468.180728",
    "longitude": "-90.0835648216669",
    "latitude": "29.9252512808144",
    "geocoded_column": {
      "latitude": "29.9252512808144",
      "longitude": "-90.0835648216669"
    }
  },
  {
    "service_request": "2025-1161483",
    "request_type": "Trash/Recycling",
    "request_reason": "Illegal Dumping",
    "date_created": "2025-01-12T21:57:43.000",
    "date_modified": "2025-01-12T21:57:47.000",
    "request_status": "Pending",
    "responsible_agency": "Department of Sanitation",
    "final_address": "1937 St Ann St",
    "address_councildis": "D",
    "status": "Pending",
    "rowid": "1161483",
    "final_x": "3679243.69864",
    "final_y": "535591.551174",
    "longitude": "-90.07505372781881",
    "latitude": "29.96675938053113",
    "geocoded_column": {
      "latitude": "29.96675938053113",
      "longitude": "-90.07505372781881"
    }
  },
  {
    "service_request": "2025-1161482",
    "request_type": "Property Maintenance",
    "request_reason": "Property Maintenance",
    "date_created": "2025-01-12T21:14:14.000",
    "date_modified": "2025-01-12T21:14:18.000",
    "request_status": "Pending",
    "responsible_agency": "Department of Code Enforcement",
    "final_address": "901 Poydras St",
    "address_councildis": "B",
    "status": "Pending",
    "rowid": "1161482",
    "final_x": "3679896.88411",
    "final_y": "529657.320385",
    "longitude": "-90.07319706680316",
    "latitude": "29.950422518247198",
    "geocoded_column": {
      "latitude": "29.950422518247198",
      "longitude": "-90.07319706680316"
    }
  },
  {
    "service_request": "2025-1161481",
    "request_type": "Safety & Permits",
    "request_reason": "Licenses & Permits",
    "date_created": "2025-01-12T20:46:14.000",
    "date_modified": "2025-01-12T20:46:17.000",
    "request_status": "Pending",
    "responsible_agency": "Safety and Permits",
    "final_address": "1800 BLK Canal St",
    "address_councildis": "B",
    "status": "Pending",
    "rowid": "1161481",
    "final_x": "3677938.06141",
    "final_y": "533100.048745",
    "longitude": "-90.07926304041975",
    "latitude": "29.959947952698858",
    "geocoded_column": {
      "latitude": "29.959947952698858",
      "longitude": "-90.07926304041975"
    }
  },
  {
    "service_request": "2025-1161480",
    "request_type": "Streetlights",
    "request_reason": "Streetlight Outage/Malfunction",
    "date_created": "2025-01-12T20:23:59.000",
    "date_modified": "2025-01-12T20:24:00.000",
    "request_status": "Pending",
    "responsible_agency": "Department of Public Works",
    "final_address": "1428 Touro St",
    "address_councildis": "C",
    "status": "Pending",
    "contractor": "Legacy Professional Services",
    "rowid": "1161480",
    "final_x": "3684079.89954",
    "final_y": "537580.234504",
    "longitude": "-90.05971123969701",
    "latitude": "29.972080656160784",
    "geocoded_column": {
      "latitude": "29.972080656160784",
      "longitude": "-90.05971123969701"
    }
  },
  {
    "service_request": "2025-1161479",
    "request_type": "Streetlights",
    "request_reason": "Streetlight Outage/Malfunction",
    "date_created": "2025-01-12T20:22:51.000",
    "date_modified": "2025-01-12T20:22:53.000",
    "request_status": "Pending",
    "responsible_agency": "Department of Public Works",
    "final_address": "1424 Frenchmen St",
    "address_councildis": "C",
    "status": "Pending",
    "contractor": "Legacy Professional Services",
    "rowid": "1161479",
    "final_x": "3684441.08309",
    "final_y": "537545.749896",
    "longitude": "-90.05857177597333",
    "latitude": "29.971974791727654",
    "geocoded_column": {
      "latitude": "29.971974791727654",
      "longitude": "-90.05857177597333"
    }
  },
  {
    "service_request": "2025-1161478",
    "request_type": "Christmas Tree Recycle Pick Up",
    "request_reason": "Christmas Tree Recycle Pick Up",
    "date_created": "2025-01-12T20:22:09.000",
    "date_modified": "2025-01-12T20:22:11.000",
    "request_status": "Pending",
    "responsible_agency": "Office of Resilience and Sustainability",
    "final_address": "1500 BLK Governor Nicholls St",
    "address_councildis": "C",
    "status": "Pending",
    "contractor": "R&R Recycling",
    "rowid": "1161478",
    "final_x": "3681358.48173",
    "final_y": "535802.684088",
    "longitude": "-90.06836789418134",
    "latitude": "29.96727589868993",
    "geocoded_column": {
      "latitude": "29.96727589868993",
      "longitude": "-90.06836789418134"
    }
  },
  {
    "service_request": "2025-1161477",
    "request_type": "Streetlights",
    "request_reason": "Streetlight Outage/Malfunction",
    "date_created": "2025-01-12T20:21:43.000",
    "date_modified": "2025-01-12T20:21:44.000",
    "request_status": "Pending",
    "responsible_agency": "Department of Public Works",
    "final_address": "2119 N Villere St",
    "address_councildis": "C",
    "status": "Pending",
    "contractor": "Legacy Professional Services",
    "rowid": "1161477",
    "final_x": "3684670.39183",
    "final_y": "537423.272456",
    "longitude": "-90.05785188883098",
    "latitude": "29.971631004799004",
    "geocoded_column": {
      "latitude": "29.971631004799004",
      "longitude": "-90.05785188883098"
    }
  },
  {
    "service_request": "2025-1161476",
    "request_type": "Streetlights",
    "request_reason": "Streetlight Outage/Malfunction",
    "date_created": "2025-01-12T20:20:24.000",
    "date_modified": "2025-01-12T20:20:26.000",
    "request_status": "Pending",
    "responsible_agency": "Department of Public Works",
    "final_address": "2029 N Villere St",
    "address_councildis": "C",
    "status": "Pending",
    "contractor": "Legacy Professional Services",
    "rowid": "1161476",
    "final_x": "3684352.29474",
    "final_y": "537401.998152",
    "longitude": "-90.05885723304826",
    "latitude": "29.97158224019175",
    "geocoded_column": {
      "latitude": "29.97158224019175",
      "longitude": "-90.05885723304826"
    }
  },
  {
    "service_request": "2025-1161475",
    "request_type": "Streetlights",
    "request_reason": "Streetlight Outage/Malfunction",
    "date_created": "2025-01-12T20:19:25.000",
    "date_modified": "2025-01-12T20:19:26.000",
    "request_status": "Pending",
    "responsible_agency": "Department of Public Works",
    "final_address": "1915 N Villere St",
    "address_councildis": "C",
    "status": "Pending",
    "contractor": "Legacy Professional Services",
    "rowid": "1161475",
    "final_x": "3683921.2982",
    "final_y": "537357.170504",
    "longitude": "-90.06021995535052",
    "latitude": "29.971472154032607",
    "geocoded_column": {
      "latitude": "29.971472154032607",
      "longitude": "-90.06021995535052"
    }
  },
  {
    "service_request": "2025-1161474",
    "request_type": "Streetlights",
    "request_reason": "Streetlight Outage/Malfunction",
    "date_created": "2025-01-12T20:18:25.000",
    "date_modified": "2025-01-12T20:18:26.000",
    "request_status": "Pending",
    "responsible_agency": "Department of Public Works",
    "final_address": "1821 N Villere St",
    "address_councildis": "C",
    "status": "Pending",
    "contractor": "Legacy Professional Services",
    "rowid": "1161474",
    "final_x": "3683598.38793",
    "final_y": "537405.146952",
    "longitude": "-90.06123806948737",
    "latitude": "29.971613933796043",
    "geocoded_column": {
      "latitude": "29.971613933796043",
      "longitude": "-90.06123806948737"
    }
  },
  {
    "service_request": "2025-1161473",
    "request_type": "Streetlights",
    "request_reason": "Streetlight Outage/Malfunction",
    "date_created": "2025-01-12T20:17:29.000",
    "date_modified": "2025-01-12T20:17:30.000",
    "request_status": "Pending",
    "responsible_agency": "Department of Public Works",
    "final_address": "1723 N Villere St",
    "address_councildis": "C",
    "status": "Pending",
    "contractor": "Legacy Professional Services",
    "rowid": "1161473",
    "final_x": "3683247.111",
    "final_y": "537300.158408",
    "longitude": "-90.0623511311688",
    "latitude": "29.9713359702068",
    "geocoded_column": {
      "latitude": "29.9713359702068",
      "longitude": "-90.0623511311688"
    }
  },
  {
    "service_request": "2025-1161472",
    "request_type": "Streetlights",
    "request_reason": "Streetlight Outage/Malfunction",
    "date_created": "2025-01-12T20:16:20.000",
    "date_modified": "2025-01-12T20:16:21.000",
    "request_status": "Pending",
    "responsible_agency": "Department of Public Works",
    "final_address": "1631 N Villere St",
    "address_councildis": "C",
    "status": "Pending",
    "contractor": "Legacy Professional Services",
    "rowid": "1161472",
    "final_x": "3682787.95976",
    "final_y": "537339.374024",
    "longitude": "-90.06379982185268",
    "latitude": "29.971457795491563",
    "geocoded_column": {
      "latitude": "29.971457795491563",
      "longitude": "-90.06379982185268"
    }
  },
  {
    "service_request": "2025-1161471",
    "request_type": "Streetlights",
    "request_reason": "Streetlight Outage/Malfunction",
    "date_created": "2025-01-12T20:15:04.000",
    "date_modified": "2025-01-12T20:15:05.000",
    "request_status": "Pending",
    "responsible_agency": "Department of Public Works",
    "final_address": "1322 Frenchmen St",
    "address_councildis": "C",
    "status": "Pending",
    "contractor": "Legacy Professional Services",
    "rowid": "1161471",
    "final_x": "3684486.25705",
    "final_y": "537208.489672",
    "longitude": "-90.05844096037072",
    "latitude": "29.971046061462737",
    "geocoded_column": {
      "latitude": "29.971046061462737",
      "longitude": "-90.05844096037072"
    }
  },
  {
    "service_request": "2025-1161470",
    "request_type": "Streetlights",
    "request_reason": "Streetlight Outage/Malfunction",
    "date_created": "2025-01-12T20:13:57.000",
    "date_modified": "2025-01-12T20:13:58.000",
    "request_status": "Pending",
    "responsible_agency": "Department of Public Works",
    "final_address": "1324 Touro St",
    "address_councildis": "C",
    "status": "Pending",
    "contractor": "Legacy Professional Services",
    "rowid": "1161470",
    "final_x": "3684126.91247",
    "final_y": "537173.843272",
    "longitude": "-90.0595770326176",
    "latitude": "29.970961784573213",
    "geocoded_column": {
      "latitude": "29.970961784573213",
      "longitude": "-90.0595770326176"
    }
  },
  {
    "service_request": "2025-1161469",
    "request_type": "Streetlights",
    "request_reason": "Streetlight Outage/Malfunction",
    "date_created": "2025-01-12T20:12:51.000",
    "date_modified": "2025-01-12T20:12:52.000",
    "request_status": "Pending",
    "responsible_agency": "Department of Public Works",
    "final_address": "2022 Pauger St",
    "address_councildis": "C",
    "status": "Pending",
    "contractor": "Legacy Professional Services",
    "rowid": "1161469",
    "final_x": "3683775.27861",
    "final_y": "537141.064456",
    "longitude": "-90.06068868604065",
    "latitude": "29.97088239760514",
    "geocoded_column": {
      "latitude": "29.97088239760514",
      "longitude": "-90.06068868604065"
    }
  },
  {
    "service_request": "2025-1161468",
    "request_type": "Streetlights",
    "request_reason": "Streetlight Outage/Malfunction",
    "date_created": "2025-01-12T20:11:50.000",
    "date_modified": "2025-01-12T20:11:51.000",
    "request_status": "Pending",
    "responsible_agency": "Department of Public Works",
    "final_address": "1372 St Anthony St",
    "address_councildis": "C",
    "status": "Pending",
    "contractor": "Legacy Professional Services",
    "rowid": "1161468",
    "final_x": "3683385.20885",
    "final_y": "537151.538888",
    "longitude": "-90.06192020720081",
    "latitude": "29.970923105414986",
    "geocoded_column": {
      "latitude": "29.970923105414986",
      "longitude": "-90.06192020720081"
    }
  },
  {
    "service_request": "2025-1161467",
    "request_type": "Streetlights",
    "request_reason": "Streetlight Outage/Malfunction",
    "date_created": "2025-01-12T20:10:45.000",
    "date_modified": "2025-01-12T20:10:47.000",
    "request_status": "Pending",
    "responsible_agency": "Department of Public Works",
    "final_address": "1368 Annette St",
    "address_councildis": "C",
    "status": "Pending",
    "contractor": "Legacy Professional Services",
    "rowid": "1161467",
    "final_x": "3683037.42741",
    "final_y": "537094.708936",
    "longitude": "-90.06302053399209",
    "latitude": "29.970777448925954",
    "geocoded_column": {
      "latitude": "29.970777448925954",
      "longitude": "-90.06302053399209"
    }
  },
  {
    "service_request": "2025-1161466",
    "request_type": "Streetlights",
    "request_reason": "Streetlight Outage/Malfunction",
    "date_created": "2025-01-12T20:06:23.000",
    "date_modified": "2025-01-12T20:06:24.000",
    "request_status": "Pending",
    "responsible_agency": "Department of Public Works",
    "final_address": "1200 BLK Saint Anthony St",
    "address_councildis": "C",
    "status": "Pending",
    "contractor": "Legacy Professional Services",
    "rowid": "1161466",
    "final_x": "3683501.66708",
    "final_y": "536364.765641",
    "longitude": "-90.06157999535918",
    "latitude": "29.968756197836683",
    "geocoded_column": {
      "latitude": "29.968756197836683",
      "longitude": "-90.06157999535918"
    }
  },
  {
    "service_request": "2025-1161465",
    "request_type": "Roads and Streets",
    "request_reason": "ADA Ramps Damaged or Missing",
    "date_created": "2025-01-12T20:00:13.000",
    "date_modified": "2025-01-12T20:00:24.000",
    "request_status": "Pending",
    "responsible_agency": "Department of Public Works",
    "final_address": "9630 Lincoln Beach Blvd",
    "address_councildis": "E",
    "status": "Pending",
    "rowid": "1161465",
    "final_x": "3706682.38423",
    "final_y": "564793.307042",
    "longitude": "-89.98731991601589",
    "latitude": "30.046196037343538",
    "geocoded_column": {
      "latitude": "30.046196037343538",
      "longitude": "-89.98731991601589"
    }
  },
  {
    "service_request": "2025-1161464",
    "request_type": "Trash/Recycling",
    "request_reason": "Replace Recycling Cart",
    "date_created": "2025-01-12T19:50:45.000",
    "date_modified": "2025-01-12T19:50:47.000",
    "request_status": "Pending",
    "responsible_agency": "Department of Sanitation",
    "final_address": "1627 Paul Morphy St",
    "address_councildis": "D",
    "status": "Pending",
    "rowid": "1161464",
    "final_x": "3678913.74018",
    "final_y": "540606.260747",
    "longitude": "-90.07592195115633",
    "latitude": "29.980558065533227",
    "geocoded_column": {
      "latitude": "29.980558065533227",
      "longitude": "-90.07592195115633"
    }
  },
  {
    "service_request": "2025-1161463",
    "request_type": "Roads and Streets",
    "request_reason": "Pothole",
    "date_created": "2025-01-12T19:46:58.000",
    "date_modified": "2025-01-12T19:47:01.000",
    "request_status": "Pending",
    "responsible_agency": "Department of Public Works",
    "final_address": "8002 Trapier Ave",
    "address_councildis": "E",
    "status": "Pending",
    "rowid": "1161463",
    "final_x": "3706013.84548",
    "final_y": "564399.945697",
    "longitude": "-89.98944740423852",
    "latitude": "30.045136026898973",
    "geocoded_column": {
      "latitude": "30.045136026898973",
      "longitude": "-89.98944740423852"
    }
  },
  {
    "service_request": "2025-1161462",
    "request_type": "Roads and Streets",
    "request_reason": "Debris in Driving Lanes",
    "date_created": "2025-01-12T19:35:00.000",
    "date_modified": "2025-01-12T19:35:04.000",
    "request_status": "Pending",
    "responsible_agency": "Department of Public Works",
    "final_address": "828 S Peters St",
    "address_councildis": "B",
    "status": "Pending",
    "rowid": "1161462",
    "final_x": "3682301.527",
    "final_y": "527413.576319",
    "longitude": "-90.06568284059652",
    "latitude": "29.94418004337785",
    "geocoded_column": {
      "latitude": "29.94418004337785",
      "longitude": "-90.06568284059652"
    }
  },
  {
    "service_request": "2025-1161461",
    "request_type": "Healthy Homes",
    "request_reason": "Healthy Homes",
    "date_created": "2025-01-12T19:33:56.000",
    "date_modified": "2025-01-12T19:33:59.000",
    "request_status": "Pending",
    "responsible_agency": "Department of Code Enforcement",
    "final_address": "6355 Argonne Blvd",
    "address_councildis": "A",
    "status": "Pending",
    "rowid": "1161461",
    "final_x": "3670460.0731",
    "final_y": "549596.054739",
    "longitude": "-90.10231731927969",
    "latitude": "30.005529269133802",
    "geocoded_column": {
      "latitude": "30.005529269133802",
      "longitude": "-90.10231731927969"
    }
  },
  {
    "service_request": "2025-1161459",
    "request_type": "Property Maintenance",
    "request_reason": "Property Maintenance",
    "date_created": "2025-01-12T19:21:16.000",
    "date_modified": "2025-01-12T19:21:19.000",
    "request_status": "Pending",
    "responsible_agency": "Department of Code Enforcement",
    "final_address": "1443 N Roman St",
    "address_councildis": "D",
    "status": "Pending",
    "rowid": "1161459",
    "final_x": "3680930.1604",
    "final_y": "537387.672392",
    "longitude": "-90.06966533643815",
    "latitude": "29.971647066052427",
    "geocoded_column": {
      "latitude": "29.971647066052427",
      "longitude": "-90.06966533643815"
    }
  },
  {
    "service_request": "2025-1161458",
    "request_type": "Trash/Recycling",
    "request_reason": "Illegal Dumping",
    "date_created": "2025-01-12T19:19:07.000",
    "date_modified": "2025-01-12T19:19:11.000",
    "request_status": "Pending",
    "responsible_agency": "Department of Sanitation",
    "final_address": "2602 Danneel St",
    "address_councildis": "B",
    "status": "Pending",
    "rowid": "1161458",
    "final_x": "3675614.24853",
    "final_y": "524010.942844",
    "longitude": "-90.08691334789161",
    "latitude": "29.93502564940809",
    "geocoded_column": {
      "latitude": "29.93502564940809",
      "longitude": "-90.08691334789161"
    }
  },
  {
    "service_request": "2025-1161457",
    "request_type": "Abandoned Vehicles",
    "request_reason": "Abandoned/Junk Vehicles",
    "date_created": "2025-01-12T19:13:19.000",
    "date_modified": "2025-01-12T19:13:24.000",
    "request_status": "Pending",
    "responsible_agency": "Department of Public Works",
    "final_address": "1600 BLK Constantinople St",
    "address_councildis": "B",
    "status": "Pending",
    "rowid": "1161457",
    "final_x": "3672292.39029",
    "final_y": "521211.366158",
    "longitude": "-90.09749577501063",
    "latitude": "29.92742665607399",
    "geocoded_column": {
      "latitude": "29.92742665607399",
      "longitude": "-90.09749577501063"
    }
  },
  {
    "service_request": "2025-1161456",
    "request_type": "Christmas Tree Recycle Pick Up",
    "request_reason": "Christmas Tree Recycle Pick Up",
    "date_created": "2025-01-12T18:40:13.000",
    "date_modified": "2025-01-12T18:40:16.000",
    "request_status": "Pending",
    "responsible_agency": "Office of Resilience and Sustainability",
    "final_address": "3221 Prytania St",
    "address_councildis": "B",
    "status": "Pending",
    "contractor": "R&R Recycling",
    "rowid": "1161456",
    "final_x": "3674906.41262",
    "final_y": "521341.856761",
    "longitude": "-90.08923947158844",
    "latitude": "29.927707681726567",
    "geocoded_column": {
      "latitude": "29.927707681726567",
      "longitude": "-90.08923947158844"
    }
  },
  {
    "service_request": "2025-1161455",
    "request_type": "Street and Traffic Signs",
    "request_reason": "Disabled Parking Sign Missing or Damaged",
    "date_created": "2025-01-12T18:05:59.000",
    "date_modified": "2025-01-12T18:06:01.000",
    "request_status": "Pending",
    "responsible_agency": "Department of Public Works",
    "final_address": "2007 Foucher St",
    "address_councildis": "B",
    "status": "Pending",
    "rowid": "1161455",
    "final_x": "3673028.36328",
    "final_y": "522720.461178",
    "longitude": "-90.09512100771117",
    "latitude": "29.931554334034214",
    "geocoded_column": {
      "latitude": "29.931554334034214",
      "longitude": "-90.09512100771117"
    }
  },
  {
    "service_request": "2025-1161454",
    "request_type": "Abandoned Vehicles",
    "request_reason": "Abandoned/Junk Vehicles",
    "date_created": "2025-01-12T17:59:36.000",
    "date_modified": "2025-01-12T17:59:39.000",
    "request_status": "Pending",
    "responsible_agency": "Department of Public Works",
    "final_address": "4011 Carondelet St",
    "address_councildis": "B",
    "status": "Pending",
    "rowid": "1161454",
    "final_x": "3672152.24091",
    "final_y": "521443.700601",
    "longitude": "-90.09793028528959",
    "latitude": "29.928069656786178",
    "geocoded_column": {
      "latitude": "29.928069656786178",
      "longitude": "-90.09793028528959"
    }
  },
  {
    "service_request": "2025-1161453",
    "request_type": "Abandoned Vehicles",
    "request_reason": "Abandoned/Junk Vehicles",
    "date_created": "2025-01-12T17:58:52.000",
    "date_modified": "2025-01-12T17:58:54.000",
    "request_status": "Pending",
    "responsible_agency": "Department of Public Works",
    "final_address": "1927 Louisiana Ave",
    "address_councildis": "B",
    "status": "Pending",
    "rowid": "1161453",
    "final_x": "3673821.61832",
    "final_y": "522836.864955",
    "longitude": "-90.09261281165152",
    "latitude": "29.931850812601617",
    "geocoded_column": {
      "latitude": "29.931850812601617",
      "longitude": "-90.09261281165152"
    }
  },
  {
    "service_request": "2025-1161452",
    "request_type": "Abandoned Vehicles",
    "request_reason": "Abandoned/Junk Vehicles",
    "date_created": "2025-01-12T17:57:29.000",
    "date_modified": "2025-01-12T17:57:32.000",
    "request_status": "Pending",
    "responsible_agency": "Department of Public Works",
    "final_address": "1923 Foucher St",
    "address_councildis": "B",
    "status": "Pending",
    "rowid": "1161452",
    "final_x": "3673105.33051",
    "final_y": "522516.334138",
    "longitude": "-90.09488499562973",
    "latitude": "29.930990763445987",
    "geocoded_column": {
      "latitude": "29.930990763445987",
      "longitude": "-90.09488499562973"
    }
  },
  {
    "service_request": "2025-1161451",
    "request_type": "Roads and Streets",
    "request_reason": "Street Subsidence (Sinking)",
    "date_created": "2025-01-12T17:54:07.000",
    "date_modified": "2025-01-12T17:54:10.000",
    "request_status": "Pending",
    "responsible_agency": "Department of Public Works",
    "final_address": "922 Arabella St",
    "address_councildis": "A",
    "status": "Pending",
    "rowid": "1161451",
    "final_x": "3665893.62848",
    "final_y": "519444.379767",
    "longitude": "-90.11775433374736",
    "latitude": "29.922756213754994",
    "geocoded_column": {
      "latitude": "29.922756213754994",
      "longitude": "-90.11775433374736"
    }
  },
  {
    "service_request": "2025-1161450",
    "request_type": "Trash/Recycling",
    "request_reason": "MIssed Recycling Pick-Up",
    "date_created": "2025-01-12T17:50:46.000",
    "date_modified": "2025-01-12T17:50:51.000",
    "request_status": "Pending",
    "responsible_agency": "Department of Sanitation",
    "final_address": "210 Portland St",
    "address_councildis": "A",
    "status": "Assigned to Contractor",
    "contractor": "IV Waste",
    "rowid": "1161450",
    "final_x": "3665563.34407",
    "final_y": "551610.167317",
    "longitude": "-90.11771974001162",
    "latitude": "30.01121112128672",
    "geocoded_column": {
      "latitude": "30.01121112128672",
      "longitude": "-90.11771974001162"
    }
  },
  {
    "service_request": "2025-1161449",
    "request_type": "Trash/Recycling",
    "request_reason": "Order Recycling Cart",
    "date_created": "2025-01-12T17:31:35.000",
    "date_modified": "2025-01-12T17:31:37.000",
    "request_status": "Pending",
    "responsible_agency": "Department of Sanitation",
    "final_address": "6331 Louisville St",
    "address_councildis": "A",
    "status": "Pending",
    "rowid": "1161449",
    "final_x": "3668050.18413",
    "final_y": "549641.363412",
    "longitude": "-90.10992919498491",
    "latitude": "30.005724821126833",
    "geocoded_column": {
      "latitude": "30.005724821126833",
      "longitude": "-90.10992919498491"
    }
  },
  {
    "service_request": "2025-1161448",
    "request_type": "Street and Traffic Signs",
    "request_reason": "Traffic or Parking Sign Damaged or Missing",
    "date_created": "2025-01-12T17:29:41.000",
    "date_modified": "2025-01-12T17:29:45.000",
    "request_status": "Pending",
    "responsible_agency": "Department of Public Works",
    "final_address": "LOUISVILLE ST & HARRISON AVE",
    "address_councildis": "A",
    "status": "Pending",
    "rowid": "1161448",
    "final_x": "3667925.9",
    "final_y": "549300.48",
    "longitude": "-90.11033333295704",
    "latitude": "30.0047911584923",
    "geocoded_column": {
      "latitude": "30.0047911584923",
      "longitude": "-90.11033333295704"
    }
  },
  {
    "service_request": "2025-1161447",
    "request_type": "Abandoned Vehicles",
    "request_reason": "Abandoned/Junk Vehicles",
    "date_created": "2025-01-12T17:29:29.000",
    "date_modified": "2025-01-12T17:29:33.000",
    "request_status": "Pending",
    "responsible_agency": "Department of Public Works",
    "final_address": "1829 Eighth St",
    "address_councildis": "B",
    "status": "Pending",
    "rowid": "1161447",
    "final_x": "3674514.76232",
    "final_y": "522698.664698",
    "longitude": "-90.09042936027292",
    "latitude": "29.93145015115798",
    "geocoded_column": {
      "latitude": "29.93145015115798",
      "longitude": "-90.09042936027292"
    }
  },
  {
    "service_request": "2025-1161446",
    "request_type": "Trash/Recycling",
    "request_reason": "Repair Recycling Cart",
    "date_created": "2025-01-12T17:18:02.000",
    "date_modified": "2025-01-12T17:18:03.000",
    "request_status": "Pending",
    "responsible_agency": "Department of Sanitation",
    "final_address": "3412 Dauphine St",
    "address_councildis": "C",
    "status": "Pending",
    "rowid": "1161446",
    "final_x": "3690012.31971",
    "final_y": "534509.972933",
    "longitude": "-90.0410850944212",
    "latitude": "29.96345586901693",
    "geocoded_column": {
      "latitude": "29.96345586901693",
      "longitude": "-90.0410850944212"
    }
  },
  {
    "service_request": "2025-1161445",
    "request_type": "Abandoned Vehicles",
    "request_reason": "Abandoned/Junk Vehicles",
    "date_created": "2025-01-12T17:17:41.000",
    "date_modified": "2025-01-12T17:17:44.000",
    "request_status": "Pending",
    "responsible_agency": "Department of Public Works",
    "final_address": "VERRET ST & DELARONDE ST",
    "address_councildis": "C",
    "status": "Pending",
    "rowid": "1161445",
    "final_x": "3686812.4",
    "final_y": "531175.78",
    "longitude": "-90.05130787527324",
    "latitude": "29.95438682961573",
    "geocoded_column": {
      "latitude": "29.95438682961573",
      "longitude": "-90.05130787527324"
    }
  },
  {
    "service_request": "2025-1161444",
    "request_type": "Christmas Tree Recycle Pick Up",
    "request_reason": "Christmas Tree Recycle Pick Up",
    "date_created": "2025-01-12T17:17:37.000",
    "date_modified": "2025-01-12T17:17:39.000",
    "request_status": "Pending",
    "responsible_agency": "Office of Resilience and Sustainability",
    "final_address": "5465 Bellaire Dr",
    "address_councildis": "A",
    "status": "Pending",
    "contractor": "R&R Recycling",
    "rowid": "1161444",
    "final_x": "3664109.09511",
    "final_y": "544065.682382",
    "longitude": "-90.12256618776034",
    "latitude": "29.990508717677436",
    "geocoded_column": {
      "latitude": "29.990508717677436",
      "longitude": "-90.12256618776034"
    }
  },
  {
    "service_request": "2025-1161443",
    "request_type": "Abandoned Vehicles",
    "request_reason": "Abandoned/Junk Vehicles",
    "date_created": "2025-01-12T17:08:37.000",
    "date_modified": "2025-01-12T17:08:40.000",
    "request_status": "Pending",
    "responsible_agency": "Department of Public Works",
    "final_address": "2612 St Philip St",
    "address_councildis": "D",
    "status": "Pending",
    "rowid": "1161443",
    "final_x": "3677708.56686",
    "final_y": "537567.639944",
    "longitude": "-90.07983340234365",
    "latitude": "29.972239213709376",
    "geocoded_column": {
      "latitude": "29.972239213709376",
      "longitude": "-90.07983340234365"
    }
  },
  {
    "service_request": "2025-1161442",
    "request_type": "Trash/Recycling",
    "request_reason": "Order Recycling Cart",
    "date_created": "2025-01-12T16:50:24.000",
    "date_modified": "2025-01-12T16:50:27.000",
    "request_status": "Pending",
    "responsible_agency": "Department of Sanitation",
    "final_address": "6360 Pratt Dr",
    "address_councildis": "D",
    "status": "Pending",
    "rowid": "1161442",
    "final_x": "3679172.79432",
    "final_y": "557408.021915",
    "longitude": "-90.07452075293",
    "latitude": "30.026749097302783",
    "geocoded_column": {
      "latitude": "30.026749097302783",
      "longitude": "-90.07452075293"
    }
  },
  {
    "service_request": "2025-1161441",
    "request_type": "Christmas Tree Recycle Pick Up",
    "request_reason": "Christmas Tree Recycle Pick Up",
    "date_created": "2025-01-12T16:31:21.000",
    "date_modified": "2025-01-12T16:31:25.000",
    "request_status": "Pending",
    "responsible_agency": "Office of Resilience and Sustainability",
    "final_address": "4214 S Prieur St",
    "address_councildis": "B",
    "status": "Pending",
    "contractor": "R&R Recycling",
    "rowid": "1161441",
    "final_x": "3670853.29614",
    "final_y": "526900.478782",
    "longitude": "-90.10184563455195",
    "latitude": "29.94311247966586",
    "geocoded_column": {
      "latitude": "29.94311247966586",
      "longitude": "-90.10184563455195"
    }
  },
  {
    "service_request": "2025-1161440",
    "request_type": "Trash/Recycling",
    "request_reason": "Order Recycling Cart",
    "date_created": "2025-01-12T16:24:43.000",
    "date_modified": "2025-01-12T16:24:45.000",
    "request_status": "Pending",
    "responsible_agency": "Department of Sanitation",
    "final_address": "5206 Wentworth Dr",
    "address_councildis": "E",
    "status": "Pending",
    "rowid": "1161440",
    "final_x": "3704555.12298",
    "final_y": "556932.070234",
    "longitude": "-89.99433343629862",
    "latitude": "30.024649258318114",
    "geocoded_column": {
      "latitude": "30.024649258318114",
      "longitude": "-89.99433343629862"
    }
  },
  {
    "service_request": "2025-1161439",
    "request_type": "Trash/Recycling",
    "request_reason": "Return Trash Cart",
    "date_created": "2025-01-12T16:23:36.000",
    "date_modified": "2025-01-12T16:23:38.000",
    "request_status": "Pending",
    "responsible_agency": "Department of Sanitation",
    "final_address": "917 S Carrollton Ave",
    "address_councildis": "A",
    "status": "Assigned to Contractor",
    "contractor": "IV Waste",
    "rowid": "1161439",
    "final_x": "3661480.68326",
    "final_y": "527593.346111",
    "longitude": "-90.13141450825945",
    "latitude": "29.945291295623804",
    "geocoded_column": {
      "latitude": "29.945291295623804",
      "longitude": "-90.13141450825945"
    }
  },
  {
    "service_request": "2025-1161438",
    "request_type": "Trash/Recycling",
    "request_reason": "Request a Large Item Pick Up",
    "date_created": "2025-01-12T16:22:58.000",
    "date_modified": "2025-01-12T16:23:00.000",
    "request_status": "Pending",
    "responsible_agency": "Department of Sanitation",
    "final_address": "5206 Wentworth Dr",
    "address_councildis": "E",
    "status": "Assigned to Contractor",
    "contractor": "Waste Pro",
    "rowid": "1161438",
    "final_x": "3704555.12298",
    "final_y": "556932.070234",
    "longitude": "-89.99433343629862",
    "latitude": "30.024649258318114",
    "geocoded_column": {
      "latitude": "30.024649258318114",
      "longitude": "-89.99433343629862"
    }
  },
  {
    "service_request": "2025-1161437",
    "request_type": "Christmas Tree Recycle Pick Up",
    "request_reason": "Christmas Tree Recycle Pick Up",
    "date_created": "2025-01-12T15:33:45.000",
    "date_modified": "2025-01-12T15:33:48.000",
    "request_status": "Pending",
    "responsible_agency": "Office of Resilience and Sustainability",
    "final_address": "857 Roosevelt Pl",
    "address_councildis": "A",
    "status": "Pending",
    "contractor": "R&R Recycling",
    "rowid": "1161437",
    "final_x": "3673549.38376",
    "final_y": "540076.199371",
    "longitude": "-90.09288306491281",
    "latitude": "29.979261351065553",
    "geocoded_column": {
      "latitude": "29.979261351065553",
      "longitude": "-90.09288306491281"
    }
  },
  {
    "service_request": "2025-1161436",
    "request_type": "Trash/Recycling",
    "request_reason": "Damaged Caused By Contractor",
    "date_created": "2025-01-12T15:19:20.000",
    "date_modified": "2025-01-12T15:19:25.000",
    "request_status": "Pending",
    "responsible_agency": "Department of Sanitation",
    "final_address": "4321 State Street Dr",
    "address_councildis": "B",
    "status": "Assigned to Contractor",
    "contractor": "IV Waste",
    "rowid": "1161436",
    "final_x": "3668600.20225",
    "final_y": "531357.104386",
    "longitude": "-90.10880886433822",
    "latitude": "29.955433137787228",
    "geocoded_column": {
      "latitude": "29.955433137787228",
      "longitude": "-90.10880886433822"
    }
  },
  {
    "service_request": "2025-1161435",
    "request_type": "Roads and Streets",
    "request_reason": "Street Subsidence (Sinking)",
    "date_created": "2025-01-12T15:06:25.000",
    "date_modified": "2025-01-12T15:06:28.000",
    "request_status": "Pending",
    "responsible_agency": "Department of Public Works",
    "final_address": "726 Louque Pl",
    "address_councildis": "A",
    "status": "Pending",
    "rowid": "1161435",
    "final_x": "3668444.11348",
    "final_y": "543495.275342",
    "longitude": "-90.10889216615112",
    "latitude": "29.98881362905192",
    "geocoded_column": {
      "latitude": "29.98881362905192",
      "longitude": "-90.10889216615112"
    }
  },
  {
    "service_request": "2025-1161434",
    "request_type": "Trash/Recycling",
    "request_reason": "Replace Recycling Cart",
    "date_created": "2025-01-12T14:35:59.000",
    "date_modified": "2025-01-12T14:36:02.000",
    "request_status": "Pending",
    "responsible_agency": "Department of Sanitation",
    "final_address": "630 Napoleon Ave",
    "address_councildis": "B",
    "status": "Pending",
    "rowid": "1161434",
    "final_x": "3671042.34151",
    "final_y": "517975.564662",
    "longitude": "-90.10155168626466",
    "latitude": "29.918566245175832",
    "geocoded_column": {
      "latitude": "29.918566245175832",
      "longitude": "-90.10155168626466"
    }
  },
  {
    "service_request": "2025-1161433",
    "request_type": "Christmas Tree Recycle Pick Up",
    "request_reason": "Christmas Tree Recycle Pick Up",
    "date_created": "2025-01-12T14:19:10.000",
    "date_modified": "2025-01-12T14:19:13.000",
    "request_status": "Pending",
    "responsible_agency": "Office of Resilience and Sustainability",
    "final_address": "917 Hillary St",
    "address_councildis": "A",
    "status": "Pending",
    "contractor": "R&R Recycling",
    "rowid": "1161433",
    "final_x": "3662665.65216",
    "final_y": "526423.723262",
    "longitude": "-90.12771202280595",
    "latitude": "29.94204097557979",
    "geocoded_column": {
      "latitude": "29.94204097557979",
      "longitude": "-90.12771202280595"
    }
  },
  {
    "service_request": "2025-1161432",
    "request_type": "Trash/Recycling",
    "request_reason": "Request a Large Item Pick Up",
    "date_created": "2025-01-12T14:18:15.000",
    "date_modified": "2025-01-12T14:18:18.000",
    "request_status": "Pending",
    "responsible_agency": "Department of Sanitation",
    "final_address": "917 Hillary St",
    "address_councildis": "A",
    "status": "Assigned to Contractor",
    "contractor": "IV Waste",
    "rowid": "1161432",
    "final_x": "3662665.65216",
    "final_y": "526423.723262",
    "longitude": "-90.12771202280595",
    "latitude": "29.94204097557979",
    "geocoded_column": {
      "latitude": "29.94204097557979",
      "longitude": "-90.12771202280595"
    }
  },
  {
    "service_request": "2025-1161431",
    "request_type": "Drainage",
    "request_reason": "Drainage Manhole Cover Missing or Damaged",
    "date_created": "2025-01-12T13:48:20.000",
    "date_modified": "2025-01-12T13:48:23.000",
    "request_status": "Pending",
    "responsible_agency": "Department of Public Works",
    "final_address": "2408 Valence St",
    "address_councildis": "B",
    "status": "Pending",
    "rowid": "1161431",
    "final_x": "3669397.30945",
    "final_y": "523673.356795",
    "longitude": "-90.10655164498321",
    "latitude": "29.93428188289645",
    "geocoded_column": {
      "latitude": "29.93428188289645",
      "longitude": "-90.10655164498321"
    }
  },
  {
    "service_request": "2025-1161430",
    "request_type": "Trash/Recycling",
    "request_reason": "Request a Large Item Pick Up",
    "date_created": "2025-01-12T13:16:50.000",
    "date_modified": "2025-01-12T13:16:55.000",
    "request_status": "Pending",
    "responsible_agency": "Department of Sanitation",
    "final_address": "272 Bellaire Dr",
    "address_councildis": "A",
    "status": "Assigned to Contractor",
    "contractor": "IV Waste",
    "rowid": "1161430",
    "final_x": "3663861.02675",
    "final_y": "541382.320716",
    "longitude": "-90.12343927578591",
    "latitude": "29.983137582735036",
    "geocoded_column": {
      "latitude": "29.983137582735036",
      "longitude": "-90.12343927578591"
    }
  },
  {
    "service_request": "2025-1161429",
    "request_type": "Trash/Recycling",
    "request_reason": "Replace Recycling Cart",
    "date_created": "2025-01-12T12:55:58.000",
    "date_modified": "2025-01-12T12:56:02.000",
    "request_status": "Pending",
    "responsible_agency": "Department of Sanitation",
    "final_address": "535 Marigny St",
    "address_councildis": "C",
    "status": "Pending",
    "rowid": "1161429",
    "final_x": "3685593.88553",
    "final_y": "534479.830853",
    "longitude": "-90.05503906617052",
    "latitude": "29.963509264214558",
    "geocoded_column": {
      "latitude": "29.963509264214558",
      "longitude": "-90.05503906617052"
    }
  },
  {
    "service_request": "2025-1161428",
    "request_type": "Trash/Recycling",
    "request_reason": "MIssed Recycling Pick-Up",
    "date_created": "2025-01-12T12:45:26.000",
    "date_modified": "2025-01-12T12:45:30.000",
    "request_status": "Pending",
    "responsible_agency": "Department of Sanitation",
    "final_address": "2015 Sixth St",
    "address_councildis": "B",
    "status": "Assigned to Contractor",
    "contractor": "IV Waste",
    "rowid": "1161428",
    "final_x": "3674655.1611",
    "final_y": "523585.780283",
    "longitude": "-90.08995574861271",
    "latitude": "29.933885242539358",
    "geocoded_column": {
      "latitude": "29.933885242539358",
      "longitude": "-90.08995574861271"
    }
  },
  {
    "service_request": "2025-1161427",
    "request_type": "Trash/Recycling",
    "request_reason": "Request a Large Item Pick Up",
    "date_created": "2025-01-12T12:32:34.000",
    "date_modified": "2025-01-12T12:32:37.000",
    "request_status": "Pending",
    "responsible_agency": "Department of Sanitation",
    "final_address": "606 N Olympia St",
    "address_councildis": "A",
    "status": "Assigned to Contractor",
    "contractor": "IV Waste",
    "rowid": "1161427",
    "final_x": "3670566.39687",
    "final_y": "541082.561676",
    "longitude": "-90.10227038244076",
    "latitude": "29.982116962290103",
    "geocoded_column": {
      "latitude": "29.982116962290103",
      "longitude": "-90.10227038244076"
    }
  },
  {
    "service_request": "2025-1161426",
    "request_type": "Trash/Recycling",
    "request_reason": "Order Recycling Cart",
    "date_created": "2025-01-12T12:29:29.000",
    "date_modified": "2025-01-12T12:29:33.000",
    "request_status": "Pending",
    "responsible_agency": "Department of Sanitation",
    "final_address": "2128 Palmer Ave",
    "address_councildis": "A",
    "status": "Pending",
    "rowid": "1161426",
    "final_x": "3665976.7145",
    "final_y": "524890.216124",
    "longitude": "-90.11730963012472",
    "latitude": "29.937728113787188",
    "geocoded_column": {
      "latitude": "29.937728113787188",
      "longitude": "-90.11730963012472"
    }
  },
  {
    "service_request": "2025-1161425",
    "request_type": "Property Maintenance",
    "request_reason": "Property Maintenance",
    "date_created": "2025-01-12T12:08:13.000",
    "date_modified": "2025-01-12T12:08:17.000",
    "request_status": "Pending",
    "responsible_agency": "Department of Code Enforcement",
    "final_address": "2913 N Rocheblave St",
    "address_councildis": "D",
    "status": "Pending",
    "rowid": "1161425",
    "final_x": "3688807.04316",
    "final_y": "541282.793164",
    "longitude": "-90.0446506755706",
    "latitude": "29.982116060905664",
    "geocoded_column": {
      "latitude": "29.982116060905664",
      "longitude": "-90.0446506755706"
    }
  },
  {
    "service_request": "2025-1161424",
    "request_type": "Trash/Recycling",
    "request_reason": "Repair Recycling Cart",
    "date_created": "2025-01-12T12:06:39.000",
    "date_modified": "2025-01-12T12:06:42.000",
    "request_status": "Pending",
    "responsible_agency": "Department of Sanitation",
    "final_address": "823 N Gayoso St",
    "address_councildis": "A",
    "status": "Pending",
    "rowid": "1161424",
    "final_x": "3675977.62766",
    "final_y": "538195.910985",
    "longitude": "-90.08527839565338",
    "latitude": "29.974018697805786",
    "geocoded_column": {
      "latitude": "29.974018697805786",
      "longitude": "-90.08527839565338"
    }
  },
  {
    "service_request": "2025-1161423",
    "request_type": "Property Maintenance",
    "request_reason": "Property Maintenance",
    "date_created": "2025-01-12T12:05:03.000",
    "date_modified": "2025-01-12T12:05:06.000",
    "request_status": "Pending",
    "responsible_agency": "Department of Code Enforcement",
    "final_address": "2913 N Rocheblave St",
    "address_councildis": "D",
    "status": "Pending",
    "rowid": "1161423",
    "final_x": "3688807.04316",
    "final_y": "541282.793164",
    "longitude": "-90.0446506755706",
    "latitude": "29.982116060905664",
    "geocoded_column": {
      "latitude": "29.982116060905664",
      "longitude": "-90.0446506755706"
    }
  },
  {
    "service_request": "2025-1161422",
    "request_type": "Street and Traffic Signs",
    "request_reason": "Traffic or Parking Sign Damaged or Missing",
    "date_created": "2025-01-12T11:57:39.000",
    "date_modified": "2025-01-12T11:57:42.000",
    "request_status": "Pending",
    "responsible_agency": "Department of Public Works",
    "final_address": "400 BLK Lowerline St",
    "address_councildis": "A",
    "status": "Pending",
    "rowid": "1161422",
    "final_x": "3662107.89819",
    "final_y": "524479.317955",
    "longitude": "-90.12953747464479",
    "latitude": "29.936710602481355",
    "geocoded_column": {
      "latitude": "29.936710602481355",
      "longitude": "-90.12953747464479"
    }
  },
  {
    "service_request": "2025-1161421",
    "request_type": "Streetlights",
    "request_reason": "Streetlight Outage/Malfunction",
    "date_created": "2025-01-12T11:53:08.000",
    "date_modified": "2025-01-12T11:53:09.000",
    "request_status": "Pending",
    "responsible_agency": "Department of Public Works",
    "final_address": "LOWERLINE ST & BENJAMIN ST",
    "address_councildis": "A",
    "status": "Pending",
    "contractor": "Legacy Professional Services",
    "rowid": "1161421",
    "final_x": "3661889.1",
    "final_y": "524164.38",
    "longitude": "-90.13023867361595",
    "latitude": "29.935850941304633",
    "geocoded_column": {
      "latitude": "29.935850941304633",
      "longitude": "-90.13023867361595"
    }
  },
  {
    "service_request": "2025-1161420",
    "request_type": "Traffic Signals",
    "request_reason": "Traffic Signal Malfunctioning or Damaged",
    "date_created": "2025-01-12T11:44:13.000",
    "date_modified": "2025-01-12T11:44:16.000",
    "request_status": "Pending",
    "responsible_agency": "Department of Public Works",
    "final_address": "ST CLAUDE AVE & ST ROCH AVE",
    "address_councildis": "C",
    "status": "Pending",
    "rowid": "1161420",
    "final_x": "3686495.6",
    "final_y": "536426.28",
    "longitude": "-90.05212282583256",
    "latitude": "29.968833632178853",
    "geocoded_column": {
      "latitude": "29.968833632178853",
      "longitude": "-90.05212282583256"
    }
  },
  {
    "service_request": "2025-1161419",
    "request_type": "Traffic Signals",
    "request_reason": "Traffic Signal Malfunctioning or Damaged",
    "date_created": "2025-01-12T11:43:23.000",
    "date_modified": "2025-01-12T11:43:28.000",
    "request_status": "Pending",
    "responsible_agency": "Department of Public Works",
    "final_address": "ST CLAUDE AVE & FRANKLIN AVE",
    "address_councildis": "C",
    "status": "Pending",
    "rowid": "1161419",
    "final_x": "3687142.0",
    "final_y": "536541.28",
    "longitude": "-90.05007739220818",
    "latitude": "29.969129952628567",
    "geocoded_column": {
      "latitude": "29.969129952628567",
      "longitude": "-90.05007739220818"
    }
  },
  {
    "service_request": "2025-1161418",
    "request_type": "Trash/Recycling",
    "request_reason": "Request a Large Item Pick Up",
    "date_created": "2025-01-12T11:23:18.000",
    "date_modified": "2025-01-12T11:23:21.000",
    "request_status": "Pending",
    "responsible_agency": "Department of Sanitation",
    "final_address": "1725 Delachaise St",
    "address_councildis": "B",
    "status": "Assigned to Contractor",
    "contractor": "IV Waste",
    "rowid": "1161418",
    "final_x": "3673621.01499",
    "final_y": "521958.910842",
    "longitude": "-90.0932760907818",
    "latitude": "29.929442693780985",
    "geocoded_column": {
      "latitude": "29.929442693780985",
      "longitude": "-90.0932760907818"
    }
  },
  {
    "service_request": "2025-1161417",
    "request_type": "Christmas Tree Recycle Pick Up",
    "request_reason": "Christmas Tree Recycle Pick Up",
    "date_created": "2025-01-12T11:16:00.000",
    "date_modified": "2025-01-12T11:16:04.000",
    "request_status": "Pending",
    "responsible_agency": "Office of Resilience and Sustainability",
    "final_address": "3327 Calhoun St",
    "address_councildis": "A",
    "status": "Pending",
    "contractor": "R&R Recycling",
    "rowid": "1161417",
    "final_x": "3667556.25735",
    "final_y": "529001.61504",
    "longitude": "-90.11218454208347",
    "latitude": "29.948986945703986",
    "geocoded_column": {
      "latitude": "29.948986945703986",
      "longitude": "-90.11218454208347"
    }
  },
  {
    "service_request": "2025-1161416",
    "request_type": "Trash/Recycling",
    "request_reason": "Request a Large Item Pick Up",
    "date_created": "2025-01-12T11:09:53.000",
    "date_modified": "2025-01-12T11:09:55.000",
    "request_status": "Pending",
    "responsible_agency": "Department of Sanitation",
    "final_address": "14050 Linden St",
    "address_councildis": "E",
    "status": "Assigned to Contractor",
    "contractor": "Waste Pro",
    "rowid": "1161416",
    "final_x": "3718560.4309",
    "final_y": "572546.039273",
    "longitude": "-89.94948375214332",
    "latitude": "30.06712383048706",
    "geocoded_column": {
      "latitude": "30.06712383048706",
      "longitude": "-89.94948375214332"
    }
  },
  {
    "service_request": "2025-1161415",
    "request_type": "Trash/Recycling",
    "request_reason": "Request a Large Item Pick Up",
    "date_created": "2025-01-12T11:09:19.000",
    "date_modified": "2025-01-12T11:09:23.000",
    "request_status": "Pending",
    "responsible_agency": "Department of Sanitation",
    "final_address": "3817 Palmyra St",
    "address_councildis": "A",
    "status": "Assigned to Contractor",
    "contractor": "IV Waste",
    "rowid": "1161415",
    "final_x": "3671489.92289",
    "final_y": "537096.625288",
    "longitude": "-90.09948899924301",
    "latitude": "29.971129674039933",
    "geocoded_column": {
      "latitude": "29.971129674039933",
      "longitude": "-90.09948899924301"
    }
  },
  {
    "service_request": "2025-1161414",
    "request_type": "Trash/Recycling",
    "request_reason": "Order Recycling Cart",
    "date_created": "2025-01-12T11:05:31.000",
    "date_modified": "2025-01-12T11:05:35.000",
    "request_status": "Pending",
    "responsible_agency": "Department of Sanitation",
    "final_address": "1526 Ursulines Ave",
    "address_councildis": "C",
    "status": "Pending",
    "rowid": "1161414",
    "final_x": "3681020.07919",
    "final_y": "535465.905158",
    "longitude": "-90.06944830429948",
    "latitude": "29.96636014011149",
    "geocoded_column": {
      "latitude": "29.96636014011149",
      "longitude": "-90.06944830429948"
    }
  },
  {
    "service_request": "2025-1161413",
    "request_type": "Christmas Tree Recycle Pick Up",
    "request_reason": "Christmas Tree Recycle Pick Up",
    "date_created": "2025-01-12T10:54:50.000",
    "date_modified": "2025-01-12T10:54:53.000",
    "request_status": "Pending",
    "responsible_agency": "Office of Resilience and Sustainability",
    "final_address": "4424 N Rampart St",
    "address_councildis": "C",
    "status": "Pending",
    "contractor": "R&R Recycling",
    "rowid": "1161413",
    "final_x": "3693143.1864",
    "final_y": "534478.685509",
    "longitude": "-90.03119932140945",
    "latitude": "29.963272380380886",
    "geocoded_column": {
      "latitude": "29.963272380380886",
      "longitude": "-90.03119932140945"
    }
  },
  {
    "service_request": "2025-1161412",
    "request_type": "Trash/Recycling",
    "request_reason": "Replace Trash Cart",
    "date_created": "2025-01-12T10:53:09.000",
    "date_modified": "2025-01-12T10:53:11.000",
    "request_status": "Pending",
    "responsible_agency": "Department of Sanitation",
    "final_address": "419 Eleonore St",
    "address_councildis": "A",
    "status": "Assigned to Contractor",
    "contractor": "IV Waste",
    "rowid": "1161412",
    "final_x": "3665010.26464",
    "final_y": "517888.92095",
    "longitude": "-90.12059474199943",
    "latitude": "29.918504926886353",
    "geocoded_column": {
      "latitude": "29.918504926886353",
      "longitude": "-90.12059474199943"
    }
  },
  {
    "service_request": "2025-1161411",
    "request_type": "Abandoned Vehicles",
    "request_reason": "Abandoned/Junk Vehicles",
    "date_created": "2025-01-12T10:52:54.000",
    "date_modified": "2025-01-12T10:52:57.000",
    "request_status": "Pending",
    "responsible_agency": "Department of Public Works",
    "final_address": "6050 Milne Blvd",
    "address_councildis": "A",
    "status": "Pending",
    "rowid": "1161411",
    "final_x": "3667001.05805",
    "final_y": "547970.166674",
    "longitude": "-90.11329985328064",
    "latitude": "30.00116036742251",
    "geocoded_column": {
      "latitude": "30.00116036742251",
      "longitude": "-90.11329985328064"
    }
  },
  {
    "service_request": "2025-1161410",
    "request_type": "Utility Poles",
    "request_reason": "Utility Pole Leaning",
    "date_created": "2025-01-12T10:48:53.000",
    "date_modified": "2025-01-12T10:48:59.000",
    "request_status": "Pending",
    "responsible_agency": "Utility Company Collective",
    "final_address": "1401 Governor Nicholls St",
    "address_councildis": "C",
    "status": "Pending",
    "rowid": "1161410",
    "final_x": "3681700.43893",
    "final_y": "535558.060294",
    "longitude": "-90.06729652543467",
    "latitude": "29.966592882719535",
    "geocoded_column": {
      "latitude": "29.966592882719535",
      "longitude": "-90.06729652543467"
    }
  },
  {
    "service_request": "2025-1161409",
    "request_type": "Traffic Signals",
    "request_reason": "Traffic Signal Malfunctioning or Damaged",
    "date_created": "2025-01-12T10:45:13.000",
    "date_modified": "2025-01-12T10:45:16.000",
    "request_status": "Pending",
    "responsible_agency": "Department of Public Works",
    "final_address": "N GALVEZ ST & ALMONASTER AVE",
    "address_councildis": "D",
    "status": "Pending",
    "rowid": "1161409",
    "final_x": "3688081.7",
    "final_y": "540222.18",
    "longitude": "-90.04697926021795",
    "latitude": "29.979222161507888",
    "geocoded_column": {
      "latitude": "29.979222161507888",
      "longitude": "-90.04697926021795"
    }
  },
  {
    "service_request": "2025-1161408",
    "request_type": "Traffic Signals",
    "request_reason": "Traffic Signal Malfunctioning or Damaged",
    "date_created": "2025-01-12T10:39:08.000",
    "date_modified": "2025-01-12T10:39:13.000",
    "request_status": "Pending",
    "responsible_agency": "Department of Public Works",
    "final_address": "ST CLAUDE AVE & ELYSIAN FIELDS AVE",
    "address_councildis": "C",
    "status": "Pending",
    "rowid": "1161408",
    "final_x": "3684962.3",
    "final_y": "536299.18",
    "longitude": "-90.05696954489969",
    "latitude": "29.96853120354274",
    "geocoded_column": {
      "latitude": "29.96853120354274",
      "longitude": "-90.05696954489969"
    }
  },
  {
    "service_request": "2025-1161407",
    "request_type": "Property Maintenance",
    "request_reason": "Property Maintenance",
    "date_created": "2025-01-12T10:33:45.000",
    "date_modified": "2025-01-12T10:33:49.000",
    "request_status": "Pending",
    "responsible_agency": "Department of Code Enforcement",
    "final_address": "2432 Delachaise St",
    "address_councildis": "B",
    "status": "Pending",
    "rowid": "1161407",
    "final_x": "3672559.0722",
    "final_y": "524225.258812",
    "longitude": "-90.09655123245986",
    "latitude": "29.935705976592367",
    "geocoded_column": {
      "latitude": "29.935705976592367",
      "longitude": "-90.09655123245986"
    }
  },
  {
    "service_request": "2025-1161406",
    "request_type": "Christmas Tree Recycle Pick Up",
    "request_reason": "Christmas Tree Recycle Pick Up",
    "date_created": "2025-01-12T10:17:14.000",
    "date_modified": "2025-01-12T10:17:16.000",
    "request_status": "Pending",
    "responsible_agency": "Office of Resilience and Sustainability",
    "final_address": "2429 Baronne St",
    "address_councildis": "B",
    "status": "Pending",
    "contractor": "R&R Recycling",
    "rowid": "1161406",
    "final_x": "3676325.46901",
    "final_y": "523719.740411",
    "longitude": "-90.08467804647196",
    "latitude": "29.9342036459368",
    "geocoded_column": {
      "latitude": "29.9342036459368",
      "longitude": "-90.08467804647196"
    }
  },
  {
    "service_request": "2025-1161405",
    "request_type": "Trash/Recycling",
    "request_reason": "Request a Large Item Pick Up",
    "date_created": "2025-01-12T10:13:47.000",
    "date_modified": "2025-01-12T10:13:50.000",
    "request_status": "Pending",
    "responsible_agency": "Department of Sanitation",
    "final_address": "1115 N Dupre St",
    "address_councildis": "A",
    "status": "Assigned to Contractor",
    "contractor": "IV Waste",
    "rowid": "1161405",
    "final_x": "3676839.22945",
    "final_y": "538995.914762",
    "longitude": "-90.0825296800699",
    "latitude": "29.976192601313173",
    "geocoded_column": {
      "latitude": "29.976192601313173",
      "longitude": "-90.0825296800699"
    }
  },
  {
    "service_request": "2025-1161404",
    "request_type": "Christmas Tree Recycle Pick Up",
    "request_reason": "Christmas Tree Recycle Pick Up",
    "date_created": "2025-01-12T10:12:18.000",
    "date_modified": "2025-01-12T10:12:22.000",
    "request_status": "Pending",
    "responsible_agency": "Office of Resilience and Sustainability",
    "final_address": "622 Napoleon Ave",
    "address_councildis": "B",
    "status": "Pending",
    "contractor": "R&R Recycling",
    "rowid": "1161404",
    "final_x": "3671050.15284",
    "final_y": "517934.596918",
    "longitude": "-90.10152842011257",
    "latitude": "29.91845336596243",
    "geocoded_column": {
      "latitude": "29.91845336596243",
      "longitude": "-90.10152842011257"
    }
  },
  {
    "service_request": "2025-1161403",
    "request_type": "Trash/Recycling",
    "request_reason": "Request a Large Item Pick Up",
    "date_created": "2025-01-12T10:04:26.000",
    "date_modified": "2025-01-12T10:04:29.000",
    "request_status": "Pending",
    "responsible_agency": "Department of Sanitation",
    "final_address": "5609 Canal Blvd",
    "address_councildis": "A",
    "status": "Assigned to Contractor",
    "contractor": "IV Waste",
    "rowid": "1161403",
    "final_x": "3668409.06055",
    "final_y": "544722.813583",
    "longitude": "-90.1089614563456",
    "latitude": "29.99218996901636",
    "geocoded_column": {
      "latitude": "29.99218996901636",
      "longitude": "-90.1089614563456"
    }
  },
  {
    "service_request": "2025-1161402",
    "request_type": "Drainage",
    "request_reason": "Alley Way Drainage Issue",
    "date_created": "2025-01-12T10:02:35.000",
    "date_modified": "2025-01-12T10:02:38.000",
    "request_status": "Pending",
    "responsible_agency": "Department of Public Works",
    "final_address": "4524 Bancroft Dr",
    "address_councildis": "D",
    "status": "Pending",
    "rowid": "1161402",
    "final_x": "3676211.06273",
    "final_y": "548833.307795",
    "longitude": "-90.08417490897072",
    "latitude": "30.00326084524604",
    "geocoded_column": {
      "latitude": "30.00326084524604",
      "longitude": "-90.08417490897072"
    }
  },
  {
    "service_request": "2025-1161401",
    "request_type": "Roads and Streets",
    "request_reason": "Pothole",
    "date_created": "2025-01-12T10:01:54.000",
    "date_modified": "2025-01-12T10:02:00.000",
    "request_status": "Pending",
    "responsible_agency": "Department of Public Works",
    "final_address": "2900 BLK Napoleon Ave",
    "address_councildis": "B",
    "status": "Pending",
    "rowid": "1161401",
    "final_x": "3670337.9503",
    "final_y": "525609.416089",
    "longitude": "-90.10351646302699",
    "latitude": "29.939577695684584",
    "geocoded_column": {
      "latitude": "29.939577695684584",
      "longitude": "-90.10351646302699"
    }
  },
  {
    "service_request": "2025-1161400",
    "request_type": "Roads and Streets",
    "request_reason": "Pothole",
    "date_created": "2025-01-12T10:01:17.000",
    "date_modified": "2025-01-12T10:01:22.000",
    "request_status": "Pending",
    "responsible_agency": "Department of Public Works",
    "final_address": "2800 BLK Napoleon Ave",
    "address_councildis": "B",
    "status": "Pending",
    "rowid": "1161400",
    "final_x": "3670372.25371",
    "final_y": "525254.094621",
    "longitude": "-90.10342020327907",
    "latitude": "29.938599664271788",
    "geocoded_column": {
      "latitude": "29.938599664271788",
      "longitude": "-90.10342020327907"
    }
  },
  {
    "service_request": "2025-1161399",
    "request_type": "Roads and Streets",
    "request_reason": "Pothole",
    "date_created": "2025-01-12T10:00:29.000",
    "date_modified": "2025-01-12T10:00:48.000",
    "request_status": "Pending",
    "responsible_agency": "Department of Public Works",
    "final_address": "2700 BLK Napoleon Ave",
    "address_councildis": "B",
    "status": "Pending",
    "rowid": "1161399",
    "final_x": "3670405.19426",
    "final_y": "524907.733765",
    "longitude": "-90.10332794440693",
    "latitude": "29.937646311674932",
    "geocoded_column": {
      "latitude": "29.937646311674932",
      "longitude": "-90.10332794440693"
    }
  },
  {
    "service_request": "2025-1161398",
    "request_type": "Roads and Streets",
    "request_reason": "Pothole",
    "date_created": "2025-01-12T09:59:54.000",
    "date_modified": "2025-01-12T09:59:55.000",
    "request_status": "Pending",
    "responsible_agency": "Department of Public Works",
    "final_address": "2600 BLK Napoleon Ave",
    "address_councildis": "B",
    "status": "Pending",
    "rowid": "1161398",
    "final_x": "3670438.02129",
    "final_y": "524561.878157",
    "longitude": "-90.10323602856222",
    "latitude": "29.936694351512603",
    "geocoded_column": {
      "latitude": "29.936694351512603",
      "longitude": "-90.10323602856222"
    }
  },
  {
    "service_request": "2025-1161397",
    "request_type": "Roads and Streets",
    "request_reason": "Pothole",
    "date_created": "2025-01-12T09:59:19.000",
    "date_modified": "2025-01-12T09:59:21.000",
    "request_status": "Pending",
    "responsible_agency": "Department of Public Works",
    "final_address": "2500 BLK Napoleon Ave",
    "address_councildis": "B",
    "status": "Pending",
    "rowid": "1161397",
    "final_x": "3670555.30977",
    "final_y": "524219.823395",
    "longitude": "-90.10287733886118",
    "latitude": "29.935750348622886",
    "geocoded_column": {
      "latitude": "29.935750348622886",
      "longitude": "-90.10287733886118"
    }
  },
  {
    "service_request": "2025-1161396",
    "request_type": "Roads and Streets",
    "request_reason": "Pothole",
    "date_created": "2025-01-12T09:58:44.000",
    "date_modified": "2025-01-12T09:58:46.000",
    "request_status": "Pending",
    "responsible_agency": "Department of Public Works",
    "final_address": "2400 BLK Napoleon Ave",
    "address_councildis": "B",
    "status": "Pending",
    "rowid": "1161396",
    "final_x": "3670511.63893",
    "final_y": "523864.280799",
    "longitude": "-90.10302726068878",
    "latitude": "29.93477401053035",
    "geocoded_column": {
      "latitude": "29.93477401053035",
      "longitude": "-90.10302726068878"
    }
  },
  {
    "service_request": "2025-1161395",
    "request_type": "Roads and Streets",
    "request_reason": "Pothole",
    "date_created": "2025-01-12T09:58:06.000",
    "date_modified": "2025-01-12T09:58:09.000",
    "request_status": "Pending",
    "responsible_agency": "Department of Public Works",
    "final_address": "2300 BLK Napoleon Ave",
    "address_councildis": "B",
    "status": "Pending",
    "rowid": "1161395",
    "final_x": "3670623.25681",
    "final_y": "523523.606612",
    "longitude": "-90.1026864349262",
    "latitude": "29.93383397043339",
    "geocoded_column": {
      "latitude": "29.93383397043339",
      "longitude": "-90.1026864349262"
    }
  },
  {
    "service_request": "2025-1161394",
    "request_type": "Roads and Streets",
    "request_reason": "Pothole",
    "date_created": "2025-01-12T09:57:30.000",
    "date_modified": "2025-01-12T09:57:32.000",
    "request_status": "Pending",
    "responsible_agency": "Department of Public Works",
    "final_address": "2200 BLK Napoleon Ave",
    "address_councildis": "B",
    "status": "Pending",
    "rowid": "1161394",
    "final_x": "3670579.99542",
    "final_y": "523168.250695",
    "longitude": "-90.10283505680812",
    "latitude": "29.932858133528907",
    "geocoded_column": {
      "latitude": "29.932858133528907",
      "longitude": "-90.10283505680812"
    }
  },
  {
    "service_request": "2025-1161393",
    "request_type": "Roads and Streets",
    "request_reason": "Pothole",
    "date_created": "2025-01-12T09:56:52.000",
    "date_modified": "2025-01-12T09:57:10.000",
    "request_status": "Pending",
    "responsible_agency": "Department of Public Works",
    "final_address": "2100 BLK Napoleon Ave",
    "address_councildis": "B",
    "status": "Pending",
    "rowid": "1161393",
    "final_x": "3670615.30211",
    "final_y": "522818.083089",
    "longitude": "-90.10273546822552",
    "latitude": "29.931894242586544",
    "geocoded_column": {
      "latitude": "29.931894242586544",
      "longitude": "-90.10273546822552"
    }
  },
  {
    "service_request": "2025-1161392",
    "request_type": "Roads and Streets",
    "request_reason": "Pothole",
    "date_created": "2025-01-12T09:55:37.000",
    "date_modified": "2025-01-12T09:55:39.000",
    "request_status": "Pending",
    "responsible_agency": "Department of Public Works",
    "final_address": "2000 BLK Napoleon Ave",
    "address_councildis": "B",
    "status": "Pending",
    "rowid": "1161392",
    "final_x": "3670728.72937",
    "final_y": "522474.301624",
    "longitude": "-90.10238904844286",
    "latitude": "29.930945603914353",
    "geocoded_column": {
      "latitude": "29.930945603914353",
      "longitude": "-90.10238904844286"
    }
  },
  {
    "service_request": "2025-1161391",
    "request_type": "Roads and Streets",
    "request_reason": "Pothole",
    "date_created": "2025-01-12T09:54:51.000",
    "date_modified": "2025-01-12T09:54:54.000",
    "request_status": "Pending",
    "responsible_agency": "Department of Public Works",
    "final_address": "1900 BLK Napoleon Ave",
    "address_councildis": "B",
    "status": "Pending",
    "rowid": "1161391",
    "final_x": "3670762.96126",
    "final_y": "522123.338743",
    "longitude": "-90.10229288602055",
    "latitude": "29.9299795573931",
    "geocoded_column": {
      "latitude": "29.9299795573931",
      "longitude": "-90.10229288602055"
    }
  },
  {
    "service_request": "2025-1161390",
    "request_type": "Roads and Streets",
    "request_reason": "Pothole",
    "date_created": "2025-01-12T09:54:04.000",
    "date_modified": "2025-01-12T09:54:07.000",
    "request_status": "Pending",
    "responsible_agency": "Department of Public Works",
    "final_address": "1800 BLK Napoleon Ave",
    "address_councildis": "B",
    "status": "Pending",
    "rowid": "1161390",
    "final_x": "3670719.66148",
    "final_y": "521766.617672",
    "longitude": "-90.10244167349475",
    "latitude": "29.928999967839044",
    "geocoded_column": {
      "latitude": "29.928999967839044",
      "longitude": "-90.10244167349475"
    }
  },
  {
    "service_request": "2025-1161389",
    "request_type": "Roads and Streets",
    "request_reason": "Pothole",
    "date_created": "2025-01-12T09:53:18.000",
    "date_modified": "2025-01-12T09:53:20.000",
    "request_status": "Pending",
    "responsible_agency": "Department of Public Works",
    "final_address": "1700 BLK Napoleon Ave",
    "address_councildis": "B",
    "status": "Pending",
    "rowid": "1161389",
    "final_x": "3670754.61252",
    "final_y": "521416.015355",
    "longitude": "-90.10234323001183",
    "latitude": "29.928034891303422",
    "geocoded_column": {
      "latitude": "29.928034891303422",
      "longitude": "-90.10234323001183"
    }
  },
  {
    "service_request": "2025-1161388",
    "request_type": "Roads and Streets",
    "request_reason": "Pothole",
    "date_created": "2025-01-12T09:52:32.000",
    "date_modified": "2025-01-12T09:52:35.000",
    "request_status": "Pending",
    "responsible_agency": "Department of Public Works",
    "final_address": "1600 BLK Napoleon Ave",
    "address_councildis": "B",
    "status": "Pending",
    "rowid": "1161388",
    "final_x": "3670790.41298",
    "final_y": "521061.214227",
    "longitude": "-90.1022422494342",
    "latitude": "29.927058244091356",
    "geocoded_column": {
      "latitude": "29.927058244091356",
      "longitude": "-90.1022422494342"
    }
  },
  {
    "service_request": "2025-1161387",
    "request_type": "Christmas Tree Recycle Pick Up",
    "request_reason": "Christmas Tree Recycle Pick Up",
    "date_created": "2025-01-12T09:48:04.000",
    "date_modified": "2025-01-12T09:48:07.000",
    "request_status": "Pending",
    "responsible_agency": "Office of Resilience and Sustainability",
    "final_address": "809 Marengo St",
    "address_councildis": "B",
    "status": "Pending",
    "contractor": "R&R Recycling",
    "rowid": "1161387",
    "final_x": "3672226.54203",
    "final_y": "518628.650679",
    "longitude": "-90.09779155456947",
    "latitude": "29.920326966914615",
    "geocoded_column": {
      "latitude": "29.920326966914615",
      "longitude": "-90.09779155456947"
    }
  },
  {
    "service_request": "2025-1161386",
    "request_type": "Trash/Recycling",
    "request_reason": "Request a Large Item Pick Up",
    "date_created": "2025-01-12T09:45:34.000",
    "date_modified": "2025-01-12T09:45:37.000",
    "request_status": "Pending",
    "responsible_agency": "Department of Sanitation",
    "final_address": "7320 General Haig St",
    "address_councildis": "D",
    "status": "Assigned to Contractor",
    "contractor": "IV Waste",
    "rowid": "1161386",
    "final_x": "3671193.68219",
    "final_y": "555325.569177",
    "longitude": "-90.09980481803319",
    "latitude": "30.02126171316125",
    "geocoded_column": {
      "latitude": "30.02126171316125",
      "longitude": "-90.09980481803319"
    }
  },
  {
    "service_request": "2025-1161385",
    "request_type": "Trash/Recycling",
    "request_reason": "Order Second Trash Cart",
    "date_created": "2025-01-12T09:42:46.000",
    "date_modified": "2025-01-12T09:42:49.000",
    "request_status": "Pending",
    "responsible_agency": "Department of Sanitation",
    "final_address": "3137 St Thomas St",
    "address_councildis": "B",
    "status": "Assigned to Contractor",
    "contractor": "IV Waste",
    "rowid": "1161385",
    "final_x": "3676807.71745",
    "final_y": "518531.716407",
    "longitude": "-90.08333427568687",
    "latitude": "29.91992380522376",
    "geocoded_column": {
      "latitude": "29.91992380522376",
      "longitude": "-90.08333427568687"
    }
  },
  {
    "service_request": "2025-1161384",
    "request_type": "Trash/Recycling",
    "request_reason": "Request a Large Item Pick Up",
    "date_created": "2025-01-12T09:38:53.000",
    "date_modified": "2025-01-12T09:39:06.000",
    "request_status": "Pending",
    "responsible_agency": "Department of Sanitation",
    "final_address": "3137 St Thomas St",
    "address_councildis": "B",
    "status": "Assigned to Contractor",
    "contractor": "IV Waste",
    "rowid": "1161384",
    "final_x": "3676807.71745",
    "final_y": "518531.716407",
    "longitude": "-90.08333427568687",
    "latitude": "29.91992380522376",
    "geocoded_column": {
      "latitude": "29.91992380522376",
      "longitude": "-90.08333427568687"
    }
  },
  {
    "service_request": "2025-1161383",
    "request_type": "Trash/Recycling",
    "request_reason": "Request a Large Item Pick Up",
    "date_created": "2025-01-12T09:21:27.000",
    "date_modified": "2025-01-12T09:21:30.000",
    "request_status": "Pending",
    "responsible_agency": "Department of Sanitation",
    "final_address": "16 Gull St, New Orleans, Louisiana, 70124",
    "address_councildis": "D",
    "status": "Assigned to Contractor",
    "contractor": "IV Waste",
    "rowid": "1161383",
    "final_x": "3674996.02408",
    "final_y": "555219.175449",
    "longitude": "-90.08779411295669",
    "latitude": "30.020856069057697",
    "geocoded_column": {
      "latitude": "30.020856069057697",
      "longitude": "-90.08779411295669"
    }
  },
  {
    "service_request": "2025-1161382",
    "request_type": "Trash/Recycling",
    "request_reason": "Replace Trash Cart",
    "date_created": "2025-01-12T09:14:21.000",
    "date_modified": "2025-01-12T09:14:25.000",
    "request_status": "Pending",
    "responsible_agency": "Department of Sanitation",
    "final_address": "244 Vallette St",
    "address_councildis": "C",
    "status": "Assigned to Contractor",
    "rowid": "1161382",
    "final_x": "3687629.45007",
    "final_y": "531092.641858",
    "longitude": "-90.0487309037631",
    "latitude": "29.95413306677371",
    "geocoded_column": {
      "latitude": "29.95413306677371",
      "longitude": "-90.0487309037631"
    }
  },
  {
    "service_request": "2025-1161381",
    "request_type": "Trash/Recycling",
    "request_reason": "Order Recycling Cart",
    "date_created": "2025-01-12T08:54:03.000",
    "date_modified": "2025-01-12T08:54:06.000",
    "request_status": "Pending",
    "responsible_agency": "Department of Sanitation",
    "final_address": "45 Neron Pl",
    "address_councildis": "A",
    "status": "Pending",
    "rowid": "1161381",
    "final_x": "3665506.46138",
    "final_y": "530438.817346",
    "longitude": "-90.11860855704514",
    "latitude": "29.952998693768492",
    "geocoded_column": {
      "latitude": "29.952998693768492",
      "longitude": "-90.11860855704514"
    }
  },
  {
    "service_request": "2025-1161380",
    "request_type": "Christmas Tree Recycle Pick Up",
    "request_reason": "Christmas Tree Recycle Pick Up",
    "date_created": "2025-01-12T08:17:30.000",
    "date_modified": "2025-01-12T08:17:36.000",
    "request_status": "Pending",
    "responsible_agency": "Office of Resilience and Sustainability",
    "final_address": "6374 General Haig St",
    "address_councildis": "A",
    "status": "Pending",
    "contractor": "R&R Recycling",
    "rowid": "1161380",
    "final_x": "3670688.36539",
    "final_y": "549754.05474",
    "longitude": "-90.10159072520898",
    "latitude": "30.005956967944776",
    "geocoded_column": {
      "latitude": "30.005956967944776",
      "longitude": "-90.10159072520898"
    }
  },
  {
    "service_request": "2025-1161379",
    "request_type": "Roads and Streets",
    "request_reason": "Push-up/Pavement Expansion",
    "date_created": "2025-01-12T01:48:51.000",
    "date_modified": "2025-01-12T01:48:55.000",
    "request_status": "Pending",
    "responsible_agency": "Department of Public Works",
    "final_address": "7100 BLK Colapissa St",
    "address_councildis": "B",
    "status": "Pending",
    "rowid": "1161379",
    "final_x": "3668022.20985",
    "final_y": "532046.289042",
    "longitude": "-90.11061073900676",
    "latitude": "29.95734514085812",
    "geocoded_column": {
      "latitude": "29.95734514085812",
      "longitude": "-90.11061073900676"
    }
  },
  {
    "service_request": "2025-1161378",
    "request_type": "Abandoned Vehicles",
    "request_reason": "Vehicle Blocking Your Driveway",
    "date_created": "2025-01-12T01:09:53.000",
    "date_modified": "2025-01-12T01:09:56.000",
    "request_status": "Pending",
    "responsible_agency": "Department of Public Works",
    "final_address": "1901 Poydras St",
    "address_councildis": "B",
    "status": "Pending",
    "rowid": "1161378",
    "final_x": "3676746.55534",
    "final_y": "530971.736258",
    "longitude": "-90.08309888873029",
    "latitude": "29.954131611045042",
    "geocoded_column": {
      "latitude": "29.954131611045042",
      "longitude": "-90.08309888873029"
    }
  },
  {
    "service_request": "2025-1161377",
    "request_type": "Streetlights",
    "request_reason": "Streetlight Outage/Malfunction",
    "date_created": "2025-01-11T22:41:37.000",
    "date_modified": "2025-01-11T22:41:37.000",
    "request_status": "Pending",
    "responsible_agency": "Department of Public Works",
    "final_address": "1500 Arts St",
    "address_councildis": "C",
    "status": "Pending",
    "contractor": "Legacy Professional Services",
    "rowid": "1161377",
    "final_x": "3687052.47234",
    "final_y": "537983.424137",
    "longitude": "-90.05030912969912",
    "latitude": "29.973098101089697",
    "geocoded_column": {
      "latitude": "29.973098101089697",
      "longitude": "-90.05030912969912"
    }
  },
  {
    "service_request": "2025-1161376",
    "request_type": "Drainage",
    "request_reason": "Street Flooding",
    "date_created": "2025-01-11T22:38:09.000",
    "date_modified": "2025-01-11T22:38:13.000",
    "request_status": "Pending",
    "responsible_agency": "Department of Public Works",
    "final_address": "7200 Voyageur Ct",
    "address_councildis": "E",
    "status": "Pending",
    "rowid": "1161376",
    "final_x": "3726540.13523",
    "final_y": "568643.380901",
    "longitude": "-89.92441058049832",
    "latitude": "30.056125775801785",
    "geocoded_column": {
      "latitude": "30.056125775801785",
      "longitude": "-89.92441058049832"
    }
  },
  {
    "service_request": "2025-1161375",
    "request_type": "Street and Traffic Signs",
    "request_reason": "Street Name Sign Damaged or Missing",
    "date_created": "2025-01-11T22:10:54.000",
    "date_modified": "2025-01-11T22:10:58.000",
    "request_status": "Pending",
    "responsible_agency": "Department of Public Works",
    "final_address": "ROBERT ST & FRERET ST",
    "address_councildis": "B",
    "status": "Pending",
    "rowid": "1161375",
    "final_x": "3668815.9",
    "final_y": "523918.08",
    "longitude": "-90.1083788829074",
    "latitude": "29.934971896551595",
    "geocoded_column": {
      "latitude": "29.934971896551595",
      "longitude": "-90.1083788829074"
    }
  },
  {
    "service_request": "2025-1161374",
    "request_type": "Trash/Recycling",
    "request_reason": "Return Recycling Cart",
    "date_created": "2025-01-11T22:04:07.000",
    "date_modified": "2025-01-11T22:04:10.000",
    "request_status": "Pending",
    "responsible_agency": "Department of Sanitation",
    "final_address": "3333 Jefferson Ave",
    "address_councildis": "B",
    "status": "Pending",
    "rowid": "1161374",
    "final_x": "3668778.30606",
    "final_y": "527576.838079",
    "longitude": "-90.10837408463414",
    "latitude": "29.945033405340318",
    "geocoded_column": {
      "latitude": "29.945033405340318",
      "longitude": "-90.10837408463414"
    }
  },
  {
    "service_request": "2025-1161373",
    "request_type": "Trash/Recycling",
    "request_reason": "Replace Trash Cart",
    "date_created": "2025-01-11T21:59:49.000",
    "date_modified": "2025-01-11T21:59:52.000",
    "request_status": "Pending",
    "responsible_agency": "Department of Sanitation",
    "final_address": "5637 Bellaire Dr",
    "address_councildis": "A",
    "status": "Assigned to Contractor",
    "contractor": "IV Waste",
    "rowid": "1161373",
    "final_x": "3664176.2089",
    "final_y": "545335.703312",
    "longitude": "-90.12231179238847",
    "latitude": "29.99399889387422",
    "geocoded_column": {
      "latitude": "29.99399889387422",
      "longitude": "-90.12231179238847"
    }
  },
  {
    "service_request": "2025-1161372",
    "request_type": "Trash/Recycling",
    "request_reason": "Order Recycling Cart",
    "date_created": "2025-01-11T21:58:21.000",
    "date_modified": "2025-01-11T21:58:25.000",
    "request_status": "Pending",
    "responsible_agency": "Department of Sanitation",
    "final_address": "5637 Bellaire Dr",
    "address_councildis": "A",
    "status": "Pending",
    "rowid": "1161372",
    "final_x": "3664176.2089",
    "final_y": "545335.703312",
    "longitude": "-90.12231179238847",
    "latitude": "29.99399889387422",
    "geocoded_column": {
      "latitude": "29.99399889387422",
      "longitude": "-90.12231179238847"
    }
  },
  {
    "service_request": "2025-1161371",
    "request_type": "Property Maintenance",
    "request_reason": "Property Maintenance",
    "date_created": "2025-01-11T21:26:26.000",
    "date_modified": "2025-01-11T21:26:29.000",
    "request_status": "Pending",
    "responsible_agency": "Department of Code Enforcement",
    "final_address": "3140 Dauphine St",
    "address_councildis": "C",
    "status": "Pending",
    "rowid": "1161371",
    "final_x": "3689024.91631",
    "final_y": "534745.370502",
    "longitude": "-90.04419483489643",
    "latitude": "29.964133712593963",
    "geocoded_column": {
      "latitude": "29.964133712593963",
      "longitude": "-90.04419483489643"
    }
  },
  {
    "service_request": "2025-1161370",
    "request_type": "Christmas Tree Recycle Pick Up",
    "request_reason": "Christmas Tree Recycle Pick Up",
    "date_created": "2025-01-11T20:37:36.000",
    "date_modified": "2025-01-11T20:37:39.000",
    "request_status": "Pending",
    "responsible_agency": "Office of Resilience and Sustainability",
    "final_address": "7818 Hickory St",
    "address_councildis": "A",
    "status": "Pending",
    "contractor": "R&R Recycling",
    "rowid": "1161370",
    "final_x": "3664063.68295",
    "final_y": "529255.792321",
    "longitude": "-90.12320368892902",
    "latitude": "29.949787735046293",
    "geocoded_column": {
      "latitude": "29.949787735046293",
      "longitude": "-90.12320368892902"
    }
  },
  {
    "service_request": "2025-1161369",
    "request_type": "Trash/Recycling",
    "request_reason": "Replace Trash Cart",
    "date_created": "2025-01-11T20:22:49.000",
    "date_modified": "2025-01-11T20:22:53.000",
    "request_status": "Pending",
    "responsible_agency": "Department of Sanitation",
    "final_address": "5718 Durbridge Dr",
    "address_councildis": "C",
    "status": "Assigned to Contractor",
    "rowid": "1161369",
    "final_x": "3704838.85483",
    "final_y": "521731.301114",
    "longitude": "-89.99473629169852",
    "latitude": "29.92785096503106",
    "geocoded_column": {
      "latitude": "29.92785096503106",
      "longitude": "-89.99473629169852"
    }
  },
  {
    "service_request": "2025-1161368",
    "request_type": "Abandoned Vehicles",
    "request_reason": "Abandoned/Junk Vehicles",
    "date_created": "2025-01-11T19:40:51.000",
    "date_modified": "2025-01-11T19:40:54.000",
    "request_status": "Pending",
    "responsible_agency": "Department of Public Works",
    "final_address": "SPRUCE ST & LEONIDAS ST",
    "address_councildis": "A",
    "status": "Pending",
    "rowid": "1161368",
    "final_x": "3662543.6",
    "final_y": "531651.58",
    "longitude": "-90.12792373385702",
    "latitude": "29.95641943288121",
    "geocoded_column": {
      "latitude": "29.95641943288121",
      "longitude": "-90.12792373385702"
    }
  },
  {
    "service_request": "2025-1161367",
    "request_type": "Utility Poles",
    "request_reason": "Utility Pole Leaning",
    "date_created": "2025-01-11T19:04:05.000",
    "date_modified": "2025-01-11T19:04:08.000",
    "request_status": "Pending",
    "responsible_agency": "Utility Company Collective",
    "final_address": "2222 St Bernard Ave",
    "address_councildis": "D",
    "status": "Pending",
    "rowid": "1161367",
    "final_x": "3680963.65755",
    "final_y": "539990.235467",
    "longitude": "-90.0694688885408",
    "latitude": "29.978802197275876",
    "geocoded_column": {
      "latitude": "29.978802197275876",
      "longitude": "-90.0694688885408"
    }
  },
  {
    "service_request": "2025-1161366",
    "request_type": "Abandoned Vehicles",
    "request_reason": "Abandoned/Junk Vehicles",
    "date_created": "2025-01-11T18:42:11.000",
    "date_modified": "2025-01-11T18:42:13.000",
    "request_status": "Pending",
    "responsible_agency": "Department of Public Works",
    "final_address": "1918 Napoleon Ave",
    "address_councildis": "B",
    "status": "Pending",
    "rowid": "1161366",
    "final_x": "3670590.40993",
    "final_y": "522080.314554",
    "longitude": "-90.10283906165988",
    "latitude": "29.929866350926336",
    "geocoded_column": {
      "latitude": "29.929866350926336",
      "longitude": "-90.10283906165988"
    }
  },
  {
    "service_request": "2025-1161365",
    "request_type": "Christmas Tree Recycle Pick Up",
    "request_reason": "Christmas Tree Recycle Pick Up",
    "date_created": "2025-01-11T18:41:48.000",
    "date_modified": "2025-01-11T18:41:51.000",
    "request_status": "Pending",
    "responsible_agency": "Office of Resilience and Sustainability",
    "final_address": "7311 Sardonyx St",
    "address_councildis": "D",
    "status": "Pending",
    "contractor": "R&R Recycling",
    "rowid": "1161365",
    "final_x": "3669681.72161",
    "final_y": "555613.442201",
    "longitude": "-90.10457245280888",
    "latitude": "30.022097929622",
    "geocoded_column": {
      "latitude": "30.022097929622",
      "longitude": "-90.10457245280888"
    }
  },
  {
    "service_request": "2025-1161364",
    "request_type": "Streetlights",
    "request_reason": "Streetlight Outage/Malfunction",
    "date_created": "2025-01-11T18:26:28.000",
    "date_modified": "2025-01-11T18:26:29.000",
    "request_status": "Pending",
    "responsible_agency": "Department of Public Works",
    "final_address": "2317 N Villere St",
    "address_councildis": "C",
    "status": "Pending",
    "contractor": "Legacy Professional Services",
    "rowid": "1161364",
    "final_x": "3685842.71458",
    "final_y": "537515.765896",
    "longitude": "-90.05414626360479",
    "latitude": "29.97184939550031",
    "geocoded_column": {
      "latitude": "29.97184939550031",
      "longitude": "-90.05414626360479"
    }
  },
  {
    "service_request": "2025-1161363",
    "request_type": "Streetlights",
    "request_reason": "Streetlight Outage/Malfunction",
    "date_created": "2025-01-11T17:58:21.000",
    "date_modified": "2025-01-11T17:58:22.000",
    "request_status": "Pending",
    "responsible_agency": "Department of Public Works",
    "final_address": "442 Lowerline St",
    "address_councildis": "A",
    "status": "Pending",
    "contractor": "Legacy Professional Services",
    "rowid": "1161363",
    "final_x": "3661854.65888",
    "final_y": "524265.5751",
    "longitude": "-90.13034405133337",
    "latitude": "29.936130190172143",
    "geocoded_column": {
      "latitude": "29.936130190172143",
      "longitude": "-90.13034405133337"
    }
  },
  {
    "service_request": "2025-1161362",
    "request_type": "Abandoned Vehicles",
    "request_reason": "Abandoned/Junk Vehicles",
    "date_created": "2025-01-11T17:49:19.000",
    "date_modified": "2025-01-11T17:49:21.000",
    "request_status": "Pending",
    "responsible_agency": "Department of Public Works",
    "final_address": "5301 Constance St",
    "address_councildis": "B",
    "status": "Pending",
    "rowid": "1161362",
    "final_x": "3667317.85914",
    "final_y": "518323.836022",
    "longitude": "-90.11329624670645",
    "latitude": "29.919633449110805",
    "geocoded_column": {
      "latitude": "29.919633449110805",
      "longitude": "-90.11329624670645"
    }
  },
  {
    "service_request": "2025-1161360",
    "request_type": "Drainage",
    "request_reason": "Drainage Manhole Cover Missing or Damaged",
    "date_created": "2025-01-11T17:30:26.000",
    "date_modified": "2025-01-11T17:30:30.000",
    "request_status": "Pending",
    "responsible_agency": "Department of Public Works",
    "final_address": "1824 Wilton Dr",
    "address_councildis": "D",
    "status": "Pending",
    "rowid": "1161360",
    "final_x": "3681379.2918",
    "final_y": "550823.059093",
    "longitude": "-90.06777827210036",
    "latitude": "30.008576012405953",
    "geocoded_column": {
      "latitude": "30.008576012405953",
      "longitude": "-90.06777827210036"
    }
  },
  {
    "service_request": "2025-1161359",
    "request_type": "Trash/Recycling",
    "request_reason": "Request a Large Item Pick Up",
    "date_created": "2025-01-11T17:15:52.000",
    "date_modified": "2025-01-11T17:15:56.000",
    "request_status": "Pending",
    "responsible_agency": "Department of Sanitation",
    "final_address": "3016 Laurel St",
    "address_councildis": "B",
    "status": "Assigned to Contractor",
    "contractor": "IV Waste",
    "rowid": "1161359",
    "final_x": "3676662.60213",
    "final_y": "519637.969144",
    "longitude": "-90.083754254255",
    "latitude": "29.922969995602905",
    "geocoded_column": {
      "latitude": "29.922969995602905",
      "longitude": "-90.083754254255"
    }
  },
  {
    "service_request": "2025-1161358",
    "request_type": "Abandoned Vehicles",
    "request_reason": "Vehicle Blocking Your Driveway",
    "date_created": "2025-01-11T16:50:32.000",
    "date_modified": "2025-01-11T16:50:35.000",
    "request_status": "Pending",
    "responsible_agency": "Department of Public Works",
    "final_address": "3017 Castiglione St",
    "address_councildis": "D",
    "status": "Pending",
    "rowid": "1161358",
    "final_x": "3678970.95771",
    "final_y": "542642.509453",
    "longitude": "-90.07567064350789",
    "latitude": "29.986155314311326",
    "geocoded_column": {
      "latitude": "29.986155314311326",
      "longitude": "-90.07567064350789"
    }
  },
  {
    "service_request": "2025-1161357",
    "request_type": "Abandoned Vehicles",
    "request_reason": "Abandoned/Junk Vehicles",
    "date_created": "2025-01-11T16:50:01.000",
    "date_modified": "2025-01-11T16:50:05.000",
    "request_status": "Pending",
    "responsible_agency": "Department of Public Works",
    "final_address": "3225 Trafalgar St",
    "address_councildis": "A",
    "status": "Pending",
    "rowid": "1161357",
    "final_x": "3678251.01986",
    "final_y": "543221.736846",
    "longitude": "-90.07792460226729",
    "latitude": "29.98776969557559",
    "geocoded_column": {
      "latitude": "29.98776969557559",
      "longitude": "-90.07792460226729"
    }
  },
  {
    "service_request": "2025-1161356",
    "request_type": "Trash/Recycling",
    "request_reason": "Request a Large Item Pick Up",
    "date_created": "2025-01-11T16:33:35.000",
    "date_modified": "2025-01-11T16:33:38.000",
    "request_status": "Pending",
    "responsible_agency": "Department of Sanitation",
    "final_address": "1114 St Ferdinand St",
    "address_councildis": "C",
    "status": "Assigned to Contractor",
    "contractor": "IV Waste",
    "rowid": "1161356",
    "final_x": "3687743.32515",
    "final_y": "536525.810951",
    "longitude": "-90.04817891735007",
    "latitude": "29.969068887190268",
    "geocoded_column": {
      "latitude": "29.969068887190268",
      "longitude": "-90.04817891735007"
    }
  },
  {
    "service_request": "2025-1161355",
    "request_type": "Christmas Tree Recycle Pick Up",
    "request_reason": "Christmas Tree Recycle Pick Up",
    "date_created": "2025-01-11T16:25:52.000",
    "date_modified": "2025-01-11T16:25:56.000",
    "request_status": "Pending",
    "responsible_agency": "Office of Resilience and Sustainability",
    "final_address": "6522 General Diaz St",
    "address_councildis": "A",
    "status": "Pending",
    "contractor": "R&R Recycling",
    "rowid": "1161355",
    "final_x": "3669769.81818",
    "final_y": "550810.270037",
    "longitude": "-90.10445685556408",
    "latitude": "30.00888830814347",
    "geocoded_column": {
      "latitude": "30.00888830814347",
      "longitude": "-90.10445685556408"
    }
  },
  {
    "service_request": "2025-1161354",
    "request_type": "Abandoned Vehicles",
    "request_reason": "Abandoned/Junk Vehicles",
    "date_created": "2025-01-11T16:07:21.000",
    "date_modified": "2025-01-11T16:07:24.000",
    "request_status": "Pending",
    "responsible_agency": "Department of Public Works",
    "final_address": "6968 General Diaz St",
    "address_councildis": "A",
    "status": "Pending",
    "rowid": "1161354",
    "final_x": "3670021.16564",
    "final_y": "553854.108439",
    "longitude": "-90.10355955463767",
    "latitude": "30.01725037469337",
    "geocoded_column": {
      "latitude": "30.01725037469337",
      "longitude": "-90.10355955463767"
    }
  },
  {
    "service_request": "2025-1161353",
    "request_type": "Trash/Recycling",
    "request_reason": "MIssed Recycling Pick-Up",
    "date_created": "2025-01-11T16:04:59.000",
    "date_modified": "2025-01-11T16:05:04.000",
    "request_status": "Pending",
    "responsible_agency": "Department of Sanitation",
    "final_address": "5626 Royal St",
    "address_councildis": "E",
    "status": "Assigned to Contractor",
    "contractor": "Waste Pro",
    "rowid": "1161353",
    "final_x": "3697850.59248",
    "final_y": "532171.744515",
    "longitude": "-90.01641768247326",
    "latitude": "29.95678117863615",
    "geocoded_column": {
      "latitude": "29.95678117863615",
      "longitude": "-90.01641768247326"
    }
  },
  {
    "service_request": "2025-1161352",
    "request_type": "Trash/Recycling",
    "request_reason": "Request a Large Item Pick Up",
    "date_created": "2025-01-11T15:56:17.000",
    "date_modified": "2025-01-11T15:56:21.000",
    "request_status": "Pending",
    "responsible_agency": "Department of Sanitation",
    "final_address": "3110 Cleveland Ave",
    "address_councildis": "B",
    "status": "Assigned to Contractor",
    "contractor": "IV Waste",
    "rowid": "1161352",
    "final_x": "3673704.57908",
    "final_y": "535777.075527",
    "longitude": "-90.09253993171296",
    "latitude": "29.967435599880453",
    "geocoded_column": {
      "latitude": "29.967435599880453",
      "longitude": "-90.09253993171296"
    }
  },
  {
    "service_request": "2025-1161351",
    "request_type": "Trash/Recycling",
    "request_reason": "Request a Large Item Pick Up",
    "date_created": "2025-01-11T15:44:12.000",
    "date_modified": "2025-01-11T15:44:15.000",
    "request_status": "Pending",
    "responsible_agency": "Department of Sanitation",
    "final_address": "7915 Means Ave",
    "address_councildis": "E",
    "status": "Assigned to Contractor",
    "contractor": "Waste Pro",
    "rowid": "1161351",
    "final_x": "3707639.03889",
    "final_y": "565606.397922",
    "longitude": "-89.9842661685792",
    "latitude": "30.048400777390995",
    "geocoded_column": {
      "latitude": "30.048400777390995",
      "longitude": "-89.9842661685792"
    }
  },
  {
    "service_request": "2025-1161350",
    "request_type": "Trash/Recycling",
    "request_reason": "Request a Large Item Pick Up",
    "date_created": "2025-01-11T15:42:41.000",
    "date_modified": "2025-01-11T15:42:45.000",
    "request_status": "Pending",
    "responsible_agency": "Department of Sanitation",
    "final_address": "7915 Means Ave",
    "address_councildis": "E",
    "status": "Assigned to Contractor",
    "contractor": "Waste Pro",
    "rowid": "1161350",
    "final_x": "3707639.03889",
    "final_y": "565606.397922",
    "longitude": "-89.9842661685792",
    "latitude": "30.048400777390995",
    "geocoded_column": {
      "latitude": "30.048400777390995",
      "longitude": "-89.9842661685792"
    }
  },
  {
    "service_request": "2025-1161349",
    "request_type": "General Services",
    "request_reason": "General Service Request",
    "date_created": "2025-01-11T15:30:27.000",
    "date_modified": "2025-01-11T15:30:29.000",
    "request_status": "Pending",
    "responsible_agency": "Orleans Parish Communication District",
    "final_address": "3909 Camp St",
    "address_councildis": "B",
    "status": "Pending",
    "rowid": "1161349",
    "final_x": "3672928.47368",
    "final_y": "519379.864631",
    "longitude": "-90.09555026886268",
    "latitude": "29.922371734880056",
    "geocoded_column": {
      "latitude": "29.922371734880056",
      "longitude": "-90.09555026886268"
    }
  },
  {
    "service_request": "2025-1161348",
    "request_type": "Christmas Tree Recycle Pick Up",
    "request_reason": "Christmas Tree Recycle Pick Up",
    "date_created": "2025-01-11T15:30:05.000",
    "date_modified": "2025-01-11T15:30:08.000",
    "request_status": "Pending",
    "responsible_agency": "Office of Resilience and Sustainability",
    "final_address": "72 Marywood Ct",
    "address_councildis": "E",
    "status": "Pending",
    "contractor": "R&R Recycling",
    "rowid": "1161348",
    "final_x": "3712369.76171",
    "final_y": "566606.117155",
    "longitude": "-89.96927687224266",
    "latitude": "30.05099560386508",
    "geocoded_column": {
      "latitude": "30.05099560386508",
      "longitude": "-89.96927687224266"
    }
  },
  {
    "service_request": "2025-1161347",
    "request_type": "Trash/Recycling",
    "request_reason": "Start Trash Service",
    "date_created": "2025-01-11T15:27:58.000",
    "date_modified": "2025-01-11T15:28:02.000",
    "request_status": "Pending",
    "responsible_agency": "Department of Sanitation",
    "final_address": "2117 Broadway St",
    "address_councildis": "A",
    "status": "Assigned to Contractor",
    "contractor": "IV Waste",
    "rowid": "1161347",
    "final_x": "3666052.55514",
    "final_y": "529214.847552",
    "longitude": "-90.11692525377937",
    "latitude": "29.949617244626136",
    "geocoded_column": {
      "latitude": "29.949617244626136",
      "longitude": "-90.11692525377937"
    }
  },