[
  {
    "service_request": "2022-916554",
    "request_type": "Trash/Recycling",
    "request_reason": "MIssed Recycling Pick-Up",
    "date_created": "2022-09-06T00:29:23.000",
    "date_modified": "2022-09-06T00:29:24.000",
    "request_status": "Pending",
    "responsible_agency": "Department of Sanitation",
    "final_address": "2329 General Meyer Ave",
    "address_councildis": "C",
    "status": "Assigned to Contractor",
    "contractor": "Richards Disposal",
    "rowid": "916554",
    "final_x": "3692652.05296",
    "final_y": "527621.965631",
    "longitude": "-90.03299598049206",
    "latitude": "29.944434123735533",
    "geocoded_column": {
      "latitude": "29.944434123735533",
      "longitude": "-90.03299598049206"
    }
  },
  {
    "service_request": "2022-916553",
    "request_type": "Roads/Drainage",
    "request_reason": "Damaged Sidewalk",
    "date_created": "2022-09-05T23:25:24.000",
    "date_modified": "2022-09-05T23:25:24.000",
    "request_status": "Pending",
    "responsible_agency": "Department of Public Works",
    "final_address": "300 BLK Gaiennie St",
    "address_councildis": "B",
    "status": "Pending",
    "rowid": "916553",
    "final_x": "3682507.92661",
    "final_y": "525978.011808",
    "longitude": "-90.06508134639999",
    "latitude": "29.94022644151633",
    "geocoded_column": {
      "latitude": "29.94022644151633",
      "longitude": "-90.06508134639999"
    }
  },
  {
    "service_request": "2022-916552",
    "request_type": "Mayor's Request",
    "request_reason": "Requests to the Mayor",
    "date_created": "2022-09-05T22:28:06.000",
    "date_modified": "2022-09-05T22:28:06.000",
    "request_status": "Pending",
    "responsible_agency": "Executive Office of the Mayor",
    "status": "Pending",
    "rowid": "916552",
    "longitude": "0.0",
    "latitude": "0.0",
    "geocoded_column": {
      "latitude": "0.0",
      "longitude": "0.0"
    }
  },
  {
    "service_request": "2022-916551",
    "request_type": "Trash/Recycling",
    "request_reason": "Request a Large Item Pick Up",
    "date_created": "2022-09-05T22:00:50.000",
    "date_modified": "2022-09-05T22:00:51.000",
    "request_status": "Pending",
    "responsible_agency": "Department of Sanitation",
    "final_address": "1011 Joliet St",
    "address_councildis": "A",
    "status": "Assigned to Contractor",
    "contractor": "Richards Disposal",
    "rowid": "916551",
    "final_x": "3660530.2201",
    "final_y": "528861.301632",
    "longitude": "-90.1343735490156",
    "latitude": "29.94880514853095",
    "geocoded_column": {
      "latitude": "29.94880514853095",
      "longitude": "-90.1343735490156"
    }
  },
  {
    "service_request": "2022-916550",
    "request_type": "Trash/Recycling",
    "request_reason": "Request a Large Item Pick Up",
    "date_created": "2022-09-05T21:49:16.000",
    "date_modified": "2022-09-05T21:49:17.000",
    "request_status": "Pending",
    "responsible_agency": "Department of Sanitation",
    "final_address": "4630 Willow St",
    "address_councildis": "B",
    "status": "Assigned to Contractor",
    "contractor": "Richards Disposal",
    "rowid": "916550",
    "final_x": "3669421.65652",
    "final_y": "525290.805181",
    "longitude": "-90.10642010656171",
    "latitude": "29.938728628353758",
    "geocoded_column": {
      "latitude": "29.938728628353758",
      "longitude": "-90.10642010656171"
    }
  },
  {
    "service_request": "2022-916549",
    "request_type": "Traffic Signals/Signs/Striping/Streetlights",
    "request_reason": "Traffic Signal Malfunctioning/Damaged",
    "date_created": "2022-09-05T21:37:09.000",
    "date_modified": "2022-09-05T21:37:10.000",
    "request_status": "Pending",
    "responsible_agency": "Department of Public Works",
    "final_address": "COMMON ST & OKEEFE AVE & UNIVERSITY PL",
    "address_councildis": "B",
    "status": "Pending",
    "rowid": "916549",
    "final_x": "3679857.4",
    "final_y": "530895.28",
    "longitude": "-90.0732787525127",
    "latitude": "29.95382768462633",
    "geocoded_column": {
      "latitude": "29.95382768462633",
      "longitude": "-90.0732787525127"
    }
  },
  {
    "service_request": "2022-916548",
    "request_type": "Trash/Recycling",
    "request_reason": "Request a Large Item Pick Up",
    "date_created": "2022-09-05T21:25:00.000",
    "date_modified": "2022-09-05T21:25:01.000",
    "request_status": "Pending",
    "responsible_agency": "Department of Sanitation",
    "final_address": "2126 Mediamolle Dr",
    "address_councildis": "C",
    "status": "Assigned to Contractor",
    "contractor": "Richards Disposal",
    "rowid": "916548",
    "final_x": "3699263.62359",
    "final_y": "523469.944699",
    "longitude": "-90.01227260179249",
    "latitude": "29.932809546757955",
    "geocoded_column": {
      "latitude": "29.932809546757955",
      "longitude": "-90.01227260179249"
    }
  },
  {
    "service_request": "2022-916547",
    "request_type": "Trash/Recycling",
    "request_reason": "Request a Large Item Pick Up",
    "date_created": "2022-09-05T21:22:13.000",
    "date_modified": "2022-09-05T21:22:14.000",
    "request_status": "Pending",
    "responsible_agency": "Department of Sanitation",
    "final_address": "6529 Wuerpel St",
    "address_councildis": "A",
    "status": "Assigned to Contractor",
    "contractor": "Metro Disposal",
    "rowid": "916547",
    "final_x": "3667140.05921",
    "final_y": "551084.658197",
    "longitude": "-90.11275592817704",
    "latitude": "30.00972006669454",
    "geocoded_column": {
      "latitude": "30.00972006669454",
      "longitude": "-90.11275592817704"
    }
  },
  {
    "service_request": "2022-916546",
    "request_type": "Traffic Signals/Signs/Striping/Streetlights",
    "request_reason": "Street Light Outage/Malfunction",
    "date_created": "2022-09-05T21:09:45.000",
    "date_modified": "2022-09-05T21:09:45.000",
    "request_status": "Pending",
    "responsible_agency": "Department of Public Works",
    "final_address": "7727 ALABAMA STREET 70126",
    "status": "Pending",
    "contractor": "Legacy Professional Services",
    "rowid": "916546",
    "longitude": "0.0",
    "latitude": "0.0",
    "geocoded_column": {
      "latitude": "0.0",
      "longitude": "0.0"
    }
  },
  {
    "service_request": "2022-916545",
    "request_type": "Traffic Signals/Signs/Striping/Streetlights",
    "request_reason": "Street Light Outage/Malfunction",
    "date_created": "2022-09-05T21:07:55.000",
    "date_modified": "2022-09-05T21:07:55.000",
    "request_status": "Pending",
    "responsible_agency": "Department of Public Works",
    "final_address": "7727 ALABAMA STREET",
    "address_councildis": "D",
    "status": "Pending",
    "contractor": "Legacy Professional Services",
    "rowid": "916545",
    "final_x": "3694851.65859",
    "final_y": "558981.015004",
    "longitude": "-90.02492065266472",
    "latitude": "30.03059129382983",
    "geocoded_column": {
      "latitude": "30.03059129382983",
      "longitude": "-90.02492065266472"
    }
  },
  {
    "service_request": "2022-916544",
    "request_type": "Abandoned Vehicles",
    "request_reason": "Abandoned/Junk Vehicles",
    "date_created": "2022-09-05T20:01:35.000",
    "date_modified": "2022-09-05T20:01:35.000",
    "request_status": "Pending",
    "responsible_agency": "Department of Public Works",
    "final_address": "1805 Joliet St",
    "address_councildis": "A",
    "status": "Pending",
    "rowid": "916544",
    "final_x": "3662418.75347",
    "final_y": "530948.409922",
    "longitude": "-90.1283413098977",
    "latitude": "29.95448955336664",
    "geocoded_column": {
      "latitude": "29.95448955336664",
      "longitude": "-90.1283413098977"
    }
  },
  {
    "service_request": "2022-916543",
    "request_type": "Traffic Signals/Signs/Striping/Streetlights",
    "request_reason": "Street Light Outage/Malfunction",
    "date_created": "2022-09-05T19:47:25.000",
    "date_modified": "2022-09-05T19:47:26.000",
    "request_status": "Pending",
    "responsible_agency": "Department of Public Works",
    "final_address": "7528 W Laverne St",
    "address_councildis": "D",
    "status": "Pending",
    "contractor": "Legacy Professional Services",
    "rowid": "916543",
    "final_x": "3695144.12438",
    "final_y": "558443.635292",
    "longitude": "-90.02401586409448",
    "latitude": "30.029104518723823",
    "geocoded_column": {
      "latitude": "30.029104518723823",
      "longitude": "-90.02401586409448"
    }
  },
  {
    "service_request": "2022-916542",
    "request_type": "Trash/Recycling",
    "request_reason": "Replace Recycling Cart",
    "date_created": "2022-09-05T19:42:12.000",
    "date_modified": "2022-09-05T19:42:12.000",
    "request_status": "Pending",
    "responsible_agency": "Department of Sanitation",
    "final_address": "1725 Nashville Ave",
    "address_councildis": "A",
    "status": "Pending",
    "rowid": "916542",
    "final_x": "3666529.88372",
    "final_y": "522821.731195",
    "longitude": "-90.11563262447137",
    "latitude": "29.932024286644765",
    "geocoded_column": {
      "latitude": "29.932024286644765",
      "longitude": "-90.11563262447137"
    }
  },
  {
    "service_request": "2022-916541",
    "request_type": "Health Related Questions",
    "request_reason": "Noise Ordinance Complaint",
    "date_created": "2022-09-05T19:37:42.000",
    "date_modified": "2022-09-05T19:37:42.000",
    "request_status": "Pending",
    "responsible_agency": "Health Department",
    "final_address": "5729 Eads St. NOLA 70122",
    "status": "Pending",
    "rowid": "916541",
    "longitude": "0.0",
    "latitude": "0.0",
    "geocoded_column": {
      "latitude": "0.0",
      "longitude": "0.0"
    }
  },
  {
    "service_request": "2022-916540",
    "request_type": "Abandoned Vehicles",
    "request_reason": "Abandoned/Junk Vehicles",
    "date_created": "2022-09-05T19:35:27.000",
    "date_modified": "2022-09-05T19:35:27.000",
    "request_status": "Pending",
    "responsible_agency": "Department of Public Works",
    "final_address": "936 Jackson Ave",
    "address_councildis": "B",
    "status": "Pending",
    "rowid": "916540",
    "final_x": "3679076.79925",
    "final_y": "521692.383865",
    "longitude": "-90.07606241621347",
    "latitude": "29.92854635302765",
    "geocoded_column": {
      "latitude": "29.92854635302765",
      "longitude": "-90.07606241621347"
    }
  },
  {
    "service_request": "2022-916539",
    "request_type": "Trash/Recycling",
    "request_reason": "Request a Large Item Pick Up",
    "date_created": "2022-09-05T19:32:42.000",
    "date_modified": "2022-09-05T19:32:43.000",
    "request_status": "Pending",
    "responsible_agency": "Department of Sanitation",
    "final_address": "2112 St Claude Ave",
    "address_councildis": "C",
    "status": "Assigned to Contractor",
    "contractor": "Metro Disposal",
    "rowid": "916539",
    "final_x": "3684714.1005",
    "final_y": "536245.407623",
    "longitude": "-90.05775526104672",
    "latitude": "29.968390947851972",
    "geocoded_column": {
      "latitude": "29.968390947851972",
      "longitude": "-90.05775526104672"
    }
  },
  {
    "service_request": "2022-916538",
    "request_type": "Roads/Drainage",
    "request_reason": "Accessibility Ramps, Curbs and Sidewalk Repair",
    "date_created": "2022-09-05T19:26:40.000",
    "date_modified": "2022-09-05T19:26:40.000",
    "request_status": "Pending",
    "responsible_agency": "Department of Public Works",
    "final_address": "7912 Willow St",
    "address_councildis": "A",
    "status": "Pending",
    "rowid": "916538",
    "final_x": "3662860.88391",
    "final_y": "528426.621568",
    "longitude": "-90.12702905863567",
    "latitude": "29.947542655652068",
    "geocoded_column": {
      "latitude": "29.947542655652068",
      "longitude": "-90.12702905863567"
    }
  },
  {
    "service_request": "2022-916537",
    "request_type": "Roads/Drainage",
    "request_reason": "Catch Basin - Clogged",
    "date_created": "2022-09-05T19:23:09.000",
    "date_modified": "2022-09-05T19:23:09.000",
    "request_status": "Pending",
    "responsible_agency": "Department of Public Works",
    "final_address": "WILLOW ST & FERN ST",
    "address_councildis": "A",
    "status": "Pending",
    "rowid": "916537",
    "final_x": "3663011.0",
    "final_y": "528369.78",
    "longitude": "-90.12655697173246",
    "latitude": "29.947382013219606",
    "geocoded_column": {
      "latitude": "29.947382013219606",
      "longitude": "-90.12655697173246"
    }
  },
  {
    "service_request": "2022-916536",
    "request_type": "Trash/Recycling",
    "request_reason": "Dead Animal Pick Up",
    "date_created": "2022-09-05T19:18:43.000",
    "date_modified": "2022-09-05T19:18:44.000",
    "request_status": "Pending",
    "responsible_agency": "Department of Sanitation",
    "final_address": "1212 Joseph St",
    "address_councildis": "A",
    "status": "Assigned to Contractor",
    "contractor": "Richards Disposal",
    "rowid": "916536",
    "final_x": "3666402.38599",
    "final_y": "520329.90636",
    "longitude": "-90.11611868770781",
    "latitude": "29.92517628250779",
    "geocoded_column": {
      "latitude": "29.92517628250779",
      "longitude": "-90.11611868770781"
    }
  },
  {
    "service_request": "2022-916534",
    "request_type": "Trash/Recycling",
    "request_reason": "MIssed Recycling Pick-Up",
    "date_created": "2022-09-05T19:13:02.000",
    "date_modified": "2022-09-05T19:13:03.000",
    "request_status": "Pending",
    "responsible_agency": "Department of Sanitation",
    "final_address": "1610 Pine St",
    "address_councildis": "A",
    "status": "Assigned to Contractor",
    "contractor": "Richards Disposal",
    "rowid": "916534",
    "final_x": "3664712.92704",
    "final_y": "527991.883263",
    "longitude": "-90.12119593477131",
    "latitude": "29.946293523088812",
    "geocoded_column": {
      "latitude": "29.946293523088812",
      "longitude": "-90.12119593477131"
    }
  },
  {
    "service_request": "2022-916533",
    "request_type": "Trash/Recycling",
    "request_reason": "Request a Large Item Pick Up",
    "date_created": "2022-09-05T18:56:04.000",
    "date_modified": "2022-09-05T18:56:05.000",
    "request_status": "Pending",
    "responsible_agency": "Department of Sanitation",
    "final_address": "401 River Oaks Dr",
    "address_councildis": "C",
    "status": "Assigned to Contractor",
    "contractor": "Richards Disposal",
    "rowid": "916533",
    "final_x": "3701513.36317",
    "final_y": "522371.187066",
    "longitude": "-90.00521060296514",
    "latitude": "29.929716833131494",
    "geocoded_column": {
      "latitude": "29.929716833131494",
      "longitude": "-90.00521060296514"
    }
  },
  {
    "service_request": "2022-916532",
    "request_type": "Roads/Drainage",
    "request_reason": "Road Shoulder Repair",
    "date_created": "2022-09-05T18:37:16.000",
    "date_modified": "2022-09-05T18:37:16.000",
    "request_status": "Pending",
    "responsible_agency": "Department of Public Works",
    "final_address": "2553 N Rocheblave St",
    "address_councildis": "D",
    "status": "Pending",
    "rowid": "916532",
    "final_x": "3686303.8415",
    "final_y": "541263.991628",
    "longitude": "-90.05255764066068",
    "latitude": "29.98214153551677",
    "geocoded_column": {
      "latitude": "29.98214153551677",
      "longitude": "-90.05255764066068"
    }
  },
  {
    "service_request": "2022-916531",
    "request_type": "Traffic Signals/Signs/Striping/Streetlights",
    "request_reason": "Street Light Knocked Down/Leaning",
    "date_created": "2022-09-05T18:31:36.000",
    "date_modified": "2022-09-05T18:31:37.000",
    "request_status": "Pending",
    "responsible_agency": "Department of Public Works",
    "final_address": "9142 Morrison Rd",
    "address_councildis": "E",
    "status": "Pending",
    "contractor": "Legacy Professional Services",
    "rowid": "916531",
    "final_x": "3706391.369",
    "final_y": "562103.993695",
    "longitude": "-89.98833943402373",
    "latitude": "30.038810890114743",
    "geocoded_column": {
      "latitude": "30.038810890114743",
      "longitude": "-89.98833943402373"
    }
  },
  {
    "service_request": "2022-916530",
    "request_type": "Trash/Recycling",
    "request_reason": "Illegal Dumping",
    "date_created": "2022-09-05T18:21:22.000",
    "date_modified": "2022-09-05T18:21:22.000",
    "request_status": "Pending",
    "responsible_agency": "Department of Sanitation",
    "final_address": "2200 Ursulines Ave",
    "address_councildis": "D",
    "status": "Pending",
    "rowid": "916530",
    "final_x": "3679201.59445",
    "final_y": "536852.66292",
    "longitude": "-90.07514296189885",
    "latitude": "29.97022827751892",
    "geocoded_column": {
      "latitude": "29.97022827751892",
      "longitude": "-90.07514296189885"
    }
  },
  {
    "service_request": "2022-916529",
    "request_type": "Property Maintenance",
    "request_reason": "Property Maintenance",
    "date_created": "2022-09-05T18:05:14.000",
    "date_modified": "2022-09-05T18:05:14.000",
    "request_status": "Pending",
    "responsible_agency": "Department of Code Enforcement",
    "final_address": "1920 Clouet St",
    "address_councildis": "D",
    "status": "Pending",
    "rowid": "916529",
    "final_x": "3689717.83561",
    "final_y": "539180.071178",
    "longitude": "-90.04184881858393",
    "latitude": "29.976306125641354",
    "geocoded_column": {
      "latitude": "29.976306125641354",
      "longitude": "-90.04184881858393"
    }
  },
  {
    "service_request": "2022-916528",
    "request_type": "Trash/Recycling",
    "request_reason": "Request a Large Item Pick Up",
    "date_created": "2022-09-05T18:00:33.000",
    "date_modified": "2022-09-05T18:00:34.000",
    "request_status": "Pending",
    "responsible_agency": "Department of Sanitation",
    "final_address": "2223 Fern St",
    "address_councildis": "A",
    "status": "Assigned to Contractor",
    "contractor": "Richards Disposal",
    "rowid": "916528",
    "final_x": "3665046.95444",
    "final_y": "530551.281026",
    "longitude": "-90.1200557241837",
    "latitude": "29.953321318855615",
    "geocoded_column": {
      "latitude": "29.953321318855615",
      "longitude": "-90.1200557241837"
    }
  },
  {
    "service_request": "2022-916527",
    "request_type": "Property Maintenance",
    "request_reason": "Property Maintenance",
    "date_created": "2022-09-05T17:57:31.000",
    "date_modified": "2022-09-05T17:57:31.000",
    "request_status": "Pending",
    "responsible_agency": "Department of Code Enforcement",
    "final_address": "5715 Bullard Ave",
    "address_councildis": "E",
    "status": "Pending",
    "rowid": "916527",
    "final_x": "3716854.54924",
    "final_y": "562540.09264",
    "longitude": "-89.95525669206349",
    "latitude": "30.039668133454636",
    "geocoded_column": {
      "latitude": "30.039668133454636",
      "longitude": "-89.95525669206349"
    }
  },
  {
    "service_request": "2022-916526",
    "request_type": "Property Maintenance",
    "request_reason": "Property Maintenance",
    "date_created": "2022-09-05T17:57:27.000",
    "date_modified": "2022-09-05T17:57:27.000",
    "request_status": "Pending",
    "responsible_agency": "Department of Code Enforcement",
    "final_address": "3113 N Prieur St",
    "address_councildis": "D",
    "status": "Pending",
    "rowid": "916526",
    "final_x": "3689912.38377",
    "final_y": "539006.64737",
    "longitude": "-90.0412405557756",
    "latitude": "29.975823240830458",
    "geocoded_column": {
      "latitude": "29.975823240830458",
      "longitude": "-90.0412405557756"
    }
  },
  {
    "service_request": "2022-916525",
    "request_type": "Property Maintenance",
    "request_reason": "Property Maintenance",
    "date_created": "2022-09-05T17:54:11.000",
    "date_modified": "2022-09-05T17:54:11.000",
    "request_status": "Pending",
    "responsible_agency": "Department of Code Enforcement",
    "final_address": "5980 Bullard Ave",
    "address_councildis": "E",
    "status": "Pending",
    "rowid": "916525",
    "final_x": "3715307.76984",
    "final_y": "563496.633312",
    "longitude": "-89.96010870321228",
    "latitude": "30.042349293176308",
    "geocoded_column": {
      "latitude": "30.042349293176308",
      "longitude": "-89.96010870321228"
    }
  },
  {
    "service_request": "2022-916524",
    "request_type": "Property Maintenance",
    "request_reason": "Property Maintenance",
    "date_created": "2022-09-05T17:53:04.000",
    "date_modified": "2022-09-05T17:53:04.000",
    "request_status": "Pending",
    "responsible_agency": "Department of Code Enforcement",
    "final_address": "6090 Bullard Ave",
    "address_councildis": "E",
    "status": "Pending",
    "rowid": "916524",
    "final_x": "3715239.41432",
    "final_y": "564292.826913",
    "longitude": "-89.96029457885659",
    "latitude": "30.044540755023633",
    "geocoded_column": {
      "latitude": "30.044540755023633",
      "longitude": "-89.96029457885659"
    }
  },
  {
    "service_request": "2022-916523",
    "request_type": "Trash/Recycling",
    "request_reason": "Missed Trash Pick-Up",
    "date_created": "2022-09-05T17:50:13.000",
    "date_modified": "2022-09-05T17:50:14.000",
    "request_status": "Pending",
    "responsible_agency": "Department of Sanitation",
    "final_address": "2624 Clara St",
    "address_councildis": "B",
    "status": "Assigned to Contractor",
    "contractor": "Richards Disposal",
    "rowid": "916523",
    "final_x": "3673942.29748",
    "final_y": "526238.740862",
    "longitude": "-90.0921155071691",
    "latitude": "29.94120126974368",
    "geocoded_column": {
      "latitude": "29.94120126974368",
      "longitude": "-90.0921155071691"
    }
  },
  {
    "service_request": "2022-916522",
    "request_type": "Property Maintenance",
    "request_reason": "Property Maintenance",
    "date_created": "2022-09-05T17:49:01.000",
    "date_modified": "2022-09-05T17:49:01.000",
    "request_status": "Pending",
    "responsible_agency": "Department of Code Enforcement",
    "final_address": "1110 Kabel Dr",
    "address_councildis": "C",
    "status": "Pending",
    "rowid": "916522",
    "final_x": "3700871.61085",
    "final_y": "523480.715323",
    "longitude": "-90.0071959516777",
    "latitude": "29.93278808884642",
    "geocoded_column": {
      "latitude": "29.93278808884642",
      "longitude": "-90.0071959516777"
    }
  },
  {
    "service_request": "2022-916521",
    "request_type": "Trash/Recycling",
    "request_reason": "Replace Trash Cart",
    "date_created": "2022-09-05T17:34:10.000",
    "date_modified": "2022-09-05T17:34:11.000",
    "request_status": "Pending",
    "responsible_agency": "Department of Sanitation",
    "final_address": "830 Orleans Ave",
    "address_councildis": "C",
    "status": "Assigned to Contractor",
    "contractor": "Empire Services",
    "rowid": "916521",
    "final_x": "3682147.81506",
    "final_y": "532947.285124",
    "longitude": "-90.06597490861132",
    "latitude": "29.959400545969476",
    "geocoded_column": {
      "latitude": "29.959400545969476",
      "longitude": "-90.06597490861132"
    }
  },
  {
    "service_request": "2022-916520",
    "request_type": "Property Maintenance",
    "request_reason": "Property Maintenance",
    "date_created": "2022-09-05T17:28:11.000",
    "date_modified": "2022-09-05T17:28:11.000",
    "request_status": "Pending",
    "responsible_agency": "Department of Code Enforcement",
    "final_address": "1217 Gallier St",
    "address_councildis": "C",
    "status": "Pending",
    "rowid": "916520",
    "final_x": "3690622.44016",
    "final_y": "536136.615495",
    "longitude": "-90.0391003868989",
    "latitude": "29.967909631647036",
    "geocoded_column": {
      "latitude": "29.967909631647036",
      "longitude": "-90.0391003868989"
    }
  },
  {
    "service_request": "2022-916519",
    "request_type": "Trash/Recycling",
    "request_reason": "Missed Trash Pick-Up",
    "date_created": "2022-09-05T17:24:21.000",
    "date_modified": "2022-09-05T17:24:21.000",
    "request_status": "Pending",
    "responsible_agency": "Department of Sanitation",
    "final_address": "2326 Painters St",
    "address_councildis": "D",
    "status": "Assigned to Contractor",
    "contractor": "Metro Disposal",
    "rowid": "916519",
    "final_x": "3687106.33903",
    "final_y": "541156.053964",
    "longitude": "-90.05002678997948",
    "latitude": "29.981820056398615",
    "geocoded_column": {
      "latitude": "29.981820056398615",
      "longitude": "-90.05002678997948"
    }
  },
  {
    "service_request": "2022-916518",
    "request_type": "Trash/Recycling",
    "request_reason": "Request a Large Item Pick Up",
    "date_created": "2022-09-05T17:22:42.000",
    "date_modified": "2022-09-05T17:22:42.000",
    "request_status": "Pending",
    "responsible_agency": "Department of Sanitation",
    "final_address": "2804 St Ann St",
    "address_councildis": "A",
    "status": "Assigned to Contractor",
    "contractor": "Richards Disposal",
    "rowid": "916518",
    "final_x": "3676402.50638",
    "final_y": "537573.23316",
    "longitude": "-90.08395797395882",
    "latitude": "29.97229381488083",
    "geocoded_column": {
      "latitude": "29.97229381488083",
      "longitude": "-90.08395797395882"
    }
  },
  {
    "service_request": "2022-916517",
    "request_type": "Property Maintenance",
    "request_reason": "Property Maintenance",
    "date_created": "2022-09-05T17:15:51.000",
    "date_modified": "2022-09-05T17:15:51.000",
    "request_status": "Pending",
    "responsible_agency": "Department of Code Enforcement",
    "final_address": "9132 Peach St",
    "address_councildis": "A",
    "status": "Pending",
    "rowid": "916517",
    "final_x": "3665796.01664",
    "final_y": "538239.801993",
    "longitude": "-90.11743288310448",
    "latitude": "29.974440388354065",
    "geocoded_column": {
      "latitude": "29.974440388354065",
      "longitude": "-90.11743288310448"
    }
  },
  {
    "service_request": "2022-916516",
    "request_type": "Trash/Recycling",
    "request_reason": "Illegal Dumping",
    "date_created": "2022-09-05T17:11:18.000",
    "date_modified": "2022-09-05T17:11:18.000",
    "request_status": "Pending",
    "responsible_agency": "Department of Sanitation",
    "final_address": "9132 Peach St",
    "address_councildis": "A",
    "status": "Pending",
    "rowid": "916516",
    "final_x": "3665796.01664",
    "final_y": "538239.801993",
    "longitude": "-90.11743288310448",
    "latitude": "29.974440388354065",
    "geocoded_column": {
      "latitude": "29.974440388354065",
      "longitude": "-90.11743288310448"
    }
  },
  {
    "service_request": "2022-916515",
    "request_type": "Trash/Recycling",
    "request_reason": "Replace Trash Cart",
    "date_created": "2022-09-05T17:10:16.000",
    "date_modified": "2022-09-05T17:10:17.000",
    "request_status": "Pending",
    "responsible_agency": "Department of Sanitation",
    "final_address": "2533 S Dorgenois St",
    "address_councildis": "B",
    "status": "Assigned to Contractor",
    "contractor": "Richards Disposal",
    "rowid": "916515",
    "final_x": "3672021.76737",
    "final_y": "529637.260609",
    "longitude": "-90.09806332215604",
    "latitude": "29.950603149781834",
    "geocoded_column": {
      "latitude": "29.950603149781834",
      "longitude": "-90.09806332215604"
    }
  },
  {
    "service_request": "2022-916514",
    "request_type": "Trash/Recycling",
    "request_reason": "Replace Trash Cart",
    "date_created": "2022-09-05T17:06:03.000",
    "date_modified": "2022-09-05T17:06:03.000",
    "request_status": "Pending",
    "responsible_agency": "Department of Sanitation",
    "final_address": "401 Elmira Ave",
    "address_councildis": "C",
    "status": "Assigned to Contractor",
    "contractor": "Richards Disposal",
    "rowid": "916514",
    "final_x": "3688188.60598",
    "final_y": "530288.369409",
    "longitude": "-90.04699382929253",
    "latitude": "29.95190434538229",
    "geocoded_column": {
      "latitude": "29.95190434538229",
      "longitude": "-90.04699382929253"
    }
  },
  {
    "service_request": "2022-916513",
    "request_type": "Trash/Recycling",
    "request_reason": "Replace Trash Cart",
    "date_created": "2022-09-05T16:46:53.000",
    "date_modified": "2022-09-05T16:46:54.000",
    "request_status": "Pending",
    "responsible_agency": "Department of Sanitation",
    "final_address": "1824 Burdette St",
    "address_councildis": "A",
    "status": "Assigned to Contractor",
    "contractor": "Richards Disposal",
    "rowid": "916513",
    "final_x": "3664325.21824",
    "final_y": "529362.848385",
    "longitude": "-90.12237432588809",
    "latitude": "29.950074507225466",
    "geocoded_column": {
      "latitude": "29.950074507225466",
      "longitude": "-90.12237432588809"
    }
  },
  {
    "service_request": "2022-916512",
    "request_type": "Trash/Recycling",
    "request_reason": "Missed Trash Pick-Up",
    "date_created": "2022-09-05T16:44:02.000",
    "date_modified": "2022-09-05T16:44:03.000",
    "request_status": "Pending",
    "responsible_agency": "Department of Sanitation",
    "final_address": "7211 Oak St",
    "address_councildis": "A",
    "status": "Assigned to Contractor",
    "contractor": "Richards Disposal",
    "rowid": "916512",
    "final_x": "3664008.49312",
    "final_y": "526639.164926",
    "longitude": "-90.1234651850453",
    "latitude": "29.942594452840645",
    "geocoded_column": {
      "latitude": "29.942594452840645",
      "longitude": "-90.1234651850453"
    }
  },
  {
    "service_request": "2022-916511",
    "request_type": "Trash/Recycling",
    "request_reason": "MIssed Recycling Pick-Up",
    "date_created": "2022-09-05T16:21:42.000",
    "date_modified": "2022-09-05T16:21:42.000",
    "request_status": "Pending",
    "responsible_agency": "Department of Sanitation",
    "final_address": "2233 Washington Ave",
    "address_councildis": "B",
    "status": "Assigned to Contractor",
    "contractor": "Richards Disposal",
    "rowid": "916511",
    "final_x": "3674625.65736",
    "final_y": "524567.716476",
    "longitude": "-90.09001525431059",
    "latitude": "29.936586127445302",
    "geocoded_column": {
      "latitude": "29.936586127445302",
      "longitude": "-90.09001525431059"
    }
  },
  {
    "service_request": "2022-916510",
    "request_type": "Trash/Recycling",
    "request_reason": "Illegal Dumping",
    "date_created": "2022-09-05T16:11:12.000",
    "date_modified": "2022-09-05T16:11:12.000",
    "request_status": "Pending",
    "responsible_agency": "Department of Sanitation",
    "final_address": "3410 Allen St",
    "address_councildis": "D",
    "status": "Pending",
    "rowid": "916510",
    "final_x": "3681981.00725",
    "final_y": "545051.333647",
    "longitude": "-90.06607893069277",
    "latitude": "29.99268754433676",
    "geocoded_column": {
      "latitude": "29.99268754433676",
      "longitude": "-90.06607893069277"
    }
  },
  {
    "service_request": "2022-916509",
    "request_type": "Abandoned Vehicles",
    "request_reason": "Abandoned/Junk Vehicles",
    "date_created": "2022-09-05T15:59:56.000",
    "date_modified": "2022-09-05T16:02:09.000",
    "case_close_date": "2022-08-14T19:00:00.000",
    "request_status": "Pending",
    "responsible_agency": "Department of Public Works",
    "final_address": "1500 BLK Virginia Marie St",
    "address_councildis": "D",
    "status": "Pending",
    "rowid": "916509",
    "final_x": "3679078.93905",
    "final_y": "548794.788353",
    "longitude": "-90.07511618770977",
    "latitude": "30.003068652045553",
    "geocoded_column": {
      "latitude": "30.003068652045553",
      "longitude": "-90.07511618770977"
    }
  },
  {
    "service_request": "2022-916508",
    "request_type": "Property Maintenance",
    "request_reason": "Property Maintenance",
    "date_created": "2022-09-05T15:59:52.000",
    "date_modified": "2022-09-05T15:59:52.000",
    "request_status": "Pending",
    "responsible_agency": "Department of Code Enforcement",
    "final_address": "1725 Delachaise St",
    "address_councildis": "B",
    "status": "Pending",
    "rowid": "916508",
    "final_x": "3673621.01499",
    "final_y": "521958.910842",
    "longitude": "-90.0932760907818",
    "latitude": "29.929442693780985",
    "geocoded_column": {
      "latitude": "29.929442693780985",
      "longitude": "-90.0932760907818"
    }
  },
  {
    "service_request": "2022-916507",
    "request_type": "Trash/Recycling",
    "request_reason": "Order Trash Cart",
    "date_created": "2022-09-05T15:57:44.000",
    "date_modified": "2022-09-05T15:57:44.000",
    "request_status": "Pending",
    "responsible_agency": "Department of Sanitation",
    "final_address": "3606 Banks St",
    "address_councildis": "B",
    "status": "Assigned to Contractor",
    "contractor": "Richards Disposal",
    "rowid": "916507",
    "final_x": "3671766.79041",
    "final_y": "536229.785863",
    "longitude": "-90.09864411109723",
    "latitude": "29.968737956934607",
    "geocoded_column": {
      "latitude": "29.968737956934607",
      "longitude": "-90.09864411109723"
    }
  },
  {
    "service_request": "2022-916506",
    "request_type": "Trash/Recycling",
    "request_reason": "Missed Trash Pick-Up",
    "date_created": "2022-09-05T15:56:47.000",
    "date_modified": "2022-09-05T15:56:48.000",
    "request_status": "Pending",
    "responsible_agency": "Department of Sanitation",
    "final_address": "3606 Banks St",
    "address_councildis": "B",
    "status": "Assigned to Contractor",
    "contractor": "Richards Disposal",
    "rowid": "916506",
    "final_x": "3671766.79041",
    "final_y": "536229.785863",
    "longitude": "-90.09864411109723",
    "latitude": "29.968737956934607",
    "geocoded_column": {
      "latitude": "29.968737956934607",
      "longitude": "-90.09864411109723"
    }
  },
  {
    "service_request": "2022-916505",
    "request_type": "Trash/Recycling",
    "request_reason": "Missed Trash Pick-Up",
    "date_created": "2022-09-05T15:48:49.000",
    "date_modified": "2022-09-05T15:48:50.000",
    "request_status": "Pending",
    "responsible_agency": "Department of Sanitation",
    "final_address": "8720 Stroelitz St",
    "address_councildis": "A",
    "status": "Assigned to Contractor",
    "contractor": "Richards Disposal",
    "rowid": "916505",
    "final_x": "3666233.59207",
    "final_y": "536454.044807",
    "longitude": "-90.11611082177843",
    "latitude": "29.96951737595733",
    "geocoded_column": {
      "latitude": "29.96951737595733",
      "longitude": "-90.11611082177843"
    }
  },
  {
    "service_request": "2022-916504",
    "request_type": "Property Maintenance",
    "request_reason": "Property Maintenance",
    "date_created": "2022-09-05T15:47:08.000",
    "date_modified": "2022-09-05T15:47:08.000",
    "request_status": "Pending",
    "responsible_agency": "Department of Code Enforcement",
    "final_address": "4109 General Ogden St",
    "address_councildis": "A",
    "status": "Pending",
    "rowid": "916504",
    "final_x": "3666894.49057",
    "final_y": "537933.982217",
    "longitude": "-90.11397390491453",
    "latitude": "29.973567389419685",
    "geocoded_column": {
      "latitude": "29.973567389419685",
      "longitude": "-90.11397390491453"
    }
  },
  {
    "service_request": "2022-916503",
    "request_type": "Trash/Recycling",
    "request_reason": "Request a Large Item Pick Up",
    "date_created": "2022-09-05T15:40:24.000",
    "date_modified": "2022-09-05T15:40:24.000",
    "request_status": "Pending",
    "responsible_agency": "Department of Sanitation",
    "final_address": "5112 Laurel St, New Orleans, Louisiana, 70115",
    "address_councildis": "B",
    "status": "Assigned to Contractor",
    "contractor": "Richards Disposal",
    "rowid": "916503",
    "final_x": "3668184.87873",
    "final_y": "517777.980662",
    "longitude": "-90.11057787206757",
    "latitude": "29.91810710617258",
    "geocoded_column": {
      "latitude": "29.91810710617258",
      "longitude": "-90.11057787206757"
    }
  },
  {
    "service_request": "2022-916502",
    "request_type": "Trash/Recycling",
    "request_reason": "Request a Large Item Pick Up",
    "date_created": "2022-09-05T15:32:45.000",
    "date_modified": "2022-09-05T15:32:46.000",
    "request_status": "Pending",
    "responsible_agency": "Department of Sanitation",
    "final_address": "333 Vallette St",
    "address_councildis": "C",
    "status": "Assigned to Contractor",
    "contractor": "Richards Disposal",
    "rowid": "916502",
    "final_x": "3687463.11324",
    "final_y": "530492.91213",
    "longitude": "-90.0492773483636",
    "latitude": "29.95248914242164",
    "geocoded_column": {
      "latitude": "29.95248914242164",
      "longitude": "-90.0492773483636"
    }
  },
  {
    "service_request": "2022-916501",
    "request_type": "Traffic Signals/Signs/Striping/Streetlights",
    "request_reason": "Traffic Signal Malfunctioning/Damaged",
    "date_created": "2022-09-05T15:30:06.000",
    "date_modified": "2022-09-05T15:30:07.000",
    "request_status": "Pending",
    "responsible_agency": "Department of Public Works",
    "final_address": "S PRIEUR ST & EARHART BLVD",
    "address_councildis": "B",
    "status": "Pending",
    "rowid": "916501",
    "final_x": "3674862.4",
    "final_y": "529796.98",
    "longitude": "-90.08908857899674",
    "latitude": "29.950957815401527",
    "geocoded_column": {
      "latitude": "29.950957815401527",
      "longitude": "-90.08908857899674"
    }
  },
  {
    "service_request": "2022-916500",
    "request_type": "Trash/Recycling",
    "request_reason": "Request a Large Item Pick Up",
    "date_created": "2022-09-05T15:30:02.000",
    "date_modified": "2022-09-05T15:30:03.000",
    "request_status": "Pending",
    "responsible_agency": "Department of Sanitation",
    "final_address": "4804 Cleveland Ave, New Orleans, Louisiana, 70119",
    "address_councildis": "A",
    "status": "Assigned to Contractor",
    "contractor": "Richards Disposal",
    "rowid": "916500",
    "final_x": "3668474.60423",
    "final_y": "539725.749258",
    "longitude": "-90.108923087257",
    "latitude": "29.97844781603513",
    "geocoded_column": {
      "latitude": "29.97844781603513",
      "longitude": "-90.108923087257"
    }
  },
  {
    "service_request": "2022-916499",
    "request_type": "Trash/Recycling",
    "request_reason": "Order Trash Cart",
    "date_created": "2022-09-05T15:27:05.000",
    "date_modified": "2022-09-05T15:27:06.000",
    "request_status": "Pending",
    "responsible_agency": "Department of Sanitation",
    "final_address": "1218 Bartholomew St",
    "address_councildis": "D",
    "status": "Assigned to Contractor",
    "contractor": "Metro Disposal",
    "rowid": "916499",
    "final_x": "3691892.92406",
    "final_y": "535814.988039",
    "longitude": "-90.03509968073944",
    "latitude": "29.966985750314265",
    "geocoded_column": {
      "latitude": "29.966985750314265",
      "longitude": "-90.03509968073944"
    }
  },
  {
    "service_request": "2022-916498",
    "request_type": "Parks & Parkways",
    "request_reason": "Request Tree Service (Right of Way/Public Property)",
    "date_created": "2022-09-05T15:24:51.000",
    "date_modified": "2022-09-05T15:24:52.000",
    "request_status": "Pending",
    "responsible_agency": "Department of Parks & Parkway",
    "final_address": "3422 Louisiana Avenue Prkwy",
    "address_councildis": "B",
    "status": "Pending",
    "rowid": "916498",
    "final_x": "3671634.23943",
    "final_y": "527671.873663",
    "longitude": "-90.09935376895379",
    "latitude": "29.94521046210719",
    "geocoded_column": {
      "latitude": "29.94521046210719",
      "longitude": "-90.09935376895379"
    }
  },
  {
    "service_request": "2022-916497",
    "request_type": "Traffic Signals/Signs/Striping/Streetlights",
    "request_reason": "Traffic Signal Malfunctioning/Damaged",
    "date_created": "2022-09-05T15:15:18.000",
    "date_modified": "2022-09-05T15:15:18.000",
    "request_status": "Pending",
    "responsible_agency": "Department of Public Works",
    "final_address": "POYDRAS ST & TCHOUPITOULAS ST",
    "address_councildis": "B",
    "status": "Pending",
    "rowid": "916497",
    "final_x": "3681871.8",
    "final_y": "529047.58",
    "longitude": "-90.0669825928533",
    "latitude": "29.94868606972945",
    "geocoded_column": {
      "latitude": "29.94868606972945",
      "longitude": "-90.0669825928533"
    }
  },
  {
    "service_request": "2022-916496",
    "request_type": "Property Maintenance",
    "request_reason": "Property Maintenance",
    "date_created": "2022-09-05T15:14:16.000",
    "date_modified": "2022-09-05T15:14:17.000",
    "request_status": "Pending",
    "responsible_agency": "Department of Code Enforcement",
    "final_address": "MOSS ST & ESPLANADE AVE",
    "address_councildis": "A",
    "status": "Pending",
    "rowid": "916496",
    "final_x": "3674746.1",
    "final_y": "541598.23",
    "longitude": "-90.08905115912894",
    "latitude": "29.983410735459444",
    "geocoded_column": {
      "latitude": "29.983410735459444",
      "longitude": "-90.08905115912894"
    }
  },
  {
    "service_request": "2022-916495",
    "request_type": "Trash/Recycling",
    "request_reason": "Request a Large Item Pick Up",
    "date_created": "2022-09-05T15:09:03.000",
    "date_modified": "2022-09-05T15:09:03.000",
    "request_status": "Pending",
    "responsible_agency": "Department of Sanitation",
    "final_address": "3210 St Thomas St",
    "address_councildis": "B",
    "status": "Assigned to Contractor",
    "contractor": "Richards Disposal",
    "rowid": "916495",
    "final_x": "3676554.10702",
    "final_y": "518295.685878",
    "longitude": "-90.08414292372474",
    "latitude": "29.919282402142905",
    "geocoded_column": {
      "latitude": "29.919282402142905",
      "longitude": "-90.08414292372474"
    }
  },
  {
    "service_request": "2022-916494",
    "request_type": "Trash/Recycling",
    "request_reason": "MIssed Recycling Pick-Up",
    "date_created": "2022-09-05T14:58:42.000",
    "date_modified": "2022-09-05T14:58:43.000",
    "request_status": "Pending",
    "responsible_agency": "Department of Sanitation",
    "final_address": "604 Verret St",
    "address_councildis": "C",
    "status": "Assigned to Contractor",
    "contractor": "Richards Disposal",
    "rowid": "916494",
    "final_x": "3687082.71497",
    "final_y": "529426.237377",
    "longitude": "-90.05051617702954",
    "latitude": "29.94956786761005",
    "geocoded_column": {
      "latitude": "29.94956786761005",
      "longitude": "-90.05051617702954"
    }
  },
  {
    "service_request": "2022-916493",
    "request_type": "Roads/Drainage",
    "request_reason": "Catch Basin - Clogged",
    "date_created": "2022-09-05T14:48:43.000",
    "date_modified": "2022-09-05T14:48:43.000",
    "request_status": "Pending",
    "responsible_agency": "Department of Public Works",
    "final_address": "3000 LaSalle St",
    "address_councildis": "B",
    "status": "Pending",
    "rowid": "916493",
    "final_x": "3673650.1467",
    "final_y": "524400.384572",
    "longitude": "-90.09310070520245",
    "latitude": "29.936155088333553",
    "geocoded_column": {
      "latitude": "29.936155088333553",
      "longitude": "-90.09310070520245"
    }
  },
  {
    "service_request": "2022-916492",
    "request_type": "Trash/Recycling",
    "request_reason": "Illegal Dumping",
    "date_created": "2022-09-05T14:47:33.000",
    "date_modified": "2022-09-05T14:47:33.000",
    "request_status": "Pending",
    "responsible_agency": "Department of Sanitation",
    "final_address": "1714 Bartholomew St",
    "address_councildis": "D",
    "status": "Pending",
    "rowid": "916492",
    "final_x": "3692367.74838",
    "final_y": "537727.059336",
    "longitude": "-90.03353169335388",
    "latitude": "29.972228468924126",
    "geocoded_column": {
      "latitude": "29.972228468924126",
      "longitude": "-90.03353169335388"
    }
  },
  {
    "service_request": "2022-916491",
    "request_type": "Trash/Recycling",
    "request_reason": "Return Trash Cart",
    "date_created": "2022-09-05T14:43:33.000",
    "date_modified": "2022-09-05T14:43:34.000",
    "request_status": "Pending",
    "responsible_agency": "Department of Sanitation",
    "final_address": "3815 Banks St",
    "address_councildis": "A",
    "status": "Assigned to Contractor",
    "contractor": "Richards Disposal",
    "rowid": "916491",
    "final_x": "3671273.49915",
    "final_y": "536770.153928",
    "longitude": "-90.100183592215",
    "latitude": "29.97023839386112",
    "geocoded_column": {
      "latitude": "29.97023839386112",
      "longitude": "-90.100183592215"
    }
  },
  {
    "service_request": "2022-916490",
    "request_type": "Trash/Recycling",
    "request_reason": "Return Trash Cart",
    "date_created": "2022-09-05T14:43:18.000",
    "date_modified": "2022-09-05T14:43:19.000",
    "case_close_date": "2022-09-04T19:00:00.000",
    "request_status": "Pending",
    "responsible_agency": "Department of Sanitation",
    "final_address": "3815 Banks St",
    "address_councildis": "A",
    "status": "Assigned to Contractor",
    "contractor": "Richards Disposal",
    "rowid": "916490",
    "final_x": "3671273.49915",
    "final_y": "536770.153928",
    "longitude": "-90.100183592215",
    "latitude": "29.97023839386112",
    "geocoded_column": {
      "latitude": "29.97023839386112",
      "longitude": "-90.100183592215"
    }
  },
  {
    "service_request": "2022-916489",
    "request_type": "Property Maintenance",
    "request_reason": "Property Maintenance",
    "date_created": "2022-09-05T14:41:48.000",
    "date_modified": "2022-09-05T14:41:48.000",
    "request_status": "Pending",
    "responsible_agency": "Department of Code Enforcement",
    "final_address": "1714 Bartholomew St",
    "address_councildis": "D",
    "status": "Pending",
    "rowid": "916489",
    "final_x": "3692367.74838",
    "final_y": "537727.059336",
    "longitude": "-90.03353169335388",
    "latitude": "29.972228468924126",
    "geocoded_column": {
      "latitude": "29.972228468924126",
      "longitude": "-90.03353169335388"
    }
  },
  {
    "service_request": "2022-916488",
    "request_type": "Property Maintenance",
    "request_reason": "Property Maintenance",
    "date_created": "2022-09-05T14:38:56.000",
    "date_modified": "2022-09-05T14:38:57.000",
    "request_status": "Pending",
    "responsible_agency": "Department of Code Enforcement",
    "final_address": "2400 Franklin Ave",
    "address_councildis": "D",
    "status": "Pending",
    "rowid": "916488",
    "final_x": "3687458.5583",
    "final_y": "541347.941644",
    "longitude": "-90.04890752397704",
    "latitude": "29.982336828096003",
    "geocoded_column": {
      "latitude": "29.982336828096003",
      "longitude": "-90.04890752397704"
    }
  },
  {
    "service_request": "2022-916487",
    "request_type": "Trash/Recycling",
    "request_reason": "Dead Animal Pick Up",
    "date_created": "2022-09-05T14:29:08.000",
    "date_modified": "2022-09-05T14:29:20.000",
    "request_status": "Pending",
    "responsible_agency": "Department of Sanitation",
    "final_address": "3311 Nashville Ave",
    "address_councildis": "A",
    "status": "Assigned to Contractor",
    "contractor": "Richards Disposal",
    "rowid": "916487",
    "final_x": "3668058.94477",
    "final_y": "527869.670591",
    "longitude": "-90.11063547219588",
    "latitude": "29.945859726049015",
    "geocoded_column": {
      "latitude": "29.945859726049015",
      "longitude": "-90.11063547219588"
    }
  },
  {
    "service_request": "2022-916486",
    "request_type": "Trash/Recycling",
    "request_reason": "Request a Large Item Pick Up",
    "date_created": "2022-09-05T14:28:25.000",
    "date_modified": "2022-09-05T14:28:25.000",
    "request_status": "Pending",
    "responsible_agency": "Department of Sanitation",
    "final_address": "8232 Hickory St",
    "address_councildis": "A",
    "status": "Assigned to Contractor",
    "contractor": "Richards Disposal",
    "rowid": "916486",
    "final_x": "3662883.92275",
    "final_y": "530325.635138",
    "longitude": "-90.12689318534419",
    "latitude": "29.952763664864438",
    "geocoded_column": {
      "latitude": "29.952763664864438",
      "longitude": "-90.12689318534419"
    }
  },
  {
    "service_request": "2022-916485",
    "request_type": "Trash/Recycling",
    "request_reason": "Repair Trash Cart",
    "date_created": "2022-09-05T14:24:27.000",
    "date_modified": "2022-09-05T14:24:35.000",
    "request_status": "Pending",
    "responsible_agency": "Department of Sanitation",
    "final_address": "323 S Rendon St",
    "address_councildis": "B",
    "status": "Assigned to Contractor",
    "contractor": "Richards Disposal",
    "rowid": "916485",
    "final_x": "3672921.47112",
    "final_y": "535701.998663",
    "longitude": "-90.09501556750286",
    "latitude": "29.967252457711595",
    "geocoded_column": {
      "latitude": "29.967252457711595",
      "longitude": "-90.09501556750286"
    }
  },
  {
    "service_request": "2022-916484",
    "request_type": "Trash/Recycling",
    "request_reason": "Request a Large Item Pick Up",
    "date_created": "2022-09-05T14:21:07.000",
    "date_modified": "2022-09-05T14:21:08.000",
    "request_status": "Pending",
    "responsible_agency": "Department of Sanitation",
    "final_address": "6307 General Meyer Ave",
    "address_councildis": "C",
    "status": "Assigned to Contractor",
    "contractor": "Richards Disposal",
    "rowid": "916484",
    "final_x": "3707709.64593",
    "final_y": "520331.2014",
    "longitude": "-89.98572593878684",
    "latitude": "29.923908653527455",
    "geocoded_column": {
      "latitude": "29.923908653527455",
      "longitude": "-89.98572593878684"
    }
  },
  {
    "service_request": "2022-916482",
    "request_type": "Trash/Recycling",
    "request_reason": "Replace Trash Cart",
    "date_created": "2022-09-05T14:12:17.000",
    "date_modified": "2022-09-05T14:12:17.000",
    "request_status": "Pending",
    "responsible_agency": "Department of Sanitation",
    "final_address": "2613 Palmer Ave",
    "address_councildis": "A",
    "status": "Assigned to Contractor",
    "contractor": "Richards Disposal",
    "rowid": "916482",
    "final_x": "3666677.10253",
    "final_y": "526293.845566",
    "longitude": "-90.1150513270746",
    "latitude": "29.941567187725237",
    "geocoded_column": {
      "latitude": "29.941567187725237",
      "longitude": "-90.1150513270746"
    }
  },
  {
    "service_request": "2022-916481",
    "request_type": "Roads/Drainage",
    "request_reason": "Catch Basin - Clogged",
    "date_created": "2022-09-05T14:09:03.000",
    "date_modified": "2022-09-05T14:09:03.000",
    "request_status": "Pending",
    "responsible_agency": "Department of Public Works",
    "final_address": "1206 Second St",
    "address_councildis": "B",
    "status": "Pending",
    "rowid": "916481",
    "final_x": "3677533.16629",
    "final_y": "521663.045881",
    "longitude": "-90.08093635205609",
    "latitude": "29.928512165403795",
    "geocoded_column": {
      "latitude": "29.928512165403795",
      "longitude": "-90.08093635205609"
    }
  },
  {
    "service_request": "2022-916480",
    "request_type": "Property Maintenance",
    "request_reason": "Property Maintenance",
    "date_created": "2022-09-05T13:54:21.000",
    "date_modified": "2022-09-05T13:54:21.000",
    "request_status": "Pending",
    "responsible_agency": "Department of Code Enforcement",
    "final_address": "3 Curtis Dr",
    "address_councildis": "E",
    "status": "Pending",
    "rowid": "916480",
    "final_x": "3697596.58627",
    "final_y": "560874.536094",
    "longitude": "-90.01617790029347",
    "latitude": "30.035711278187115",
    "geocoded_column": {
      "latitude": "30.035711278187115",
      "longitude": "-90.01617790029347"
    }
  },
  {
    "service_request": "2022-916479",
    "request_type": "Trash/Recycling",
    "request_reason": "Repair Trash Cart",
    "date_created": "2022-09-05T13:41:38.000",
    "date_modified": "2022-09-05T13:47:35.000",
    "request_status": "Pending",
    "responsible_agency": "Department of Sanitation",
    "final_address": "6708 Brunswick Ct",
    "address_councildis": "C",
    "status": "Assigned to Contractor",
    "contractor": "Richards Disposal",
    "rowid": "916479",
    "final_x": "3708629.03876",
    "final_y": "516958.750005",
    "longitude": "-89.98294923187942",
    "latitude": "29.914605826085097",
    "geocoded_column": {
      "latitude": "29.914605826085097",
      "longitude": "-89.98294923187942"
    }
  },
  {
    "service_request": "2022-916478",
    "request_type": "Traffic Signals/Signs/Striping/Streetlights",
    "request_reason": "Traffic Sign Missing/Damaged",
    "date_created": "2022-09-05T13:35:21.000",
    "date_modified": "2022-09-05T13:35:21.000",
    "request_status": "Pending",
    "responsible_agency": "Department of Public Works",
    "final_address": "MARCONI DR & FILMORE AVE",
    "address_councildis": "A",
    "status": "Pending",
    "rowid": "916478",
    "final_x": "3671719.4",
    "final_y": "551758.48",
    "longitude": "-90.09826517909926",
    "latitude": "30.01143791529304",
    "geocoded_column": {
      "latitude": "30.01143791529304",
      "longitude": "-90.09826517909926"
    }
  },
  {
    "service_request": "2022-916477",
    "request_type": "Property Maintenance",
    "request_reason": "Property Maintenance",
    "date_created": "2022-09-05T13:33:56.000",
    "date_modified": "2022-09-05T13:33:56.000",
    "request_status": "Pending",
    "responsible_agency": "Department of Code Enforcement",
    "final_address": "5167 Press Dr",
    "address_councildis": "D",
    "status": "Pending",
    "rowid": "916477",
    "final_x": "3689420.26153",
    "final_y": "552612.482838",
    "longitude": "-90.04231065599059",
    "latitude": "30.013249620357854",
    "geocoded_column": {
      "latitude": "30.013249620357854",
      "longitude": "-90.04231065599059"
    }
  },
  {
    "service_request": "2022-916476",
    "request_type": "Trash/Recycling",
    "request_reason": "Request a Large Item Pick Up",
    "date_created": "2022-09-05T13:32:42.000",
    "date_modified": "2022-09-05T13:32:43.000",
    "request_status": "Pending",
    "responsible_agency": "Department of Sanitation",
    "final_address": "4912 Constance St",
    "address_councildis": "B",
    "status": "Assigned to Contractor",
    "contractor": "Richards Disposal",
    "rowid": "916476",
    "final_x": "3668852.29934",
    "final_y": "518168.139382",
    "longitude": "-90.10845801623154",
    "latitude": "29.919160319030162",
    "geocoded_column": {
      "latitude": "29.919160319030162",
      "longitude": "-90.10845801623154"
    }
  },
  {
    "service_request": "2022-916475",
    "request_type": "Trash/Recycling",
    "request_reason": "Request a Large Item Pick Up",
    "date_created": "2022-09-05T12:54:00.000",
    "date_modified": "2022-09-05T12:54:00.000",
    "request_status": "Pending",
    "responsible_agency": "Department of Sanitation",
    "final_address": "3520 White Oak Ave",
    "address_councildis": "C",
    "status": "Assigned to Contractor",
    "contractor": "Richards Disposal",
    "rowid": "916475",
    "final_x": "3703280.04561",
    "final_y": "514525.877555",
    "longitude": "-89.99992174198377",
    "latitude": "29.908088509450977",
    "geocoded_column": {
      "latitude": "29.908088509450977",
      "longitude": "-89.99992174198377"
    }
  },
  {
    "service_request": "2022-916474",
    "request_type": "Roads/Drainage",
    "request_reason": "Street Flooding / Drainage",
    "date_created": "2022-09-05T12:53:53.000",
    "date_modified": "2022-09-05T12:53:53.000",
    "request_status": "Pending",
    "responsible_agency": "Department of Public Works",
    "final_address": "913 Clouet St",
    "address_councildis": "C",
    "status": "Pending",
    "rowid": "916474",
    "final_x": "3688858.58262",
    "final_y": "535312.536774",
    "longitude": "-90.04469995811125",
    "latitude": "29.965698366461265",
    "geocoded_column": {
      "latitude": "29.965698366461265",
      "longitude": "-90.04469995811125"
    }
  },
  {
    "service_request": "2022-916473",
    "request_type": "Abandoned Vehicles",
    "request_reason": "Abandoned/Junk Vehicles",
    "date_created": "2022-09-05T12:49:51.000",
    "date_modified": "2022-09-05T12:49:51.000",
    "request_status": "Pending",
    "responsible_agency": "Department of Public Works",
    "final_address": "7070 Pinebrook Dr",
    "address_councildis": "E",
    "status": "Pending",
    "rowid": "916473",
    "final_x": "3719419.83493",
    "final_y": "569840.400678",
    "longitude": "-89.94687055013775",
    "latitude": "30.059655890429713",
    "geocoded_column": {
      "latitude": "30.059655890429713",
      "longitude": "-89.94687055013775"
    }
  },
  {
    "service_request": "2022-916472",
    "request_type": "Trash/Recycling",
    "request_reason": "Dead Animal Pick Up",
    "date_created": "2022-09-05T12:46:56.000",
    "date_modified": "2022-09-05T12:46:56.000",
    "request_status": "Pending",
    "responsible_agency": "Department of Sanitation",
    "final_address": "N VILLERE ST & PRESS ST",
    "address_councildis": "C",
    "status": "Assigned to Contractor",
    "contractor": "Metro Disposal",
    "rowid": "916472",
    "final_x": "3688310.0",
    "final_y": "537349.28",
    "longitude": "-90.04636011500865",
    "latitude": "29.971315650188686",
    "geocoded_column": {
      "latitude": "29.971315650188686",
      "longitude": "-90.04636011500865"
    }
  },
  {
    "service_request": "2022-916471",
    "request_type": "Trash/Recycling",
    "request_reason": "Start Trash Service",
    "date_created": "2022-09-05T12:43:05.000",
    "date_modified": "2022-09-05T12:43:06.000",
    "request_status": "Pending",
    "responsible_agency": "Department of Sanitation",
    "final_address": "1117 Verret St",
    "address_councildis": "C",
    "status": "Assigned to Contractor",
    "contractor": "Richards Disposal",
    "rowid": "916471",
    "final_x": "3687252.59158",
    "final_y": "527444.221567",
    "longitude": "-90.0500498887739",
    "latitude": "29.944112768778087",
    "geocoded_column": {
      "latitude": "29.944112768778087",
      "longitude": "-90.0500498887739"
    }
  },
  {
    "service_request": "2022-916470",
    "request_type": "Abandoned Vehicles",
    "request_reason": "Abandoned/Junk Vehicles",
    "date_created": "2022-09-05T12:41:58.000",
    "date_modified": "2022-09-05T12:43:34.000",
    "request_status": "Pending",
    "responsible_agency": "Department of Public Works",
    "final_address": "1326 Port St",
    "address_councildis": "C",
    "status": "Pending",
    "rowid": "916470",
    "final_x": "3687634.73609",
    "final_y": "537339.618824",
    "longitude": "-90.04849302996735",
    "latitude": "29.971309922427245",
    "geocoded_column": {
      "latitude": "29.971309922427245",
      "longitude": "-90.04849302996735"
    }
  },
  {
    "service_request": "2022-916469",
    "request_type": "Trash/Recycling",
    "request_reason": "Request a Large Item Pick Up",
    "date_created": "2022-09-05T12:32:32.000",
    "date_modified": "2022-09-05T12:32:33.000",
    "request_status": "Pending",
    "responsible_agency": "Department of Sanitation",
    "final_address": "5729 Franklin Ave",
    "address_councildis": "D",
    "status": "Assigned to Contractor",
    "contractor": "Metro Disposal",
    "rowid": "916469",
    "final_x": "3686582.95586",
    "final_y": "554306.216728",
    "longitude": "-90.05121513585532",
    "latitude": "30.01799436064056",
    "geocoded_column": {
      "latitude": "30.01799436064056",
      "longitude": "-90.05121513585532"
    }
  },
  {
    "service_request": "2022-916468",
    "request_type": "Roads/Drainage",
    "request_reason": "Street Flooding / Drainage",
    "date_created": "2022-09-05T12:32:23.000",
    "date_modified": "2022-09-05T12:32:23.000",
    "request_status": "Pending",
    "responsible_agency": "Department of Public Works",
    "final_address": "2319 Dauphine St",
    "address_councildis": "C",
    "status": "Pending",
    "rowid": "916468",
    "final_x": "3685658.06889",
    "final_y": "535359.77287",
    "longitude": "-90.05480537695729",
    "latitude": "29.965926831185694",
    "geocoded_column": {
      "latitude": "29.965926831185694",
      "longitude": "-90.05480537695729"
    }
  },
  {
    "service_request": "2022-916467",
    "request_type": "Trash/Recycling",
    "request_reason": "Missed Trash Pick-Up",
    "date_created": "2022-09-05T12:31:32.000",
    "date_modified": "2022-09-05T12:31:33.000",
    "request_status": "Pending",
    "responsible_agency": "Department of Sanitation",
    "final_address": "614 Spain St",
    "address_councildis": "C",
    "status": "Assigned to Contractor",
    "contractor": "Metro Disposal",
    "rowid": "916467",
    "final_x": "3686240.7862",
    "final_y": "534746.17671",
    "longitude": "-90.05298682891303",
    "latitude": "29.96422176351471",
    "geocoded_column": {
      "latitude": "29.96422176351471",
      "longitude": "-90.05298682891303"
    }
  },
  {
    "service_request": "2022-916466",
    "request_type": "Traffic Signals/Signs/Striping/Streetlights",
    "request_reason": "Street Light Outage/Malfunction",
    "date_created": "2022-09-05T12:29:28.000",
    "date_modified": "2022-09-05T12:29:29.000",
    "request_status": "Pending",
    "responsible_agency": "Department of Public Works",
    "final_address": "1535 Canal St",
    "address_councildis": "C",
    "status": "Pending",
    "contractor": "Legacy Professional Services",
    "rowid": "916466",
    "final_x": "3678936.45589",
    "final_y": "532521.076676",
    "longitude": "-90.07613038878848",
    "latitude": "29.958325892153642",
    "geocoded_column": {
      "latitude": "29.958325892153642",
      "longitude": "-90.07613038878848"
    }
  },
  {
    "service_request": "2022-916465",
    "request_type": "Abandoned Vehicles",
    "request_reason": "Abandoned/Junk Vehicles",
    "date_created": "2022-09-05T12:28:49.000",
    "date_modified": "2022-09-05T12:31:46.000",
    "request_status": "Pending",
    "responsible_agency": "Department of Public Works",
    "final_address": "MILAN ST & PITT ST",
    "address_councildis": "B",
    "status": "Pending",
    "rowid": "916465",
    "final_x": "3671626.1",
    "final_y": "520646.18",
    "longitude": "-90.09961830281345",
    "latitude": "29.925892318093112",
    "geocoded_column": {
      "latitude": "29.925892318093112",
      "longitude": "-90.09961830281345"
    }
  },
  {
    "service_request": "2022-916464",
    "request_type": "Property Maintenance",
    "request_reason": "Property Maintenance",
    "date_created": "2022-09-05T12:28:23.000",
    "date_modified": "2022-09-05T12:28:23.000",
    "request_status": "Pending",
    "responsible_agency": "Department of Code Enforcement",
    "final_address": "2322 N Roman St",
    "address_councildis": "D",
    "status": "Pending",
    "rowid": "916464",
    "final_x": "3685814.33487",
    "final_y": "538933.847306",
    "longitude": "-90.0541858954945",
    "latitude": "29.975749494361224",
    "geocoded_column": {
      "latitude": "29.975749494361224",
      "longitude": "-90.0541858954945"
    }
  },
  {
    "service_request": "2022-916463",
    "request_type": "Trash/Recycling",
    "request_reason": "Missed Trash Pick-Up",
    "date_created": "2022-09-05T12:24:15.000",
    "date_modified": "2022-09-05T12:24:16.000",
    "request_status": "Pending",
    "responsible_agency": "Department of Sanitation",
    "final_address": "618 Spain St",
    "address_councildis": "C",
    "status": "Assigned to Contractor",
    "contractor": "Metro Disposal",
    "rowid": "916463",
    "final_x": "3686235.27689",
    "final_y": "534776.223686",
    "longitude": "-90.05300316658703",
    "latitude": "29.964304551557163",
    "geocoded_column": {
      "latitude": "29.964304551557163",
      "longitude": "-90.05300316658703"
    }
  },
  {
    "service_request": "2022-916462",
    "request_type": "Abandoned Vehicles",
    "request_reason": "Abandoned/Junk Vehicles",
    "date_created": "2022-09-05T12:22:34.000",
    "date_modified": "2022-09-05T12:22:34.000",
    "request_status": "Pending",
    "responsible_agency": "Department of Public Works",
    "final_address": "2210 Lauradale Dr",
    "address_councildis": "C",
    "status": "Pending",
    "rowid": "916462",
    "final_x": "3692726.12681",
    "final_y": "523292.945019",
    "longitude": "-90.03291722666188",
    "latitude": "29.93252848686902",
    "geocoded_column": {
      "latitude": "29.93252848686902",
      "longitude": "-90.03291722666188"
    }
  },
  {
    "service_request": "2022-916461",
    "request_type": "Traffic Signals/Signs/Striping/Streetlights",
    "request_reason": "Street Light Outage/Malfunction",
    "date_created": "2022-09-05T12:21:47.000",
    "date_modified": "2022-09-05T12:21:48.000",
    "request_status": "Pending",
    "responsible_agency": "Department of Public Works",
    "final_address": "1535 Canal St",
    "address_councildis": "C",
    "status": "Pending",
    "contractor": "Legacy Professional Services",
    "rowid": "916461",
    "final_x": "3678936.45589",
    "final_y": "532521.076676",
    "longitude": "-90.07613038878848",
    "latitude": "29.958325892153642",
    "geocoded_column": {
      "latitude": "29.958325892153642",
      "longitude": "-90.07613038878848"
    }
  },
  {
    "service_request": "2022-916460",
    "request_type": "Roads/Drainage",
    "request_reason": "Pothole",
    "date_created": "2022-09-05T12:18:19.000",
    "date_modified": "2022-09-05T12:19:02.000",
    "request_status": "Pending",
    "responsible_agency": "Department of Public Works",
    "final_address": "2900 BLK Lafitte Ave",
    "address_councildis": "A",
    "status": "Pending",
    "rowid": "916460",
    "final_x": "3675435.14876",
    "final_y": "537019.972992",
    "longitude": "-90.08703206354076",
    "latitude": "29.970801504669062",
    "geocoded_column": {
      "latitude": "29.970801504669062",
      "longitude": "-90.08703206354076"
    }
  },
  {
    "service_request": "2022-916459",
    "request_type": "Trash/Recycling",
    "request_reason": "Order Trash Cart",
    "date_created": "2022-09-05T12:11:16.000",
    "date_modified": "2022-09-05T12:14:20.000",
    "request_status": "Pending",
    "responsible_agency": "Department of Sanitation",
    "final_address": "4512 N Robertson St",
    "address_councildis": "D",
    "status": "Assigned to Contractor",
    "contractor": "Metro Disposal",
    "rowid": "916459",
    "final_x": "3693806.54269",
    "final_y": "536353.237575",
    "longitude": "-90.02903714508997",
    "latitude": "29.96840599118297",
    "geocoded_column": {
      "latitude": "29.96840599118297",
      "longitude": "-90.02903714508997"
    }
  },
  {
    "service_request": "2022-916458",
    "request_type": "Property Maintenance",
    "request_reason": "Property Maintenance",
    "date_created": "2022-09-05T12:11:04.000",
    "date_modified": "2022-09-05T12:11:04.000",
    "request_status": "Pending",
    "responsible_agency": "Department of Code Enforcement",
    "final_address": "4725 Babylon St",
    "address_councildis": "D",
    "status": "Pending",
    "rowid": "916458",
    "final_x": "3696745.58608",
    "final_y": "554097.413016",
    "longitude": "-90.01911284040065",
    "latitude": "30.01710364487513",
    "geocoded_column": {
      "latitude": "30.01710364487513",
      "longitude": "-90.01911284040065"
    }
  },
  {
    "service_request": "2022-916457",
    "request_type": "Mosquito, Termite & Rodent Control",
    "request_reason": "Mosquito Complaint",
    "date_created": "2022-09-05T12:08:03.000",
    "date_modified": "2022-09-05T12:08:03.000",
    "request_status": "Pending",
    "responsible_agency": "Mosquito, Termite & Rodent Control Board",
    "final_address": "4512 N Robertson St",
    "address_councildis": "D",
    "status": "Pending",
    "rowid": "916457",
    "final_x": "3693806.54269",
    "final_y": "536353.237575",
    "longitude": "-90.02903714508997",
    "latitude": "29.96840599118297",
    "geocoded_column": {
      "latitude": "29.96840599118297",
      "longitude": "-90.02903714508997"
    }
  },
  {
    "service_request": "2022-916456",
    "request_type": "Trash/Recycling",
    "request_reason": "Replace Trash Cart",
    "date_created": "2022-09-05T12:02:21.000",
    "date_modified": "2022-09-05T12:02:21.000",
    "request_status": "Pending",
    "responsible_agency": "Department of Sanitation",
    "final_address": "618 David St, New Orleans, Louisiana, 70119",
    "address_councildis": "A",
    "status": "Assigned to Contractor",
    "contractor": "Richards Disposal",
    "rowid": "916456",
    "final_x": "3672151.56046",
    "final_y": "540032.327947",
    "longitude": "-90.09729944296234",
    "latitude": "29.97918225440219",
    "geocoded_column": {
      "latitude": "29.97918225440219",
      "longitude": "-90.09729944296234"
    }
  },
  {
    "service_request": "2022-916455",
    "request_type": "Trash/Recycling",
    "request_reason": "Request a Large Item Pick Up",
    "date_created": "2022-09-05T12:00:56.000",
    "date_modified": "2022-09-05T12:00:57.000",
    "request_status": "Pending",
    "responsible_agency": "Department of Sanitation",
    "final_address": "5719 Painters St",
    "address_councildis": "D",
    "status": "Assigned to Contractor",
    "contractor": "Metro Disposal",
    "rowid": "916455",
    "final_x": "3686180.99516",
    "final_y": "554229.031576",
    "longitude": "-90.0524879017767",
    "latitude": "30.01779449074635",
    "geocoded_column": {
      "latitude": "30.01779449074635",
      "longitude": "-90.0524879017767"
    }
  },
  {
    "service_request": "2022-916454",
    "request_type": "Roads/Drainage",
    "request_reason": "Debris in Roadway",
    "date_created": "2022-09-05T11:53:00.000",
    "date_modified": "2022-09-05T11:53:03.000",
    "request_status": "Pending",
    "responsible_agency": "Department of Public Works",
    "final_address": "KERLEREC ST & N CLAIBORNE AVE",
    "address_councildis": "D",
    "status": "Pending",
    "rowid": "916454",
    "final_x": "3681449.1",
    "final_y": "536926.98",
    "longitude": "-90.06804251400258",
    "latitude": "29.970364574396033",
    "geocoded_column": {
      "latitude": "29.970364574396033",
      "longitude": "-90.06804251400258"
    }
  },
  {
    "service_request": "2022-916453",
    "request_type": "Property Maintenance",
    "request_reason": "Property Maintenance",
    "date_created": "2022-09-05T11:52:28.000",
    "date_modified": "2022-09-05T11:52:28.000",
    "request_status": "Pending",
    "responsible_agency": "Department of Code Enforcement",
    "final_address": "2837 Milan St",
    "address_councildis": "B",
    "status": "Pending",
    "rowid": "916453",
    "final_x": "3671183.03867",
    "final_y": "525465.503805",
    "longitude": "-90.10085328448618",
    "latitude": "29.93915701639153",
    "geocoded_column": {
      "latitude": "29.93915701639153",
      "longitude": "-90.10085328448618"
    }
  },
  {
    "service_request": "2022-916452",
    "request_type": "Roads/Drainage",
    "request_reason": "Catch Basin - Clogged",
    "date_created": "2022-09-05T11:52:16.000",
    "date_modified": "2022-09-05T11:52:16.000",
    "request_status": "Pending",
    "responsible_agency": "Department of Public Works",
    "final_address": "7933 Jeannette St",
    "address_councildis": "A",
    "status": "Pending",
    "rowid": "916452",
    "final_x": "3663071.44903",
    "final_y": "528848.397696",
    "longitude": "-90.12635019187489",
    "latitude": "29.948696307479008",
    "geocoded_column": {
      "latitude": "29.948696307479008",
      "longitude": "-90.12635019187489"
    }
  },
  {
    "service_request": "2022-916451",
    "request_type": "Trash/Recycling",
    "request_reason": "Illegal Dumping",
    "date_created": "2022-09-05T11:43:28.000",
    "date_modified": "2022-09-05T11:43:28.000",
    "request_status": "Pending",
    "responsible_agency": "Department of Sanitation",
    "final_address": "2300 BLK Sixth St",
    "address_councildis": "B",
    "status": "Pending",
    "rowid": "916451",
    "final_x": "3674025.72606",
    "final_y": "524474.220852",
    "longitude": "-90.09191246330134",
    "latitude": "29.9363469307806",
    "geocoded_column": {
      "latitude": "29.9363469307806",
      "longitude": "-90.09191246330134"
    }
  },
  {
    "service_request": "2022-916450",
    "request_type": "Trash/Recycling",
    "request_reason": "Request a Large Item Pick Up",
    "date_created": "2022-09-05T11:32:58.000",
    "date_modified": "2022-09-05T11:32:58.000",
    "request_status": "Pending",
    "responsible_agency": "Department of Sanitation",
    "final_address": "4409 Fontainebleau Dr",
    "address_councildis": "B",
    "status": "Assigned to Contractor",
    "contractor": "Richards Disposal",
    "rowid": "916450",
    "final_x": "3669237.49556",
    "final_y": "529635.506945",
    "longitude": "-90.10685470437741",
    "latitude": "29.950680567438372",
    "geocoded_column": {
      "latitude": "29.950680567438372",
      "longitude": "-90.10685470437741"
    }
  },
  {
    "service_request": "2022-916449",
    "request_type": "Traffic Signals/Signs/Striping/Streetlights",
    "request_reason": "Traffic Signal Malfunctioning/Damaged",
    "date_created": "2022-09-05T11:24:43.000",
    "date_modified": "2022-09-05T11:24:44.000",
    "request_status": "Pending",
    "responsible_agency": "Department of Public Works",
    "final_address": "COMMON ST & OKEEFE AVE & UNIVERSITY PL",
    "address_councildis": "B",
    "status": "Pending",
    "rowid": "916449",
    "final_x": "3679857.4",
    "final_y": "530895.28",
    "longitude": "-90.0732787525127",
    "latitude": "29.95382768462633",
    "geocoded_column": {
      "latitude": "29.95382768462633",
      "longitude": "-90.0732787525127"
    }
  },
  {
    "service_request": "2022-916448",
    "request_type": "Abandoned Vehicles",
    "request_reason": "Abandoned/Junk Vehicles",
    "date_created": "2022-09-05T11:04:43.000",
    "date_modified": "2022-09-05T11:04:43.000",
    "request_status": "Pending",
    "responsible_agency": "Department of Public Works",
    "final_address": "4436 Flake Ave",
    "address_councildis": "E",
    "status": "Pending",
    "rowid": "916448",
    "final_x": "3706224.31403",
    "final_y": "553684.689879",
    "longitude": "-89.9891794923135",
    "latitude": "30.01566647983324",
    "geocoded_column": {
      "latitude": "30.01566647983324",
      "longitude": "-89.9891794923135"
    }
  },
  {
    "service_request": "2022-916447",
    "request_type": "Trash/Recycling",
    "request_reason": "Order Trash Cart",
    "date_created": "2022-09-05T11:02:49.000",
    "date_modified": "2022-09-05T11:02:50.000",
    "request_status": "Pending",
    "responsible_agency": "Department of Sanitation",
    "final_address": "2545 St Peter St",
    "address_councildis": "D",
    "status": "Assigned to Contractor",
    "contractor": "Richards Disposal",
    "rowid": "916447",
    "final_x": "3677191.96539",
    "final_y": "536504.099655",
    "longitude": "-90.08150161386237",
    "latitude": "29.969330370355443",
    "geocoded_column": {
      "latitude": "29.969330370355443",
      "longitude": "-90.08150161386237"
    }
  },
  {
    "service_request": "2022-916446",
    "request_type": "Traffic Signals/Signs/Striping/Streetlights",
    "request_reason": "Street Light Outage/Malfunction",
    "date_created": "2022-09-05T11:01:54.000",
    "date_modified": "2022-09-05T11:01:55.000",
    "request_status": "Pending",
    "responsible_agency": "Department of Public Works",
    "final_address": "1220 Teche St",
    "address_councildis": "C",
    "status": "Pending",
    "contractor": "Legacy Professional Services",
    "rowid": "916446",
    "final_x": "3686676.9981",
    "final_y": "526956.84147",
    "longitude": "-90.05188440336423",
    "latitude": "29.94279035144793",
    "geocoded_column": {
      "latitude": "29.94279035144793",
      "longitude": "-90.05188440336423"
    }
  },
  {
    "service_request": "2022-916445",
    "request_type": "Trash/Recycling",
    "request_reason": "Repair Trash Cart",
    "date_created": "2022-09-05T10:59:44.000",
    "date_modified": "2022-09-05T10:59:45.000",
    "request_status": "Pending",
    "responsible_agency": "Department of Sanitation",
    "final_address": "1012 N Rendon St",
    "address_councildis": "A",
    "status": "Assigned to Contractor",
    "contractor": "Richards Disposal",
    "rowid": "916445",
    "final_x": "3675795.15803",
    "final_y": "539279.48033",
    "longitude": "-90.08581741837857",
    "latitude": "29.97700360632088",
    "geocoded_column": {
      "latitude": "29.97700360632088",
      "longitude": "-90.08581741837857"
    }
  },
  {
    "service_request": "2022-916444",
    "request_type": "Trash/Recycling",
    "request_reason": "MIssed Recycling Pick-Up",
    "date_created": "2022-09-05T10:51:22.000",
    "date_modified": "2022-09-05T10:51:22.000",
    "request_status": "Pending",
    "responsible_agency": "Department of Sanitation",
    "final_address": "927 Race St",
    "address_councildis": "B",
    "status": "Assigned to Contractor",
    "contractor": "Richards Disposal",
    "rowid": "916444",
    "final_x": "3680766.64655",
    "final_y": "523749.893691",
    "longitude": "-90.07065635606416",
    "latitude": "29.93415273512598",
    "geocoded_column": {
      "latitude": "29.93415273512598",
      "longitude": "-90.07065635606416"
    }
  },
  {
    "service_request": "2022-916443",
    "request_type": "Roads/Drainage",
    "request_reason": "Catch Basin - Clogged",
    "date_created": "2022-09-05T10:44:47.000",
    "date_modified": "2022-09-05T10:44:48.000",
    "request_status": "Pending",
    "responsible_agency": "Department of Public Works",
    "final_address": "3010 Rabbits St",
    "address_councildis": "D",
    "status": "Pending",
    "rowid": "916443",
    "final_x": "3688356.72284",
    "final_y": "544083.41851",
    "longitude": "-90.04597361813441",
    "latitude": "29.989830699064818",
    "geocoded_column": {
      "latitude": "29.989830699064818",
      "longitude": "-90.04597361813441"
    }
  },
  {
    "service_request": "2022-916442",
    "request_type": "Traffic Signals/Signs/Striping/Streetlights",
    "request_reason": "Street Light Outage/Malfunction",
    "date_created": "2022-09-05T10:41:54.000",
    "date_modified": "2022-09-05T10:43:40.000",
    "request_status": "Pending",
    "responsible_agency": "Department of Public Works",
    "final_address": "3010 Rabbits St",
    "address_councildis": "D",
    "status": "Pending",
    "contractor": "Legacy Professional Services",
    "rowid": "916442",
    "final_x": "3688356.72284",
    "final_y": "544083.41851",
    "longitude": "-90.04597361813441",
    "latitude": "29.989830699064818",
    "geocoded_column": {
      "latitude": "29.989830699064818",
      "longitude": "-90.04597361813441"
    }
  },
  {
    "service_request": "2022-916441",
    "request_type": "Trash/Recycling",
    "request_reason": "Missed Trash Pick-Up",
    "date_created": "2022-09-05T10:28:04.000",
    "date_modified": "2022-09-05T10:28:04.000",
    "request_status": "Pending",
    "responsible_agency": "Department of Sanitation",
    "final_address": "1721 Arts St, New Orleans, Louisiana, 70117",
    "address_councildis": "D",
    "status": "Assigned to Contractor",
    "contractor": "Metro Disposal",
    "rowid": "916441",
    "final_x": "3687062.45577",
    "final_y": "538901.24993",
    "longitude": "-90.05024514141003",
    "latitude": "29.9756214923478",
    "geocoded_column": {
      "latitude": "29.9756214923478",
      "longitude": "-90.05024514141003"
    }
  },
  {
    "service_request": "2022-916440",
    "request_type": "Traffic Signals/Signs/Striping/Streetlights",
    "request_reason": "Street Light Outage/Malfunction",
    "date_created": "2022-09-05T10:19:29.000",
    "date_modified": "2022-09-05T10:19:30.000",
    "request_status": "Pending",
    "responsible_agency": "Department of Public Works",
    "final_address": "3440 Mansfield Ave",
    "address_councildis": "C",
    "status": "Pending",
    "contractor": "Legacy Professional Services",
    "rowid": "916440",
    "final_x": "3709116.98929",
    "final_y": "518087.266422",
    "longitude": "-89.98136707788791",
    "latitude": "29.917693031789437",
    "geocoded_column": {
      "latitude": "29.917693031789437",
      "longitude": "-89.98136707788791"
    }
  },
  {
    "service_request": "2022-916439",
    "request_type": "Mosquito, Termite & Rodent Control",
    "request_reason": "Mosquito Complaint",
    "date_created": "2022-09-05T10:16:01.000",
    "date_modified": "2022-09-05T10:16:01.000",
    "request_status": "Pending",
    "responsible_agency": "Mosquito, Termite & Rodent Control Board",
    "final_address": "5965 Memphis St",
    "address_councildis": "A",
    "status": "Pending",
    "rowid": "916439",
    "final_x": "3669260.83706",
    "final_y": "547083.854993",
    "longitude": "-90.10619098307292",
    "latitude": "29.998656964879576",
    "geocoded_column": {
      "latitude": "29.998656964879576",
      "longitude": "-90.10619098307292"
    }
  },
  {
    "service_request": "2022-916438",
    "request_type": "Property Maintenance",
    "request_reason": "Property Maintenance",
    "date_created": "2022-09-05T10:05:05.000",
    "date_modified": "2022-09-05T10:05:05.000",
    "request_status": "Pending",
    "responsible_agency": "Department of Code Enforcement",
    "final_address": "7733 Alabama St",
    "address_councildis": "D",
    "status": "Pending",
    "rowid": "916438",
    "final_x": "3694805.70115",
    "final_y": "559009.49078",
    "longitude": "-90.02506485089944",
    "latitude": "30.030671034214354",
    "geocoded_column": {
      "latitude": "30.030671034214354",
      "longitude": "-90.02506485089944"
    }
  },
  {
    "service_request": "2022-916436",
    "request_type": "Trash/Recycling",
    "request_reason": "Illegal Dumping",
    "date_created": "2022-09-05T09:57:37.000",
    "date_modified": "2022-09-05T13:52:42.000",
    "request_status": "Pending",
    "responsible_agency": "Department of Sanitation",
    "final_address": "New Orleans,LA",
    "address_councildis": "B",
    "rowid": "916436",
    "final_x": "3670396.04631",
    "final_y": "517826.014989",
    "longitude": "-90.10359677036575",
    "latitude": "29.91817411897318",
    "geocoded_column": {
      "latitude": "29.91817411897318",
      "longitude": "-90.10359677036575"
    }
  },
  {
    "service_request": "2022-916435",
    "request_type": "Trash/Recycling",
    "request_reason": "Request a Large Item Pick Up",
    "date_created": "2022-09-05T09:57:21.000",
    "date_modified": "2022-09-05T09:57:22.000",
    "request_status": "Pending",
    "responsible_agency": "Department of Sanitation",
    "final_address": "Cadiz St & Laurel St, New Orleans, Louisiana, 70115",
    "address_councildis": "B",
    "status": "Assigned to Contractor",
    "contractor": "Richards Disposal",
    "rowid": "916435",
    "final_x": "3670382.3",
    "final_y": "517978.58",
    "longitude": "-90.1036349920616",
    "latitude": "29.91859403014864",
    "geocoded_column": {
      "latitude": "29.91859403014864",
      "longitude": "-90.1036349920616"
    }
  },
  {
    "service_request": "2022-916434",
    "request_type": "Trash/Recycling",
    "request_reason": "Dead Animal Pick Up",
    "date_created": "2022-09-05T09:52:39.000",
    "date_modified": "2022-09-05T09:52:39.000",
    "request_status": "Pending",
    "responsible_agency": "Department of Sanitation",
    "final_address": "8600 BLK Willow St",
    "address_councildis": "A",
    "status": "Assigned to Contractor",
    "contractor": "Richards Disposal",
    "rowid": "916434",
    "final_x": "3660990.47293",
    "final_y": "530208.32651",
    "longitude": "-90.13287576722044",
    "latitude": "29.952495785062393",
    "geocoded_column": {
      "latitude": "29.952495785062393",
      "longitude": "-90.13287576722044"
    }
  },
  {
    "service_request": "2022-916433",
    "request_type": "Roads/Drainage",
    "request_reason": "Catch Basin - Broken/Damage",
    "date_created": "2022-09-05T09:49:00.000",
    "date_modified": "2022-09-05T09:49:00.000",
    "request_status": "Pending",
    "responsible_agency": "Department of Public Works",
    "final_address": "3907 Louisiana Avenue Prkwy",
    "address_councildis": "B",
    "status": "Pending",
    "rowid": "916433",
    "final_x": "3671213.56814",
    "final_y": "529127.504768",
    "longitude": "-90.10063252089192",
    "latitude": "29.94922542111942",
    "geocoded_column": {
      "latitude": "29.94922542111942",
      "longitude": "-90.10063252089192"
    }
  },
  {
    "service_request": "2022-916432",
    "request_type": "Trash/Recycling",
    "request_reason": "Repair Trash Cart",
    "date_created": "2022-09-05T09:48:29.000",
    "date_modified": "2022-09-05T09:48:30.000",
    "request_status": "Pending",
    "responsible_agency": "Department of Sanitation",
    "final_address": "503 S Alexander St",
    "address_councildis": "A",
    "status": "Assigned to Contractor",
    "contractor": "Richards Disposal",
    "rowid": "916432",
    "final_x": "3668966.90273",
    "final_y": "537886.904457",
    "longitude": "-90.10743035902279",
    "latitude": "29.973377138170218",
    "geocoded_column": {
      "latitude": "29.973377138170218",
      "longitude": "-90.10743035902279"
    }
  },
  {
    "service_request": "2022-916431",
    "request_type": "Trash/Recycling",
    "request_reason": "Illegal Dumping",
    "date_created": "2022-09-05T09:43:40.000",
    "date_modified": "2022-09-05T09:43:41.000",
    "request_status": "Pending",
    "responsible_agency": "Department of Code Enforcement",
    "final_address": "618 Milan St",
    "address_councildis": "B",
    "status": "Pending",
    "rowid": "916431",
    "final_x": "3671859.17895",
    "final_y": "517980.488438",
    "longitude": "-90.09897318878274",
    "latitude": "29.918555613731606",
    "geocoded_column": {
      "latitude": "29.918555613731606",
      "longitude": "-90.09897318878274"
    }
  },
  {
    "service_request": "2022-916430",
    "request_type": "Traffic Signals/Signs/Striping/Streetlights",
    "request_reason": "Street Light Outage/Malfunction",
    "date_created": "2022-09-05T09:42:23.000",
    "date_modified": "2022-09-05T09:42:23.000",
    "request_status": "Pending",
    "responsible_agency": "Department of Public Works",
    "final_address": "2100 BLK Terpsichore St",
    "address_councildis": "B",
    "status": "Pending",
    "contractor": "Legacy Professional Services",
    "rowid": "916430",
    "final_x": "3676955.3242",
    "final_y": "526583.717618",
    "longitude": "-90.08259092119515",
    "latitude": "29.942059753676777",
    "geocoded_column": {
      "latitude": "29.942059753676777",
      "longitude": "-90.08259092119515"
    }
  },
  {
    "service_request": "2022-916429",
    "request_type": "Trash/Recycling",
    "request_reason": "Order Trash Cart",
    "date_created": "2022-09-05T09:37:35.000",
    "date_modified": "2022-09-05T09:37:36.000",
    "request_status": "Pending",
    "responsible_agency": "Department of Sanitation",
    "final_address": "4879 Cerise Ave",
    "address_councildis": "E",
    "status": "Assigned to Contractor",
    "contractor": "Metro Disposal",
    "rowid": "916429",
    "final_x": "3708588.19934",
    "final_y": "556590.764314",
    "longitude": "-89.98160244262705",
    "latitude": "30.023580595221837",
    "geocoded_column": {
      "latitude": "30.023580595221837",
      "longitude": "-89.98160244262705"
    }
  },
  {
    "service_request": "2022-916428",
    "request_type": "Trash/Recycling",
    "request_reason": "Replace Trash Cart",
    "date_created": "2022-09-05T09:35:13.000",
    "date_modified": "2022-09-05T09:35:13.000",
    "request_status": "Pending",
    "responsible_agency": "Department of Sanitation",
    "final_address": "2826 Dumaine St",
    "address_councildis": "A",
    "status": "Assigned to Contractor",
    "contractor": "Richards Disposal",
    "rowid": "916428",
    "final_x": "3676506.94593",
    "final_y": "537972.364041",
    "longitude": "-90.08361438768532",
    "latitude": "29.973388156795945",
    "geocoded_column": {
      "latitude": "29.973388156795945",
      "longitude": "-90.08361438768532"
    }
  },
  {
    "service_request": "2022-916427",
    "request_type": "Property Maintenance",
    "request_reason": "Property Maintenance",
    "date_created": "2022-09-05T09:33:07.000",
    "date_modified": "2022-09-05T09:33:07.000",
    "request_status": "Pending",
    "responsible_agency": "Department of Code Enforcement",
    "final_address": "5530 Willow St",
    "address_councildis": "A",
    "status": "Pending",
    "rowid": "916427",
    "final_x": "3667642.75207",
    "final_y": "525376.073405",
    "longitude": "-90.11203345269419",
    "latitude": "29.939015343587098",
    "geocoded_column": {
      "latitude": "29.939015343587098",
      "longitude": "-90.11203345269419"
    }
  },
  {
    "service_request": "2022-916426",
    "request_type": "Roads/Drainage",
    "request_reason": "Damaged Sidewalk",
    "date_created": "2022-09-05T09:29:55.000",
    "date_modified": "2022-09-05T09:29:56.000",
    "request_status": "Pending",
    "responsible_agency": "Department of Public Works",
    "final_address": "GRAVIER ST & CAMP ST",
    "address_councildis": "B",
    "status": "Pending",
    "rowid": "916426",
    "final_x": "3681271.3",
    "final_y": "529897.08",
    "longitude": "-90.06884902546363",
    "latitude": "29.951040143308894",
    "geocoded_column": {
      "latitude": "29.951040143308894",
      "longitude": "-90.06884902546363"
    }
  },
  {
    "service_request": "2022-916425",
    "request_type": "Trash/Recycling",
    "request_reason": "Start Trash Service",
    "date_created": "2022-09-05T09:29:20.000",
    "date_modified": "2022-09-05T09:29:20.000",
    "request_status": "Pending",
    "responsible_agency": "Department of Sanitation",
    "final_address": "408 Delery St",
    "address_councildis": "E",
    "status": "Assigned to Contractor",
    "contractor": "Metro Disposal",
    "rowid": "916425",
    "final_x": "3699492.47204",
    "final_y": "530688.393346",
    "longitude": "-90.01128722616953",
    "latitude": "29.952650499734467",
    "geocoded_column": {
      "latitude": "29.952650499734467",
      "longitude": "-90.01128722616953"
    }
  },
  {
    "service_request": "2022-916424",
    "request_type": "Trash/Recycling",
    "request_reason": "Order Recycling Cart",
    "date_created": "2022-09-05T09:28:52.000",
    "date_modified": "2022-09-05T09:28:53.000",
    "request_status": "Pending",
    "responsible_agency": "Department of Sanitation",
    "final_address": "408 Delery St",
    "address_councildis": "E",
    "status": "Pending",
    "rowid": "916424",
    "final_x": "3699492.47204",
    "final_y": "530688.393346",
    "longitude": "-90.01128722616953",
    "latitude": "29.952650499734467",
    "geocoded_column": {
      "latitude": "29.952650499734467",
      "longitude": "-90.01128722616953"
    }
  },
  {
    "service_request": "2022-916423",
    "request_type": "Trash/Recycling",
    "request_reason": "Order Trash Cart",
    "date_created": "2022-09-05T09:28:40.000",
    "date_modified": "2022-09-05T09:28:41.000",
    "request_status": "Pending",
    "responsible_agency": "Department of Sanitation",
    "final_address": "408 Delery St",
    "address_councildis": "E",
    "status": "Assigned to Contractor",
    "contractor": "Metro Disposal",
    "rowid": "916423",
    "final_x": "3699492.47204",
    "final_y": "530688.393346",
    "longitude": "-90.01128722616953",
    "latitude": "29.952650499734467",
    "geocoded_column": {
      "latitude": "29.952650499734467",
      "longitude": "-90.01128722616953"
    }
  },
  {
    "service_request": "2022-916422",
    "request_type": "Roads/Drainage",
    "request_reason": "Pothole",
    "date_created": "2022-09-05T09:17:22.000",
    "date_modified": "2022-09-05T09:17:22.000",
    "request_status": "Pending",
    "responsible_agency": "Department of Public Works",
    "final_address": "4860 Constance St",
    "address_councildis": "B",
    "status": "Pending",
    "rowid": "916422",
    "final_x": "3669108.08986",
    "final_y": "518170.975414",
    "longitude": "-90.10765051766106",
    "latitude": "29.919160596194285",
    "geocoded_column": {
      "latitude": "29.919160596194285",
      "longitude": "-90.10765051766106"
    }
  },
  {
    "service_request": "2022-916421",
    "request_type": "Trash/Recycling",
    "request_reason": "Missed Trash Pick-Up",
    "date_created": "2022-09-05T09:15:21.000",
    "date_modified": "2022-09-05T09:15:21.000",
    "request_status": "Pending",
    "responsible_agency": "Department of Sanitation",
    "final_address": "5901 Elysian Fields Ave",
    "address_councildis": "D",
    "status": "Assigned to Contractor",
    "contractor": "Metro Disposal",
    "rowid": "916421",
    "final_x": "3683694.75548",
    "final_y": "554659.145368",
    "longitude": "-90.06032834648964",
    "latitude": "30.019053328737336",
    "geocoded_column": {
      "latitude": "30.019053328737336",
      "longitude": "-90.06032834648964"
    }
  },
  {
    "service_request": "2022-916420",
    "request_type": "Trash/Recycling",
    "request_reason": "MIssed Recycling Pick-Up",
    "date_created": "2022-09-05T09:10:54.000",
    "date_modified": "2022-09-05T09:10:54.000",
    "request_status": "Pending",
    "responsible_agency": "Department of Sanitation",
    "final_address": "7830 Walmsley Ave",
    "address_councildis": "A",
    "status": "Assigned to Contractor",
    "contractor": "Richards Disposal",
    "rowid": "916420",
    "final_x": "3666497.44282",
    "final_y": "531951.214659",
    "longitude": "-90.11542870264954",
    "latitude": "29.957128368437502",
    "geocoded_column": {
      "latitude": "29.957128368437502",
      "longitude": "-90.11542870264954"
    }
  },
  {
    "service_request": "2022-916419",
    "request_type": "Trash/Recycling",
    "request_reason": "Missed Trash Pick-Up",
    "date_created": "2022-09-05T09:05:19.000",
    "date_modified": "2022-09-05T09:05:20.000",
    "request_status": "Pending",
    "responsible_agency": "Department of Sanitation",
    "final_address": "4910 Dauphine St",
    "address_councildis": "E",
    "status": "Assigned to Contractor",
    "contractor": "Metro Disposal",
    "rowid": "916419",
    "final_x": "3695174.76982",
    "final_y": "533223.825348",
    "longitude": "-90.02482909663985",
    "latitude": "29.959758320453343",
    "geocoded_column": {
      "latitude": "29.959758320453343",
      "longitude": "-90.02482909663985"
    }
  },
  {
    "service_request": "2022-916418",
    "request_type": "Trash/Recycling",
    "request_reason": "MIssed Recycling Pick-Up",
    "date_created": "2022-09-05T09:03:48.000",
    "date_modified": "2022-09-05T09:03:49.000",
    "request_status": "Pending",
    "responsible_agency": "Department of Sanitation",
    "final_address": "1013 Horace St",
    "address_councildis": "C",
    "status": "Assigned to Contractor",
    "contractor": "Richards Disposal",
    "rowid": "916418",
    "final_x": "3696350.96375",
    "final_y": "527582.561151",
    "longitude": "-90.02131893305555",
    "latitude": "29.944209835716247",
    "geocoded_column": {
      "latitude": "29.944209835716247",
      "longitude": "-90.02131893305555"
    }
  },
  {
    "service_request": "2022-916417",
    "request_type": "Property Maintenance",
    "request_reason": "Property Maintenance",
    "date_created": "2022-09-05T08:57:53.000",
    "date_modified": "2022-09-05T08:57:53.000",
    "request_status": "Pending",
    "responsible_agency": "Department of Code Enforcement",
    "final_address": "2740 St Louis St Ste A",
    "address_councildis": "B",
    "status": "Pending",
    "rowid": "916417",
    "final_x": "3675845.80193",
    "final_y": "536455.142983",
    "longitude": "-90.08575459034807",
    "latitude": "29.969236126278783",
    "geocoded_column": {
      "latitude": "29.969236126278783",
      "longitude": "-90.08575459034807"
    }
  },
  {
    "service_request": "2022-916416",
    "request_type": "Traffic Signals/Signs/Striping/Streetlights",
    "request_reason": "Street Light Outage/Malfunction",
    "date_created": "2022-09-05T08:55:14.000",
    "date_modified": "2022-09-05T08:55:15.000",
    "request_status": "Pending",
    "responsible_agency": "Department of Public Works",
    "final_address": "9835 E Rockton Cir",
    "address_councildis": "E",
    "status": "Pending",
    "contractor": "Legacy Professional Services",
    "rowid": "916416",
    "final_x": "3708535.02936",
    "final_y": "562974.934624",
    "longitude": "-89.98153246172826",
    "latitude": "30.04113626985564",
    "geocoded_column": {
      "latitude": "30.04113626985564",
      "longitude": "-89.98153246172826"
    }
  },
  {
    "service_request": "2022-916415",
    "request_type": "Property Maintenance",
    "request_reason": "Property Maintenance",
    "date_created": "2022-09-05T08:46:42.000",
    "date_modified": "2022-09-05T08:46:42.000",
    "request_status": "Pending",
    "responsible_agency": "Department of Code Enforcement",
    "final_address": "2718 Cherry St",
    "address_councildis": "A",
    "status": "Pending",
    "rowid": "916415",
    "final_x": "3662562.40231",
    "final_y": "535375.176006",
    "longitude": "-90.12774065165573",
    "latitude": "29.9666575643287",
    "geocoded_column": {
      "latitude": "29.9666575643287",
      "longitude": "-90.12774065165573"
    }
  },
  {
    "service_request": "2022-916414",
    "request_type": "Property Maintenance",
    "request_reason": "Property Maintenance",
    "date_created": "2022-09-05T08:46:25.000",
    "date_modified": "2022-09-05T08:46:25.000",
    "request_status": "Pending",
    "responsible_agency": "Department of Code Enforcement",
    "final_address": "2717 Cherry St",
    "address_councildis": "A",
    "status": "Pending",
    "rowid": "916414",
    "final_x": "3662578.76506",
    "final_y": "535283.675206",
    "longitude": "-90.12769201834948",
    "latitude": "29.966405493739106",
    "geocoded_column": {
      "latitude": "29.966405493739106",
      "longitude": "-90.12769201834948"
    }
  },