[
  {
    "service_request": "2021-835962",
    "request_type": "Roads/Drainage",
    "request_reason": "Catch Basin - Clogged",
    "date_created": "2021-10-22T01:18:34.000",
    "date_modified": "2021-10-22T01:19:04.000",
    "case_close_date": "2021-10-21T20:19:04.000",
    "request_status": "Closed",
    "responsible_agency": "Department of Public Works",
    "final_address": "2400 State St",
    "address_councildis": "A",
    "status": "Resolved",
    "rowid": "835962",
    "final_x": "3666646.31719",
    "final_y": "525434.287101",
    "longitude": "-90.11517737361267",
    "latitude": "29.939204578006073",
    "geocoded_column": {
      "latitude": "29.939204578006073",
      "longitude": "-90.11517737361267"
    }
  },
  {
    "service_request": "2021-835961",
    "request_type": "Roads/Drainage",
    "request_reason": "Catch Basin - Clogged",
    "date_created": "2021-10-22T01:16:30.000",
    "date_modified": "2021-10-22T01:18:26.000",
    "case_close_date": "2021-10-21T20:18:26.000",
    "request_status": "Closed",
    "responsible_agency": "Department of Public Works",
    "final_address": "1600 BLK Palmer Ave",
    "address_councildis": "A",
    "status": "Resolved",
    "rowid": "835961",
    "final_x": "3665343.46094",
    "final_y": "523101.822679",
    "longitude": "-90.1193686869927",
    "latitude": "29.93282906473197",
    "geocoded_column": {
      "latitude": "29.93282906473197",
      "longitude": "-90.1193686869927"
    }
  },
  {
    "service_request": "2021-835960",
    "request_type": "Roads/Drainage",
    "request_reason": "Catch Basin - Clogged",
    "date_created": "2021-10-22T01:12:51.000",
    "date_modified": "2021-10-22T01:13:27.000",
    "case_close_date": "2021-10-21T20:13:27.000",
    "request_status": "Closed",
    "responsible_agency": "Department of Public Works",
    "final_address": "2500 Banks St",
    "address_councildis": "B",
    "status": "Resolved",
    "rowid": "835960",
    "final_x": "3675340.06376",
    "final_y": "533521.545797",
    "longitude": "-90.0874524849992",
    "latitude": "29.961184855881598",
    "geocoded_column": {
      "latitude": "29.961184855881598",
      "longitude": "-90.0874524849992"
    }
  },
  {
    "service_request": "2021-835959",
    "request_type": "Trash/Recycling",
    "request_reason": "Illegal Dumping",
    "date_created": "2021-10-22T01:04:07.000",
    "date_modified": "2021-10-22T01:04:07.000",
    "request_status": "Pending",
    "responsible_agency": "Department of Sanitation",
    "final_address": "2638 Lapeyrouse St",
    "address_councildis": "D",
    "status": "Pending",
    "rowid": "835959",
    "final_x": "3678799.96034",
    "final_y": "540326.247435",
    "longitude": "-90.07629101954583",
    "latitude": "29.979791558650504",
    "geocoded_column": {
      "latitude": "29.979791558650504",
      "longitude": "-90.07629101954583"
    }
  },
  {
    "service_request": "2021-835958",
    "request_type": "Traffic Signals/Signs/Striping/Streetlights",
    "request_reason": "Street Light Outage/Malfunction",
    "date_created": "2021-10-22T00:19:40.000",
    "date_modified": "2021-10-22T00:19:41.000",
    "request_status": "Pending",
    "responsible_agency": "Department of Public Works",
    "final_address": "7021 Morrison Rd",
    "address_councildis": "E",
    "status": "Pending",
    "contractor": "Royal Engineering",
    "rowid": "835958",
    "final_x": "3699454.34173",
    "final_y": "559115.559964",
    "longitude": "-90.01037127459314",
    "latitude": "30.030815924875004",
    "geocoded_column": {
      "latitude": "30.030815924875004",
      "longitude": "-90.01037127459314"
    }
  },
  {
    "service_request": "2021-835957",
    "request_type": "Trash/Recycling",
    "request_reason": "Request a Large Item Pick Up",
    "date_created": "2021-10-21T23:57:42.000",
    "date_modified": "2021-10-21T23:57:42.000",
    "request_status": "Pending",
    "responsible_agency": "Department of Sanitation",
    "final_address": "7200 Thornley Dr",
    "address_councildis": "E",
    "status": "Assigned to Contractor",
    "contractor": "Metro Disposal",
    "rowid": "835957",
    "final_x": "3702890.17514",
    "final_y": "559749.937757",
    "longitude": "-89.99949070006933",
    "latitude": "30.0324506934833",
    "geocoded_column": {
      "latitude": "30.0324506934833",
      "longitude": "-89.99949070006933"
    }
  },
  {
    "service_request": "2021-835956",
    "request_type": "COVID-19",
    "request_reason": "COVID-19 Business Non-Compliance",
    "date_created": "2021-10-21T22:50:59.000",
    "date_modified": "2021-10-21T22:51:00.000",
    "request_status": "Pending",
    "responsible_agency": "Safety and Permits",
    "final_address": "7900 Lakeshore Dr, New Orleans, Louisiana, 70124",
    "address_councildis": "D",
    "status": "Pending",
    "rowid": "835956",
    "final_x": "3666876.25191",
    "final_y": "556934.571034",
    "longitude": "-90.11339262061627",
    "latitude": "30.02581298879661",
    "geocoded_column": {
      "latitude": "30.02581298879661",
      "longitude": "-90.11339262061627"
    }
  },
  {
    "service_request": "2021-835955",
    "request_type": "Roads/Drainage",
    "request_reason": "Accessibility Ramps, Curbs and Sidewalk Repair",
    "date_created": "2021-10-21T22:11:39.000",
    "date_modified": "2021-10-21T22:11:39.000",
    "request_status": "Pending",
    "responsible_agency": "Department of Public Works",
    "final_address": "120 N Norman C Francis Prkwy",
    "address_councildis": "B",
    "status": "Pending",
    "rowid": "835955",
    "final_x": "3673479.79496",
    "final_y": "536850.009928",
    "longitude": "-90.09321313375989",
    "latitude": "29.970392498272314",
    "geocoded_column": {
      "latitude": "29.970392498272314",
      "longitude": "-90.09321313375989"
    }
  },
  {
    "service_request": "2021-835954",
    "request_type": "Traffic Signals/Signs/Striping/Streetlights",
    "request_reason": "Street Light Knocked Down/Leaning",
    "date_created": "2021-10-21T22:07:29.000",
    "date_modified": "2021-10-21T22:07:30.000",
    "request_status": "Pending",
    "responsible_agency": "Department of Public Works",
    "final_address": "333 Fairway Dr",
    "address_councildis": "A",
    "status": "Pending",
    "contractor": "Royal Engineering",
    "rowid": "835954",
    "final_x": "3664317.69856",
    "final_y": "541924.823308",
    "longitude": "-90.1219787499968",
    "latitude": "29.984616015713595",
    "geocoded_column": {
      "latitude": "29.984616015713595",
      "longitude": "-90.1219787499968"
    }
  },
  {
    "service_request": "2021-835953",
    "request_type": "Abandoned Vehicles",
    "request_reason": "Vehicle Blocking Your Driveway",
    "date_created": "2021-10-21T21:44:32.000",
    "date_modified": "2021-10-21T21:44:32.000",
    "request_status": "Pending",
    "responsible_agency": "Department of Public Works",
    "final_address": "2633 Peniston St",
    "address_councildis": "B",
    "status": "Pending",
    "rowid": "835953",
    "final_x": "3672033.39137",
    "final_y": "524887.686716",
    "longitude": "-90.09818827481838",
    "latitude": "29.937543029822546",
    "geocoded_column": {
      "latitude": "29.937543029822546",
      "longitude": "-90.09818827481838"
    }
  },
  {
    "service_request": "2021-835951",
    "request_type": "Trash/Recycling",
    "request_reason": "Replace Trash Cart",
    "date_created": "2021-10-21T20:50:29.000",
    "date_modified": "2021-10-21T20:50:30.000",
    "request_status": "Pending",
    "responsible_agency": "Department of Sanitation",
    "final_address": "470 Amethyst St",
    "address_councildis": "D",
    "status": "Assigned to Contractor",
    "contractor": "Metro Disposal",
    "rowid": "835951",
    "final_x": "3668052.32161",
    "final_y": "556691.514586",
    "longitude": "-90.10968458689794",
    "latitude": "30.02511018897443",
    "geocoded_column": {
      "latitude": "30.02511018897443",
      "longitude": "-90.10968458689794"
    }
  },
  {
    "service_request": "2021-835950",
    "request_type": "Trash/Recycling",
    "request_reason": "Request a Large Item Pick Up",
    "date_created": "2021-10-21T20:43:22.000",
    "date_modified": "2021-10-21T20:43:22.000",
    "request_status": "Pending",
    "responsible_agency": "Department of Sanitation",
    "final_address": "6 Fontainebleau Dr",
    "address_councildis": "A",
    "status": "Assigned to Contractor",
    "contractor": "Richards Disposal",
    "rowid": "835950",
    "final_x": "3665549.65671",
    "final_y": "531845.766531",
    "longitude": "-90.11842506144463",
    "latitude": "29.95686608646346",
    "geocoded_column": {
      "latitude": "29.95686608646346",
      "longitude": "-90.11842506144463"
    }
  },
  {
    "service_request": "2021-835949",
    "request_type": "Traffic Signals/Signs/Striping/Streetlights",
    "request_reason": "Street Light Outage/Malfunction",
    "date_created": "2021-10-21T19:46:25.000",
    "date_modified": "2021-10-21T19:46:25.000",
    "request_status": "Pending",
    "responsible_agency": "Department of Public Works",
    "final_address": "7530 Farwood Dr",
    "address_councildis": "E",
    "status": "Pending",
    "contractor": "Royal Engineering",
    "rowid": "835949",
    "final_x": "3702039.60189",
    "final_y": "556954.479578",
    "longitude": "-90.00228117499506",
    "latitude": "30.02479146280455",
    "geocoded_column": {
      "latitude": "30.02479146280455",
      "longitude": "-90.00228117499506"
    }
  },
  {
    "service_request": "2021-835948",
    "request_type": "Trash/Recycling",
    "request_reason": "Order Recycling Cart",
    "date_created": "2021-10-21T19:25:26.000",
    "date_modified": "2021-10-21T19:25:26.000",
    "request_status": "Pending",
    "responsible_agency": "Department of Sanitation",
    "final_address": "2720 Coliseum St",
    "address_councildis": "B",
    "status": "Pending",
    "rowid": "835948",
    "final_x": "3676607.86715",
    "final_y": "521718.902458",
    "longitude": "-90.08385540327743",
    "latitude": "29.928693529134957",
    "geocoded_column": {
      "latitude": "29.928693529134957",
      "longitude": "-90.08385540327743"
    }
  },
  {
    "service_request": "2021-835947",
    "request_type": "Abandoned Vehicles",
    "request_reason": "Abandoned/Junk Vehicles",
    "date_created": "2021-10-21T19:23:57.000",
    "date_modified": "2021-10-21T19:23:57.000",
    "request_status": "Pending",
    "responsible_agency": "Department of Public Works",
    "final_address": "2373 N Villere St",
    "address_councildis": "C",
    "status": "Pending",
    "rowid": "835947",
    "final_x": "3686293.89481",
    "final_y": "537555.071432",
    "longitude": "-90.05271998115671",
    "latitude": "29.971943614645046",
    "geocoded_column": {
      "latitude": "29.971943614645046",
      "longitude": "-90.05271998115671"
    }
  },
  {
    "service_request": "2021-835946",
    "request_type": "Trash/Recycling",
    "request_reason": "Missed Trash Pick-Up",
    "date_created": "2021-10-21T18:54:33.000",
    "date_modified": "2021-10-21T18:54:34.000",
    "request_status": "Pending",
    "responsible_agency": "Department of Sanitation",
    "final_address": "902 Stewart Ct",
    "address_councildis": "A",
    "status": "Assigned to Contractor",
    "contractor": "Richards Disposal",
    "rowid": "835946",
    "final_x": "3673066.12801",
    "final_y": "540708.791883",
    "longitude": "-90.09438777562833",
    "latitude": "29.981015140424745",
    "geocoded_column": {
      "latitude": "29.981015140424745",
      "longitude": "-90.09438777562833"
    }
  },
  {
    "service_request": "2021-835944",
    "request_type": "Roads/Drainage",
    "request_reason": "Pothole",
    "date_created": "2021-10-21T18:33:51.000",
    "date_modified": "2021-10-21T18:36:28.000",
    "request_status": "Pending",
    "responsible_agency": "Department of Public Works",
    "final_address": "HAYNE BLVD & BURKE RD",
    "address_councildis": "E",
    "status": "Pending",
    "rowid": "835944",
    "final_x": "3704699.0",
    "final_y": "564276.08",
    "longitude": "-89.99360748949708",
    "latitude": "30.04483778171941",
    "geocoded_column": {
      "latitude": "30.04483778171941",
      "longitude": "-89.99360748949708"
    }
  },
  {
    "service_request": "2021-835943",
    "request_type": "Roads/Drainage",
    "request_reason": "Pothole",
    "date_created": "2021-10-21T18:33:27.000",
    "date_modified": "2021-10-21T18:33:28.000",
    "request_status": "Pending",
    "responsible_agency": "Department of Public Works",
    "final_address": "HAYNE BLVD & BURKE RD",
    "address_councildis": "E",
    "status": "Pending",
    "rowid": "835943",
    "final_x": "3704699.0",
    "final_y": "564276.08",
    "longitude": "-89.99360748949708",
    "latitude": "30.04483778171941",
    "geocoded_column": {
      "latitude": "30.04483778171941",
      "longitude": "-89.99360748949708"
    }
  },
  {
    "service_request": "2021-835942",
    "request_type": "Roads/Drainage",
    "request_reason": "Debris in Roadway",
    "date_created": "2021-10-21T18:13:11.000",
    "date_modified": "2021-10-21T18:13:11.000",
    "request_status": "Pending",
    "responsible_agency": "Department of Public Works",
    "final_address": "2217 Gentilly Blvd",
    "address_councildis": "D",
    "status": "Pending",
    "rowid": "835942",
    "final_x": "3680731.51701",
    "final_y": "544588.407631",
    "longitude": "-90.07004196192133",
    "latitude": "29.991452599066147",
    "geocoded_column": {
      "latitude": "29.991452599066147",
      "longitude": "-90.07004196192133"
    }
  },
  {
    "service_request": "2021-835941",
    "request_type": "Abandoned Vehicles",
    "request_reason": "Abandoned/Junk Vehicles",
    "date_created": "2021-10-21T18:09:17.000",
    "date_modified": "2021-10-21T18:09:17.000",
    "request_status": "Pending",
    "responsible_agency": "Department of Public Works",
    "final_address": "641 S Salcedo St",
    "address_councildis": "B",
    "status": "Pending",
    "rowid": "835941",
    "final_x": "3672594.05179",
    "final_y": "534207.940805",
    "longitude": "-90.0961005095569",
    "latitude": "29.963154025272658",
    "geocoded_column": {
      "latitude": "29.963154025272658",
      "longitude": "-90.0961005095569"
    }
  },
  {
    "service_request": "2021-835940",
    "request_type": "Abandoned Vehicles",
    "request_reason": "Abandoned/Junk Vehicles",
    "date_created": "2021-10-21T18:06:55.000",
    "date_modified": "2021-10-21T18:06:55.000",
    "request_status": "Pending",
    "responsible_agency": "Department of Public Works",
    "final_address": "641 S Salcedo St",
    "address_councildis": "B",
    "status": "Pending",
    "rowid": "835940",
    "final_x": "3672594.05179",
    "final_y": "534207.940805",
    "longitude": "-90.0961005095569",
    "latitude": "29.963154025272658",
    "geocoded_column": {
      "latitude": "29.963154025272658",
      "longitude": "-90.0961005095569"
    }
  },
  {
    "service_request": "2021-835939",
    "request_type": "Roads/Drainage",
    "request_reason": "Debris in Roadway",
    "date_created": "2021-10-21T18:06:32.000",
    "date_modified": "2021-10-21T18:06:32.000",
    "request_status": "Pending",
    "responsible_agency": "Department of Public Works",
    "final_address": "3216 Gentilly Blvd",
    "address_councildis": "D",
    "status": "Pending",
    "rowid": "835939",
    "final_x": "3684290.0573",
    "final_y": "547632.577234",
    "longitude": "-90.05869437330838",
    "latitude": "29.99971462054808",
    "geocoded_column": {
      "latitude": "29.99971462054808",
      "longitude": "-90.05869437330838"
    }
  },
  {
    "service_request": "2021-835938",
    "request_type": "Traffic Signals/Signs/Striping/Streetlights",
    "request_reason": "Street Light Outage/Malfunction",
    "date_created": "2021-10-21T18:00:24.000",
    "date_modified": "2021-10-21T18:00:25.000",
    "request_status": "Pending",
    "responsible_agency": "Department of Public Works",
    "final_address": "7332 Devine Ave",
    "address_councildis": "E",
    "status": "Pending",
    "contractor": "Royal Engineering",
    "rowid": "835938",
    "final_x": "3705954.33982",
    "final_y": "562375.466079",
    "longitude": "-89.98971049616917",
    "latitude": "30.039571429837345",
    "geocoded_column": {
      "latitude": "30.039571429837345",
      "longitude": "-89.98971049616917"
    }
  },
  {
    "service_request": "2021-835937",
    "request_type": "Traffic Signals/Signs/Striping/Streetlights",
    "request_reason": "Street Light Outage/Malfunction",
    "date_created": "2021-10-21T17:59:59.000",
    "date_modified": "2021-10-21T17:59:59.000",
    "request_status": "Pending",
    "responsible_agency": "Department of Public Works",
    "final_address": "1726 Washington Ave",
    "address_councildis": "B",
    "status": "Pending",
    "contractor": "Royal Engineering",
    "rowid": "835937",
    "final_x": "3675545.85934",
    "final_y": "523019.290299",
    "longitude": "-90.08716329986771",
    "latitude": "29.93230097352599",
    "geocoded_column": {
      "latitude": "29.93230097352599",
      "longitude": "-90.08716329986771"
    }
  },
  {
    "service_request": "2021-835936",
    "request_type": "Trash/Recycling",
    "request_reason": "Missed Trash Pick-Up",
    "date_created": "2021-10-21T17:46:34.000",
    "date_modified": "2021-10-21T17:46:35.000",
    "request_status": "Pending",
    "responsible_agency": "Department of Sanitation",
    "final_address": "223 N Alexander St",
    "address_councildis": "A",
    "status": "Assigned to Contractor",
    "contractor": "Richards Disposal",
    "rowid": "835936",
    "final_x": "3670337.80666",
    "final_y": "539738.21313",
    "longitude": "-90.10303797319794",
    "latitude": "29.978427211303515",
    "geocoded_column": {
      "latitude": "29.978427211303515",
      "longitude": "-90.10303797319794"
    }
  },
  {
    "service_request": "2021-835935",
    "request_type": "Trash/Recycling",
    "request_reason": "Request a Large Item Pick Up",
    "date_created": "2021-10-21T17:45:56.000",
    "date_modified": "2021-10-21T17:45:57.000",
    "request_status": "Pending",
    "responsible_agency": "Department of Sanitation",
    "final_address": "7142 Bundy Rd",
    "address_councildis": "E",
    "status": "Assigned to Contractor",
    "contractor": "Metro Disposal",
    "rowid": "835935",
    "final_x": "3706593.60862",
    "final_y": "561435.217758",
    "longitude": "-89.98772512588032",
    "latitude": "30.036965491716817",
    "geocoded_column": {
      "latitude": "30.036965491716817",
      "longitude": "-89.98772512588032"
    }
  },
  {
    "service_request": "2021-835933",
    "request_type": "Abandoned Vehicles",
    "request_reason": "Abandoned/Junk Vehicles",
    "date_created": "2021-10-21T17:45:02.000",
    "date_modified": "2021-10-21T17:45:02.000",
    "request_status": "Pending",
    "responsible_agency": "Department of Public Works",
    "final_address": "1215 Annette St",
    "address_councildis": "C",
    "status": "Pending",
    "rowid": "835933",
    "final_x": "3683168.46223",
    "final_y": "536285.108551",
    "longitude": "-90.06263506457903",
    "latitude": "29.968547332933174",
    "geocoded_column": {
      "latitude": "29.968547332933174",
      "longitude": "-90.06263506457903"
    }
  },
  {
    "service_request": "2021-835931",
    "request_type": "Trash/Recycling",
    "request_reason": "Request a Large Item Pick Up",
    "date_created": "2021-10-21T17:30:50.000",
    "date_modified": "2021-10-21T17:30:51.000",
    "request_status": "Pending",
    "responsible_agency": "Department of Sanitation",
    "final_address": "2608 N Tonti St",
    "address_councildis": "D",
    "status": "Assigned to Contractor",
    "contractor": "Metro Disposal",
    "rowid": "835931",
    "final_x": "3687313.66882",
    "final_y": "540857.292235",
    "longitude": "-90.0493825197239",
    "latitude": "29.98099218106241",
    "geocoded_column": {
      "latitude": "29.98099218106241",
      "longitude": "-90.0493825197239"
    }
  },
  {
    "service_request": "2021-835930",
    "request_type": "Trash/Recycling",
    "request_reason": "Replace Trash Cart",
    "date_created": "2021-10-21T17:28:59.000",
    "date_modified": "2021-10-21T17:28:59.000",
    "request_status": "Pending",
    "responsible_agency": "Department of Sanitation",
    "final_address": "731 Aurora Oaks Dr",
    "address_councildis": "C",
    "status": "Assigned to Contractor",
    "contractor": "Richards Disposal",
    "rowid": "835930",
    "final_x": "3701201.37642",
    "final_y": "519823.421944",
    "longitude": "-90.00628863092821",
    "latitude": "29.922721297900935",
    "geocoded_column": {
      "latitude": "29.922721297900935",
      "longitude": "-90.00628863092821"
    }
  },
  {
    "service_request": "2021-835929",
    "request_type": "Traffic Signals/Signs/Striping/Streetlights",
    "request_reason": "Street Light Outage/Malfunction",
    "date_created": "2021-10-21T17:28:28.000",
    "date_modified": "2021-10-21T17:28:29.000",
    "request_status": "Pending",
    "responsible_agency": "Department of Public Works",
    "final_address": "2410 Gentilly Blvd",
    "address_councildis": "D",
    "status": "Pending",
    "contractor": "Royal Engineering",
    "rowid": "835929",
    "final_x": "3681622.37647",
    "final_y": "545018.857935",
    "longitude": "-90.06721291244665",
    "latitude": "29.99260914871849",
    "geocoded_column": {
      "latitude": "29.99260914871849",
      "longitude": "-90.06721291244665"
    }
  },
  {
    "service_request": "2021-835928",
    "request_type": "Traffic Signals/Signs/Striping/Streetlights",
    "request_reason": "Street Light Outage/Malfunction",
    "date_created": "2021-10-21T17:22:20.000",
    "date_modified": "2021-10-21T17:22:21.000",
    "request_status": "Pending",
    "responsible_agency": "Department of Public Works",
    "final_address": "3618 Timber Wolf Ln",
    "address_councildis": "C",
    "status": "Pending",
    "contractor": "Royal Engineering",
    "rowid": "835928",
    "final_x": "3704413.03914",
    "final_y": "510941.324335",
    "longitude": "-89.99647787604754",
    "latitude": "29.898195904379044",
    "geocoded_column": {
      "latitude": "29.898195904379044",
      "longitude": "-89.99647787604754"
    }
  },
  {
    "service_request": "2021-835926",
    "request_type": "Roads/Drainage",
    "request_reason": "Man hole cover issue",
    "date_created": "2021-10-21T17:21:33.000",
    "date_modified": "2021-10-21T17:21:33.000",
    "request_status": "Pending",
    "responsible_agency": "Department of Public Works",
    "final_address": "OLD GENTILLY RD & LOUISA ST",
    "address_councildis": "D",
    "status": "Pending",
    "rowid": "835926",
    "final_x": "3691562.7",
    "final_y": "549283.78",
    "longitude": "-90.03566081991953",
    "latitude": "30.004030369093243",
    "geocoded_column": {
      "latitude": "30.004030369093243",
      "longitude": "-90.03566081991953"
    }
  },
  {
    "service_request": "2021-835925",
    "request_type": "Trash/Recycling",
    "request_reason": "Request a Large Item Pick Up",
    "date_created": "2021-10-21T17:20:39.000",
    "date_modified": "2021-10-21T17:20:39.000",
    "request_status": "Pending",
    "responsible_agency": "Department of Sanitation",
    "final_address": "1575 Maura Pl",
    "address_councildis": "C",
    "status": "Assigned to Contractor",
    "contractor": "Richards Disposal",
    "rowid": "835925",
    "final_x": "3699191.85744",
    "final_y": "525112.171197",
    "longitude": "-90.01243939651995",
    "latitude": "29.93732737539939",
    "geocoded_column": {
      "latitude": "29.93732737539939",
      "longitude": "-90.01243939651995"
    }
  },
  {
    "service_request": "2021-835924",
    "request_type": "Abandoned Vehicles",
    "request_reason": "Abandoned/Junk Vehicles",
    "date_created": "2021-10-21T17:18:45.000",
    "date_modified": "2021-10-21T17:18:45.000",
    "request_status": "Pending",
    "responsible_agency": "Department of Public Works",
    "final_address": "5651 Pembrook Dr",
    "address_councildis": "C",
    "status": "Pending",
    "rowid": "835924",
    "final_x": "3704583.97425",
    "final_y": "520833.765625",
    "longitude": "-89.99557396209727",
    "latitude": "29.92539123985479",
    "geocoded_column": {
      "latitude": "29.92539123985479",
      "longitude": "-89.99557396209727"
    }
  },
  {
    "service_request": "2021-835922",
    "request_type": "Abandoned Vehicles",
    "request_reason": "Vehicle Blocking Your Driveway",
    "date_created": "2021-10-21T17:14:24.000",
    "date_modified": "2021-10-21T17:14:25.000",
    "request_status": "Pending",
    "responsible_agency": "Department of Public Works",
    "final_address": "725 Sumner St",
    "address_councildis": "C",
    "status": "Pending",
    "rowid": "835922",
    "final_x": "3691121.76118",
    "final_y": "528671.461952",
    "longitude": "-90.03779007290964",
    "latitude": "29.947367540650813",
    "geocoded_column": {
      "latitude": "29.947367540650813",
      "longitude": "-90.03779007290964"
    }
  },
  {
    "service_request": "2021-835921",
    "request_type": "Traffic Signals/Signs/Striping/Streetlights",
    "request_reason": "Street Light Outage/Malfunction",
    "date_created": "2021-10-21T16:58:12.000",
    "date_modified": "2021-10-21T16:58:13.000",
    "request_status": "Pending",
    "responsible_agency": "Department of Public Works",
    "final_address": "6543 E Hermes St",
    "address_councildis": "D",
    "status": "Pending",
    "contractor": "Royal Engineering",
    "rowid": "835921",
    "final_x": "3697971.39523",
    "final_y": "555639.908697",
    "longitude": "-90.01518374272342",
    "latitude": "30.021306207796147",
    "geocoded_column": {
      "latitude": "30.021306207796147",
      "longitude": "-90.01518374272342"
    }
  },
  {
    "service_request": "2021-835920",
    "request_type": "Trash/Recycling",
    "request_reason": "Replace Trash Cart",
    "date_created": "2021-10-21T16:52:09.000",
    "date_modified": "2021-10-21T16:52:10.000",
    "request_status": "Pending",
    "responsible_agency": "Department of Sanitation",
    "final_address": "417 S Telemachus St",
    "address_councildis": "B",
    "status": "Assigned to Contractor",
    "contractor": "Richards Disposal",
    "rowid": "835920",
    "final_x": "3671439.90094",
    "final_y": "536331.760775",
    "longitude": "-90.09967298246671",
    "latitude": "29.969028034939708",
    "geocoded_column": {
      "latitude": "29.969028034939708",
      "longitude": "-90.09967298246671"
    }
  },
  {
    "service_request": "2021-835919",
    "request_type": "Trash/Recycling",
    "request_reason": "Missed Trash Pick-Up",
    "date_created": "2021-10-21T16:44:29.000",
    "date_modified": "2021-10-21T16:44:30.000",
    "request_status": "Pending",
    "responsible_agency": "Department of Sanitation",
    "final_address": "2825 Baronne St",
    "address_councildis": "B",
    "status": "Assigned to Contractor",
    "contractor": "Richards Disposal",
    "rowid": "835919",
    "final_x": "3675307.19592",
    "final_y": "523050.418427",
    "longitude": "-90.0879156706891",
    "latitude": "29.93239370066483",
    "geocoded_column": {
      "latitude": "29.93239370066483",
      "longitude": "-90.0879156706891"
    }
  },
  {
    "service_request": "2021-835918",
    "request_type": "Trash/Recycling",
    "request_reason": "Missed Trash Pick-Up",
    "date_created": "2021-10-21T16:44:01.000",
    "date_modified": "2021-10-21T16:44:01.000",
    "request_status": "Pending",
    "responsible_agency": "Department of Sanitation",
    "final_address": "2827 Baronne St",
    "address_councildis": "B",
    "status": "Assigned to Contractor",
    "contractor": "Richards Disposal",
    "rowid": "835918",
    "final_x": "3675286.71989",
    "final_y": "523037.575995",
    "longitude": "-90.08798075236442",
    "latitude": "29.932359000090784",
    "geocoded_column": {
      "latitude": "29.932359000090784",
      "longitude": "-90.08798075236442"
    }
  },
  {
    "service_request": "2021-835916",
    "request_type": "Trash/Recycling",
    "request_reason": "Request a Large Item Pick Up",
    "date_created": "2021-10-21T16:41:37.000",
    "date_modified": "2021-10-21T16:41:38.000",
    "request_status": "Pending",
    "responsible_agency": "Department of Sanitation",
    "final_address": "3431 Chartres St Unit 7",
    "address_councildis": "C",
    "status": "Assigned to Contractor",
    "contractor": "Metro Disposal",
    "rowid": "835916",
    "final_x": "3689973.71734",
    "final_y": "533878.632133",
    "longitude": "-90.04122947807166",
    "latitude": "29.96172109914601",
    "geocoded_column": {
      "latitude": "29.96172109914601",
      "longitude": "-90.04122947807166"
    }
  },
  {
    "service_request": "2021-835915",
    "request_type": "Parks & Parkways",
    "request_reason": "Request Tree Service (Right of Way/Public Property)",
    "date_created": "2021-10-21T16:40:05.000",
    "date_modified": "2021-10-21T16:40:05.000",
    "request_status": "Pending",
    "responsible_agency": "Department of Parks & Parkway",
    "final_address": "3154 Castiglione St",
    "address_councildis": "A",
    "status": "Pending",
    "rowid": "835915",
    "final_x": "3678282.41902",
    "final_y": "542744.734285",
    "longitude": "-90.07784193164501",
    "latitude": "29.9864571590142",
    "geocoded_column": {
      "latitude": "29.9864571590142",
      "longitude": "-90.07784193164501"
    }
  },
  {
    "service_request": "2021-835914",
    "request_type": "Roads/Drainage",
    "request_reason": "Pothole",
    "date_created": "2021-10-21T16:38:34.000",
    "date_modified": "2021-10-21T16:38:34.000",
    "request_status": "Pending",
    "responsible_agency": "Department of Public Works",
    "final_address": "2019 Pelopidas St",
    "address_councildis": "D",
    "status": "Pending",
    "rowid": "835914",
    "final_x": "3682757.31637",
    "final_y": "548093.556882",
    "longitude": "-90.06352021936252",
    "latitude": "30.001028942643444",
    "geocoded_column": {
      "latitude": "30.001028942643444",
      "longitude": "-90.06352021936252"
    }
  },
  {
    "service_request": "2021-835911",
    "request_type": "Abandoned Vehicles",
    "request_reason": "Abandoned/Junk Vehicles",
    "date_created": "2021-10-21T16:29:11.000",
    "date_modified": "2021-10-21T16:29:11.000",
    "request_status": "Pending",
    "responsible_agency": "Department of Public Works",
    "final_address": "2044 Law St",
    "address_councildis": "D",
    "status": "Pending",
    "rowid": "835911",
    "final_x": "3682874.0966",
    "final_y": "541654.40686",
    "longitude": "-90.06337675343613",
    "latitude": "29.98332000615463",
    "geocoded_column": {
      "latitude": "29.98332000615463",
      "longitude": "-90.06337675343613"
    }
  },
  {
    "service_request": "2021-835910",
    "request_type": "Trash/Recycling",
    "request_reason": "Request a Large Item Pick Up",
    "date_created": "2021-10-21T16:28:52.000",
    "date_modified": "2021-10-21T16:28:53.000",
    "request_status": "Pending",
    "responsible_agency": "Department of Sanitation",
    "final_address": "3216 General Ogden St",
    "address_councildis": "A",
    "status": "Assigned to Contractor",
    "contractor": "Richards Disposal",
    "rowid": "835910",
    "final_x": "3664758.79674",
    "final_y": "535700.010887",
    "longitude": "-90.12079356798154",
    "latitude": "29.967487027534066",
    "geocoded_column": {
      "latitude": "29.967487027534066",
      "longitude": "-90.12079356798154"
    }
  },
  {
    "service_request": "2021-835909",
    "request_type": "COVID-19",
    "request_reason": "COVID-19 Business Non-Compliance",
    "date_created": "2021-10-21T16:25:02.000",
    "date_modified": "2021-10-21T16:25:03.000",
    "request_status": "Pending",
    "responsible_agency": "Safety and Permits",
    "final_address": "830 Conti St",
    "address_councildis": "C",
    "status": "Pending",
    "rowid": "835909",
    "final_x": "3681394.18178",
    "final_y": "531901.761859",
    "longitude": "-90.06839114949983",
    "latitude": "29.95654861088931",
    "geocoded_column": {
      "latitude": "29.95654861088931",
      "longitude": "-90.06839114949983"
    }
  },
  {
    "service_request": "2021-835908",
    "request_type": "Abandoned Vehicles",
    "request_reason": "Abandoned/Junk Vehicles",
    "date_created": "2021-10-21T16:24:36.000",
    "date_modified": "2021-10-21T16:24:36.000",
    "request_status": "Pending",
    "responsible_agency": "Department of Public Works",
    "final_address": "2044 Law St",
    "address_councildis": "D",
    "status": "Pending",
    "rowid": "835908",
    "final_x": "3682874.0966",
    "final_y": "541654.40686",
    "longitude": "-90.06337675343613",
    "latitude": "29.98332000615463",
    "geocoded_column": {
      "latitude": "29.98332000615463",
      "longitude": "-90.06337675343613"
    }
  },
  {
    "service_request": "2021-835904",
    "request_type": "Trash/Recycling",
    "request_reason": "Request a Large Item Pick Up",
    "date_created": "2021-10-21T16:21:45.000",
    "date_modified": "2021-10-21T16:21:46.000",
    "request_status": "Pending",
    "responsible_agency": "Department of Sanitation",
    "final_address": "1569 Senate St",
    "address_councildis": "D",
    "status": "Assigned to Contractor",
    "contractor": "Metro Disposal",
    "rowid": "835904",
    "final_x": "3679320.78415",
    "final_y": "547431.416657",
    "longitude": "-90.07439948573987",
    "latitude": "29.99931256049286",
    "geocoded_column": {
      "latitude": "29.99931256049286",
      "longitude": "-90.07439948573987"
    }
  },
  {
    "service_request": "2021-835902",
    "request_type": "Traffic Signals/Signs/Striping/Streetlights",
    "request_reason": "Additional signage",
    "date_created": "2021-10-21T16:14:29.000",
    "date_modified": "2021-10-21T16:14:29.000",
    "request_status": "Pending",
    "responsible_agency": "Department of Public Works",
    "final_address": "1503 Mandeville St",
    "address_councildis": "C",
    "status": "Pending",
    "rowid": "835902",
    "final_x": "3685689.10748",
    "final_y": "537892.205897",
    "longitude": "-90.05461811085982",
    "latitude": "29.972889188350138",
    "geocoded_column": {
      "latitude": "29.972889188350138",
      "longitude": "-90.05461811085982"
    }
  },
  {
    "service_request": "2021-835900",
    "request_type": "Trash/Recycling",
    "request_reason": "Illegal Dumping",
    "date_created": "2021-10-21T16:10:00.000",
    "date_modified": "2021-10-21T16:10:00.000",
    "request_status": "Pending",
    "responsible_agency": "Department of Sanitation",
    "final_address": "131 Millaudon St",
    "address_councildis": "A",
    "status": "Pending",
    "rowid": "835900",
    "final_x": "3660857.76448",
    "final_y": "523432.896763",
    "longitude": "-90.13351881742025",
    "latitude": "29.93386932754744",
    "geocoded_column": {
      "latitude": "29.93386932754744",
      "longitude": "-90.13351881742025"
    }
  },
  {
    "service_request": "2021-835897",
    "request_type": "Trash/Recycling",
    "request_reason": "Request a Large Item Pick Up",
    "date_created": "2021-10-21T16:08:30.000",
    "date_modified": "2021-10-21T16:08:31.000",
    "request_status": "Pending",
    "responsible_agency": "Department of Sanitation",
    "final_address": "131 Millaudon St",
    "address_councildis": "A",
    "status": "Assigned to Contractor",
    "contractor": "Richards Disposal",
    "rowid": "835897",
    "final_x": "3660857.76448",
    "final_y": "523432.896763",
    "longitude": "-90.13351881742025",
    "latitude": "29.93386932754744",
    "geocoded_column": {
      "latitude": "29.93386932754744",
      "longitude": "-90.13351881742025"
    }
  },
  {
    "service_request": "2021-835894",
    "request_type": "Abandoned Vehicles",
    "request_reason": "Abandoned/Junk Vehicles",
    "date_created": "2021-10-21T16:03:12.000",
    "date_modified": "2021-10-21T16:03:12.000",
    "request_status": "Pending",
    "responsible_agency": "Department of Public Works",
    "final_address": "TIMBER RIDGE CT & TIMBER WOLF LN",
    "address_councildis": "C",
    "status": "Pending",
    "rowid": "835894",
    "final_x": "3704594.4",
    "final_y": "511434.78",
    "longitude": "-89.99588736032628",
    "latitude": "29.899546920977734",
    "geocoded_column": {
      "latitude": "29.899546920977734",
      "longitude": "-89.99588736032628"
    }
  },
  {
    "service_request": "2021-835893",
    "request_type": "Trash/Recycling",
    "request_reason": "Illegal Dumping",
    "date_created": "2021-10-21T16:01:50.000",
    "date_modified": "2021-10-21T16:01:50.000",
    "request_status": "Pending",
    "responsible_agency": "Department of Sanitation",
    "final_address": "4400 Almonaster Ave, New Orleans, Louisiana, 70126",
    "status": "Pending",
    "rowid": "835893",
    "longitude": "0.0",
    "latitude": "0.0",
    "geocoded_column": {
      "latitude": "0.0",
      "longitude": "0.0"
    }
  },
  {
    "service_request": "2021-835892",
    "request_type": "Property Maintenance",
    "request_reason": "Property Maintenance",
    "date_created": "2021-10-21T16:01:06.000",
    "date_modified": "2021-10-21T16:01:06.000",
    "request_status": "Pending",
    "responsible_agency": "Department of Code Enforcement",
    "final_address": "1636 Monroe St",
    "address_councildis": "A",
    "status": "Pending",
    "rowid": "835892",
    "final_x": "3661493.89434",
    "final_y": "531077.500482",
    "longitude": "-90.13125739161653",
    "latitude": "29.954871221726524",
    "geocoded_column": {
      "latitude": "29.954871221726524",
      "longitude": "-90.13125739161653"
    }
  },
  {
    "service_request": "2021-835891",
    "request_type": "Trash/Recycling",
    "request_reason": "Missed Trash Pick-Up",
    "date_created": "2021-10-21T16:00:12.000",
    "date_modified": "2021-10-21T16:00:13.000",
    "request_status": "Pending",
    "responsible_agency": "Department of Sanitation",
    "final_address": "2227 Royal St",
    "address_councildis": "C",
    "status": "Assigned to Contractor",
    "contractor": "Metro Disposal",
    "rowid": "835891",
    "final_x": "3685391.7837",
    "final_y": "534924.807622",
    "longitude": "-90.05566161243566",
    "latitude": "29.964738994440992",
    "geocoded_column": {
      "latitude": "29.964738994440992",
      "longitude": "-90.05566161243566"
    }
  },
  {
    "service_request": "2021-835890",
    "request_type": "Roads/Drainage",
    "request_reason": "Pothole",
    "date_created": "2021-10-21T15:59:19.000",
    "date_modified": "2021-10-21T15:59:19.000",
    "request_status": "Pending",
    "responsible_agency": "Department of Public Works",
    "final_address": "1719 S Rendon St, New Orleans, Louisiana, 70125",
    "address_councildis": "B",
    "status": "Pending",
    "rowid": "835890",
    "final_x": "3669536.59809",
    "final_y": "530687.777218",
    "longitude": "-90.10587469716206",
    "latitude": "29.9535651591184",
    "geocoded_column": {
      "latitude": "29.9535651591184",
      "longitude": "-90.10587469716206"
    }
  },
  {
    "service_request": "2021-835889",
    "request_type": "Abandoned Vehicles",
    "request_reason": "Abandoned/Junk Vehicles",
    "date_created": "2021-10-21T15:58:53.000",
    "date_modified": "2021-10-21T15:58:53.000",
    "request_status": "Pending",
    "responsible_agency": "Department of Public Works",
    "final_address": "4606 Annette St",
    "address_councildis": "D",
    "status": "Pending",
    "rowid": "835889",
    "final_x": "3682036.14133",
    "final_y": "549469.430547",
    "longitude": "-90.06575038497355",
    "latitude": "30.004834057231204",
    "geocoded_column": {
      "latitude": "30.004834057231204",
      "longitude": "-90.06575038497355"
    }
  },
  {
    "service_request": "2021-835888",
    "request_type": "Tax and Revenue",
    "request_reason": "Occupational License Tax",
    "date_created": "2021-10-21T15:58:29.000",
    "date_modified": "2021-10-21T15:58:30.000",
    "request_status": "Pending",
    "responsible_agency": "Bureau of Revenue",
    "status": "Pending",
    "rowid": "835888",
    "longitude": "0.0",
    "latitude": "0.0",
    "geocoded_column": {
      "latitude": "0.0",
      "longitude": "0.0"
    }
  },
  {
    "service_request": "2021-835887",
    "request_type": "Abandoned Vehicles",
    "request_reason": "Abandoned/Junk Vehicles",
    "date_created": "2021-10-21T15:57:55.000",
    "date_modified": "2021-10-21T15:57:55.000",
    "request_status": "Pending",
    "responsible_agency": "Department of Public Works",
    "final_address": "300 Simmons Dr, New Orleans, Louisiana, 70126",
    "address_councildis": "D",
    "status": "Pending",
    "rowid": "835887",
    "final_x": "3689736.52815",
    "final_y": "546137.001616",
    "longitude": "-90.0415420749974",
    "latitude": "29.995434613813266",
    "geocoded_column": {
      "latitude": "29.995434613813266",
      "longitude": "-90.0415420749974"
    }
  },
  {
    "service_request": "2021-835886",
    "request_type": "Trash/Recycling",
    "request_reason": "Illegal Dumping",
    "date_created": "2021-10-21T15:55:17.000",
    "date_modified": "2021-10-21T15:55:17.000",
    "request_status": "Pending",
    "responsible_agency": "Department of Sanitation",
    "final_address": "2100 St Roch Ave",
    "address_councildis": "D",
    "status": "Pending",
    "rowid": "835886",
    "final_x": "3686077.52502",
    "final_y": "540137.380619",
    "longitude": "-90.05331220671398",
    "latitude": "29.979050706521843",
    "geocoded_column": {
      "latitude": "29.979050706521843",
      "longitude": "-90.05331220671398"
    }
  },
  {
    "service_request": "2021-835885",
    "request_type": "Abandoned Vehicles",
    "request_reason": "Vehicle Blocking Your Driveway",
    "date_created": "2021-10-21T15:53:32.000",
    "date_modified": "2021-10-21T15:53:32.000",
    "request_status": "Pending",
    "responsible_agency": "Department of Public Works",
    "final_address": "Conrad Street and West End Blvd",
    "status": "Pending",
    "rowid": "835885",
    "longitude": "0.0",
    "latitude": "0.0",
    "geocoded_column": {
      "latitude": "0.0",
      "longitude": "0.0"
    }
  },
  {
    "service_request": "2021-835884",
    "request_type": "Trash/Recycling",
    "request_reason": "Order Trash Cart",
    "date_created": "2021-10-21T15:51:47.000",
    "date_modified": "2021-10-21T15:51:48.000",
    "request_status": "Pending",
    "responsible_agency": "Department of Sanitation",
    "final_address": "6301 Perrier St",
    "address_councildis": "A",
    "status": "Assigned to Contractor",
    "contractor": "Richards Disposal",
    "rowid": "835884",
    "final_x": "3663946.12531",
    "final_y": "521031.380857",
    "longitude": "-90.12384898059076",
    "latitude": "29.927176634958403",
    "geocoded_column": {
      "latitude": "29.927176634958403",
      "longitude": "-90.12384898059076"
    }
  },
  {
    "service_request": "2021-835881",
    "request_type": "Trash/Recycling",
    "request_reason": "Illegal Dumping",
    "date_created": "2021-10-21T15:44:05.000",
    "date_modified": "2021-10-21T15:44:05.000",
    "request_status": "Pending",
    "responsible_agency": "Department of Sanitation",
    "final_address": "GENERAL DE GAULLE DR & TALL OAKS DR",
    "address_councildis": "C",
    "status": "Pending",
    "rowid": "835881",
    "final_x": "3704473.0",
    "final_y": "515178.18",
    "longitude": "-89.99613261414365",
    "latitude": "29.90984389225126",
    "geocoded_column": {
      "latitude": "29.90984389225126",
      "longitude": "-89.99613261414365"
    }
  },
  {
    "service_request": "2021-835878",
    "request_type": "Traffic Signals/Signs/Striping/Streetlights",
    "request_reason": "Street Light Outage/Malfunction",
    "date_created": "2021-10-21T15:40:36.000",
    "date_modified": "2021-10-21T15:40:36.000",
    "request_status": "Pending",
    "responsible_agency": "Department of Public Works",
    "final_address": "5163 General De Gaulle Dr",
    "address_councildis": "C",
    "status": "Pending",
    "contractor": "Royal Engineering",
    "rowid": "835878",
    "final_x": "3703270.68497",
    "final_y": "515726.661748",
    "longitude": "-89.99990718257494",
    "latitude": "29.911390555885003",
    "geocoded_column": {
      "latitude": "29.911390555885003",
      "longitude": "-89.99990718257494"
    }
  },
  {
    "service_request": "2021-835877",
    "request_type": "Trash/Recycling",
    "request_reason": "Missed Trash Pick-Up",
    "date_created": "2021-10-21T15:37:55.000",
    "date_modified": "2021-10-21T15:37:56.000",
    "request_status": "Pending",
    "responsible_agency": "Department of Sanitation",
    "final_address": "11416 N St Andrews Cir",
    "address_councildis": "E",
    "status": "Assigned to Contractor",
    "contractor": "Metro Disposal",
    "rowid": "835877",
    "final_x": "3719043.75794",
    "final_y": "560179.969309",
    "longitude": "-89.94842835981461",
    "latitude": "30.03310617522833",
    "geocoded_column": {
      "latitude": "30.03310617522833",
      "longitude": "-89.94842835981461"
    }
  },
  {
    "service_request": "2021-835876",
    "request_type": "Property Maintenance",
    "request_reason": "Property Maintenance",
    "date_created": "2021-10-21T15:35:58.000",
    "date_modified": "2021-10-21T15:35:58.000",
    "request_status": "Pending",
    "responsible_agency": "Department of Code Enforcement",
    "final_address": "2729 Marigny St",
    "address_councildis": "D",
    "status": "Pending",
    "rowid": "835876",
    "final_x": "3684927.60661",
    "final_y": "542870.706509",
    "longitude": "-90.05684791398998",
    "latitude": "29.98660165978345",
    "geocoded_column": {
      "latitude": "29.98660165978345",
      "longitude": "-90.05684791398998"
    }
  },
  {
    "service_request": "2021-835875",
    "request_type": "Trash/Recycling",
    "request_reason": "Missed Trash Pick-Up",
    "date_created": "2021-10-21T15:32:46.000",
    "date_modified": "2021-10-21T15:32:47.000",
    "request_status": "Pending",
    "responsible_agency": "Department of Sanitation",
    "final_address": "1540 Virginia Marie St",
    "address_councildis": "D",
    "status": "Assigned to Contractor",
    "contractor": "Metro Disposal",
    "rowid": "835875",
    "final_x": "3679233.36264",
    "final_y": "548736.373843",
    "longitude": "-90.07463036823178",
    "latitude": "30.002903369525665",
    "geocoded_column": {
      "latitude": "30.002903369525665",
      "longitude": "-90.07463036823178"
    }
  },
  {
    "service_request": "2021-835874",
    "request_type": "Abandoned Vehicles",
    "request_reason": "Abandoned/Junk Vehicles",
    "date_created": "2021-10-21T15:30:08.000",
    "date_modified": "2021-10-21T15:30:08.000",
    "request_status": "Pending",
    "responsible_agency": "Department of Public Works",
    "final_address": "435 Atlantic Ave",
    "address_councildis": "C",
    "status": "Pending",
    "rowid": "835874",
    "final_x": "3688758.55561",
    "final_y": "529971.937537",
    "longitude": "-90.04520543574078",
    "latitude": "29.951016660880043",
    "geocoded_column": {
      "latitude": "29.951016660880043",
      "longitude": "-90.04520543574078"
    }
  },
  {
    "service_request": "2021-835873",
    "request_type": "Abandoned Vehicles",
    "request_reason": "Abandoned/Junk Vehicles",
    "date_created": "2021-10-21T15:29:13.000",
    "date_modified": "2021-10-21T15:29:13.000",
    "request_status": "Pending",
    "responsible_agency": "Department of Public Works",
    "final_address": "435 Atlantic Ave",
    "address_councildis": "C",
    "status": "Pending",
    "rowid": "835873",
    "final_x": "3688758.55561",
    "final_y": "529971.937537",
    "longitude": "-90.04520543574078",
    "latitude": "29.951016660880043",
    "geocoded_column": {
      "latitude": "29.951016660880043",
      "longitude": "-90.04520543574078"
    }
  },
  {
    "service_request": "2021-835872",
    "request_type": "Abandoned Vehicles",
    "request_reason": "Abandoned/Junk Vehicles",
    "date_created": "2021-10-21T15:28:00.000",
    "date_modified": "2021-10-21T15:28:00.000",
    "request_status": "Pending",
    "responsible_agency": "Department of Public Works",
    "final_address": "435 Atlantic Ave",
    "address_councildis": "C",
    "status": "Pending",
    "rowid": "835872",
    "final_x": "3688758.55561",
    "final_y": "529971.937537",
    "longitude": "-90.04520543574078",
    "latitude": "29.951016660880043",
    "geocoded_column": {
      "latitude": "29.951016660880043",
      "longitude": "-90.04520543574078"
    }
  },
  {
    "service_request": "2021-835871",
    "request_type": "Roads/Drainage",
    "request_reason": "Pothole",
    "date_created": "2021-10-21T15:24:15.000",
    "date_modified": "2021-10-21T15:24:15.000",
    "request_status": "Pending",
    "responsible_agency": "Department of Public Works",
    "final_address": "7700 BLK Coolidge Ct",
    "address_councildis": "B",
    "status": "Pending",
    "rowid": "835871",
    "final_x": "3668310.02981",
    "final_y": "533440.583497",
    "longitude": "-90.10965486892101",
    "latitude": "29.961170542717003",
    "geocoded_column": {
      "latitude": "29.961170542717003",
      "longitude": "-90.10965486892101"
    }
  },
  {
    "service_request": "2021-835869",
    "request_type": "Trash/Recycling",
    "request_reason": "Request a Large Item Pick Up",
    "date_created": "2021-10-21T15:21:31.000",
    "date_modified": "2021-10-21T15:21:31.000",
    "request_status": "Pending",
    "responsible_agency": "Department of Sanitation",
    "final_address": "3534 Paris Ave",
    "address_councildis": "D",
    "status": "Assigned to Contractor",
    "contractor": "Metro Disposal",
    "rowid": "835869",
    "final_x": "3679616.82895",
    "final_y": "545413.45384",
    "longitude": "-90.07353436034033",
    "latitude": "29.99375493005855",
    "geocoded_column": {
      "latitude": "29.99375493005855",
      "longitude": "-90.07353436034033"
    }
  },
  {
    "service_request": "2021-835867",
    "request_type": "Trash/Recycling",
    "request_reason": "Illegal Dumping",
    "date_created": "2021-10-21T15:18:20.000",
    "date_modified": "2021-10-21T15:19:15.000",
    "request_status": "Pending",
    "responsible_agency": "Department of Code Enforcement",
    "final_address": "1425 Thalia St",
    "address_councildis": "B",
    "status": "Pending",
    "rowid": "835867",
    "final_x": "3679929.4564",
    "final_y": "525476.562493",
    "longitude": "-90.07323938962124",
    "latitude": "29.93892584405819",
    "geocoded_column": {
      "latitude": "29.93892584405819",
      "longitude": "-90.07323938962124"
    }
  },
  {
    "service_request": "2021-835866",
    "request_type": "Trash/Recycling",
    "request_reason": "Illegal Dumping",
    "date_created": "2021-10-21T15:17:31.000",
    "date_modified": "2021-10-21T15:17:31.000",
    "request_status": "Pending",
    "responsible_agency": "Department of Code Enforcement",
    "final_address": "1421 Thalia St",
    "address_councildis": "B",
    "status": "Pending",
    "rowid": "835866",
    "final_x": "3679952.52379",
    "final_y": "525463.820733",
    "longitude": "-90.07316700562718",
    "latitude": "29.938890110901013",
    "geocoded_column": {
      "latitude": "29.938890110901013",
      "longitude": "-90.07316700562718"
    }
  },
  {
    "service_request": "2021-835865",
    "request_type": "Trash/Recycling",
    "request_reason": "Illegal Dumping",
    "date_created": "2021-10-21T15:12:23.000",
    "date_modified": "2021-10-21T15:12:45.000",
    "case_close_date": "2021-10-21T10:12:45.000",
    "request_status": "Closed",
    "responsible_agency": "Department of Sanitation",
    "final_address": "2800 BLK S Saratoga St",
    "address_councildis": "B",
    "status": "Resolved",
    "rowid": "835865",
    "final_x": "3674723.45596",
    "final_y": "523884.868357",
    "longitude": "-90.0897298967545",
    "latitude": "29.93470559947003",
    "geocoded_column": {
      "latitude": "29.93470559947003",
      "longitude": "-90.0897298967545"
    }
  },
  {
    "service_request": "2021-835864",
    "request_type": "Trash/Recycling",
    "request_reason": "Illegal Dumping",
    "date_created": "2021-10-21T15:11:22.000",
    "date_modified": "2021-10-21T15:11:49.000",
    "case_close_date": "2021-10-21T10:11:49.000",
    "request_status": "Closed",
    "responsible_agency": "Department of Sanitation",
    "final_address": "WASHINGTON AVE & S SARATOGA ST",
    "address_councildis": "B",
    "status": "Resolved",
    "rowid": "835864",
    "final_x": "3674938.8",
    "final_y": "524025.28",
    "longitude": "-90.08904524495264",
    "latitude": "29.935085257513663",
    "geocoded_column": {
      "latitude": "29.935085257513663",
      "longitude": "-90.08904524495264"
    }
  },
  {
    "service_request": "2021-835863",
    "request_type": "Trash/Recycling",
    "request_reason": "Illegal Dumping",
    "date_created": "2021-10-21T15:10:00.000",
    "date_modified": "2021-10-21T15:10:35.000",
    "case_close_date": "2021-10-21T10:10:35.000",
    "request_status": "Closed",
    "responsible_agency": "Department of Sanitation",
    "final_address": "WASHINGTON AVE & LOYOLA AVE",
    "address_councildis": "B",
    "status": "Resolved",
    "rowid": "835863",
    "final_x": "3674745.5",
    "final_y": "524314.08",
    "longitude": "-90.08964559678468",
    "latitude": "29.935885133731404",
    "geocoded_column": {
      "latitude": "29.935885133731404",
      "longitude": "-90.08964559678468"
    }
  },
  {
    "service_request": "2021-835861",
    "request_type": "Property Maintenance",
    "request_reason": "Property Maintenance",
    "date_created": "2021-10-21T15:06:36.000",
    "date_modified": "2021-10-21T15:06:36.000",
    "request_status": "Pending",
    "responsible_agency": "Department of Code Enforcement",
    "final_address": "3625 Havana St",
    "address_councildis": "D",
    "status": "Pending",
    "rowid": "835861",
    "final_x": "3680908.78043",
    "final_y": "545824.338192",
    "longitude": "-90.0694389638667",
    "latitude": "29.9948455961498",
    "geocoded_column": {
      "latitude": "29.9948455961498",
      "longitude": "-90.0694389638667"
    }
  },
  {
    "service_request": "2021-835860",
    "request_type": "Trash/Recycling",
    "request_reason": "Replace Trash Cart",
    "date_created": "2021-10-21T15:05:30.000",
    "date_modified": "2021-10-21T15:05:31.000",
    "request_status": "Pending",
    "responsible_agency": "Department of Sanitation",
    "final_address": "4016 Monroe St",
    "address_councildis": "A",
    "status": "Assigned to Contractor",
    "contractor": "Richards Disposal",
    "rowid": "835860",
    "final_x": "3667157.89377",
    "final_y": "537303.101704",
    "longitude": "-90.11316323588255",
    "latitude": "29.971824968704915",
    "geocoded_column": {
      "latitude": "29.971824968704915",
      "longitude": "-90.11316323588255"
    }
  },
  {
    "service_request": "2021-835859",
    "request_type": "Abandoned Vehicles",
    "request_reason": "Abandoned/Junk Vehicles",
    "date_created": "2021-10-21T14:57:35.000",
    "date_modified": "2021-10-21T15:19:17.000",
    "request_status": "Pending",
    "responsible_agency": "Department of Public Works",
    "final_address": "New Orleans,LA",
    "address_councildis": "B",
    "rowid": "835859",
    "final_x": "3677725.3",
    "final_y": "520388.08",
    "longitude": "-90.08037383724896",
    "latitude": "29.92500064820171",
    "geocoded_column": {
      "latitude": "29.92500064820171",
      "longitude": "-90.08037383724896"
    }
  },
  {
    "service_request": "2021-835857",
    "request_type": "Roads/Drainage",
    "request_reason": "Catch Basin - Clogged",
    "date_created": "2021-10-21T14:52:32.000",
    "date_modified": "2021-10-21T14:52:32.000",
    "request_status": "Pending",
    "responsible_agency": "Department of Public Works",
    "final_address": "1320 Josephine St",
    "address_councildis": "B",
    "status": "Pending",
    "rowid": "835857",
    "final_x": "3678571.00955",
    "final_y": "523008.324923",
    "longitude": "-90.07761356203443",
    "latitude": "29.93218001061111",
    "geocoded_column": {
      "latitude": "29.93218001061111",
      "longitude": "-90.07761356203443"
    }
  },
  {
    "service_request": "2021-835856",
    "request_type": "Trash/Recycling",
    "request_reason": "Illegal Dumping",
    "date_created": "2021-10-21T14:52:26.000",
    "date_modified": "2021-10-21T14:52:26.000",
    "request_status": "Pending",
    "responsible_agency": "Department of Sanitation",
    "final_address": "2801 Mansfield Ave",
    "address_councildis": "C",
    "status": "Pending",
    "rowid": "835856",
    "final_x": "3709157.69214",
    "final_y": "519650.444088",
    "longitude": "-89.98118037818743",
    "latitude": "29.921989902861856",
    "geocoded_column": {
      "latitude": "29.921989902861856",
      "longitude": "-89.98118037818743"
    }
  },
  {
    "service_request": "2021-835855",
    "request_type": "Abandoned Vehicles",
    "request_reason": "Abandoned/Junk Vehicles",
    "date_created": "2021-10-21T14:50:08.000",
    "date_modified": "2021-10-21T14:50:08.000",
    "request_status": "Pending",
    "responsible_agency": "Department of Public Works",
    "final_address": "836 Fourth St",
    "address_councildis": "B",
    "status": "Pending",
    "rowid": "835855",
    "final_x": "3677718.6068",
    "final_y": "520296.367992",
    "longitude": "-90.08039813115099",
    "latitude": "29.924748671193452",
    "geocoded_column": {
      "latitude": "29.924748671193452",
      "longitude": "-90.08039813115099"
    }
  },
  {
    "service_request": "2021-835853",
    "request_type": "Property Maintenance",
    "request_reason": "Property Maintenance",
    "date_created": "2021-10-21T14:44:15.000",
    "date_modified": "2021-10-21T14:44:15.000",
    "request_status": "Pending",
    "responsible_agency": "Department of Code Enforcement",
    "final_address": "1326 Mithra St",
    "address_councildis": "D",
    "status": "Pending",
    "rowid": "835853",
    "final_x": "3677188.47131",
    "final_y": "551976.239446",
    "longitude": "-90.0809786051327",
    "latitude": "30.011873451816232",
    "geocoded_column": {
      "latitude": "30.011873451816232",
      "longitude": "-90.0809786051327"
    }
  },
  {
    "service_request": "2021-835852",
    "request_type": "Property Maintenance",
    "request_reason": "Property Maintenance",
    "date_created": "2021-10-21T14:44:00.000",
    "date_modified": "2021-10-21T14:44:00.000",
    "request_status": "Pending",
    "responsible_agency": "Department of Code Enforcement",
    "final_address": "7246 Downman Rd",
    "address_councildis": "D",
    "status": "Pending",
    "rowid": "835852",
    "final_x": "3694923.59658",
    "final_y": "557175.614683",
    "longitude": "-90.02475848179233",
    "latitude": "30.0256248711551",
    "geocoded_column": {
      "latitude": "30.0256248711551",
      "longitude": "-90.02475848179233"
    }
  },
  {
    "service_request": "2021-835851",
    "request_type": "Trash/Recycling",
    "request_reason": "Order Recycling Cart",
    "date_created": "2021-10-21T14:42:59.000",
    "date_modified": "2021-10-21T14:42:59.000",
    "request_status": "Pending",
    "responsible_agency": "Department of Sanitation",
    "final_address": "7449 Garfield St",
    "address_councildis": "A",
    "status": "Pending",
    "rowid": "835851",
    "final_x": "3661233.15629",
    "final_y": "523984.147708",
    "longitude": "-90.13231547498448",
    "latitude": "29.935374280536244",
    "geocoded_column": {
      "latitude": "29.935374280536244",
      "longitude": "-90.13231547498448"
    }
  },
  {
    "service_request": "2021-835850",
    "request_type": "Roads/Drainage",
    "request_reason": "Pothole",
    "date_created": "2021-10-21T14:41:48.000",
    "date_modified": "2021-10-21T14:41:48.000",
    "request_status": "Pending",
    "responsible_agency": "Department of Public Works",
    "final_address": "1349 Mithra St",
    "address_councildis": "D",
    "status": "Pending",
    "rowid": "835850",
    "final_x": "3677486.55182",
    "final_y": "552178.588502",
    "longitude": "-90.08002984905312",
    "latitude": "30.012420877716053",
    "geocoded_column": {
      "latitude": "30.012420877716053",
      "longitude": "-90.08002984905312"
    }
  },
  {
    "service_request": "2021-835849",
    "request_type": "Trash/Recycling",
    "request_reason": "Repair Trash Cart",
    "date_created": "2021-10-21T14:41:43.000",
    "date_modified": "2021-10-21T14:41:44.000",
    "request_status": "Pending",
    "responsible_agency": "Department of Sanitation",
    "final_address": "3518 Blair St",
    "address_councildis": "C",
    "status": "Assigned to Contractor",
    "contractor": "Richards Disposal",
    "rowid": "835849",
    "final_x": "3709399.62405",
    "final_y": "517736.254198",
    "longitude": "-89.98048804654022",
    "latitude": "29.916718698168935",
    "geocoded_column": {
      "latitude": "29.916718698168935",
      "longitude": "-89.98048804654022"
    }
  },
  {
    "service_request": "2021-835848",
    "request_type": "Trash/Recycling",
    "request_reason": "Illegal Dumping",
    "date_created": "2021-10-21T14:40:11.000",
    "date_modified": "2021-10-21T14:40:11.000",
    "request_status": "Pending",
    "responsible_agency": "Department of Sanitation",
    "final_address": "6900 BLK Dreux Ave",
    "address_councildis": "E",
    "status": "Pending",
    "rowid": "835848",
    "final_x": "3699867.4831",
    "final_y": "554189.432419",
    "longitude": "-90.00924562798811",
    "latitude": "30.017257838899027",
    "geocoded_column": {
      "latitude": "30.017257838899027",
      "longitude": "-90.00924562798811"
    }
  },
  {
    "service_request": "2021-835847",
    "request_type": "Abandoned Vehicles",
    "request_reason": "Abandoned/Junk Vehicles",
    "date_created": "2021-10-21T14:39:21.000",
    "date_modified": "2021-10-21T14:39:21.000",
    "request_status": "Pending",
    "responsible_agency": "Department of Public Works",
    "final_address": "4521 Elba St",
    "address_councildis": "B",
    "status": "Pending",
    "rowid": "835847",
    "final_x": "3669372.17633",
    "final_y": "530685.914434",
    "longitude": "-90.10639393633625",
    "latitude": "29.953564879133587",
    "geocoded_column": {
      "latitude": "29.953564879133587",
      "longitude": "-90.10639393633625"
    }
  },
  {
    "service_request": "2021-835846",
    "request_type": "COVID-19",
    "request_reason": "COVID-19 Business Non-Compliance",
    "date_created": "2021-10-21T14:35:48.000",
    "date_modified": "2021-10-21T14:35:49.000",
    "request_status": "Pending",
    "responsible_agency": "Safety and Permits",
    "final_address": "8555 Pontchartrain Blvd",
    "address_councildis": "A",
    "status": "Pending",
    "rowid": "835846",
    "final_x": "3666617.12474",
    "final_y": "555326.148249",
    "longitude": "-90.11426550302974",
    "latitude": "30.021397980247773",
    "geocoded_column": {
      "latitude": "30.021397980247773",
      "longitude": "-90.11426550302974"
    }
  },
  {
    "service_request": "2021-835845",
    "request_type": "Trash/Recycling",
    "request_reason": "Replace Trash Cart",
    "date_created": "2021-10-21T14:34:06.000",
    "date_modified": "2021-10-21T14:34:07.000",
    "request_status": "Pending",
    "responsible_agency": "Department of Sanitation",
    "final_address": "1927 Gentilly Blvd",
    "address_councildis": "A",
    "status": "Assigned to Contractor",
    "contractor": "Metro Disposal",
    "rowid": "835845",
    "final_x": "3679037.96418",
    "final_y": "543378.166286",
    "longitude": "-90.07543348718198",
    "latitude": "29.98817609100967",
    "geocoded_column": {
      "latitude": "29.98817609100967",
      "longitude": "-90.07543348718198"
    }
  },
  {
    "service_request": "2021-835843",
    "request_type": "Roads/Drainage",
    "request_reason": "Catch Basin - Clogged",
    "date_created": "2021-10-21T14:31:13.000",
    "date_modified": "2021-10-21T14:31:13.000",
    "request_status": "Pending",
    "responsible_agency": "Department of Public Works",
    "final_address": "8429 S Claiborne Ave",
    "address_councildis": "A",
    "status": "Pending",
    "rowid": "835843",
    "final_x": "3663926.74752",
    "final_y": "532512.497156",
    "longitude": "-90.12352748930853",
    "latitude": "29.95874659322973",
    "geocoded_column": {
      "latitude": "29.95874659322973",
      "longitude": "-90.12352748930853"
    }
  },
  {
    "service_request": "2021-835842",
    "request_type": "Parks & Parkways",
    "request_reason": "Request Tree Service (Right of Way/Public Property)",
    "date_created": "2021-10-21T14:29:24.000",
    "date_modified": "2021-10-21T14:29:24.000",
    "request_status": "Pending",
    "responsible_agency": "Department of Parks & Parkway",
    "final_address": "6749 Memphis St",
    "address_councildis": "A",
    "status": "Pending",
    "rowid": "835842",
    "final_x": "3669742.38874",
    "final_y": "552347.19791",
    "longitude": "-90.10449144048584",
    "latitude": "30.01311512771771",
    "geocoded_column": {
      "latitude": "30.01311512771771",
      "longitude": "-90.10449144048584"
    }
  },
  {
    "service_request": "2021-835841",
    "request_type": "Abandoned Vehicles",
    "request_reason": "Abandoned/Junk Vehicles",
    "date_created": "2021-10-21T14:27:35.000",
    "date_modified": "2021-10-21T14:27:35.000",
    "request_status": "Pending",
    "responsible_agency": "Department of Public Works",
    "final_address": "7500 BLK Brevard Ave",
    "address_councildis": "E",
    "status": "Pending",
    "rowid": "835841",
    "final_x": "3706443.45584",
    "final_y": "563289.657329",
    "longitude": "-89.98813083700887",
    "latitude": "30.04206931409615",
    "geocoded_column": {
      "latitude": "30.04206931409615",
      "longitude": "-89.98813083700887"
    }
  },
  {
    "service_request": "2021-835840",
    "request_type": "Abandoned Vehicles",
    "request_reason": "Abandoned/Junk Vehicles",
    "date_created": "2021-10-21T14:27:14.000",
    "date_modified": "2021-10-21T14:58:13.000",
    "request_status": "Pending",
    "responsible_agency": "Department of Public Works",
    "final_address": "New Orleans,LA",
    "address_councildis": "B",
    "rowid": "835840",
    "final_x": "3676477.1739",
    "final_y": "519717.380472",
    "longitude": "-90.08433684716569",
    "latitude": "29.923193910091346",
    "geocoded_column": {
      "latitude": "29.923193910091346",
      "longitude": "-90.08433684716569"
    }
  },
  {
    "service_request": "2021-835839",
    "request_type": "Abandoned Vehicles",
    "request_reason": "Abandoned/Junk Vehicles",
    "date_created": "2021-10-21T14:26:24.000",
    "date_modified": "2021-10-21T14:26:24.000",
    "request_status": "Pending",
    "responsible_agency": "Department of Public Works",
    "final_address": "4934 Magazine St",
    "address_councildis": "B",
    "status": "Pending",
    "rowid": "835839",
    "final_x": "3668706.26823",
    "final_y": "518544.639607",
    "longitude": "-90.10890626422986",
    "latitude": "29.920199867454656",
    "geocoded_column": {
      "latitude": "29.920199867454656",
      "longitude": "-90.10890626422986"
    }
  },
  {
    "service_request": "2021-835838",
    "request_type": "Roads/Drainage",
    "request_reason": "Catch Basin - Clogged",
    "date_created": "2021-10-21T14:26:13.000",
    "date_modified": "2021-10-21T14:26:13.000",
    "request_status": "Pending",
    "responsible_agency": "Department of Public Works",
    "final_address": "2237 Caffin Ave",
    "address_councildis": "E",
    "status": "Pending",
    "rowid": "835838",
    "final_x": "3699266.45981",
    "final_y": "538165.461257",
    "longitude": "-90.01172856005351",
    "latitude": "29.973216934201453",
    "geocoded_column": {
      "latitude": "29.973216934201453",
      "longitude": "-90.01172856005351"
    }
  },
  {
    "service_request": "2021-835835",
    "request_type": "Traffic Signals/Signs/Striping/Streetlights",
    "request_reason": "Street Light Outage/Malfunction",
    "date_created": "2021-10-21T14:14:06.000",
    "date_modified": "2021-10-21T14:14:09.000",
    "request_status": "Pending",
    "responsible_agency": "Department of Public Works",
    "final_address": "1930 Jefferson Ave",
    "address_councildis": "A",
    "status": "Pending",
    "contractor": "Royal Engineering",
    "rowid": "835835",
    "final_x": "3667605.01127",
    "final_y": "522876.070971",
    "longitude": "-90.11223671723303",
    "latitude": "29.932142243420362",
    "geocoded_column": {
      "latitude": "29.932142243420362",
      "longitude": "-90.11223671723303"
    }
  },
  {
    "service_request": "2021-835834",
    "request_type": "Abandoned Vehicles",
    "request_reason": "Abandoned/Junk Vehicles",
    "date_created": "2021-10-21T14:12:23.000",
    "date_modified": "2021-10-21T14:12:23.000",
    "request_status": "Pending",
    "responsible_agency": "Department of Public Works",
    "final_address": "1728 Marais St",
    "address_councildis": "C",
    "status": "Pending",
    "rowid": "835834",
    "final_x": "3683391.14057",
    "final_y": "536511.567687",
    "longitude": "-90.06192390006456",
    "latitude": "29.96916322527738",
    "geocoded_column": {
      "latitude": "29.96916322527738",
      "longitude": "-90.06192390006456"
    }
  },
  {
    "service_request": "2021-835833",
    "request_type": "Mosquito, Termite & Rodent Control",
    "request_reason": "Rodent Complaint (Rats)",
    "date_created": "2021-10-21T14:10:41.000",
    "date_modified": "2021-10-21T14:10:41.000",
    "request_status": "Pending",
    "responsible_agency": "Mosquito, Termite & Rodent Control Board",
    "final_address": "4700 S Carrollton Ave",
    "address_councildis": "A",
    "status": "Pending",
    "rowid": "835833",
    "final_x": "3670961.73383",
    "final_y": "537965.035465",
    "longitude": "-90.10112760280266",
    "latitude": "29.97353313768043",
    "geocoded_column": {
      "latitude": "29.97353313768043",
      "longitude": "-90.10112760280266"
    }
  },
  {
    "service_request": "2021-835829",
    "request_type": "Trash/Recycling",
    "request_reason": "Repair Recycling Cart",
    "date_created": "2021-10-21T14:06:01.000",
    "date_modified": "2021-10-21T14:06:01.000",
    "request_status": "Pending",
    "responsible_agency": "Department of Sanitation",
    "final_address": "2264 Brainard St",
    "address_councildis": "B",
    "status": "Pending",
    "rowid": "835829",
    "final_x": "3676815.77563",
    "final_y": "523884.519036",
    "longitude": "-90.08312448803139",
    "latitude": "29.934642032590244",
    "geocoded_column": {
      "latitude": "29.934642032590244",
      "longitude": "-90.08312448803139"
    }
  },
  {
    "service_request": "2021-835828",
    "request_type": "Trash/Recycling",
    "request_reason": "Repair Recycling Cart",
    "date_created": "2021-10-21T14:05:34.000",
    "date_modified": "2021-10-21T14:05:34.000",
    "request_status": "Pending",
    "responsible_agency": "Department of Sanitation",
    "final_address": "2262 Brainard St",
    "address_councildis": "B",
    "status": "Pending",
    "rowid": "835828",
    "final_x": "3676826.14958",
    "final_y": "523889.342652",
    "longitude": "-90.08309157149765",
    "latitude": "29.934654984719614",
    "geocoded_column": {
      "latitude": "29.934654984719614",
      "longitude": "-90.08309157149765"
    }
  },
  {
    "service_request": "2021-835827",
    "request_type": "Trash/Recycling",
    "request_reason": "Missed Trash Pick-Up",
    "date_created": "2021-10-21T14:01:02.000",
    "date_modified": "2021-10-21T14:01:03.000",
    "request_status": "Pending",
    "responsible_agency": "Department of Sanitation",
    "final_address": "7611 Maple St",
    "address_councildis": "A",
    "status": "Assigned to Contractor",
    "contractor": "Richards Disposal",
    "rowid": "835827",
    "final_x": "3662299.23309",
    "final_y": "526226.905278",
    "longitude": "-90.12887542396415",
    "latitude": "29.941510384644783",
    "geocoded_column": {
      "latitude": "29.941510384644783",
      "longitude": "-90.12887542396415"
    }
  },
  {
    "service_request": "2021-835826",
    "request_type": "Roads/Drainage",
    "request_reason": "Street Flooding / Drainage",
    "date_created": "2021-10-21T13:56:22.000",
    "date_modified": "2021-10-21T13:56:22.000",
    "request_status": "Pending",
    "responsible_agency": "Department of Public Works",
    "final_address": "2238 Caffin Ave",
    "address_councildis": "E",
    "status": "Pending",
    "rowid": "835826",
    "final_x": "3699123.33354",
    "final_y": "538224.449353",
    "longitude": "-90.0121784307566",
    "latitude": "29.97338366853472",
    "geocoded_column": {
      "latitude": "29.97338366853472",
      "longitude": "-90.0121784307566"
    }
  },
  {
    "service_request": "2021-835823",
    "request_type": "COVID-19",
    "request_reason": "COVID-19 Business Non-Compliance",
    "date_created": "2021-10-21T13:45:56.000",
    "date_modified": "2021-10-21T13:45:58.000",
    "request_status": "Pending",
    "responsible_agency": "Safety and Permits",
    "final_address": "7839 St Charles Ave",
    "address_councildis": "A",
    "status": "Pending",
    "rowid": "835823",
    "final_x": "3661215.3856",
    "final_y": "526327.831486",
    "longitude": "-90.13229402275283",
    "latitude": "29.941819182034862",
    "geocoded_column": {
      "latitude": "29.941819182034862",
      "longitude": "-90.13229402275283"
    }
  },
  {
    "service_request": "2021-835822",
    "request_type": "COVID-19",
    "request_reason": "COVID-19 Business Non-Compliance",
    "date_created": "2021-10-21T13:43:36.000",
    "date_modified": "2021-10-21T13:43:37.000",
    "request_status": "Pending",
    "responsible_agency": "Safety and Permits",
    "final_address": "3800 Canal St",
    "address_councildis": "A",
    "status": "Pending",
    "rowid": "835822",
    "final_x": "3671986.09812",
    "final_y": "537548.763208",
    "longitude": "-90.09790661212993",
    "latitude": "29.972358200415535",
    "geocoded_column": {
      "latitude": "29.972358200415535",
      "longitude": "-90.09790661212993"
    }
  },
  {
    "service_request": "2021-835821",
    "request_type": "Trash/Recycling",
    "request_reason": "Repair Trash Cart",
    "date_created": "2021-10-21T13:42:25.000",
    "date_modified": "2021-10-21T13:42:26.000",
    "request_status": "Pending",
    "responsible_agency": "Department of Sanitation",
    "final_address": "6410 General Haig St",
    "address_councildis": "A",
    "status": "Assigned to Contractor",
    "contractor": "Metro Disposal",
    "rowid": "835821",
    "final_x": "3670712.59393",
    "final_y": "549972.6173",
    "longitude": "-90.10150675823077",
    "latitude": "30.00655722216863",
    "geocoded_column": {
      "latitude": "30.00655722216863",
      "longitude": "-90.10150675823077"
    }
  },
  {
    "service_request": "2021-835820",
    "request_type": "Trash/Recycling",
    "request_reason": "Missed Trash Pick-Up",
    "date_created": "2021-10-21T13:41:32.000",
    "date_modified": "2021-10-21T13:41:33.000",
    "request_status": "Pending",
    "responsible_agency": "Department of Sanitation",
    "final_address": "6410 General Haig St",
    "address_councildis": "A",
    "status": "Assigned to Contractor",
    "contractor": "Metro Disposal",
    "rowid": "835820",
    "final_x": "3670712.59393",
    "final_y": "549972.6173",
    "longitude": "-90.10150675823077",
    "latitude": "30.00655722216863",
    "geocoded_column": {
      "latitude": "30.00655722216863",
      "longitude": "-90.10150675823077"
    }
  },
  {
    "service_request": "2021-835819",
    "request_type": "Traffic Signals/Signs/Striping/Streetlights",
    "request_reason": "Street Light Outage/Malfunction",
    "date_created": "2021-10-21T13:36:16.000",
    "date_modified": "2021-10-21T13:36:16.000",
    "request_status": "Pending",
    "responsible_agency": "Department of Public Works",
    "final_address": "2517 Clara St",
    "address_councildis": "B",
    "status": "Pending",
    "contractor": "Royal Engineering",
    "rowid": "835819",
    "final_x": "3674181.0811",
    "final_y": "526536.367806",
    "longitude": "-90.09135143626042",
    "latitude": "29.942012531845318",
    "geocoded_column": {
      "latitude": "29.942012531845318",
      "longitude": "-90.09135143626042"
    }
  },
  {
    "service_request": "2021-835818",
    "request_type": "Trash/Recycling",
    "request_reason": "Request a Large Item Pick Up",
    "date_created": "2021-10-21T13:33:34.000",
    "date_modified": "2021-10-21T13:33:35.000",
    "request_status": "Pending",
    "responsible_agency": "Department of Sanitation",
    "final_address": "7463 Garfield St",
    "address_councildis": "A",
    "status": "Assigned to Contractor",
    "contractor": "Richards Disposal",
    "rowid": "835818",
    "final_x": "3661190.15232",
    "final_y": "524086.300092",
    "longitude": "-90.13244785950188",
    "latitude": "29.9356564067514",
    "geocoded_column": {
      "latitude": "29.9356564067514",
      "longitude": "-90.13244785950188"
    }
  },
  {
    "service_request": "2021-835817",
    "request_type": "Mosquito, Termite & Rodent Control",
    "request_reason": "Rodent Complaint (Rats)",
    "date_created": "2021-10-21T13:28:29.000",
    "date_modified": "2021-10-21T13:28:29.000",
    "request_status": "Pending",
    "responsible_agency": "Mosquito, Termite & Rodent Control Board",
    "final_address": "2036 Cadiz St",
    "address_councildis": "B",
    "status": "Pending",
    "rowid": "835817",
    "final_x": "3669895.85262",
    "final_y": "522528.800378",
    "longitude": "-90.10501648951642",
    "latitude": "29.931120034081598",
    "geocoded_column": {
      "latitude": "29.931120034081598",
      "longitude": "-90.10501648951642"
    }
  },
  {
    "service_request": "2021-835816",
    "request_type": "Trash/Recycling",
    "request_reason": "Repair Recycling Cart",
    "date_created": "2021-10-21T13:25:53.000",
    "date_modified": "2021-10-21T13:25:53.000",
    "request_status": "Pending",
    "responsible_agency": "Department of Sanitation",
    "final_address": "5529 S Tonti St",
    "address_councildis": "A",
    "status": "Pending",
    "rowid": "835816",
    "final_x": "3668267.70541",
    "final_y": "528145.716607",
    "longitude": "-90.10996703736366",
    "latitude": "29.946612636061303",
    "geocoded_column": {
      "latitude": "29.946612636061303",
      "longitude": "-90.10996703736366"
    }
  },
  {
    "service_request": "2021-835815",
    "request_type": "COVID-19",
    "request_reason": "COVID-19 Business Non-Compliance",
    "date_created": "2021-10-21T13:24:54.000",
    "date_modified": "2021-10-21T13:24:55.000",
    "request_status": "Pending",
    "responsible_agency": "Safety and Permits",
    "final_address": "148 Carondelet St",
    "address_councildis": "B",
    "status": "Pending",
    "rowid": "835815",
    "final_x": "3680660.5604",
    "final_y": "530506.470594",
    "longitude": "-90.0707562324466",
    "latitude": "29.952734280058504",
    "geocoded_column": {
      "latitude": "29.952734280058504",
      "longitude": "-90.0707562324466"
    }
  },
  {
    "service_request": "2021-835813",
    "request_type": "Trash/Recycling",
    "request_reason": "Order Recycling Cart",
    "date_created": "2021-10-21T13:21:55.000",
    "date_modified": "2021-10-21T13:21:55.000",
    "request_status": "Pending",
    "responsible_agency": "Department of Sanitation",
    "final_address": "907 Charbonnet St",
    "address_councildis": "E",
    "status": "Pending",
    "rowid": "835813",
    "final_x": "3698499.75536",
    "final_y": "532935.242372",
    "longitude": "-90.01434009376521",
    "latitude": "29.958859996379196",
    "geocoded_column": {
      "latitude": "29.958859996379196",
      "longitude": "-90.01434009376521"
    }
  },
  {
    "service_request": "2021-835812",
    "request_type": "Trash/Recycling",
    "request_reason": "Repair Trash Cart",
    "date_created": "2021-10-21T13:20:32.000",
    "date_modified": "2021-10-21T13:20:33.000",
    "request_status": "Pending",
    "responsible_agency": "Department of Sanitation",
    "final_address": "907 Charbonnet St",
    "address_councildis": "E",
    "status": "Assigned to Contractor",
    "contractor": "Metro Disposal",
    "rowid": "835812",
    "final_x": "3698499.75536",
    "final_y": "532935.242372",
    "longitude": "-90.01434009376521",
    "latitude": "29.958859996379196",
    "geocoded_column": {
      "latitude": "29.958859996379196",
      "longitude": "-90.01434009376521"
    }
  },
  {
    "service_request": "2021-835811",
    "request_type": "Trash/Recycling",
    "request_reason": "Illegal Dumping",
    "date_created": "2021-10-21T13:20:11.000",
    "date_modified": "2021-10-21T13:20:12.000",
    "request_status": "Pending",
    "responsible_agency": "Department of Sanitation",
    "final_address": "4336 Erato St",
    "address_councildis": "B",
    "status": "Pending",
    "rowid": "835811",
    "final_x": "3670665.32692",
    "final_y": "531589.510595",
    "longitude": "-90.10228004739793",
    "latitude": "29.95601133320451",
    "geocoded_column": {
      "latitude": "29.95601133320451",
      "longitude": "-90.10228004739793"
    }
  },
  {
    "service_request": "2021-835810",
    "request_type": "Abandoned Vehicles",
    "request_reason": "Abandoned/Junk Vehicles",
    "date_created": "2021-10-21T13:17:10.000",
    "date_modified": "2021-10-21T13:17:10.000",
    "request_status": "Pending",
    "responsible_agency": "Department of Public Works",
    "final_address": "2632 Barracks St",
    "address_councildis": "D",
    "status": "Pending",
    "rowid": "835810",
    "final_x": "3678228.58619",
    "final_y": "538520.391945",
    "longitude": "-90.0781581318975",
    "latitude": "29.974843302076053",
    "geocoded_column": {
      "latitude": "29.974843302076053",
      "longitude": "-90.0781581318975"
    }
  },
  {
    "service_request": "2021-835809",
    "request_type": "Roads/Drainage",
    "request_reason": "Pothole",
    "date_created": "2021-10-21T13:16:56.000",
    "date_modified": "2021-10-21T14:36:57.000",
    "case_close_date": "2021-10-21T09:36:57.000",
    "request_status": "Closed",
    "responsible_agency": "Department of Public Works",
    "final_address": "4133 Pauger St",
    "address_councildis": "D",
    "status": "Resolved",
    "rowid": "835809",
    "final_x": "3682983.69468",
    "final_y": "547901.957842",
    "longitude": "-90.06281178408187",
    "latitude": "30.000495213977544",
    "geocoded_column": {
      "latitude": "30.000495213977544",
      "longitude": "-90.06281178408187"
    }
  },
  {
    "service_request": "2021-835807",
    "request_type": "Abandoned Vehicles",
    "request_reason": "Abandoned/Junk Vehicles",
    "date_created": "2021-10-21T13:11:57.000",
    "date_modified": "2021-10-21T13:11:57.000",
    "request_status": "Pending",
    "responsible_agency": "Department of Public Works",
    "final_address": "2665 Jasmine St",
    "address_councildis": "D",
    "status": "Pending",
    "rowid": "835807",
    "final_x": "3687542.62134",
    "final_y": "548170.039314",
    "longitude": "-90.04840038107484",
    "latitude": "30.00109255885372",
    "geocoded_column": {
      "latitude": "30.00109255885372",
      "longitude": "-90.04840038107484"
    }
  },
  {
    "service_request": "2021-835806",
    "request_type": "Abandoned Vehicles",
    "request_reason": "Abandoned/Junk Vehicles",
    "date_created": "2021-10-21T13:07:28.000",
    "date_modified": "2021-10-21T13:07:28.000",
    "request_status": "Pending",
    "responsible_agency": "Department of Public Works",
    "final_address": "TCHOUPITOULAS ST & ORANGE ST",
    "address_councildis": "B",
    "status": "Pending",
    "rowid": "835806",
    "final_x": "3682293.6",
    "final_y": "522949.78",
    "longitude": "-90.06586376291281",
    "latitude": "29.93190633193116",
    "geocoded_column": {
      "latitude": "29.93190633193116",
      "longitude": "-90.06586376291281"
    }
  },
  {
    "service_request": "2021-835805",
    "request_type": "Abandoned Vehicles",
    "request_reason": "Vehicle Blocking Your Driveway",
    "date_created": "2021-10-21T13:06:03.000",
    "date_modified": "2021-10-21T13:06:03.000",
    "request_status": "Pending",
    "responsible_agency": "Department of Public Works",
    "final_address": "725 Sumner St",
    "address_councildis": "C",
    "status": "Pending",
    "rowid": "835805",
    "final_x": "3691121.76118",
    "final_y": "528671.461952",
    "longitude": "-90.03779007290964",
    "latitude": "29.947367540650813",
    "geocoded_column": {
      "latitude": "29.947367540650813",
      "longitude": "-90.03779007290964"
    }
  },
  {
    "service_request": "2021-835804",
    "request_type": "Trash/Recycling",
    "request_reason": "Missed Trash Pick-Up",
    "date_created": "2021-10-21T13:04:39.000",
    "date_modified": "2021-10-21T13:04:40.000",
    "request_status": "Pending",
    "responsible_agency": "Department of Sanitation",
    "final_address": "3541 Indiana St",
    "address_councildis": "C",
    "status": "Assigned to Contractor",
    "contractor": "Richards Disposal",
    "rowid": "835804",
    "final_x": "3693457.32329",
    "final_y": "520207.088696",
    "longitude": "-90.03071965911933",
    "latitude": "29.924020590439394",
    "geocoded_column": {
      "latitude": "29.924020590439394",
      "longitude": "-90.03071965911933"
    }
  },
  {
    "service_request": "2021-835803",
    "request_type": "Trash/Recycling",
    "request_reason": "Request a Large Item Pick Up",
    "date_created": "2021-10-21T13:04:17.000",
    "date_modified": "2021-10-21T13:04:19.000",
    "request_status": "Pending",
    "responsible_agency": "Department of Sanitation",
    "final_address": "19 N Oak Ridge Ct",
    "address_councildis": "E",
    "status": "Assigned to Contractor",
    "contractor": "Metro Disposal",
    "rowid": "835803",
    "final_x": "3713491.37272",
    "final_y": "567898.012517",
    "longitude": "-89.96568313796146",
    "latitude": "30.054511027846864",
    "geocoded_column": {
      "latitude": "30.054511027846864",
      "longitude": "-89.96568313796146"
    }
  },
  {
    "service_request": "2021-835801",
    "request_type": "Trash/Recycling",
    "request_reason": "Illegal Dumping",
    "date_created": "2021-10-21T13:03:21.000",
    "date_modified": "2021-10-21T13:03:21.000",
    "request_status": "Pending",
    "responsible_agency": "Department of Sanitation",
    "final_address": "EVE ST & S SALCEDO ST",
    "address_councildis": "B",
    "status": "Pending",
    "rowid": "835801",
    "final_x": "3670353.7",
    "final_y": "530735.88",
    "longitude": "-90.10329299614861",
    "latitude": "29.953673332701733",
    "geocoded_column": {
      "latitude": "29.953673332701733",
      "longitude": "-90.10329299614861"
    }
  },
  {
    "service_request": "2021-835800",
    "request_type": "Property Maintenance",
    "request_reason": "Property Maintenance",
    "date_created": "2021-10-21T12:57:30.000",
    "date_modified": "2021-10-21T12:57:30.000",
    "request_status": "Pending",
    "responsible_agency": "Department of Code Enforcement",
    "final_address": "7530 Wayfarer St",
    "address_councildis": "E",
    "status": "Pending",
    "rowid": "835800",
    "final_x": "3725561.71571",
    "final_y": "570196.072551",
    "longitude": "-89.92744293360605",
    "latitude": "30.06042806592903",
    "geocoded_column": {
      "latitude": "30.06042806592903",
      "longitude": "-89.92744293360605"
    }
  },
  {
    "service_request": "2021-835799",
    "request_type": "Property Maintenance",
    "request_reason": "Property Maintenance",
    "date_created": "2021-10-21T12:56:34.000",
    "date_modified": "2021-10-21T12:56:34.000",
    "request_status": "Pending",
    "responsible_agency": "Department of Code Enforcement",
    "final_address": "7538 Wayfarer St",
    "address_councildis": "E",
    "status": "Pending",
    "rowid": "835799",
    "final_x": "3725509.02387",
    "final_y": "570230.834663",
    "longitude": "-89.9276081400891",
    "latitude": "30.060525424559575",
    "geocoded_column": {
      "latitude": "30.060525424559575",
      "longitude": "-89.9276081400891"
    }
  },
  {
    "service_request": "2021-835798",
    "request_type": "Trash/Recycling",
    "request_reason": "Dead Animal Pick Up",
    "date_created": "2021-10-21T12:53:04.000",
    "date_modified": "2021-10-21T12:53:08.000",
    "request_status": "Pending",
    "responsible_agency": "Department of Sanitation",
    "final_address": "6346 Arts St",
    "address_councildis": "D",
    "status": "Assigned to Contractor",
    "contractor": "Metro Disposal",
    "rowid": "835798",
    "final_x": "3685548.767",
    "final_y": "556641.370266",
    "longitude": "-90.05440042006849",
    "latitude": "30.024446947910725",
    "geocoded_column": {
      "latitude": "30.024446947910725",
      "longitude": "-90.05440042006849"
    }
  },
  {
    "service_request": "2021-835794",
    "request_type": "Trash/Recycling",
    "request_reason": "Request a Large Item Pick Up",
    "date_created": "2021-10-21T12:46:57.000",
    "date_modified": "2021-10-21T12:46:58.000",
    "request_status": "Pending",
    "responsible_agency": "Department of Sanitation",
    "final_address": "3521 Adrian St",
    "address_councildis": "C",
    "status": "Assigned to Contractor",
    "contractor": "Richards Disposal",
    "rowid": "835794",
    "final_x": "3710570.25944",
    "final_y": "517784.285174",
    "longitude": "-89.97679127885951",
    "latitude": "29.91681271093866",
    "geocoded_column": {
      "latitude": "29.91681271093866",
      "longitude": "-89.97679127885951"
    }
  },
  {
    "service_request": "2021-835792",
    "request_type": "Parks & Parkways",
    "request_reason": "Request Tree Service (Right of Way/Public Property)",
    "date_created": "2021-10-21T12:46:00.000",
    "date_modified": "2021-10-21T13:27:58.000",
    "request_status": "Pending",
    "responsible_agency": "Department of Parks & Parkway",
    "final_address": "New Orleans,LA",
    "address_councildis": "D",
    "rowid": "835792",
    "final_x": "3678933.01928",
    "final_y": "540496.542539",
    "longitude": "-90.07586486237766",
    "latitude": "29.98025579676641",
    "geocoded_column": {
      "latitude": "29.98025579676641",
      "longitude": "-90.07586486237766"
    }
  },
  {
    "service_request": "2021-835789",
    "request_type": "Trash/Recycling",
    "request_reason": "Replace Trash Cart",
    "date_created": "2021-10-21T12:35:16.000",
    "date_modified": "2021-10-21T12:35:28.000",
    "request_status": "Pending",
    "responsible_agency": "Department of Sanitation",
    "final_address": "3412 Vespasian St",
    "address_councildis": "C",
    "status": "Assigned to Contractor",
    "contractor": "Richards Disposal",
    "rowid": "835789",
    "final_x": "3695706.35914",
    "final_y": "522701.122426",
    "longitude": "-90.02353029604788",
    "latitude": "29.93080783970078",
    "geocoded_column": {
      "latitude": "29.93080783970078",
      "longitude": "-90.02353029604788"
    }
  },
  {
    "service_request": "2021-835788",
    "request_type": "Trash/Recycling",
    "request_reason": "Illegal Dumping",
    "date_created": "2021-10-21T12:33:14.000",
    "date_modified": "2021-10-21T12:33:14.000",
    "request_status": "Pending",
    "responsible_agency": "Department of Sanitation",
    "final_address": "WASHINGTON AVE & S DORGENOIS ST & TOLEDANO ST",
    "address_councildis": "B",
    "status": "Pending",
    "rowid": "835788",
    "final_x": "3671471.2",
    "final_y": "529224.68",
    "longitude": "-90.09981575844749",
    "latitude": "29.94948499755234",
    "geocoded_column": {
      "latitude": "29.94948499755234",
      "longitude": "-90.09981575844749"
    }
  },
  {
    "service_request": "2021-835785",
    "request_type": "Trash/Recycling",
    "request_reason": "Illegal Dumping",
    "date_created": "2021-10-21T12:28:20.000",
    "date_modified": "2021-10-21T12:28:20.000",
    "request_status": "Pending",
    "responsible_agency": "Department of Sanitation",
    "final_address": "2100 BLK Monticello Ave",
    "address_councildis": "A",
    "status": "Pending",
    "rowid": "835785",
    "final_x": "3661880.6598",
    "final_y": "534544.547496",
    "longitude": "-90.129921150058",
    "latitude": "29.96439331304366",
    "geocoded_column": {
      "latitude": "29.96439331304366",
      "longitude": "-90.129921150058"
    }
  },
  {
    "service_request": "2021-835784",
    "request_type": "Property Maintenance",
    "request_reason": "Property Maintenance",
    "date_created": "2021-10-21T12:27:17.000",
    "date_modified": "2021-10-21T12:27:17.000",
    "request_status": "Pending",
    "responsible_agency": "Department of Code Enforcement",
    "final_address": "1952 N Prieur St",
    "address_councildis": "D",
    "status": "Pending",
    "rowid": "835784",
    "final_x": "3683344.61589",
    "final_y": "539099.819978",
    "longitude": "-90.06198013585363",
    "latitude": "29.976281439405735",
    "geocoded_column": {
      "latitude": "29.976281439405735",
      "longitude": "-90.06198013585363"
    }
  },
  {
    "service_request": "2021-835782",
    "request_type": "Trash/Recycling",
    "request_reason": "Replace Trash Cart",
    "date_created": "2021-10-21T12:25:52.000",
    "date_modified": "2021-10-21T12:25:53.000",
    "request_status": "Pending",
    "responsible_agency": "Department of Sanitation",
    "final_address": "3717 General Pershing St",
    "address_councildis": "B",
    "status": "Assigned to Contractor",
    "contractor": "Richards Disposal",
    "rowid": "835782",
    "final_x": "3670549.01319",
    "final_y": "528369.24352",
    "longitude": "-90.10275653191385",
    "latitude": "29.94716009235243",
    "geocoded_column": {
      "latitude": "29.94716009235243",
      "longitude": "-90.10275653191385"
    }
  },
  {
    "service_request": "2021-835781",
    "request_type": "Roads/Drainage",
    "request_reason": "Damaged Sidewalk",
    "date_created": "2021-10-21T12:25:33.000",
    "date_modified": "2021-10-21T12:25:33.000",
    "request_status": "Pending",
    "responsible_agency": "Department of Public Works",
    "final_address": "7115 Camp St",
    "address_councildis": "A",
    "status": "Pending",
    "rowid": "835781",
    "final_x": "3661024.47411",
    "final_y": "521586.278265",
    "longitude": "-90.13305358640616",
    "latitude": "29.92878690441448",
    "geocoded_column": {
      "latitude": "29.92878690441448",
      "longitude": "-90.13305358640616"
    }
  },
  {
    "service_request": "2021-835775",
    "request_type": "Trash/Recycling",
    "request_reason": "Missed Trash Pick-Up",
    "date_created": "2021-10-21T12:20:30.000",
    "date_modified": "2021-10-21T12:20:31.000",
    "request_status": "Pending",
    "responsible_agency": "Department of Sanitation",
    "final_address": "2015 Sixth St",
    "address_councildis": "B",
    "status": "Assigned to Contractor",
    "contractor": "Richards Disposal",
    "rowid": "835775",
    "final_x": "3674655.1611",
    "final_y": "523585.780283",
    "longitude": "-90.08995574861271",
    "latitude": "29.933885242539358",
    "geocoded_column": {
      "latitude": "29.933885242539358",
      "longitude": "-90.08995574861271"
    }
  },
  {
    "service_request": "2021-835774",
    "request_type": "Traffic Signals/Signs/Striping/Streetlights",
    "request_reason": "Additional signage",
    "date_created": "2021-10-21T12:19:54.000",
    "date_modified": "2021-10-21T12:19:54.000",
    "request_status": "Pending",
    "responsible_agency": "Department of Public Works",
    "final_address": "3755 Pittari Pl",
    "address_councildis": "C",
    "status": "Pending",
    "rowid": "835774",
    "final_x": "3709523.14091",
    "final_y": "516881.258741",
    "longitude": "-89.98013005093532",
    "latitude": "29.914363748340826",
    "geocoded_column": {
      "latitude": "29.914363748340826",
      "longitude": "-89.98013005093532"
    }
  },
  {
    "service_request": "2021-835772",
    "request_type": "Abandoned Vehicles",
    "request_reason": "Abandoned/Junk Vehicles",
    "date_created": "2021-10-21T12:19:27.000",
    "date_modified": "2021-10-21T12:19:27.000",
    "request_status": "Pending",
    "responsible_agency": "Department of Public Works",
    "status": "Inspected",
    "rowid": "835772",
    "longitude": "0.0",
    "latitude": "0.0",
    "geocoded_column": {
      "latitude": "0.0",
      "longitude": "0.0"
    }
  },
  {
    "service_request": "2021-835771",
    "request_type": "Trash/Recycling",
    "request_reason": "Repair Trash Cart",
    "date_created": "2021-10-21T12:18:41.000",
    "date_modified": "2021-10-21T12:18:42.000",
    "request_status": "Pending",
    "responsible_agency": "Department of Sanitation",
    "final_address": "2011 Sixth St",
    "address_councildis": "B",
    "status": "Assigned to Contractor",
    "contractor": "Richards Disposal",
    "rowid": "835771",
    "final_x": "3674675.76468",
    "final_y": "523555.996091",
    "longitude": "-90.08989172428863",
    "latitude": "29.933802730929152",
    "geocoded_column": {
      "latitude": "29.933802730929152",
      "longitude": "-90.08989172428863"
    }
  },
  {
    "service_request": "2021-835768",
    "request_type": "Trash/Recycling",
    "request_reason": "Missed Trash Pick-Up",
    "date_created": "2021-10-21T12:12:12.000",
    "date_modified": "2021-10-21T12:12:13.000",
    "request_status": "Pending",
    "responsible_agency": "Department of Sanitation",
    "final_address": "1772 Shirley Dr",
    "address_councildis": "C",
    "status": "Assigned to Contractor",
    "contractor": "Richards Disposal",
    "rowid": "835768",
    "final_x": "3693051.01955",
    "final_y": "523330.082811",
    "longitude": "-90.03189024118304",
    "latitude": "29.932620460551277",
    "geocoded_column": {
      "latitude": "29.932620460551277",
      "longitude": "-90.03189024118304"
    }
  },
  {
    "service_request": "2021-835767",
    "request_type": "Trash/Recycling",
    "request_reason": "Order Recycling Cart",
    "date_created": "2021-10-21T12:10:22.000",
    "date_modified": "2021-10-21T12:10:22.000",
    "request_status": "Pending",
    "responsible_agency": "Department of Sanitation",
    "final_address": "2528 Eton St",
    "address_councildis": "C",
    "status": "Pending",
    "rowid": "835767",
    "final_x": "3704159.77642",
    "final_y": "521877.706682",
    "longitude": "-89.996874575752",
    "latitude": "29.928275325381843",
    "geocoded_column": {
      "latitude": "29.928275325381843",
      "longitude": "-89.996874575752"
    }
  },