[
  {
    "service_request": "2022-930365",
    "request_type": "Trash/Recycling",
    "request_reason": "Missed Trash Pick-Up",
    "date_created": "2022-10-21T01:36:55.000",
    "date_modified": "2022-10-21T01:36:56.000",
    "request_status": "Pending",
    "responsible_agency": "Department of Sanitation",
    "final_address": "2927 Audubon St",
    "address_councildis": "B",
    "status": "Assigned to Contractor",
    "contractor": "Richards Disposal",
    "rowid": "930365",
    "final_x": "3667871.60628",
    "final_y": "531535.290755",
    "longitude": "-90.1111035127935",
    "latitude": "29.95594448142461",
    "geocoded_column": {
      "latitude": "29.95594448142461",
      "longitude": "-90.1111035127935"
    }
  },
  {
    "service_request": "2022-930364",
    "request_type": "Property Maintenance",
    "request_reason": "Property Maintenance",
    "date_created": "2022-10-20T23:58:09.000",
    "date_modified": "2022-10-20T23:58:09.000",
    "request_status": "Pending",
    "responsible_agency": "Department of Code Enforcement",
    "final_address": "1717 Spain St",
    "address_councildis": "D",
    "status": "Pending",
    "rowid": "930364",
    "final_x": "3685981.4614",
    "final_y": "538768.403721",
    "longitude": "-90.0536638995066",
    "latitude": "29.975289451436204",
    "geocoded_column": {
      "latitude": "29.975289451436204",
      "longitude": "-90.0536638995066"
    }
  },
  {
    "service_request": "2022-930363",
    "request_type": "Trash/Recycling",
    "request_reason": "Missed Trash Pick-Up",
    "date_created": "2022-10-20T22:44:31.000",
    "date_modified": "2022-10-20T22:44:32.000",
    "request_status": "Pending",
    "responsible_agency": "Department of Sanitation",
    "final_address": "2206 Ursulines Ave",
    "address_councildis": "D",
    "status": "Assigned to Contractor",
    "contractor": "Richards Disposal",
    "rowid": "930363",
    "final_x": "3679167.87272",
    "final_y": "536880.164936",
    "longitude": "-90.07524850507848",
    "latitude": "29.970304916736975",
    "geocoded_column": {
      "latitude": "29.970304916736975",
      "longitude": "-90.07524850507848"
    }
  },
  {
    "service_request": "2022-930362",
    "request_type": "Health Related Questions",
    "request_reason": "Noise Ordinance Complaint",
    "date_created": "2022-10-20T22:01:43.000",
    "date_modified": "2022-10-20T22:01:43.000",
    "request_status": "Pending",
    "responsible_agency": "Health Department",
    "final_address": "1200 St Bernard Ave",
    "address_councildis": "C",
    "status": "Pending",
    "rowid": "930362",
    "final_x": "3683033.3165",
    "final_y": "536132.891847",
    "longitude": "-90.06306719052876",
    "latitude": "29.96813290984115",
    "geocoded_column": {
      "latitude": "29.96813290984115",
      "longitude": "-90.06306719052876"
    }
  },
  {
    "service_request": "2022-930361",
    "request_type": "Traffic Signals/Signs/Striping/Streetlights",
    "request_reason": "Street Light Outage/Malfunction",
    "date_created": "2022-10-20T21:58:24.000",
    "date_modified": "2022-10-20T21:58:25.000",
    "request_status": "Pending",
    "responsible_agency": "Department of Public Works",
    "final_address": "7551 Forest Glen Rd",
    "address_councildis": "E",
    "status": "Pending",
    "contractor": "Legacy Professional Services",
    "rowid": "930361",
    "final_x": "3709905.66795",
    "final_y": "564693.881698",
    "longitude": "-89.97713650553536",
    "latitude": "30.045818152802273",
    "geocoded_column": {
      "latitude": "30.045818152802273",
      "longitude": "-89.97713650553536"
    }
  },
  {
    "service_request": "2022-930360",
    "request_type": "Roads/Drainage",
    "request_reason": "Street Flooding / Drainage",
    "date_created": "2022-10-20T21:53:40.000",
    "date_modified": "2022-10-20T21:53:41.000",
    "request_status": "Pending",
    "responsible_agency": "Department of Public Works",
    "final_address": "622 Marigny St",
    "address_councildis": "C",
    "status": "Pending",
    "rowid": "930360",
    "final_x": "3685520.88962",
    "final_y": "534737.56039",
    "longitude": "-90.0552605009789",
    "latitude": "29.964220170295764",
    "geocoded_column": {
      "latitude": "29.964220170295764",
      "longitude": "-90.0552605009789"
    }
  },
  {
    "service_request": "2022-930359",
    "request_type": "Property Maintenance",
    "request_reason": "Property Maintenance",
    "date_created": "2022-10-20T21:47:50.000",
    "date_modified": "2022-10-20T21:47:50.000",
    "request_status": "Pending",
    "responsible_agency": "Department of Code Enforcement",
    "final_address": "2819 Chartres St",
    "address_councildis": "C",
    "status": "Pending",
    "rowid": "930359",
    "final_x": "3687416.7181",
    "final_y": "534471.236805",
    "longitude": "-90.04928307365611",
    "latitude": "29.96342959218374",
    "geocoded_column": {
      "latitude": "29.96342959218374",
      "longitude": "-90.04928307365611"
    }
  },
  {
    "service_request": "2022-930358",
    "request_type": "Abandoned Vehicles",
    "request_reason": "Abandoned/Junk Vehicles",
    "date_created": "2022-10-20T21:21:59.000",
    "date_modified": "2022-10-20T21:21:59.000",
    "request_status": "Pending",
    "responsible_agency": "Department of Public Works",
    "final_address": "6400 Press Dr",
    "address_councildis": "D",
    "status": "Pending",
    "rowid": "930358",
    "final_x": "3688752.4623",
    "final_y": "557179.304411",
    "longitude": "-90.04425821670468",
    "latitude": "30.025827354829133",
    "geocoded_column": {
      "latitude": "30.025827354829133",
      "longitude": "-90.04425821670468"
    }
  },
  {
    "service_request": "2022-930356",
    "request_type": "Roads/Drainage",
    "request_reason": "Pothole",
    "date_created": "2022-10-20T20:36:12.000",
    "date_modified": "2022-10-20T20:36:12.000",
    "request_status": "Pending",
    "responsible_agency": "Department of Public Works",
    "final_address": "2327 Loyola Ave",
    "address_councildis": "B",
    "status": "Pending",
    "rowid": "930356",
    "final_x": "3675810.44846",
    "final_y": "525061.717693",
    "longitude": "-90.08625784186661",
    "latitude": "29.937909066552734",
    "geocoded_column": {
      "latitude": "29.937909066552734",
      "longitude": "-90.08625784186661"
    }
  },
  {
    "service_request": "2022-930355",
    "request_type": "Trash/Recycling",
    "request_reason": "Request a Large Item Pick Up",
    "date_created": "2022-10-20T20:23:04.000",
    "date_modified": "2022-10-20T20:23:04.000",
    "request_status": "Pending",
    "responsible_agency": "Department of Sanitation",
    "final_address": "3937 Piedmont Dr",
    "address_councildis": "D",
    "status": "Assigned to Contractor",
    "contractor": "Metro Disposal",
    "rowid": "930355",
    "final_x": "3685422.56693",
    "final_y": "547213.896145",
    "longitude": "-90.0551314913767",
    "latitude": "29.99852870934524",
    "geocoded_column": {
      "latitude": "29.99852870934524",
      "longitude": "-90.0551314913767"
    }
  },
  {
    "service_request": "2022-930354",
    "request_type": "Trash/Recycling",
    "request_reason": "MIssed Recycling Pick-Up",
    "date_created": "2022-10-20T20:14:35.000",
    "date_modified": "2022-10-20T20:14:36.000",
    "request_status": "Pending",
    "responsible_agency": "Department of Sanitation",
    "final_address": "6100 Block of Patton St, New Orleans, Louisiana, 70118",
    "status": "Assigned to Contractor",
    "rowid": "930354",
    "longitude": "0.0",
    "latitude": "0.0",
    "geocoded_column": {
      "latitude": "0.0",
      "longitude": "0.0"
    }
  },
  {
    "service_request": "2022-930353",
    "request_type": "Trash/Recycling",
    "request_reason": "Replace Trash Cart",
    "date_created": "2022-10-20T20:02:00.000",
    "date_modified": "2022-10-20T20:02:01.000",
    "request_status": "Pending",
    "responsible_agency": "Department of Sanitation",
    "final_address": "309 Broadway St",
    "address_councildis": "A",
    "status": "Assigned to Contractor",
    "contractor": "Richards Disposal",
    "rowid": "930353",
    "final_x": "3661575.81856",
    "final_y": "522538.873082",
    "longitude": "-90.13128154918472",
    "latitude": "29.931390349677734",
    "geocoded_column": {
      "latitude": "29.931390349677734",
      "longitude": "-90.13128154918472"
    }
  },
  {
    "service_request": "2022-930352",
    "request_type": "Trash/Recycling",
    "request_reason": "Request a Large Item Pick Up",
    "date_created": "2022-10-20T19:35:42.000",
    "date_modified": "2022-10-20T19:35:43.000",
    "request_status": "Pending",
    "responsible_agency": "Department of Sanitation",
    "final_address": "5101 Paris Ave",
    "address_councildis": "D",
    "status": "Assigned to Contractor",
    "contractor": "Metro Disposal",
    "rowid": "930352",
    "final_x": "3679351.99061",
    "final_y": "551171.272213",
    "longitude": "-90.074171076494",
    "latitude": "30.009594885117657",
    "geocoded_column": {
      "latitude": "30.009594885117657",
      "longitude": "-90.074171076494"
    }
  },
  {
    "service_request": "2022-930351",
    "request_type": "Trash/Recycling",
    "request_reason": "MIssed Recycling Pick-Up",
    "date_created": "2022-10-20T19:34:52.000",
    "date_modified": "2022-10-20T19:34:53.000",
    "request_status": "Pending",
    "responsible_agency": "Department of Sanitation",
    "final_address": "2216 Wirth Pl",
    "address_councildis": "A",
    "status": "Assigned to Contractor",
    "contractor": "Richards Disposal",
    "rowid": "930351",
    "final_x": "3667026.72327",
    "final_y": "524340.441276",
    "longitude": "-90.11401312858841",
    "latitude": "29.93618572702672",
    "geocoded_column": {
      "latitude": "29.93618572702672",
      "longitude": "-90.11401312858841"
    }
  },
  {
    "service_request": "2022-930350",
    "request_type": "Trash/Recycling",
    "request_reason": "Repair Recycling Cart",
    "date_created": "2022-10-20T19:17:03.000",
    "date_modified": "2022-10-20T19:17:03.000",
    "request_status": "Pending",
    "responsible_agency": "Department of Sanitation",
    "final_address": "6025 Constance St",
    "address_councildis": "A",
    "status": "Pending",
    "rowid": "930350",
    "final_x": "3664395.1984",
    "final_y": "519062.125047",
    "longitude": "-90.12249705614619",
    "latitude": "29.921748757473562",
    "geocoded_column": {
      "latitude": "29.921748757473562",
      "longitude": "-90.12249705614619"
    }
  },
  {
    "service_request": "2022-930349",
    "request_type": "Roads/Drainage",
    "request_reason": "Pothole",
    "date_created": "2022-10-20T19:16:46.000",
    "date_modified": "2022-10-20T19:16:46.000",
    "request_status": "Pending",
    "responsible_agency": "Department of Public Works",
    "final_address": "7650 Shubrick Ave",
    "address_councildis": "E",
    "status": "Pending",
    "rowid": "930349",
    "final_x": "3706683.55339",
    "final_y": "563741.364321",
    "longitude": "-89.98735527460417",
    "latitude": "30.043303576206355",
    "geocoded_column": {
      "latitude": "30.043303576206355",
      "longitude": "-89.98735527460417"
    }
  },
  {
    "service_request": "2022-930348",
    "request_type": "Trash/Recycling",
    "request_reason": "MIssed Recycling Pick-Up",
    "date_created": "2022-10-20T19:15:35.000",
    "date_modified": "2022-10-20T19:15:36.000",
    "request_status": "Pending",
    "responsible_agency": "Department of Sanitation",
    "final_address": "6025 Constance St",
    "address_councildis": "A",
    "status": "Assigned to Contractor",
    "contractor": "Richards Disposal",
    "rowid": "930348",
    "final_x": "3664395.1984",
    "final_y": "519062.125047",
    "longitude": "-90.12249705614619",
    "latitude": "29.921748757473562",
    "geocoded_column": {
      "latitude": "29.921748757473562",
      "longitude": "-90.12249705614619"
    }
  },
  {
    "service_request": "2022-930347",
    "request_type": "Traffic Signals/Signs/Striping/Streetlights",
    "request_reason": "Street Light Outage/Malfunction",
    "date_created": "2022-10-20T19:11:15.000",
    "date_modified": "2022-10-20T19:11:16.000",
    "request_status": "Pending",
    "responsible_agency": "Department of Public Works",
    "final_address": "7711 Birch St",
    "address_councildis": "A",
    "status": "Pending",
    "contractor": "Legacy Professional Services",
    "rowid": "930347",
    "final_x": "3663954.26714",
    "final_y": "528521.214976",
    "longitude": "-90.1235736543242",
    "latitude": "29.947771060925213",
    "geocoded_column": {
      "latitude": "29.947771060925213",
      "longitude": "-90.1235736543242"
    }
  },
  {
    "service_request": "2022-930346",
    "request_type": "Trash/Recycling",
    "request_reason": "Missed Trash Pick-Up",
    "date_created": "2022-10-20T19:04:50.000",
    "date_modified": "2022-10-20T19:04:51.000",
    "request_status": "Pending",
    "responsible_agency": "Department of Sanitation",
    "final_address": "730 Eighth St",
    "address_councildis": "B",
    "status": "Assigned to Contractor",
    "contractor": "Richards Disposal",
    "rowid": "930346",
    "final_x": "3676778.7723",
    "final_y": "519141.542967",
    "longitude": "-90.08340464367262",
    "latitude": "29.921601499898674",
    "geocoded_column": {
      "latitude": "29.921601499898674",
      "longitude": "-90.08340464367262"
    }
  },
  {
    "service_request": "2022-930345",
    "request_type": "Trash/Recycling",
    "request_reason": "MIssed Recycling Pick-Up",
    "date_created": "2022-10-20T19:00:48.000",
    "date_modified": "2022-10-20T19:00:49.000",
    "request_status": "Pending",
    "responsible_agency": "Department of Sanitation",
    "final_address": "5826 Clara St",
    "address_councildis": "A",
    "status": "Assigned to Contractor",
    "contractor": "Richards Disposal",
    "rowid": "930345",
    "final_x": "3666914.57978",
    "final_y": "525225.735933",
    "longitude": "-90.11433743670578",
    "latitude": "29.938623284611396",
    "geocoded_column": {
      "latitude": "29.938623284611396",
      "longitude": "-90.11433743670578"
    }
  },
  {
    "service_request": "2022-930344",
    "request_type": "Trash/Recycling",
    "request_reason": "Illegal Dumping",
    "date_created": "2022-10-20T18:44:14.000",
    "date_modified": "2022-10-20T18:44:14.000",
    "request_status": "Pending",
    "responsible_agency": "Department of Sanitation",
    "final_address": "824 N Gayoso St",
    "address_councildis": "A",
    "status": "Pending",
    "rowid": "930344",
    "final_x": "3676088.71867",
    "final_y": "538103.450633",
    "longitude": "-90.08493072627796",
    "latitude": "29.973761135862524",
    "geocoded_column": {
      "latitude": "29.973761135862524",
      "longitude": "-90.08493072627796"
    }
  },
  {
    "service_request": "2022-930343",
    "request_type": "Trash/Recycling",
    "request_reason": "Missed Trash Pick-Up",
    "date_created": "2022-10-20T18:42:02.000",
    "date_modified": "2022-10-20T18:42:03.000",
    "request_status": "Pending",
    "responsible_agency": "Department of Sanitation",
    "final_address": "623 Eighth St",
    "address_councildis": "B",
    "status": "Assigned to Contractor",
    "contractor": "Richards Disposal",
    "rowid": "930343",
    "final_x": "3677046.32181",
    "final_y": "518867.997303",
    "longitude": "-90.08256953027089",
    "latitude": "29.92084130986287",
    "geocoded_column": {
      "latitude": "29.92084130986287",
      "longitude": "-90.08256953027089"
    }
  },
  {
    "service_request": "2022-930342",
    "request_type": "Roads/Drainage",
    "request_reason": "Street Subsidence (Sinking)",
    "date_created": "2022-10-20T18:40:00.000",
    "date_modified": "2022-10-20T18:40:01.000",
    "request_status": "Pending",
    "responsible_agency": "Department of Public Works",
    "final_address": "JUMONVILLE ST & ST BERNARD AVE",
    "address_councildis": "D",
    "status": "Pending",
    "rowid": "930342",
    "final_x": "3678157.7",
    "final_y": "545592.88",
    "longitude": "-90.07813732392155",
    "latitude": "29.994292319295315",
    "geocoded_column": {
      "latitude": "29.994292319295315",
      "longitude": "-90.07813732392155"
    }
  },
  {
    "service_request": "2022-930341",
    "request_type": "Trash/Recycling",
    "request_reason": "Request a Large Item Pick Up",
    "date_created": "2022-10-20T18:10:23.000",
    "date_modified": "2022-10-20T18:10:24.000",
    "request_status": "Pending",
    "responsible_agency": "Department of Sanitation",
    "final_address": "4628 Bienville Ave",
    "address_councildis": "A",
    "status": "Assigned to Contractor",
    "contractor": "Richards Disposal",
    "rowid": "930341",
    "final_x": "3669674.40135",
    "final_y": "540351.677067",
    "longitude": "-90.10511248725467",
    "latitude": "29.980133598539208",
    "geocoded_column": {
      "latitude": "29.980133598539208",
      "longitude": "-90.10511248725467"
    }
  },
  {
    "service_request": "2022-930340",
    "request_type": "Trash/Recycling",
    "request_reason": "MIssed Recycling Pick-Up",
    "date_created": "2022-10-20T18:08:21.000",
    "date_modified": "2022-10-20T18:08:22.000",
    "request_status": "Pending",
    "responsible_agency": "Department of Sanitation",
    "final_address": "327 Arabella St",
    "address_councildis": "A",
    "status": "Assigned to Contractor",
    "contractor": "Richards Disposal",
    "rowid": "930340",
    "final_x": "3665526.45287",
    "final_y": "517394.312245",
    "longitude": "-90.11898194842252",
    "latitude": "29.917129875054222",
    "geocoded_column": {
      "latitude": "29.917129875054222",
      "longitude": "-90.11898194842252"
    }
  },
  {
    "service_request": "2022-930339",
    "request_type": "Trash/Recycling",
    "request_reason": "Replace Trash Cart",
    "date_created": "2022-10-20T18:04:51.000",
    "date_modified": "2022-10-20T18:04:52.000",
    "request_status": "Pending",
    "responsible_agency": "Department of Sanitation",
    "final_address": "2506 St Anthony St",
    "address_councildis": "D",
    "status": "Assigned to Contractor",
    "contractor": "Metro Disposal",
    "rowid": "930339",
    "final_x": "3683053.18274",
    "final_y": "541416.914252",
    "longitude": "-90.06281942427127",
    "latitude": "29.982661526051803",
    "geocoded_column": {
      "latitude": "29.982661526051803",
      "longitude": "-90.06281942427127"
    }
  },
  {
    "service_request": "2022-930338",
    "request_type": "Roads/Drainage",
    "request_reason": "Street Subsidence (Sinking)",
    "date_created": "2022-10-20T18:00:18.000",
    "date_modified": "2022-10-20T18:00:19.000",
    "request_status": "Pending",
    "responsible_agency": "Department of Public Works",
    "final_address": "I 10 W & HIGHWAY 72",
    "address_councildis": "E",
    "status": "Pending",
    "rowid": "930338",
    "final_x": "3735814.3",
    "final_y": "587865.88",
    "longitude": "-89.89433405445331",
    "latitude": "30.108662316813767",
    "geocoded_column": {
      "latitude": "30.108662316813767",
      "longitude": "-89.89433405445331"
    }
  },
  {
    "service_request": "2022-930337",
    "request_type": "Trash/Recycling",
    "request_reason": "Order Recycling Cart",
    "date_created": "2022-10-20T17:59:55.000",
    "date_modified": "2022-10-20T17:59:55.000",
    "request_status": "Pending",
    "responsible_agency": "Department of Sanitation",
    "final_address": "2763 Mendez St, New Orleans, Louisiana, 70122",
    "address_councildis": "D",
    "status": "Pending",
    "rowid": "930337",
    "final_x": "3687830.4911",
    "final_y": "553816.086871",
    "longitude": "-90.04729079168989",
    "latitude": "30.016608243368957",
    "geocoded_column": {
      "latitude": "30.016608243368957",
      "longitude": "-90.04729079168989"
    }
  },
  {
    "service_request": "2022-930336",
    "request_type": "Trash/Recycling",
    "request_reason": "MIssed Recycling Pick-Up",
    "date_created": "2022-10-20T17:57:06.000",
    "date_modified": "2022-10-20T17:57:06.000",
    "request_status": "Pending",
    "responsible_agency": "Department of Sanitation",
    "final_address": "541 Henry Clay Ave, New Orleans, Louisiana, 70118",
    "address_councildis": "A",
    "status": "Assigned to Contractor",
    "contractor": "Richards Disposal",
    "rowid": "930336",
    "final_x": "3663576.55424",
    "final_y": "518894.075767",
    "longitude": "-90.12508677125236",
    "latitude": "29.921310435920756",
    "geocoded_column": {
      "latitude": "29.921310435920756",
      "longitude": "-90.12508677125236"
    }
  },
  {
    "service_request": "2022-930335",
    "request_type": "Trash/Recycling",
    "request_reason": "MIssed Recycling Pick-Up",
    "date_created": "2022-10-20T17:54:02.000",
    "date_modified": "2022-10-20T17:54:02.000",
    "request_status": "Pending",
    "responsible_agency": "Department of Sanitation",
    "final_address": "900 BLK Joseph St",
    "address_councildis": "A",
    "status": "Assigned to Contractor",
    "contractor": "Richards Disposal",
    "rowid": "930335",
    "final_x": "3666231.87288",
    "final_y": "519415.577426",
    "longitude": "-90.11668759124751",
    "latitude": "29.922667145349116",
    "geocoded_column": {
      "latitude": "29.922667145349116",
      "longitude": "-90.11668759124751"
    }
  },
  {
    "service_request": "2022-930334",
    "request_type": "Abandoned Vehicles",
    "request_reason": "Abandoned/Junk Vehicles",
    "date_created": "2022-10-20T17:52:52.000",
    "date_modified": "2022-10-20T17:52:52.000",
    "request_status": "Pending",
    "responsible_agency": "Department of Public Works",
    "final_address": "2808 Upperline St",
    "address_councildis": "B",
    "status": "Pending",
    "rowid": "930334",
    "final_x": "3669161.37594",
    "final_y": "525051.456189",
    "longitude": "-90.10724992900758",
    "latitude": "29.93807815648594",
    "geocoded_column": {
      "latitude": "29.93807815648594",
      "longitude": "-90.10724992900758"
    }
  },
  {
    "service_request": "2022-930333",
    "request_type": "Roads/Drainage",
    "request_reason": "Pothole",
    "date_created": "2022-10-20T17:52:35.000",
    "date_modified": "2022-10-20T17:52:36.000",
    "request_status": "Pending",
    "responsible_agency": "Department of Public Works",
    "final_address": "304 Chartres St",
    "address_councildis": "C",
    "status": "Pending",
    "rowid": "930333",
    "final_x": "3682000.10696",
    "final_y": "531109.32045",
    "longitude": "-90.06650550221373",
    "latitude": "29.95435125945133",
    "geocoded_column": {
      "latitude": "29.95435125945133",
      "longitude": "-90.06650550221373"
    }
  },
  {
    "service_request": "2022-930332",
    "request_type": "Traffic Signals/Signs/Striping/Streetlights",
    "request_reason": "Street Light Outage/Malfunction",
    "date_created": "2022-10-20T17:50:53.000",
    "date_modified": "2022-10-20T17:50:53.000",
    "request_status": "Pending",
    "responsible_agency": "Department of Public Works",
    "final_address": "4816 N Derbigny St",
    "address_councildis": "E",
    "status": "Pending",
    "contractor": "Legacy Professional Services",
    "rowid": "930332",
    "final_x": "3695805.22134",
    "final_y": "536654.764551",
    "longitude": "-90.02271436172943",
    "latitude": "29.969172374949284",
    "geocoded_column": {
      "latitude": "29.969172374949284",
      "longitude": "-90.02271436172943"
    }
  },
  {
    "service_request": "2022-930331",
    "request_type": "Trash/Recycling",
    "request_reason": "Illegal Dumping",
    "date_created": "2022-10-20T17:49:36.000",
    "date_modified": "2022-10-20T17:49:36.000",
    "request_status": "Pending",
    "responsible_agency": "Department of Sanitation",
    "final_address": "2322 Amelia St",
    "address_councildis": "B",
    "status": "Pending",
    "rowid": "930331",
    "final_x": "3672448.14542",
    "final_y": "523786.999995",
    "longitude": "-90.09691636015393",
    "latitude": "29.93450419855734",
    "geocoded_column": {
      "latitude": "29.93450419855734",
      "longitude": "-90.09691636015393"
    }
  },
  {
    "service_request": "2022-930330",
    "request_type": "Trash/Recycling",
    "request_reason": "Illegal Dumping",
    "date_created": "2022-10-20T17:47:48.000",
    "date_modified": "2022-10-20T17:47:48.000",
    "request_status": "Pending",
    "responsible_agency": "Department of Sanitation",
    "final_address": "3708 LaSalle St",
    "address_councildis": "B",
    "status": "Pending",
    "rowid": "930330",
    "final_x": "3672364.26651",
    "final_y": "523886.86278",
    "longitude": "-90.0971777632525",
    "latitude": "29.934781277333588",
    "geocoded_column": {
      "latitude": "29.934781277333588",
      "longitude": "-90.0971777632525"
    }
  },
  {
    "service_request": "2022-930329",
    "request_type": "Trash/Recycling",
    "request_reason": "MIssed Recycling Pick-Up",
    "date_created": "2022-10-20T17:43:56.000",
    "date_modified": "2022-10-20T17:43:56.000",
    "request_status": "Pending",
    "responsible_agency": "Department of Sanitation",
    "final_address": "2207 State St",
    "address_councildis": "A",
    "status": "Assigned to Contractor",
    "contractor": "Richards Disposal",
    "rowid": "930329",
    "final_x": "3666579.89754",
    "final_y": "524735.95846",
    "longitude": "-90.1154105035764",
    "latitude": "29.937286339368722",
    "geocoded_column": {
      "latitude": "29.937286339368722",
      "longitude": "-90.1154105035764"
    }
  },
  {
    "service_request": "2022-930328",
    "request_type": "Trash/Recycling",
    "request_reason": "Repair Trash Cart",
    "date_created": "2022-10-20T17:38:16.000",
    "date_modified": "2022-10-20T17:38:17.000",
    "request_status": "Pending",
    "responsible_agency": "Department of Sanitation",
    "final_address": "1461 Webster St",
    "address_councildis": "A",
    "status": "Assigned to Contractor",
    "contractor": "Richards Disposal",
    "rowid": "930328",
    "final_x": "3665088.2562",
    "final_y": "521879.517882",
    "longitude": "-90.1202152049667",
    "latitude": "29.92947554550726",
    "geocoded_column": {
      "latitude": "29.92947554550726",
      "longitude": "-90.1202152049667"
    }
  },
  {
    "service_request": "2022-930327",
    "request_type": "Mayor's Request",
    "request_reason": "Requests to the Mayor",
    "date_created": "2022-10-20T17:28:15.000",
    "date_modified": "2022-10-20T17:28:15.000",
    "request_status": "Pending",
    "responsible_agency": "Executive Office of the Mayor",
    "status": "Pending",
    "rowid": "930327",
    "longitude": "0.0",
    "latitude": "0.0",
    "geocoded_column": {
      "latitude": "0.0",
      "longitude": "0.0"
    }
  },
  {
    "service_request": "2022-930326",
    "request_type": "Traffic Signals/Signs/Striping/Streetlights",
    "request_reason": "Traffic Signal Malfunctioning/Damaged",
    "date_created": "2022-10-20T17:25:59.000",
    "date_modified": "2022-10-20T17:25:59.000",
    "request_status": "Pending",
    "responsible_agency": "Department of Public Works",
    "final_address": "MARTIN LUTHER KING JR BLVD & ST CHARLES AVE & MELPOMENE AVE",
    "address_councildis": "B",
    "status": "Pending",
    "rowid": "930326",
    "final_x": "3679175.06",
    "final_y": "525530.77",
    "longitude": "-90.07561922787677",
    "latitude": "29.93909768696377",
    "geocoded_column": {
      "latitude": "29.93909768696377",
      "longitude": "-90.07561922787677"
    }
  },
  {
    "service_request": "2022-930325",
    "request_type": "Trash/Recycling",
    "request_reason": "Replace Trash Cart",
    "date_created": "2022-10-20T17:22:38.000",
    "date_modified": "2022-10-20T17:22:39.000",
    "request_status": "Pending",
    "responsible_agency": "Department of Sanitation",
    "final_address": "4406 St Peter St",
    "address_councildis": "A",
    "status": "Assigned to Contractor",
    "contractor": "Richards Disposal",
    "rowid": "930325",
    "final_x": "3671181.40244",
    "final_y": "540936.622795",
    "longitude": "-90.10033285354919",
    "latitude": "29.981697497534817",
    "geocoded_column": {
      "latitude": "29.981697497534817",
      "longitude": "-90.10033285354919"
    }
  },
  {
    "service_request": "2022-930324",
    "request_type": "Roads/Drainage",
    "request_reason": "Debris in Roadway",
    "date_created": "2022-10-20T17:20:47.000",
    "date_modified": "2022-10-20T17:21:18.000",
    "request_status": "Pending",
    "responsible_agency": "Department of Public Works",
    "final_address": "SPRUCE ST & JOLIET ST",
    "address_councildis": "A",
    "status": "Pending",
    "rowid": "930324",
    "final_x": "3662797.9",
    "final_y": "531413.68",
    "longitude": "-90.12712864254588",
    "latitude": "29.955757926597038",
    "geocoded_column": {
      "latitude": "29.955757926597038",
      "longitude": "-90.12712864254588"
    }
  },
  {
    "service_request": "2022-930323",
    "request_type": "Trash/Recycling",
    "request_reason": "MIssed Recycling Pick-Up",
    "date_created": "2022-10-20T17:19:38.000",
    "date_modified": "2022-10-20T17:19:39.000",
    "request_status": "Pending",
    "responsible_agency": "Department of Sanitation",
    "final_address": "609 Eleonore St",
    "address_councildis": "A",
    "status": "Assigned to Contractor",
    "contractor": "Richards Disposal",
    "rowid": "930323",
    "final_x": "3665134.981",
    "final_y": "518484.693558",
    "longitude": "-90.12018116679658",
    "latitude": "29.920139485356092",
    "geocoded_column": {
      "latitude": "29.920139485356092",
      "longitude": "-90.12018116679658"
    }
  },
  {
    "service_request": "2022-930322",
    "request_type": "Trash/Recycling",
    "request_reason": "MIssed Recycling Pick-Up",
    "date_created": "2022-10-20T17:16:26.000",
    "date_modified": "2022-10-20T17:16:26.000",
    "request_status": "Pending",
    "responsible_agency": "Department of Sanitation",
    "final_address": "337 Octavia St",
    "address_councildis": "A",
    "status": "Assigned to Contractor",
    "contractor": "Richards Disposal",
    "rowid": "930322",
    "final_x": "3666177.29178",
    "final_y": "517479.105334",
    "longitude": "-90.11692477405708",
    "latitude": "29.917344047502553",
    "geocoded_column": {
      "latitude": "29.917344047502553",
      "longitude": "-90.11692477405708"
    }
  },
  {
    "service_request": "2022-930321",
    "request_type": "Trash/Recycling",
    "request_reason": "Missed Trash Pick-Up",
    "date_created": "2022-10-20T17:13:46.000",
    "date_modified": "2022-10-20T17:13:47.000",
    "request_status": "Pending",
    "responsible_agency": "Department of Sanitation",
    "final_address": "1008 Eighth St",
    "address_councildis": "B",
    "status": "Assigned to Contractor",
    "contractor": "Richards Disposal",
    "rowid": "930321",
    "final_x": "3676217.23144",
    "final_y": "519946.330936",
    "longitude": "-90.0851495143978",
    "latitude": "29.92383123843278",
    "geocoded_column": {
      "latitude": "29.92383123843278",
      "longitude": "-90.0851495143978"
    }
  },
  {
    "service_request": "2022-930318",
    "request_type": "Parks & Parkways",
    "request_reason": "Request Tree Service (Right of Way/Public Property)",
    "date_created": "2022-10-20T17:10:14.000",
    "date_modified": "2022-10-20T17:10:14.000",
    "request_status": "Pending",
    "responsible_agency": "Department of Parks & Parkway",
    "final_address": "4774 Franklin Ave",
    "address_councildis": "D",
    "status": "Pending",
    "rowid": "930318",
    "final_x": "3686725.10422",
    "final_y": "550873.150933",
    "longitude": "-90.05088740582217",
    "latitude": "30.008550315582188",
    "geocoded_column": {
      "latitude": "30.008550315582188",
      "longitude": "-90.05088740582217"
    }
  },
  {
    "service_request": "2022-930317",
    "request_type": "Trash/Recycling",
    "request_reason": "Missed Trash Pick-Up",
    "date_created": "2022-10-20T17:00:42.000",
    "date_modified": "2022-10-20T17:00:42.000",
    "request_status": "Pending",
    "responsible_agency": "Department of Sanitation",
    "final_address": "2300 Calhoun St",
    "address_councildis": "A",
    "status": "Assigned to Contractor",
    "contractor": "Richards Disposal",
    "rowid": "930317",
    "final_x": "3665879.57888",
    "final_y": "525454.319805",
    "longitude": "-90.1175974004856",
    "latitude": "29.939282052613454",
    "geocoded_column": {
      "latitude": "29.939282052613454",
      "longitude": "-90.1175974004856"
    }
  },
  {
    "service_request": "2022-930316",
    "request_type": "Trash/Recycling",
    "request_reason": "Missed Trash Pick-Up",
    "date_created": "2022-10-20T16:53:24.000",
    "date_modified": "2022-10-20T16:53:25.000",
    "request_status": "Pending",
    "responsible_agency": "Department of Sanitation",
    "final_address": "600 BLK Eighth St",
    "address_councildis": "B",
    "status": "Assigned to Contractor",
    "contractor": "Richards Disposal",
    "rowid": "930316",
    "final_x": "3677034.3224",
    "final_y": "518818.88341",
    "longitude": "-90.0826090991664",
    "latitude": "29.92070662265186",
    "geocoded_column": {
      "latitude": "29.92070662265186",
      "longitude": "-90.0826090991664"
    }
  },
  {
    "service_request": "2022-930315",
    "request_type": "Trash/Recycling",
    "request_reason": "Missed Trash Pick-Up",
    "date_created": "2022-10-20T16:52:55.000",
    "date_modified": "2022-10-20T16:52:56.000",
    "request_status": "Pending",
    "responsible_agency": "Department of Sanitation",
    "final_address": "1022 N Rocheblave St",
    "address_councildis": "D",
    "status": "Assigned to Contractor",
    "contractor": "Richards Disposal",
    "rowid": "930315",
    "final_x": "3678352.94158",
    "final_y": "537351.244872",
    "longitude": "-90.07780584538284",
    "latitude": "29.97162480289503",
    "geocoded_column": {
      "latitude": "29.97162480289503",
      "longitude": "-90.07780584538284"
    }
  },
  {
    "service_request": "2022-930314",
    "request_type": "Trash/Recycling",
    "request_reason": "Illegal Dumping",
    "date_created": "2022-10-20T16:51:09.000",
    "date_modified": "2022-10-20T16:51:10.000",
    "request_status": "Pending",
    "responsible_agency": "Department of Sanitation",
    "final_address": "N JOHNSON ST & BAYOU RD",
    "address_councildis": "D",
    "status": "Pending",
    "rowid": "930314",
    "final_x": "3680047.6",
    "final_y": "537328.18",
    "longitude": "-90.07245466225598",
    "latitude": "29.97151021574034",
    "geocoded_column": {
      "latitude": "29.97151021574034",
      "longitude": "-90.07245466225598"
    }
  },
  {
    "service_request": "2022-930313",
    "request_type": "Roads/Drainage",
    "request_reason": "Man hole cover issue",
    "date_created": "2022-10-20T16:50:46.000",
    "date_modified": "2022-10-20T16:50:46.000",
    "request_status": "Pending",
    "responsible_agency": "Department of Public Works",
    "final_address": "4518 Constance St",
    "address_councildis": "B",
    "status": "Pending",
    "rowid": "930313",
    "final_x": "3670533.29799",
    "final_y": "518315.96223",
    "longitude": "-90.10314693649488",
    "latitude": "29.91951726777341",
    "geocoded_column": {
      "latitude": "29.91951726777341",
      "longitude": "-90.10314693649488"
    }
  },
  {
    "service_request": "2022-930312",
    "request_type": "Trash/Recycling",
    "request_reason": "Request a Large Item Pick Up",
    "date_created": "2022-10-20T16:46:04.000",
    "date_modified": "2022-10-20T16:46:05.000",
    "request_status": "Pending",
    "responsible_agency": "Department of Sanitation",
    "final_address": "1228 Decatur St",
    "address_councildis": "C",
    "status": "Assigned to Contractor",
    "contractor": "Empire Services",
    "rowid": "930312",
    "final_x": "3684456.02645",
    "final_y": "533603.125765",
    "longitude": "-90.05866309634294",
    "latitude": "29.961133481826195",
    "geocoded_column": {
      "latitude": "29.961133481826195",
      "longitude": "-90.05866309634294"
    }
  },
  {
    "service_request": "2022-930311",
    "request_type": "Traffic Signals/Signs/Striping/Streetlights",
    "request_reason": "Traffic Signal Malfunctioning/Damaged",
    "date_created": "2022-10-20T16:38:56.000",
    "date_modified": "2022-10-20T16:38:56.000",
    "request_status": "Pending",
    "responsible_agency": "Department of Public Works",
    "final_address": "ST PHILIP ST & BURGUNDY ST",
    "address_councildis": "C",
    "status": "Pending",
    "rowid": "930311",
    "final_x": "3682368.1",
    "final_y": "534004.68",
    "longitude": "-90.0652423491252",
    "latitude": "29.962301319095797",
    "geocoded_column": {
      "latitude": "29.962301319095797",
      "longitude": "-90.0652423491252"
    }
  },
  {
    "service_request": "2022-930310",
    "request_type": "Trash/Recycling",
    "request_reason": "Return Trash Cart",
    "date_created": "2022-10-20T16:27:37.000",
    "date_modified": "2022-10-20T16:27:38.000",
    "request_status": "Pending",
    "responsible_agency": "Department of Sanitation",
    "final_address": "7744 St Charles Ave",
    "address_councildis": "A",
    "status": "Assigned to Contractor",
    "contractor": "Richards Disposal",
    "rowid": "930310",
    "final_x": "3661392.67366",
    "final_y": "525997.454014",
    "longitude": "-90.13174522285735",
    "latitude": "29.940905637962846",
    "geocoded_column": {
      "latitude": "29.940905637962846",
      "longitude": "-90.13174522285735"
    }
  },
  {
    "service_request": "2022-930309",
    "request_type": "Trash/Recycling",
    "request_reason": "Repair Trash Cart",
    "date_created": "2022-10-20T16:26:34.000",
    "date_modified": "2022-10-20T16:26:35.000",
    "request_status": "Pending",
    "responsible_agency": "Department of Sanitation",
    "final_address": "419 Harmony St",
    "address_councildis": "B",
    "status": "Assigned to Contractor",
    "contractor": "Richards Disposal",
    "rowid": "930309",
    "final_x": "3676683.02299",
    "final_y": "518320.439222",
    "longitude": "-90.08373514877675",
    "latitude": "29.919346600748874",
    "geocoded_column": {
      "latitude": "29.919346600748874",
      "longitude": "-90.08373514877675"
    }
  },
  {
    "service_request": "2022-930308",
    "request_type": "Trash/Recycling",
    "request_reason": "Replace Trash Cart",
    "date_created": "2022-10-20T16:22:57.000",
    "date_modified": "2022-10-20T16:22:59.000",
    "request_status": "Pending",
    "responsible_agency": "Department of Sanitation",
    "final_address": "5219 Timber Haven Ln",
    "address_councildis": "C",
    "status": "Assigned to Contractor",
    "contractor": "Richards Disposal",
    "rowid": "930308",
    "final_x": "3703478.32644",
    "final_y": "511374.274224",
    "longitude": "-89.99941174036233",
    "latitude": "29.899416323434234",
    "geocoded_column": {
      "latitude": "29.899416323434234",
      "longitude": "-89.99941174036233"
    }
  },
  {
    "service_request": "2022-930307",
    "request_type": "Traffic Signals/Signs/Striping/Streetlights",
    "request_reason": "Street Light Outage/Malfunction",
    "date_created": "2022-10-20T16:20:25.000",
    "date_modified": "2022-10-20T16:20:25.000",
    "request_status": "Pending",
    "responsible_agency": "Department of Public Works",
    "final_address": "7827 Bass St",
    "address_councildis": "E",
    "status": "Pending",
    "contractor": "Legacy Professional Services",
    "rowid": "930307",
    "final_x": "3719937.91788",
    "final_y": "573896.336682",
    "longitude": "-89.9450776144253",
    "latitude": "30.07079076414743",
    "geocoded_column": {
      "latitude": "30.07079076414743",
      "longitude": "-89.9450776144253"
    }
  },
  {
    "service_request": "2022-930306",
    "request_type": "Trash/Recycling",
    "request_reason": "Illegal Dumping",
    "date_created": "2022-10-20T16:16:25.000",
    "date_modified": "2022-10-20T16:16:25.000",
    "request_status": "Pending",
    "responsible_agency": "Department of Sanitation",
    "final_address": "4224 Clara St",
    "address_councildis": "B",
    "status": "Pending",
    "rowid": "930306",
    "final_x": "3670985.47764",
    "final_y": "525097.569405",
    "longitude": "-90.10148949852051",
    "latitude": "29.938151157574094",
    "geocoded_column": {
      "latitude": "29.938151157574094",
      "longitude": "-90.10148949852051"
    }
  },
  {
    "service_request": "2022-930305",
    "request_type": "Abandoned Vehicles",
    "request_reason": "Abandoned/Junk Vehicles",
    "date_created": "2022-10-20T16:15:48.000",
    "date_modified": "2022-10-20T16:15:48.000",
    "request_status": "Pending",
    "responsible_agency": "Department of Public Works",
    "final_address": "6603 Bellaire Dr",
    "address_councildis": "A",
    "status": "Pending",
    "rowid": "930305",
    "final_x": "3664593.10272",
    "final_y": "552008.28815",
    "longitude": "-90.12077182684548",
    "latitude": "30.012334081983514",
    "geocoded_column": {
      "latitude": "30.012334081983514",
      "longitude": "-90.12077182684548"
    }
  },
  {
    "service_request": "2022-930304",
    "request_type": "Trash/Recycling",
    "request_reason": "Missed Trash Pick-Up",
    "date_created": "2022-10-20T16:15:38.000",
    "date_modified": "2022-10-20T16:15:39.000",
    "request_status": "Pending",
    "responsible_agency": "Department of Sanitation",
    "final_address": "1124 N Tonti St",
    "address_councildis": "D",
    "status": "Assigned to Contractor",
    "contractor": "Richards Disposal",
    "rowid": "930304",
    "final_x": "3678886.08667",
    "final_y": "537415.687368",
    "longitude": "-90.07611985987305",
    "latitude": "29.971785923896",
    "geocoded_column": {
      "latitude": "29.971785923896",
      "longitude": "-90.07611985987305"
    }
  },
  {
    "service_request": "2022-930303",
    "request_type": "Trash/Recycling",
    "request_reason": "Replace Trash Cart",
    "date_created": "2022-10-20T16:13:36.000",
    "date_modified": "2022-10-20T16:13:37.000",
    "request_status": "Pending",
    "responsible_agency": "Department of Sanitation",
    "final_address": "5304 Magazine St",
    "address_councildis": "B",
    "status": "Assigned to Contractor",
    "contractor": "Richards Disposal",
    "rowid": "930303",
    "final_x": "3667434.54324",
    "final_y": "518580.291831",
    "longitude": "-90.11291930950829",
    "latitude": "29.920335205233712",
    "geocoded_column": {
      "latitude": "29.920335205233712",
      "longitude": "-90.11291930950829"
    }
  },
  {
    "service_request": "2022-930302",
    "request_type": "Trash/Recycling",
    "request_reason": "MIssed Recycling Pick-Up",
    "date_created": "2022-10-20T16:11:55.000",
    "date_modified": "2022-10-20T16:11:55.000",
    "request_status": "Pending",
    "responsible_agency": "Department of Sanitation",
    "final_address": "2832 Conti St",
    "address_councildis": "B",
    "status": "Assigned to Contractor",
    "contractor": "Richards Disposal",
    "rowid": "930302",
    "final_x": "3675354.41992",
    "final_y": "536523.729095",
    "longitude": "-90.08730405786339",
    "latitude": "29.969439416649116",
    "geocoded_column": {
      "latitude": "29.969439416649116",
      "longitude": "-90.08730405786339"
    }
  },
  {
    "service_request": "2022-930301",
    "request_type": "Roads/Drainage",
    "request_reason": "Street Subsidence (Sinking)",
    "date_created": "2022-10-20T16:11:23.000",
    "date_modified": "2022-10-20T16:11:23.000",
    "request_status": "Pending",
    "responsible_agency": "Department of Public Works",
    "final_address": "2021 Chestnut St",
    "address_councildis": "B",
    "status": "Pending",
    "rowid": "930301",
    "final_x": "3678874.11592",
    "final_y": "523055.073083",
    "longitude": "-90.07665506618164",
    "latitude": "29.93229941557592",
    "geocoded_column": {
      "latitude": "29.93229941557592",
      "longitude": "-90.07665506618164"
    }
  },
  {
    "service_request": "2022-930300",
    "request_type": "Property Maintenance",
    "request_reason": "Property Maintenance",
    "date_created": "2022-10-20T16:05:21.000",
    "date_modified": "2022-10-20T16:39:04.000",
    "case_close_date": "2022-10-20T11:39:04.000",
    "request_status": "Closed",
    "responsible_agency": "Department of Code Enforcement",
    "final_address": "3528 Robert St",
    "address_councildis": "B",
    "status": "Referred to Code Enforcement",
    "rowid": "930300",
    "final_x": "3668896.44762",
    "final_y": "527866.643199",
    "longitude": "-90.10799128917965",
    "latitude": "29.94582680193014",
    "geocoded_column": {
      "latitude": "29.94582680193014",
      "longitude": "-90.10799128917965"
    }
  },
  {
    "service_request": "2022-930299",
    "request_type": "Trash/Recycling",
    "request_reason": "Missed Trash Pick-Up",
    "date_created": "2022-10-20T16:04:38.000",
    "date_modified": "2022-10-20T16:04:39.000",
    "request_status": "Pending",
    "responsible_agency": "Department of Sanitation",
    "final_address": "7744 St Charles Ave",
    "address_councildis": "A",
    "status": "Assigned to Contractor",
    "contractor": "Richards Disposal",
    "rowid": "930299",
    "final_x": "3661392.67366",
    "final_y": "525997.454014",
    "longitude": "-90.13174522285735",
    "latitude": "29.940905637962846",
    "geocoded_column": {
      "latitude": "29.940905637962846",
      "longitude": "-90.13174522285735"
    }
  },
  {
    "service_request": "2022-930298",
    "request_type": "Property Maintenance",
    "request_reason": "Property Maintenance",
    "date_created": "2022-10-20T16:00:17.000",
    "date_modified": "2022-10-20T16:41:39.000",
    "case_close_date": "2022-10-20T11:41:39.000",
    "request_status": "Closed",
    "responsible_agency": "Department of Code Enforcement",
    "final_address": "1421 Reynes St",
    "address_councildis": "E",
    "status": "Referred to Code Enforcement",
    "rowid": "930298",
    "final_x": "3696406.79287",
    "final_y": "535528.317894",
    "longitude": "-90.02085531259299",
    "latitude": "29.966056114661907",
    "geocoded_column": {
      "latitude": "29.966056114661907",
      "longitude": "-90.02085531259299"
    }
  },
  {
    "service_request": "2022-930297",
    "request_type": "Trash/Recycling",
    "request_reason": "Request a Large Item Pick Up",
    "date_created": "2022-10-20T15:57:56.000",
    "date_modified": "2022-10-20T15:57:56.000",
    "request_status": "Pending",
    "responsible_agency": "Department of Sanitation",
    "final_address": "1527 Sixth St",
    "address_councildis": "B",
    "status": "Assigned to Contractor",
    "contractor": "Richards Disposal",
    "rowid": "930297",
    "final_x": "3675679.72923",
    "final_y": "522028.389626",
    "longitude": "-90.08677471618937",
    "latitude": "29.929572314838726",
    "geocoded_column": {
      "latitude": "29.929572314838726",
      "longitude": "-90.08677471618937"
    }
  },
  {
    "service_request": "2022-930296",
    "request_type": "Traffic Signals/Signs/Striping/Streetlights",
    "request_reason": "Street Light Outage/Malfunction",
    "date_created": "2022-10-20T15:56:51.000",
    "date_modified": "2022-10-20T15:56:52.000",
    "request_status": "Pending",
    "responsible_agency": "Department of Public Works",
    "final_address": "3730 Kent Dr",
    "address_councildis": "C",
    "status": "Pending",
    "contractor": "Legacy Professional Services",
    "rowid": "930296",
    "final_x": "3708688.64574",
    "final_y": "517238.712117",
    "longitude": "-89.9827506778403",
    "latitude": "29.91537369282999",
    "geocoded_column": {
      "latitude": "29.91537369282999",
      "longitude": "-89.9827506778403"
    }
  },
  {
    "service_request": "2022-930295",
    "request_type": "Parks & Parkways",
    "request_reason": "Request Tree Service (Right of Way/Public Property)",
    "date_created": "2022-10-20T15:55:37.000",
    "date_modified": "2022-10-20T16:48:02.000",
    "request_status": "Pending",
    "responsible_agency": "Department of Parks & Parkway",
    "final_address": "1213 Nashville Ave",
    "address_councildis": "A",
    "status": "Pending",
    "rowid": "930295",
    "final_x": "3665924.93204",
    "final_y": "520443.088056",
    "longitude": "-90.11762207275181",
    "latitude": "29.925501434082044",
    "geocoded_column": {
      "latitude": "29.925501434082044",
      "longitude": "-90.11762207275181"
    }
  },
  {
    "service_request": "2022-930294",
    "request_type": "Trash/Recycling",
    "request_reason": "Missed Trash Pick-Up",
    "date_created": "2022-10-20T15:53:14.000",
    "date_modified": "2022-10-20T15:53:14.000",
    "request_status": "Pending",
    "responsible_agency": "Department of Sanitation",
    "final_address": "735 Eighth St",
    "address_councildis": "B",
    "status": "Assigned to Contractor",
    "contractor": "Richards Disposal",
    "rowid": "930294",
    "final_x": "3676818.18619",
    "final_y": "519204.028471",
    "longitude": "-90.08327807917804",
    "latitude": "29.921772132608375",
    "geocoded_column": {
      "latitude": "29.921772132608375",
      "longitude": "-90.08327807917804"
    }
  },
  {
    "service_request": "2022-930292",
    "request_type": "Tax and Revenue",
    "request_reason": "Sales Tax Question",
    "date_created": "2022-10-20T15:51:24.000",
    "date_modified": "2022-10-20T15:51:24.000",
    "request_status": "Pending",
    "responsible_agency": "Bureau of Revenue",
    "status": "Pending",
    "rowid": "930292",
    "longitude": "0.0",
    "latitude": "0.0",
    "geocoded_column": {
      "latitude": "0.0",
      "longitude": "0.0"
    }
  },
  {
    "service_request": "2022-930291",
    "request_type": "Trash/Recycling",
    "request_reason": "Change Size of Trash Cart",
    "date_created": "2022-10-20T15:48:59.000",
    "date_modified": "2022-10-20T15:48:59.000",
    "request_status": "Pending",
    "responsible_agency": "Department of Sanitation",
    "final_address": "1419 Piety St",
    "address_councildis": "C",
    "status": "Assigned to Contractor",
    "contractor": "Metro Disposal",
    "rowid": "930291",
    "final_x": "3690184.83081",
    "final_y": "537056.251656",
    "longitude": "-90.04044959756892",
    "latitude": "29.97045189139824",
    "geocoded_column": {
      "latitude": "29.97045189139824",
      "longitude": "-90.04044959756892"
    }
  },
  {
    "service_request": "2022-930290",
    "request_type": "Trash/Recycling",
    "request_reason": "MIssed Recycling Pick-Up",
    "date_created": "2022-10-20T15:38:47.000",
    "date_modified": "2022-10-20T15:38:47.000",
    "request_status": "Pending",
    "responsible_agency": "Department of Sanitation",
    "final_address": "1359 Magazine St",
    "address_councildis": "B",
    "status": "Assigned to Contractor",
    "contractor": "Richards Disposal",
    "rowid": "930290",
    "final_x": "3680379.00667",
    "final_y": "524761.252028",
    "longitude": "-90.07184497036754",
    "latitude": "29.93694537608828",
    "geocoded_column": {
      "latitude": "29.93694537608828",
      "longitude": "-90.07184497036754"
    }
  },
  {
    "service_request": "2022-930289",
    "request_type": "Trash/Recycling",
    "request_reason": "Repair Trash Cart",
    "date_created": "2022-10-20T15:32:35.000",
    "date_modified": "2022-10-20T15:32:36.000",
    "request_status": "Pending",
    "responsible_agency": "Department of Sanitation",
    "final_address": "2935 Oliver White Ave",
    "address_councildis": "D",
    "status": "Assigned to Contractor",
    "contractor": "Metro Disposal",
    "rowid": "930289",
    "final_x": "3692050.44246",
    "final_y": "543036.956109",
    "longitude": "-90.03434368632574",
    "latitude": "29.98683868009472",
    "geocoded_column": {
      "latitude": "29.98683868009472",
      "longitude": "-90.03434368632574"
    }
  },
  {
    "service_request": "2022-930288",
    "request_type": "Property Maintenance",
    "request_reason": "Property Maintenance",
    "date_created": "2022-10-20T15:30:30.000",
    "date_modified": "2022-10-20T16:35:01.000",
    "case_close_date": "2022-10-20T11:35:01.000",
    "request_status": "Closed",
    "responsible_agency": "Department of Code Enforcement",
    "final_address": "2817 Marigny St",
    "address_councildis": "D",
    "status": "Referred to Code Enforcement",
    "rowid": "930288",
    "final_x": "3684911.22223",
    "final_y": "543132.825037",
    "longitude": "-90.0568904429925",
    "latitude": "29.987322894702665",
    "geocoded_column": {
      "latitude": "29.987322894702665",
      "longitude": "-90.0568904429925"
    }
  },
  {
    "service_request": "2022-930287",
    "request_type": "Traffic Signals/Signs/Striping/Streetlights",
    "request_reason": "Street Light Outage/Malfunction",
    "date_created": "2022-10-20T15:23:13.000",
    "date_modified": "2022-10-20T15:23:19.000",
    "request_status": "Pending",
    "responsible_agency": "Department of Public Works",
    "final_address": "3931 Louisiana Avenue Prkwy",
    "address_councildis": "B",
    "status": "Pending",
    "contractor": "Legacy Professional Services",
    "rowid": "930287",
    "final_x": "3671165.69748",
    "final_y": "529259.999553",
    "longitude": "-90.1007791700258",
    "latitude": "29.949591154267402",
    "geocoded_column": {
      "latitude": "29.949591154267402",
      "longitude": "-90.1007791700258"
    }
  },
  {
    "service_request": "2022-930286",
    "request_type": "Traffic Signals/Signs/Striping/Streetlights",
    "request_reason": "Street Light Outage/Malfunction",
    "date_created": "2022-10-20T15:22:48.000",
    "date_modified": "2022-10-20T15:23:13.000",
    "request_status": "Pending",
    "responsible_agency": "Department of Public Works",
    "final_address": "3419 S Robertson St",
    "address_councildis": "B",
    "status": "Pending",
    "contractor": "Legacy Professional Services",
    "rowid": "930286",
    "final_x": "3672533.86977",
    "final_y": "524815.58918",
    "longitude": "-90.09661068203891",
    "latitude": "29.93732994147611",
    "geocoded_column": {
      "latitude": "29.93732994147611",
      "longitude": "-90.09661068203891"
    }
  },
  {
    "service_request": "2022-930285",
    "request_type": "Safety & Permits",
    "request_reason": "Licenses & Permits",
    "date_created": "2022-10-20T15:16:55.000",
    "date_modified": "2022-10-20T15:16:56.000",
    "request_status": "Pending",
    "responsible_agency": "Safety and Permits",
    "final_address": "709 State St",
    "address_councildis": "A",
    "status": "Pending",
    "rowid": "930285",
    "final_x": "3664677.34272",
    "final_y": "518966.425079",
    "longitude": "-90.12160963784541",
    "latitude": "29.9214774113557",
    "geocoded_column": {
      "latitude": "29.9214774113557",
      "longitude": "-90.12160963784541"
    }
  },
  {
    "service_request": "2022-930284",
    "request_type": "Trash/Recycling",
    "request_reason": "Missed Trash Pick-Up",
    "date_created": "2022-10-20T15:16:18.000",
    "date_modified": "2022-10-20T15:16:19.000",
    "request_status": "Pending",
    "responsible_agency": "Department of Sanitation",
    "final_address": "2423 Freret St",
    "address_councildis": "B",
    "status": "Assigned to Contractor",
    "contractor": "Richards Disposal",
    "rowid": "930284",
    "final_x": "3674948.70792",
    "final_y": "525879.414973",
    "longitude": "-90.08895039669277",
    "latitude": "29.940183226660125",
    "geocoded_column": {
      "latitude": "29.940183226660125",
      "longitude": "-90.08895039669277"
    }
  },
  {
    "service_request": "2022-930283",
    "request_type": "Traffic Signals/Signs/Striping/Streetlights",
    "request_reason": "Street Light Outage/Malfunction",
    "date_created": "2022-10-20T15:16:04.000",
    "date_modified": "2022-10-20T15:16:05.000",
    "request_status": "Pending",
    "responsible_agency": "Department of Public Works",
    "final_address": "3931 Louisiana Avenue Prkwy",
    "address_councildis": "B",
    "status": "Pending",
    "contractor": "Legacy Professional Services",
    "rowid": "930283",
    "final_x": "3671165.69748",
    "final_y": "529259.999553",
    "longitude": "-90.1007791700258",
    "latitude": "29.949591154267402",
    "geocoded_column": {
      "latitude": "29.949591154267402",
      "longitude": "-90.1007791700258"
    }
  },
  {
    "service_request": "2022-930282",
    "request_type": "Trash/Recycling",
    "request_reason": "Repair Trash Cart",
    "date_created": "2022-10-20T15:13:15.000",
    "date_modified": "2022-10-20T15:13:16.000",
    "request_status": "Pending",
    "responsible_agency": "Department of Sanitation",
    "final_address": "2042 Brutus St",
    "address_councildis": "D",
    "status": "Assigned to Contractor",
    "contractor": "Metro Disposal",
    "rowid": "930282",
    "final_x": "3682834.50728",
    "final_y": "550176.593172",
    "longitude": "-90.06320342463421",
    "latitude": "30.006754190761825",
    "geocoded_column": {
      "latitude": "30.006754190761825",
      "longitude": "-90.06320342463421"
    }
  },
  {
    "service_request": "2022-930281",
    "request_type": "Property Maintenance",
    "request_reason": "Property Maintenance",
    "date_created": "2022-10-20T15:08:28.000",
    "date_modified": "2022-10-20T15:17:44.000",
    "case_close_date": "2022-10-20T10:17:44.000",
    "request_status": "Closed",
    "responsible_agency": "Department of Code Enforcement",
    "final_address": "2817 Marigny St",
    "address_councildis": "D",
    "status": "Referred to Code Enforcement",
    "rowid": "930281",
    "final_x": "3684911.22223",
    "final_y": "543132.825037",
    "longitude": "-90.0568904429925",
    "latitude": "29.987322894702665",
    "geocoded_column": {
      "latitude": "29.987322894702665",
      "longitude": "-90.0568904429925"
    }
  },
  {
    "service_request": "2022-930280",
    "request_type": "Trash/Recycling",
    "request_reason": "Missed Trash Pick-Up",
    "date_created": "2022-10-20T15:02:16.000",
    "date_modified": "2022-10-20T15:02:18.000",
    "request_status": "Pending",
    "responsible_agency": "Department of Sanitation",
    "final_address": "1840 Baronne St Apt E",
    "address_councildis": "B",
    "status": "Assigned to Contractor",
    "contractor": "Richards Disposal",
    "rowid": "930280",
    "final_x": "3677645.88738",
    "final_y": "524862.983868",
    "longitude": "-90.08047006534015",
    "latitude": "29.937307558924225",
    "geocoded_column": {
      "latitude": "29.937307558924225",
      "longitude": "-90.08047006534015"
    }
  },
  {
    "service_request": "2022-930278",
    "request_type": "Roads/Drainage",
    "request_reason": "WaterMain Break",
    "date_created": "2022-10-20T14:59:38.000",
    "date_modified": "2022-10-20T14:59:38.000",
    "request_status": "Closed",
    "responsible_agency": "Department of Public Works",
    "final_address": "5201 Canal Blvd",
    "address_councildis": "A",
    "status": "Invalid Case",
    "rowid": "930278",
    "final_x": "3668099.38842",
    "final_y": "542064.352268",
    "longitude": "-90.1100293050557",
    "latitude": "29.98488920224858",
    "geocoded_column": {
      "latitude": "29.98488920224858",
      "longitude": "-90.1100293050557"
    }
  },
  {
    "service_request": "2022-930277",
    "request_type": "Trash/Recycling",
    "request_reason": "Illegal Dumping",
    "date_created": "2022-10-20T14:57:56.000",
    "date_modified": "2022-10-20T14:57:56.000",
    "request_status": "Pending",
    "responsible_agency": "Department of Sanitation",
    "final_address": "14000 BLK Michoud Blvd",
    "address_councildis": "E",
    "status": "Pending",
    "rowid": "930277",
    "final_x": "3725803.03622",
    "final_y": "571580.117782",
    "longitude": "-89.92662643066525",
    "latitude": "30.064225459965307",
    "geocoded_column": {
      "latitude": "30.064225459965307",
      "longitude": "-89.92662643066525"
    }
  },
  {
    "service_request": "2022-930276",
    "request_type": "Trash/Recycling",
    "request_reason": "Request a Large Item Pick Up",
    "date_created": "2022-10-20T14:57:45.000",
    "date_modified": "2022-10-20T14:57:45.000",
    "request_status": "Pending",
    "responsible_agency": "Department of Sanitation",
    "final_address": "2324 St Ann St",
    "address_councildis": "D",
    "status": "Assigned to Contractor",
    "contractor": "Richards Disposal",
    "rowid": "930276",
    "final_x": "3678098.00379",
    "final_y": "536285.084743",
    "longitude": "-90.07864784691483",
    "latitude": "29.96870090560809",
    "geocoded_column": {
      "latitude": "29.96870090560809",
      "longitude": "-90.07864784691483"
    }
  },
  {
    "service_request": "2022-930275",
    "request_type": "Parks & Parkways",
    "request_reason": "Request Grass Cutting Service (City Owned Property)",
    "date_created": "2022-10-20T14:57:31.000",
    "date_modified": "2022-10-20T17:38:35.000",
    "request_status": "Pending",
    "responsible_agency": "Department of Parks & Parkway",
    "final_address": "5101 Metropolitan Dr",
    "address_councildis": "D",
    "rowid": "930275",
    "final_x": "3690512.98083",
    "final_y": "552186.80495",
    "longitude": "-90.03887344946021",
    "latitude": "30.012045265675166",
    "geocoded_column": {
      "latitude": "30.012045265675166",
      "longitude": "-90.03887344946021"
    }
  },
  {
    "service_request": "2022-930274",
    "request_type": "Trash/Recycling",
    "request_reason": "Request a Large Item Pick Up",
    "date_created": "2022-10-20T14:51:43.000",
    "date_modified": "2022-10-20T14:51:44.000",
    "request_status": "Pending",
    "responsible_agency": "Department of Sanitation",
    "final_address": "4853 Magazine St",
    "address_councildis": "B",
    "status": "Assigned to Contractor",
    "contractor": "Richards Disposal",
    "rowid": "930274",
    "final_x": "3669116.97415",
    "final_y": "518684.539703",
    "longitude": "-90.10760513357297",
    "latitude": "29.92057247450814",
    "geocoded_column": {
      "latitude": "29.92057247450814",
      "longitude": "-90.10760513357297"
    }
  },
  {
    "service_request": "2022-930273",
    "request_type": "Trash/Recycling",
    "request_reason": "Request a Large Item Pick Up",
    "date_created": "2022-10-20T14:36:31.000",
    "date_modified": "2022-10-20T14:36:32.000",
    "request_status": "Pending",
    "responsible_agency": "Department of Sanitation",
    "final_address": "3400 BLK Octavia St",
    "address_councildis": "A",
    "status": "Assigned to Contractor",
    "contractor": "Richards Disposal",
    "rowid": "930273",
    "final_x": "3668500.11638",
    "final_y": "528185.547747",
    "longitude": "-90.1092318866762",
    "latitude": "29.946715333797286",
    "geocoded_column": {
      "latitude": "29.946715333797286",
      "longitude": "-90.1092318866762"
    }
  },
  {
    "service_request": "2022-930272",
    "request_type": "Abandoned Vehicles",
    "request_reason": "Abandoned/Junk Vehicles",
    "date_created": "2022-10-20T14:32:16.000",
    "date_modified": "2022-10-20T14:32:17.000",
    "request_status": "Pending",
    "responsible_agency": "Department of Public Works",
    "final_address": "AUBRY ST & ST BERNARD AVE",
    "address_councildis": "D",
    "status": "Pending",
    "rowid": "930272",
    "final_x": "3680973.8",
    "final_y": "540106.18",
    "longitude": "-90.06943281560103",
    "latitude": "29.979120696796922",
    "geocoded_column": {
      "latitude": "29.979120696796922",
      "longitude": "-90.06943281560103"
    }
  },
  {
    "service_request": "2022-930271",
    "request_type": "Abandoned Vehicles",
    "request_reason": "Abandoned/Junk Vehicles",
    "date_created": "2022-10-20T14:31:32.000",
    "date_modified": "2022-10-20T14:31:32.000",
    "request_status": "Pending",
    "responsible_agency": "Department of Public Works",
    "final_address": "3300 BLK Leonidas St",
    "address_councildis": "A",
    "status": "Pending",
    "rowid": "930271",
    "final_x": "3665814.02365",
    "final_y": "535242.204566",
    "longitude": "-90.1174764687422",
    "latitude": "29.966197465168037",
    "geocoded_column": {
      "latitude": "29.966197465168037",
      "longitude": "-90.1174764687422"
    }
  },
  {
    "service_request": "2022-930270",
    "request_type": "Trash/Recycling",
    "request_reason": "MIssed Recycling Pick-Up",
    "date_created": "2022-10-20T14:27:08.000",
    "date_modified": "2022-10-20T14:27:08.000",
    "request_status": "Pending",
    "responsible_agency": "Department of Sanitation",
    "final_address": "620 Soraparu St",
    "address_councildis": "B",
    "status": "Assigned to Contractor",
    "contractor": "Richards Disposal",
    "rowid": "930270",
    "final_x": "3679239.42933",
    "final_y": "520277.98508",
    "longitude": "-90.0755980373529",
    "latitude": "29.924652310462665",
    "geocoded_column": {
      "latitude": "29.924652310462665",
      "longitude": "-90.0755980373529"
    }
  },
  {
    "service_request": "2022-930269",
    "request_type": "Trash/Recycling",
    "request_reason": "Missed Trash Pick-Up",
    "date_created": "2022-10-20T14:25:40.000",
    "date_modified": "2022-10-20T14:25:41.000",
    "request_status": "Pending",
    "responsible_agency": "Department of Sanitation",
    "final_address": "609 Eighth St",
    "address_councildis": "B",
    "status": "Assigned to Contractor",
    "contractor": "Richards Disposal",
    "rowid": "930269",
    "final_x": "3677107.3195",
    "final_y": "518788.248055",
    "longitude": "-90.08237973651553",
    "latitude": "29.92062019419629",
    "geocoded_column": {
      "latitude": "29.92062019419629",
      "longitude": "-90.08237973651553"
    }
  },
  {
    "service_request": "2022-930268",
    "request_type": "Trash/Recycling",
    "request_reason": "MIssed Recycling Pick-Up",
    "date_created": "2022-10-20T14:24:45.000",
    "date_modified": "2022-10-20T14:24:46.000",
    "request_status": "Pending",
    "responsible_agency": "Department of Sanitation",
    "final_address": "747 S Genois St",
    "address_councildis": "B",
    "status": "Assigned to Contractor",
    "contractor": "Richards Disposal",
    "rowid": "930268",
    "final_x": "3670901.85537",
    "final_y": "535018.57031",
    "longitude": "-90.10141675811427",
    "latitude": "29.965433118263814",
    "geocoded_column": {
      "latitude": "29.965433118263814",
      "longitude": "-90.10141675811427"
    }
  },
  {
    "service_request": "2022-930267",
    "request_type": "Roads/Drainage",
    "request_reason": "Street Subsidence (Sinking)",
    "date_created": "2022-10-20T14:23:16.000",
    "date_modified": "2022-10-20T14:26:23.000",
    "case_close_date": "2022-10-20T09:26:23.000",
    "request_status": "Closed",
    "responsible_agency": "Department of Public Works",
    "final_address": "857 Bungalow Ct",
    "address_councildis": "A",
    "status": "Duplicate Request",
    "rowid": "930267",
    "final_x": "3672636.86542",
    "final_y": "540780.142667",
    "longitude": "-90.09574114765643",
    "latitude": "29.981224086015747",
    "geocoded_column": {
      "latitude": "29.981224086015747",
      "longitude": "-90.09574114765643"
    }
  },
  {
    "service_request": "2022-930266",
    "request_type": "Roads/Drainage",
    "request_reason": "Street Subsidence (Sinking)",
    "date_created": "2022-10-20T14:21:46.000",
    "date_modified": "2022-10-20T14:25:18.000",
    "request_status": "Pending",
    "responsible_agency": "Department of Public Works",
    "final_address": "857 Bungalow Ct",
    "address_councildis": "A",
    "status": "Inspected",
    "rowid": "930266",
    "final_x": "3672636.86542",
    "final_y": "540780.142667",
    "longitude": "-90.09574114765643",
    "latitude": "29.981224086015747",
    "geocoded_column": {
      "latitude": "29.981224086015747",
      "longitude": "-90.09574114765643"
    }
  },
  {
    "service_request": "2022-930265",
    "request_type": "Roads/Drainage",
    "request_reason": "Debris in Roadway",
    "date_created": "2022-10-20T14:19:23.000",
    "date_modified": "2022-10-20T15:04:47.000",
    "case_close_date": "2022-10-20T10:04:47.000",
    "request_status": "Closed",
    "responsible_agency": "Department of Public Works",
    "final_address": "3447 Constance St",
    "address_councildis": "B",
    "status": "Captured by Project",
    "rowid": "930265",
    "final_x": "3674735.0251",
    "final_y": "519150.982263",
    "longitude": "-90.08985555563908",
    "latitude": "29.921688598053645",
    "geocoded_column": {
      "latitude": "29.921688598053645",
      "longitude": "-90.08985555563908"
    }
  },
  {
    "service_request": "2022-930264",
    "request_type": "Traffic Signals/Signs/Striping/Streetlights",
    "request_reason": "Street Light Outage/Malfunction",
    "date_created": "2022-10-20T14:14:05.000",
    "date_modified": "2022-10-20T14:14:06.000",
    "request_status": "Pending",
    "responsible_agency": "Department of Public Works",
    "final_address": "7011 Morrison Rd",
    "address_councildis": "E",
    "status": "Pending",
    "contractor": "Legacy Professional Services",
    "rowid": "930264",
    "final_x": "3699396.96772",
    "final_y": "559092.940636",
    "longitude": "-90.0105534019074",
    "latitude": "30.0307555517497",
    "geocoded_column": {
      "latitude": "30.0307555517497",
      "longitude": "-90.0105534019074"
    }
  },
  {
    "service_request": "2022-930263",
    "request_type": "Property Maintenance",
    "request_reason": "Property Maintenance",
    "date_created": "2022-10-20T14:11:37.000",
    "date_modified": "2022-10-20T14:27:15.000",
    "case_close_date": "2022-10-20T09:27:15.000",
    "request_status": "Closed",
    "responsible_agency": "Department of Code Enforcement",
    "final_address": "1206 Mandolin St",
    "address_councildis": "D",
    "status": "Referred to Code Enforcement",
    "rowid": "930263",
    "final_x": "3677219.81723",
    "final_y": "547961.591122",
    "longitude": "-90.08101819612862",
    "latitude": "30.000833656478854",
    "geocoded_column": {
      "latitude": "30.000833656478854",
      "longitude": "-90.08101819612862"
    }
  },
  {
    "service_request": "2022-930262",
    "request_type": "Trash/Recycling",
    "request_reason": "Missed Trash Pick-Up",
    "date_created": "2022-10-20T14:04:53.000",
    "date_modified": "2022-10-20T14:04:54.000",
    "request_status": "Pending",
    "responsible_agency": "Department of Sanitation",
    "final_address": "2134 Second St",
    "address_councildis": "B",
    "status": "Assigned to Contractor",
    "contractor": "Richards Disposal",
    "rowid": "930262",
    "final_x": "3675529.1972",
    "final_y": "524752.10054",
    "longitude": "-90.08715640739433",
    "latitude": "29.937066134477945",
    "geocoded_column": {
      "latitude": "29.937066134477945",
      "longitude": "-90.08715640739433"
    }
  },
  {
    "service_request": "2022-930261",
    "request_type": "Trash/Recycling",
    "request_reason": "Missed Trash Pick-Up",
    "date_created": "2022-10-20T14:03:47.000",
    "date_modified": "2022-10-20T14:03:47.000",
    "request_status": "Pending",
    "responsible_agency": "Department of Sanitation",
    "final_address": "811 Bartholomew St",
    "address_councildis": "C",
    "status": "Assigned to Contractor",
    "contractor": "Metro Disposal",
    "rowid": "930261",
    "final_x": "3691580.0575",
    "final_y": "534278.933125",
    "longitude": "-90.03614262662578",
    "latitude": "29.96277188203487",
    "geocoded_column": {
      "latitude": "29.96277188203487",
      "longitude": "-90.03614262662578"
    }
  },
  {
    "service_request": "2022-930260",
    "request_type": "Trash/Recycling",
    "request_reason": "Request a Large Item Pick Up",
    "date_created": "2022-10-20T13:58:49.000",
    "date_modified": "2022-10-20T13:58:49.000",
    "request_status": "Pending",
    "responsible_agency": "Department of Sanitation",
    "final_address": "4031 St Claude Ave",
    "address_councildis": "C",
    "status": "Assigned to Contractor",
    "contractor": "Metro Disposal",
    "rowid": "930260",
    "final_x": "3692077.42038",
    "final_y": "535398.111046",
    "longitude": "-90.03453196541587",
    "latitude": "29.965833736445788",
    "geocoded_column": {
      "latitude": "29.965833736445788",
      "longitude": "-90.03453196541587"
    }
  },
  {
    "service_request": "2022-930259",
    "request_type": "Traffic Signals/Signs/Striping/Streetlights",
    "request_reason": "Traffic Sign Missing/Damaged",
    "date_created": "2022-10-20T13:58:23.000",
    "date_modified": "2022-10-20T13:58:23.000",
    "request_status": "Pending",
    "responsible_agency": "Department of Public Works",
    "final_address": "713 Ursulines Ave",
    "address_councildis": "C",
    "status": "Pending",
    "rowid": "930259",
    "final_x": "3683353.51484",
    "final_y": "533720.104837",
    "longitude": "-90.0621405251857",
    "latitude": "29.96148881185031",
    "geocoded_column": {
      "latitude": "29.96148881185031",
      "longitude": "-90.0621405251857"
    }
  },
  {
    "service_request": "2022-930258",
    "request_type": "Trash/Recycling",
    "request_reason": "Missed Trash Pick-Up",
    "date_created": "2022-10-20T13:55:53.000",
    "date_modified": "2022-10-20T13:55:54.000",
    "request_status": "Pending",
    "responsible_agency": "Department of Sanitation",
    "final_address": "909 Eighth St",
    "address_councildis": "B",
    "status": "Assigned to Contractor",
    "contractor": "Richards Disposal",
    "rowid": "930258",
    "final_x": "3676493.90702",
    "final_y": "519690.7598",
    "longitude": "-90.08428494305359",
    "latitude": "29.923120210302084",
    "geocoded_column": {
      "latitude": "29.923120210302084",
      "longitude": "-90.08428494305359"
    }
  },
  {
    "service_request": "2022-930257",
    "request_type": "Trash/Recycling",
    "request_reason": "Illegal Dumping",
    "date_created": "2022-10-20T13:54:47.000",
    "date_modified": "2022-10-20T13:54:48.000",
    "request_status": "Pending",
    "responsible_agency": "Department of Sanitation",
    "final_address": "6400 Press Dr",
    "address_councildis": "D",
    "status": "Pending",
    "rowid": "930257",
    "final_x": "3688752.4623",
    "final_y": "557179.304411",
    "longitude": "-90.04425821670468",
    "latitude": "30.025827354829133",
    "geocoded_column": {
      "latitude": "30.025827354829133",
      "longitude": "-90.04425821670468"
    }
  },
  {
    "service_request": "2022-930256",
    "request_type": "Traffic Signals/Signs/Striping/Streetlights",
    "request_reason": "Street Light Outage/Malfunction",
    "date_created": "2022-10-20T13:54:44.000",
    "date_modified": "2022-10-20T13:54:46.000",
    "request_status": "Pending",
    "responsible_agency": "Department of Public Works",
    "final_address": "1813 Marigny St",
    "address_councildis": "D",
    "status": "Pending",
    "contractor": "Legacy Professional Services",
    "rowid": "930256",
    "final_x": "3685241.46037",
    "final_y": "539048.394954",
    "longitude": "-90.05599115782458",
    "latitude": "29.976082032493714",
    "geocoded_column": {
      "latitude": "29.976082032493714",
      "longitude": "-90.05599115782458"
    }
  },
  {
    "service_request": "2022-930255",
    "request_type": "Roads/Drainage",
    "request_reason": "Debris in Roadway",
    "date_created": "2022-10-20T13:54:27.000",
    "date_modified": "2022-10-20T13:54:28.000",
    "request_status": "Pending",
    "responsible_agency": "Department of Public Works",
    "final_address": "6400 Press Dr",
    "address_councildis": "D",
    "status": "Pending",
    "rowid": "930255",
    "final_x": "3688752.4623",
    "final_y": "557179.304411",
    "longitude": "-90.04425821670468",
    "latitude": "30.025827354829133",
    "geocoded_column": {
      "latitude": "30.025827354829133",
      "longitude": "-90.04425821670468"
    }
  },
  {
    "service_request": "2022-930254",
    "request_type": "Roads/Drainage",
    "request_reason": "Street Subsidence (Sinking)",
    "date_created": "2022-10-20T13:50:30.000",
    "date_modified": "2022-10-20T13:51:10.000",
    "request_status": "Pending",
    "responsible_agency": "Department of Public Works",
    "final_address": "BANCROFT DR & MIRABEAU AVE",
    "address_councildis": "D",
    "status": "Pending",
    "rowid": "930254",
    "final_x": "3676391.2",
    "final_y": "550070.48",
    "longitude": "-90.08356319831562",
    "latitude": "30.006657228864984",
    "geocoded_column": {
      "latitude": "30.006657228864984",
      "longitude": "-90.08356319831562"
    }
  },
  {
    "service_request": "2022-930253",
    "request_type": "Abandoned Vehicles",
    "request_reason": "Abandoned/Junk Vehicles",
    "date_created": "2022-10-20T13:48:15.000",
    "date_modified": "2022-10-20T13:48:15.000",
    "request_status": "Pending",
    "responsible_agency": "Department of Public Works",
    "final_address": "300 BLK N Scott St",
    "address_councildis": "A",
    "status": "Pending",
    "rowid": "930253",
    "final_x": "3672369.0194",
    "final_y": "538605.38616",
    "longitude": "-90.09666126252392",
    "latitude": "29.975252197892505",
    "geocoded_column": {
      "latitude": "29.975252197892505",
      "longitude": "-90.09666126252392"
    }
  },
  {
    "service_request": "2022-930252",
    "request_type": "Trash/Recycling",
    "request_reason": "Illegal Dumping",
    "date_created": "2022-10-20T13:45:37.000",
    "date_modified": "2022-10-20T13:45:37.000",
    "request_status": "Pending",
    "responsible_agency": "Department of Sanitation",
    "final_address": "3056 Laussat Pl",
    "address_councildis": "D",
    "status": "Pending",
    "rowid": "930252",
    "final_x": "3690372.44758",
    "final_y": "541854.851788",
    "longitude": "-90.0396859911133",
    "latitude": "29.98364051585126",
    "geocoded_column": {
      "latitude": "29.98364051585126",
      "longitude": "-90.0396859911133"
    }
  },
  {
    "service_request": "2022-930251",
    "request_type": "Mosquito, Termite & Rodent Control",
    "request_reason": "Rodent Complaint (Rats)",
    "date_created": "2022-10-20T13:43:04.000",
    "date_modified": "2022-10-20T13:43:04.000",
    "request_status": "Pending",
    "responsible_agency": "Mosquito, Termite & Rodent Control Board",
    "final_address": "700 BLK Ursulines Ave",
    "address_councildis": "C",
    "status": "Pending",
    "rowid": "930251",
    "final_x": "3683297.61795",
    "final_y": "533734.303054",
    "longitude": "-90.06231654048104",
    "latitude": "29.961529557075522",
    "geocoded_column": {
      "latitude": "29.961529557075522",
      "longitude": "-90.06231654048104"
    }
  },
  {
    "service_request": "2022-930250",
    "request_type": "Property Maintenance",
    "request_reason": "Property Maintenance",
    "date_created": "2022-10-20T13:42:57.000",
    "date_modified": "2022-10-20T14:22:59.000",
    "case_close_date": "2022-10-20T09:22:59.000",
    "request_status": "Closed",
    "responsible_agency": "Department of Code Enforcement",
    "final_address": "2327 Louisa St",
    "address_councildis": "D",
    "status": "Referred to Code Enforcement",
    "rowid": "930250",
    "final_x": "3690792.73564",
    "final_y": "540597.650123",
    "longitude": "-90.03840337884084",
    "latitude": "29.98017060669717",
    "geocoded_column": {
      "latitude": "29.98017060669717",
      "longitude": "-90.03840337884084"
    }
  },
  {
    "service_request": "2022-930248",
    "request_type": "Mosquito, Termite & Rodent Control",
    "request_reason": "Rodent Complaint (Rats)",
    "date_created": "2022-10-20T13:41:23.000",
    "date_modified": "2022-10-20T13:41:23.000",
    "request_status": "Pending",
    "responsible_agency": "Mosquito, Termite & Rodent Control Board",
    "final_address": "6200 BLK Morrison Rd",
    "address_councildis": "D",
    "status": "Pending",
    "rowid": "930248",
    "final_x": "3696652.20246",
    "final_y": "557868.144878",
    "longitude": "-90.01927126237726",
    "latitude": "30.027474671210914",
    "geocoded_column": {
      "latitude": "30.027474671210914",
      "longitude": "-90.01927126237726"
    }
  },
  {
    "service_request": "2022-930247",
    "request_type": "Property Maintenance",
    "request_reason": "Property Maintenance",
    "date_created": "2022-10-20T13:39:48.000",
    "date_modified": "2022-10-20T15:11:41.000",
    "case_close_date": "2022-10-20T10:11:41.000",
    "request_status": "Closed",
    "responsible_agency": "Department of Code Enforcement",
    "final_address": "2527 Almonaster Ave",
    "address_councildis": "D",
    "status": "Referred to Code Enforcement",
    "rowid": "930247",
    "final_x": "3688574.49724",
    "final_y": "541958.658956",
    "longitude": "-90.04536117065767",
    "latitude": "29.98398164052712",
    "geocoded_column": {
      "latitude": "29.98398164052712",
      "longitude": "-90.04536117065767"
    }
  },
  {
    "service_request": "2022-930246",
    "request_type": "Property Maintenance",
    "request_reason": "Property Maintenance",
    "date_created": "2022-10-20T13:37:21.000",
    "date_modified": "2022-10-20T15:40:22.000",
    "case_close_date": "2022-10-20T10:40:22.000",
    "request_status": "Closed",
    "responsible_agency": "Department of Code Enforcement",
    "final_address": "2423 Clouet St",
    "address_councildis": "D",
    "status": "Referred to Code Enforcement",
    "rowid": "930246",
    "final_x": "3690312.44432",
    "final_y": "541066.357644",
    "longitude": "-90.03990362525435",
    "latitude": "29.981474301188726",
    "geocoded_column": {
      "latitude": "29.981474301188726",
      "longitude": "-90.03990362525435"
    }
  },
  {
    "service_request": "2022-930245",
    "request_type": "Property Maintenance",
    "request_reason": "Property Maintenance",
    "date_created": "2022-10-20T13:37:16.000",
    "date_modified": "2022-10-20T16:44:01.000",
    "case_close_date": "2022-10-20T11:44:01.000",
    "request_status": "Closed",
    "responsible_agency": "Department of Code Enforcement",
    "final_address": "233 Lowerline St",
    "address_councildis": "A",
    "status": "Referred to Code Enforcement",
    "rowid": "930245",
    "final_x": "3661172.1241",
    "final_y": "523010.612795",
    "longitude": "-90.13254036340236",
    "latitude": "29.93269912454133",
    "geocoded_column": {
      "latitude": "29.93269912454133",
      "longitude": "-90.13254036340236"
    }
  },
  {
    "service_request": "2022-930244",
    "request_type": "Roads/Drainage",
    "request_reason": "Damaged Sidewalk",
    "date_created": "2022-10-20T13:33:35.000",
    "date_modified": "2022-10-20T13:33:35.000",
    "request_status": "Pending",
    "responsible_agency": "Department of Public Works",
    "final_address": "3215-17 General Taylor St. 70125",
    "status": "Pending",
    "rowid": "930244",
    "longitude": "0.0",
    "latitude": "0.0",
    "geocoded_column": {
      "latitude": "0.0",
      "longitude": "0.0"
    }
  },
  {
    "service_request": "2022-930243",
    "request_type": "Trash/Recycling",
    "request_reason": "Repair Trash Cart",
    "date_created": "2022-10-20T13:32:42.000",
    "date_modified": "2022-10-20T13:32:44.000",
    "request_status": "Pending",
    "responsible_agency": "Department of Sanitation",
    "final_address": "2504 St Anthony St",
    "address_councildis": "D",
    "status": "Assigned to Contractor",
    "contractor": "Metro Disposal",
    "rowid": "930243",
    "final_x": "3683055.02696",
    "final_y": "541402.155404",
    "longitude": "-90.06281411619037",
    "latitude": "29.98262088817442",
    "geocoded_column": {
      "latitude": "29.98262088817442",
      "longitude": "-90.06281411619037"
    }
  },
  {
    "service_request": "2022-930242",
    "request_type": "Property Maintenance",
    "request_reason": "Property Maintenance",
    "date_created": "2022-10-20T13:31:36.000",
    "date_modified": "2022-10-20T13:55:20.000",
    "case_close_date": "2022-10-20T08:55:20.000",
    "request_status": "Closed",
    "responsible_agency": "Department of Code Enforcement",
    "final_address": "3122 N Rocheblave St",
    "address_councildis": "D",
    "status": "Referred to Code Enforcement",
    "rowid": "930242",
    "final_x": "3690421.49136",
    "final_y": "540797.810571",
    "longitude": "-90.03956878243443",
    "latitude": "29.980732507464367",
    "geocoded_column": {
      "latitude": "29.980732507464367",
      "longitude": "-90.03956878243443"
    }
  },
  {
    "service_request": "2022-930241",
    "request_type": "Roads/Drainage",
    "request_reason": "Accessibility Ramps, Curbs and Sidewalk Repair",
    "date_created": "2022-10-20T13:30:47.000",
    "date_modified": "2022-10-20T13:30:47.000",
    "request_status": "Pending",
    "responsible_agency": "Department of Public Works",
    "final_address": "3215 General Taylor St",
    "address_councildis": "B",
    "status": "Pending",
    "rowid": "930241",
    "final_x": "3671324.64199",
    "final_y": "526817.658238",
    "longitude": "-90.10036028892662",
    "latitude": "29.942870812549987",
    "geocoded_column": {
      "latitude": "29.942870812549987",
      "longitude": "-90.10036028892662"
    }
  },
  {
    "service_request": "2022-930240",
    "request_type": "Trash/Recycling",
    "request_reason": "Repair Trash Cart",
    "date_created": "2022-10-20T13:30:22.000",
    "date_modified": "2022-10-20T13:30:23.000",
    "request_status": "Pending",
    "responsible_agency": "Department of Sanitation",
    "final_address": "2341 Camp St",
    "address_councildis": "B",
    "status": "Assigned to Contractor",
    "contractor": "Richards Disposal",
    "rowid": "930240",
    "final_x": "3678030.09038",
    "final_y": "521955.913978",
    "longitude": "-90.07935755060764",
    "latitude": "29.929302513314042",
    "geocoded_column": {
      "latitude": "29.929302513314042",
      "longitude": "-90.07935755060764"
    }
  },
  {
    "service_request": "2022-930238",
    "request_type": "Abandoned Vehicles",
    "request_reason": "Abandoned/Junk Vehicles",
    "date_created": "2022-10-20T13:26:31.000",
    "date_modified": "2022-10-20T13:26:31.000",
    "request_status": "Pending",
    "responsible_agency": "Department of Public Works",
    "final_address": "3343 Montegut St",
    "address_councildis": "D",
    "status": "Pending",
    "rowid": "930238",
    "final_x": "3690776.62",
    "final_y": "545144.332559",
    "longitude": "-90.03829197673744",
    "latitude": "29.992672851004194",
    "geocoded_column": {
      "latitude": "29.992672851004194",
      "longitude": "-90.03829197673744"
    }
  },
  {
    "service_request": "2022-930237",
    "request_type": "Property Maintenance",
    "request_reason": "Property Maintenance",
    "date_created": "2022-10-20T13:23:05.000",
    "date_modified": "2022-10-20T16:46:20.000",
    "case_close_date": "2022-10-20T11:46:20.000",
    "request_status": "Closed",
    "responsible_agency": "Department of Code Enforcement",
    "final_address": "3201 Feliciana St",
    "address_councildis": "D",
    "status": "Referred to Code Enforcement",
    "rowid": "930237",
    "final_x": "3690880.44073",
    "final_y": "544401.680271",
    "longitude": "-90.03799054704496",
    "latitude": "29.990627598808782",
    "geocoded_column": {
      "latitude": "29.990627598808782",
      "longitude": "-90.03799054704496"
    }
  },
  {
    "service_request": "2022-930236",
    "request_type": "Roads/Drainage",
    "request_reason": "WaterMain Break",
    "date_created": "2022-10-20T13:20:44.000",
    "date_modified": "2022-10-20T13:20:44.000",
    "request_status": "Closed",
    "responsible_agency": "Department of Public Works",
    "final_address": "3020 Constance St",
    "address_councildis": "B",
    "status": "Invalid Case",
    "rowid": "930236",
    "final_x": "3676446.41896",
    "final_y": "519927.483",
    "longitude": "-90.08442670016451",
    "latitude": "29.92377254592795",
    "geocoded_column": {
      "latitude": "29.92377254592795",
      "longitude": "-90.08442670016451"
    }
  },
  {
    "service_request": "2022-930235",
    "request_type": "Trash/Recycling",
    "request_reason": "Illegal Dumping",
    "date_created": "2022-10-20T13:20:20.000",
    "date_modified": "2022-10-20T13:20:20.000",
    "request_status": "Pending",
    "responsible_agency": "Department of Sanitation",
    "final_address": "3014 Pleasure St",
    "address_councildis": "D",
    "status": "Pending",
    "rowid": "930235",
    "final_x": "3690840.03113",
    "final_y": "545091.296655",
    "longitude": "-90.03809356705692",
    "latitude": "29.99252505068975",
    "geocoded_column": {
      "latitude": "29.99252505068975",
      "longitude": "-90.03809356705692"
    }
  },
  {
    "service_request": "2022-930233",
    "request_type": "Traffic Signals/Signs/Striping/Streetlights",
    "request_reason": "Street Light Outage/Malfunction",
    "date_created": "2022-10-20T13:17:47.000",
    "date_modified": "2022-10-20T13:17:47.000",
    "request_status": "Pending",
    "responsible_agency": "Department of Public Works",
    "final_address": "Cupid Street & MacArthur Boulevard",
    "address_councildis": "C",
    "status": "Pending",
    "contractor": "Legacy Professional Services",
    "rowid": "930233",
    "final_x": "3700302.49578",
    "final_y": "520292.928824",
    "longitude": "-90.00910889419524",
    "latitude": "29.924040874923016",
    "geocoded_column": {
      "latitude": "29.924040874923016",
      "longitude": "-90.00910889419524"
    }
  },
  {
    "service_request": "2022-930232",
    "request_type": "Traffic Signals/Signs/Striping/Streetlights",
    "request_reason": "Street Light Outage/Malfunction",
    "date_created": "2022-10-20T13:17:29.000",
    "date_modified": "2022-10-20T13:17:29.000",
    "request_status": "Pending",
    "responsible_agency": "Department of Public Works",
    "final_address": "Cupid Street & MacArthur Boulevard",
    "address_councildis": "C",
    "status": "Pending",
    "contractor": "Legacy Professional Services",
    "rowid": "930232",
    "final_x": "3700302.49578",
    "final_y": "520292.928824",
    "longitude": "-90.00910889419524",
    "latitude": "29.924040874923016",
    "geocoded_column": {
      "latitude": "29.924040874923016",
      "longitude": "-90.00910889419524"
    }
  },
  {
    "service_request": "2022-930231",
    "request_type": "Property Maintenance",
    "request_reason": "Property Maintenance",
    "date_created": "2022-10-20T13:17:16.000",
    "date_modified": "2022-10-20T13:33:15.000",
    "case_close_date": "2022-10-20T08:33:15.000",
    "request_status": "Closed",
    "responsible_agency": "Department of Code Enforcement",
    "final_address": "3502 Metropolitan St",
    "address_councildis": "D",
    "status": "Referred to Code Enforcement",
    "rowid": "930231",
    "final_x": "3691572.57596",
    "final_y": "545423.48104",
    "longitude": "-90.03576772197282",
    "latitude": "29.993415648344772",
    "geocoded_column": {
      "latitude": "29.993415648344772",
      "longitude": "-90.03576772197282"
    }
  },
  {
    "service_request": "2022-930230",
    "request_type": "Traffic Signals/Signs/Striping/Streetlights",
    "request_reason": "Street Light Outage/Malfunction",
    "date_created": "2022-10-20T13:17:11.000",
    "date_modified": "2022-10-20T13:17:11.000",
    "request_status": "Pending",
    "responsible_agency": "Department of Public Works",
    "final_address": "Cupid Street & MacArthur Boulevard",
    "address_councildis": "C",
    "status": "Pending",
    "contractor": "Legacy Professional Services",
    "rowid": "930230",
    "final_x": "3700302.49578",
    "final_y": "520292.928824",
    "longitude": "-90.00910889419524",
    "latitude": "29.924040874923016",
    "geocoded_column": {
      "latitude": "29.924040874923016",
      "longitude": "-90.00910889419524"
    }
  },
  {
    "service_request": "2022-930229",
    "request_type": "Traffic Signals/Signs/Striping/Streetlights",
    "request_reason": "Street Light Outage/Malfunction",
    "date_created": "2022-10-20T13:14:27.000",
    "date_modified": "2022-10-20T13:14:27.000",
    "request_status": "Pending",
    "responsible_agency": "Department of Public Works",
    "final_address": "PRYTANIA ST & WEBSTER ST",
    "address_councildis": "A",
    "status": "Pending",
    "contractor": "Legacy Professional Services",
    "rowid": "930229",
    "final_x": "3664715.3",
    "final_y": "521025.78",
    "longitude": "-90.12142106947158",
    "latitude": "29.92713888740081",
    "geocoded_column": {
      "latitude": "29.92713888740081",
      "longitude": "-90.12142106947158"
    }
  },
  {
    "service_request": "2022-930228",
    "request_type": "Property Maintenance",
    "request_reason": "Property Maintenance",
    "date_created": "2022-10-20T13:14:07.000",
    "date_modified": "2022-10-20T13:33:36.000",
    "case_close_date": "2022-10-20T08:33:36.000",
    "request_status": "Closed",
    "responsible_agency": "Department of Code Enforcement",
    "final_address": "3505 Metropolitan St",
    "address_councildis": "D",
    "status": "Referred to Code Enforcement",
    "rowid": "930228",
    "final_x": "3691703.98672",
    "final_y": "545424.0628",
    "longitude": "-90.03535259716149",
    "latitude": "29.993413155536008",
    "geocoded_column": {
      "latitude": "29.993413155536008",
      "longitude": "-90.03535259716149"
    }
  },
  {
    "service_request": "2022-930227",
    "request_type": "Traffic Signals/Signs/Striping/Streetlights",
    "request_reason": "Street Light Outage/Malfunction",
    "date_created": "2022-10-20T13:14:01.000",
    "date_modified": "2022-10-20T13:14:01.000",
    "request_status": "Pending",
    "responsible_agency": "Department of Public Works",
    "final_address": "4231 San Remo St",
    "address_councildis": "E",
    "status": "Pending",
    "contractor": "Legacy Professional Services",
    "rowid": "930227",
    "final_x": "3760404.51715",
    "final_y": "572785.946793",
    "longitude": "-89.81720075906757",
    "latitude": "30.066327527801796",
    "geocoded_column": {
      "latitude": "30.066327527801796",
      "longitude": "-89.81720075906757"
    }
  },
  {
    "service_request": "2022-930226",
    "request_type": "Traffic Signals/Signs/Striping/Streetlights",
    "request_reason": "Street Light Outage/Malfunction",
    "date_created": "2022-10-20T13:13:49.000",
    "date_modified": "2022-10-20T13:13:50.000",
    "request_status": "Pending",
    "responsible_agency": "Department of Public Works",
    "final_address": "4231 San Remo St",
    "address_councildis": "E",
    "status": "Pending",
    "contractor": "Legacy Professional Services",
    "rowid": "930226",
    "final_x": "3760404.51715",
    "final_y": "572785.946793",
    "longitude": "-89.81720075906757",
    "latitude": "30.066327527801796",
    "geocoded_column": {
      "latitude": "30.066327527801796",
      "longitude": "-89.81720075906757"
    }
  },
  {
    "service_request": "2022-930225",
    "request_type": "Trash/Recycling",
    "request_reason": "Missed Trash Pick-Up",
    "date_created": "2022-10-20T13:13:46.000",
    "date_modified": "2022-10-20T13:13:46.000",
    "request_status": "Pending",
    "responsible_agency": "Department of Sanitation",
    "final_address": "727 Eighth St",
    "address_councildis": "B",
    "status": "Assigned to Contractor",
    "contractor": "Richards Disposal",
    "rowid": "930225",
    "final_x": "3676865.8891",
    "final_y": "519159.717943",
    "longitude": "-90.0831290274324",
    "latitude": "29.92164886189897",
    "geocoded_column": {
      "latitude": "29.92164886189897",
      "longitude": "-90.0831290274324"
    }
  },
  {
    "service_request": "2022-930224",
    "request_type": "Safety & Permits",
    "request_reason": "Construction permit",
    "date_created": "2022-10-20T13:13:07.000",
    "date_modified": "2022-10-20T16:48:22.000",
    "request_status": "Pending",
    "responsible_agency": "Safety and Permits",
    "final_address": "711 State St",
    "address_councildis": "A",
    "status": "Pending",
    "rowid": "930224",
    "final_x": "3664774.64576",
    "final_y": "518938.143735",
    "longitude": "-90.12130343755446",
    "latitude": "29.92139681679024",
    "geocoded_column": {
      "latitude": "29.92139681679024",
      "longitude": "-90.12130343755446"
    }
  },
  {
    "service_request": "2022-930223",
    "request_type": "Traffic Signals/Signs/Striping/Streetlights",
    "request_reason": "Traffic Sign Missing/Damaged",
    "date_created": "2022-10-20T13:12:16.000",
    "date_modified": "2022-10-20T13:12:17.000",
    "request_status": "Pending",
    "responsible_agency": "Department of Public Works",
    "final_address": "LAW ST & ALABO ST",
    "address_councildis": "E",
    "status": "Pending",
    "rowid": "930223",
    "final_x": "3700425.4",
    "final_y": "539164.98",
    "longitude": "-90.00803190775126",
    "latitude": "29.975928442313517",
    "geocoded_column": {
      "latitude": "29.975928442313517",
      "longitude": "-90.00803190775126"
    }
  },
  {
    "service_request": "2022-930222",
    "request_type": "Trash/Recycling",
    "request_reason": "Illegal Dumping",
    "date_created": "2022-10-20T13:08:19.000",
    "date_modified": "2022-10-20T13:08:19.000",
    "request_status": "Pending",
    "responsible_agency": "Department of Sanitation",
    "final_address": "3406 Feliciana St",
    "address_councildis": "D",
    "status": "Pending",
    "rowid": "930222",
    "final_x": "3691000.0232",
    "final_y": "545228.453775",
    "longitude": "-90.03758328466724",
    "latitude": "29.99289720935118",
    "geocoded_column": {
      "latitude": "29.99289720935118",
      "longitude": "-90.03758328466724"
    }
  },
  {
    "service_request": "2022-930221",
    "request_type": "Abandoned Vehicles",
    "request_reason": "Abandoned/Junk Vehicles",
    "date_created": "2022-10-20T13:04:13.000",
    "date_modified": "2022-10-20T13:04:13.000",
    "request_status": "Pending",
    "responsible_agency": "Department of Public Works",
    "final_address": "2701 Clouet St",
    "address_councildis": "D",
    "status": "Pending",
    "rowid": "930221",
    "final_x": "3690648.96028",
    "final_y": "542392.760781",
    "longitude": "-90.03879342548696",
    "latitude": "29.985110986093012",
    "geocoded_column": {
      "latitude": "29.985110986093012",
      "longitude": "-90.03879342548696"
    }
  },
  {
    "service_request": "2022-930219",
    "request_type": "Abandoned Vehicles",
    "request_reason": "Abandoned/Junk Vehicles",
    "date_created": "2022-10-20T12:54:22.000",
    "date_modified": "2022-10-20T12:54:22.000",
    "request_status": "Pending",
    "responsible_agency": "Department of Public Works",
    "final_address": "3122 N Rocheblave St",
    "address_councildis": "D",
    "status": "Pending",
    "rowid": "930219",
    "final_x": "3690421.49136",
    "final_y": "540797.810571",
    "longitude": "-90.03956878243443",
    "latitude": "29.980732507464367",
    "geocoded_column": {
      "latitude": "29.980732507464367",
      "longitude": "-90.03956878243443"
    }
  },