[
  {
    "service_request": "2022-876739",
    "request_type": "Roads/Drainage",
    "request_reason": "Damaged Sidewalk",
    "date_created": "2022-04-22T00:16:35.000",
    "date_modified": "2022-04-22T00:16:35.000",
    "request_status": "Pending",
    "responsible_agency": "Department of Public Works",
    "final_address": "300 Lafayette St",
    "address_councildis": "B",
    "status": "Pending",
    "rowid": "876739",
    "final_x": "3682116.43228",
    "final_y": "528530.37216",
    "longitude": "-90.06622824428918",
    "latitude": "29.94725648605146",
    "geocoded_column": {
      "latitude": "29.94725648605146",
      "longitude": "-90.06622824428918"
    }
  },
  {
    "service_request": "2022-876738",
    "request_type": "Property Maintenance",
    "request_reason": "Property Maintenance",
    "date_created": "2022-04-22T00:14:46.000",
    "date_modified": "2022-04-22T00:14:46.000",
    "request_status": "Pending",
    "responsible_agency": "Department of Code Enforcement",
    "final_address": "300 Lafayette St",
    "address_councildis": "B",
    "status": "Pending",
    "rowid": "876738",
    "final_x": "3682116.43228",
    "final_y": "528530.37216",
    "longitude": "-90.06622824428918",
    "latitude": "29.94725648605146",
    "geocoded_column": {
      "latitude": "29.94725648605146",
      "longitude": "-90.06622824428918"
    }
  },
  {
    "service_request": "2022-876737",
    "request_type": "Roads/Drainage",
    "request_reason": "Damaged Sidewalk",
    "date_created": "2022-04-22T00:11:53.000",
    "date_modified": "2022-04-22T00:11:53.000",
    "request_status": "Pending",
    "responsible_agency": "Department of Public Works",
    "final_address": "400 Lafayette St",
    "address_councildis": "B",
    "status": "Pending",
    "rowid": "876737",
    "final_x": "3681498.65909",
    "final_y": "528666.656768",
    "longitude": "-90.06817403606365",
    "latitude": "29.947649992871007",
    "geocoded_column": {
      "latitude": "29.947649992871007",
      "longitude": "-90.06817403606365"
    }
  },
  {
    "service_request": "2022-876736",
    "request_type": "Roads/Drainage",
    "request_reason": "Damaged Sidewalk",
    "date_created": "2022-04-22T00:11:52.000",
    "date_modified": "2022-04-22T00:11:52.000",
    "request_status": "Pending",
    "responsible_agency": "Department of Public Works",
    "final_address": "400 Lafayette St",
    "address_councildis": "B",
    "status": "Pending",
    "rowid": "876736",
    "final_x": "3681498.65909",
    "final_y": "528666.656768",
    "longitude": "-90.06817403606365",
    "latitude": "29.947649992871007",
    "geocoded_column": {
      "latitude": "29.947649992871007",
      "longitude": "-90.06817403606365"
    }
  },
  {
    "service_request": "2022-876735",
    "request_type": "Roads/Drainage",
    "request_reason": "Damaged Sidewalk",
    "date_created": "2022-04-22T00:10:20.000",
    "date_modified": "2022-04-22T00:10:20.000",
    "request_status": "Pending",
    "responsible_agency": "Department of Public Works",
    "final_address": "400 Lafayette St",
    "address_councildis": "B",
    "status": "Pending",
    "rowid": "876735",
    "final_x": "3681498.65909",
    "final_y": "528666.656768",
    "longitude": "-90.06817403606365",
    "latitude": "29.947649992871007",
    "geocoded_column": {
      "latitude": "29.947649992871007",
      "longitude": "-90.06817403606365"
    }
  },
  {
    "service_request": "2022-876734",
    "request_type": "Traffic Signals/Signs/Striping/Streetlights",
    "request_reason": "Traffic Sign Missing/Damaged",
    "date_created": "2022-04-22T00:08:38.000",
    "date_modified": "2022-04-22T00:08:38.000",
    "request_status": "Pending",
    "responsible_agency": "Department of Public Works",
    "final_address": "400 Lafayette St",
    "address_councildis": "B",
    "status": "Pending",
    "rowid": "876734",
    "final_x": "3681498.65909",
    "final_y": "528666.656768",
    "longitude": "-90.06817403606365",
    "latitude": "29.947649992871007",
    "geocoded_column": {
      "latitude": "29.947649992871007",
      "longitude": "-90.06817403606365"
    }
  },
  {
    "service_request": "2022-876733",
    "request_type": "Traffic Signals/Signs/Striping/Streetlights",
    "request_reason": "Traffic Sign Missing/Damaged",
    "date_created": "2022-04-22T00:07:19.000",
    "date_modified": "2022-04-22T00:07:19.000",
    "request_status": "Pending",
    "responsible_agency": "Department of Public Works",
    "final_address": "400 Lafayette St",
    "address_councildis": "B",
    "status": "Pending",
    "rowid": "876733",
    "final_x": "3681498.65909",
    "final_y": "528666.656768",
    "longitude": "-90.06817403606365",
    "latitude": "29.947649992871007",
    "geocoded_column": {
      "latitude": "29.947649992871007",
      "longitude": "-90.06817403606365"
    }
  },
  {
    "service_request": "2022-876732",
    "request_type": "Traffic Signals/Signs/Striping/Streetlights",
    "request_reason": "Street Name Sign Damaged or Missing",
    "date_created": "2022-04-21T23:55:05.000",
    "date_modified": "2022-04-21T23:55:05.000",
    "request_status": "Pending",
    "responsible_agency": "Department of Public Works",
    "final_address": "400 Lafayette St",
    "address_councildis": "B",
    "status": "Pending",
    "rowid": "876732",
    "final_x": "3681498.65909",
    "final_y": "528666.656768",
    "longitude": "-90.06817403606365",
    "latitude": "29.947649992871007",
    "geocoded_column": {
      "latitude": "29.947649992871007",
      "longitude": "-90.06817403606365"
    }
  },
  {
    "service_request": "2022-876731",
    "request_type": "Traffic Signals/Signs/Striping/Streetlights",
    "request_reason": "Street Name Sign Damaged or Missing",
    "date_created": "2022-04-21T23:51:34.000",
    "date_modified": "2022-04-21T23:51:34.000",
    "request_status": "Pending",
    "responsible_agency": "Department of Public Works",
    "final_address": "400 Lafayette St",
    "address_councildis": "B",
    "status": "Pending",
    "rowid": "876731",
    "final_x": "3681498.65909",
    "final_y": "528666.656768",
    "longitude": "-90.06817403606365",
    "latitude": "29.947649992871007",
    "geocoded_column": {
      "latitude": "29.947649992871007",
      "longitude": "-90.06817403606365"
    }
  },
  {
    "service_request": "2022-876730",
    "request_type": "Property Maintenance",
    "request_reason": "Property Maintenance",
    "date_created": "2022-04-21T22:36:14.000",
    "date_modified": "2022-04-21T22:36:14.000",
    "request_status": "Pending",
    "responsible_agency": "Department of Code Enforcement",
    "final_address": "6416 Roder St",
    "address_councildis": "E",
    "status": "Pending",
    "rowid": "876730",
    "final_x": "3701527.89527",
    "final_y": "535118.557894",
    "longitude": "-90.00469812058783",
    "latitude": "29.964767137827316",
    "geocoded_column": {
      "latitude": "29.964767137827316",
      "longitude": "-90.00469812058783"
    }
  },
  {
    "service_request": "2022-876729",
    "request_type": "Traffic Signals/Signs/Striping/Streetlights",
    "request_reason": "Street Light Outage/Malfunction",
    "date_created": "2022-04-21T22:14:13.000",
    "date_modified": "2022-04-21T22:14:14.000",
    "request_status": "Pending",
    "responsible_agency": "Department of Public Works",
    "final_address": "1915 Dauphine St, New Orleans, Louisiana, 70116",
    "address_councildis": "C",
    "status": "Pending",
    "contractor": "Royal Engineering",
    "rowid": "876729",
    "final_x": "3684089.32898",
    "final_y": "535172.061574",
    "longitude": "-90.05976599179343",
    "latitude": "29.965458726644112",
    "geocoded_column": {
      "latitude": "29.965458726644112",
      "longitude": "-90.05976599179343"
    }
  },
  {
    "service_request": "2022-876728",
    "request_type": "Traffic Signals/Signs/Striping/Streetlights",
    "request_reason": "Street Light Knocked Down/Leaning",
    "date_created": "2022-04-21T22:07:06.000",
    "date_modified": "2022-04-21T22:07:07.000",
    "request_status": "Pending",
    "responsible_agency": "Department of Public Works",
    "final_address": "S CLAIBORNE AVE & LOWERLINE ST",
    "address_councildis": "A",
    "status": "Pending",
    "contractor": "Royal Engineering",
    "rowid": "876728",
    "final_x": "3666052.4",
    "final_y": "530359.88",
    "longitude": "-90.11688736194296",
    "latitude": "29.95276571652135",
    "geocoded_column": {
      "latitude": "29.95276571652135",
      "longitude": "-90.11688736194296"
    }
  },
  {
    "service_request": "2022-876727",
    "request_type": "Trash/Recycling",
    "request_reason": "Repair Trash Cart",
    "date_created": "2022-04-21T22:04:19.000",
    "date_modified": "2022-04-21T22:04:20.000",
    "request_status": "Pending",
    "responsible_agency": "Department of Sanitation",
    "final_address": "2311 St Thomas St",
    "address_councildis": "B",
    "status": "Assigned to Contractor",
    "contractor": "Richards Disposal",
    "rowid": "876727",
    "final_x": "3679543.95055",
    "final_y": "520347.783544",
    "longitude": "-90.07463434587667",
    "latitude": "29.924835038944256",
    "geocoded_column": {
      "latitude": "29.924835038944256",
      "longitude": "-90.07463434587667"
    }
  },
  {
    "service_request": "2022-876726",
    "request_type": "Trash/Recycling",
    "request_reason": "Replace Trash Cart",
    "date_created": "2022-04-21T21:59:53.000",
    "date_modified": "2022-04-21T21:59:53.000",
    "request_status": "Pending",
    "responsible_agency": "Department of Sanitation",
    "final_address": "1738 Filmore Ave",
    "address_councildis": "D",
    "status": "Assigned to Contractor",
    "contractor": "Metro Disposal",
    "rowid": "876726",
    "final_x": "3680288.59675",
    "final_y": "551845.909974",
    "longitude": "-90.07118853083098",
    "latitude": "30.011421562289662",
    "geocoded_column": {
      "latitude": "30.011421562289662",
      "longitude": "-90.07118853083098"
    }
  },
  {
    "service_request": "2022-876725",
    "request_type": "Abandoned Vehicles",
    "request_reason": "Abandoned/Junk Vehicles",
    "date_created": "2022-04-21T21:58:22.000",
    "date_modified": "2022-04-21T21:58:22.000",
    "request_status": "Pending",
    "responsible_agency": "Department of Public Works",
    "final_address": "4558 Hickerson Dr",
    "address_councildis": "E",
    "status": "Pending",
    "rowid": "876725",
    "final_x": "3710398.18136",
    "final_y": "554658.898072",
    "longitude": "-89.97595563754861",
    "latitude": "30.01820988399306",
    "geocoded_column": {
      "latitude": "30.01820988399306",
      "longitude": "-89.97595563754861"
    }
  },
  {
    "service_request": "2022-876724",
    "request_type": "Abandoned Vehicles",
    "request_reason": "Abandoned/Junk Vehicles",
    "date_created": "2022-04-21T21:51:23.000",
    "date_modified": "2022-04-21T21:51:23.000",
    "request_status": "Pending",
    "responsible_agency": "Department of Public Works",
    "status": "Pending",
    "rowid": "876724",
    "longitude": "0.0",
    "latitude": "0.0",
    "geocoded_column": {
      "latitude": "0.0",
      "longitude": "0.0"
    }
  },
  {
    "service_request": "2022-876723",
    "request_type": "Traffic Signals/Signs/Striping/Streetlights",
    "request_reason": "Street Light Outage/Malfunction",
    "date_created": "2022-04-21T21:50:06.000",
    "date_modified": "2022-04-21T21:50:06.000",
    "request_status": "Pending",
    "responsible_agency": "Department of Public Works",
    "final_address": "7610 Branch Dr",
    "address_councildis": "E",
    "status": "Pending",
    "contractor": "Royal Engineering",
    "rowid": "876723",
    "final_x": "3714755.30687",
    "final_y": "568547.932837",
    "longitude": "-89.96166357915163",
    "latitude": "30.05625650054503",
    "geocoded_column": {
      "latitude": "30.05625650054503",
      "longitude": "-89.96166357915163"
    }
  },
  {
    "service_request": "2022-876722",
    "request_type": "Traffic Signals/Signs/Striping/Streetlights",
    "request_reason": "Street Light Outage/Malfunction",
    "date_created": "2022-04-21T21:47:00.000",
    "date_modified": "2022-04-21T21:47:00.000",
    "request_status": "Pending",
    "responsible_agency": "Department of Public Works",
    "final_address": "7600 Inlet Ln",
    "address_councildis": "E",
    "status": "Pending",
    "contractor": "Royal Engineering",
    "rowid": "876722",
    "final_x": "3714630.82872",
    "final_y": "568313.783461",
    "longitude": "-89.96206588625844",
    "latitude": "30.05561678257302",
    "geocoded_column": {
      "latitude": "30.05561678257302",
      "longitude": "-89.96206588625844"
    }
  },
  {
    "service_request": "2022-876721",
    "request_type": "Traffic Signals/Signs/Striping/Streetlights",
    "request_reason": "Street Light Outage/Malfunction",
    "date_created": "2022-04-21T21:45:49.000",
    "date_modified": "2022-04-21T21:45:50.000",
    "request_status": "Pending",
    "responsible_agency": "Department of Public Works",
    "final_address": "CROWDER BLVD & I 10 E SERVICE RD",
    "address_councildis": "E",
    "status": "Pending",
    "contractor": "Royal Engineering",
    "rowid": "876721",
    "final_x": "3704930.5",
    "final_y": "558375.78",
    "longitude": "-89.9930939603255",
    "latitude": "30.02860683229059",
    "geocoded_column": {
      "latitude": "30.02860683229059",
      "longitude": "-89.9930939603255"
    }
  },
  {
    "service_request": "2022-876720",
    "request_type": "Abandoned Vehicles",
    "request_reason": "Abandoned/Junk Vehicles",
    "date_created": "2022-04-21T21:41:27.000",
    "date_modified": "2022-04-21T21:46:57.000",
    "request_status": "Pending",
    "responsible_agency": "Department of Public Works",
    "status": "Inspected",
    "rowid": "876720",
    "longitude": "0.0",
    "latitude": "0.0",
    "geocoded_column": {
      "latitude": "0.0",
      "longitude": "0.0"
    }
  },
  {
    "service_request": "2022-876719",
    "request_type": "Abandoned Vehicles",
    "request_reason": "Abandoned/Junk Vehicles",
    "date_created": "2022-04-21T21:31:02.000",
    "date_modified": "2022-04-21T21:37:34.000",
    "request_status": "Pending",
    "responsible_agency": "Department of Public Works",
    "status": "Inspected",
    "rowid": "876719",
    "longitude": "0.0",
    "latitude": "0.0",
    "geocoded_column": {
      "latitude": "0.0",
      "longitude": "0.0"
    }
  },
  {
    "service_request": "2022-876718",
    "request_type": "Traffic Signals/Signs/Striping/Streetlights",
    "request_reason": "Street Light Outage/Malfunction",
    "date_created": "2022-04-21T21:24:43.000",
    "date_modified": "2022-04-21T21:24:44.000",
    "request_status": "Pending",
    "responsible_agency": "Department of Public Works",
    "final_address": "120 St Charles Ave",
    "address_councildis": "B",
    "status": "Pending",
    "contractor": "Royal Engineering",
    "rowid": "876718",
    "final_x": "3681090.25237",
    "final_y": "530454.27213",
    "longitude": "-90.06940127631327",
    "latitude": "29.952577726125245",
    "geocoded_column": {
      "latitude": "29.952577726125245",
      "longitude": "-90.06940127631327"
    }
  },
  {
    "service_request": "2022-876717",
    "request_type": "Traffic Signals/Signs/Striping/Streetlights",
    "request_reason": "Street Light Outage/Malfunction",
    "date_created": "2022-04-21T21:20:24.000",
    "date_modified": "2022-04-21T21:20:25.000",
    "request_status": "Pending",
    "responsible_agency": "Department of Public Works",
    "final_address": "622 Canal St",
    "address_councildis": "B",
    "status": "Pending",
    "contractor": "Royal Engineering",
    "rowid": "876717",
    "final_x": "3681166.52066",
    "final_y": "530558.259778",
    "longitude": "-90.0691568331462",
    "latitude": "29.952861343563043",
    "geocoded_column": {
      "latitude": "29.952861343563043",
      "longitude": "-90.0691568331462"
    }
  },
  {
    "service_request": "2022-876716",
    "request_type": "Abandoned Vehicles",
    "request_reason": "Abandoned/Junk Vehicles",
    "date_created": "2022-04-21T21:20:23.000",
    "date_modified": "2022-04-21T21:28:06.000",
    "request_status": "Pending",
    "responsible_agency": "Department of Public Works",
    "status": "Inspected",
    "rowid": "876716",
    "longitude": "0.0",
    "latitude": "0.0",
    "geocoded_column": {
      "latitude": "0.0",
      "longitude": "0.0"
    }
  },
  {
    "service_request": "2022-876715",
    "request_type": "Trash/Recycling",
    "request_reason": "Request a Large Item Pick Up",
    "date_created": "2022-04-21T21:18:54.000",
    "date_modified": "2022-04-21T21:18:55.000",
    "request_status": "Pending",
    "responsible_agency": "Department of Sanitation",
    "final_address": "4527 Shalimar Dr",
    "address_councildis": "D",
    "status": "Assigned to Contractor",
    "contractor": "Metro Disposal",
    "rowid": "876715",
    "final_x": "3697351.55965",
    "final_y": "553111.218263",
    "longitude": "-90.01723401247797",
    "latitude": "30.01437285689367",
    "geocoded_column": {
      "latitude": "30.01437285689367",
      "longitude": "-90.01723401247797"
    }
  },
  {
    "service_request": "2022-876714",
    "request_type": "Roads/Drainage",
    "request_reason": "Damaged Sidewalk",
    "date_created": "2022-04-21T21:14:14.000",
    "date_modified": "2022-04-21T21:14:14.000",
    "request_status": "Pending",
    "responsible_agency": "Department of Public Works",
    "final_address": "109 Tchoupitoulas St",
    "address_councildis": "B",
    "status": "Pending",
    "rowid": "876714",
    "final_x": "3682056.38396",
    "final_y": "529838.024193",
    "longitude": "-90.06637218763761",
    "latitude": "29.950853914066883",
    "geocoded_column": {
      "latitude": "29.950853914066883",
      "longitude": "-90.06637218763761"
    }
  },
  {
    "service_request": "2022-876713",
    "request_type": "Roads/Drainage",
    "request_reason": "Pothole",
    "date_created": "2022-04-21T21:11:35.000",
    "date_modified": "2022-04-21T21:11:35.000",
    "request_status": "Pending",
    "responsible_agency": "Department of Public Works",
    "final_address": "535 Iberville St",
    "address_councildis": "C",
    "status": "Pending",
    "rowid": "876713",
    "final_x": "3681846.36456",
    "final_y": "530761.776898",
    "longitude": "-90.06700308740521",
    "latitude": "29.953400305279935",
    "geocoded_column": {
      "latitude": "29.953400305279935",
      "longitude": "-90.06700308740521"
    }
  },
  {
    "service_request": "2022-876712",
    "request_type": "Roads/Drainage",
    "request_reason": "Pothole",
    "date_created": "2022-04-21T21:08:00.000",
    "date_modified": "2022-04-21T21:08:00.000",
    "request_status": "Pending",
    "responsible_agency": "Department of Public Works",
    "final_address": "735 St Joseph St",
    "address_councildis": "B",
    "status": "Pending",
    "rowid": "876712",
    "final_x": "3679976.91023",
    "final_y": "527581.219711",
    "longitude": "-90.07301648756638",
    "latitude": "29.94471151628412",
    "geocoded_column": {
      "latitude": "29.94471151628412",
      "longitude": "-90.07301648756638"
    }
  },
  {
    "service_request": "2022-876711",
    "request_type": "Abandoned Vehicles",
    "request_reason": "Abandoned/Junk Vehicles",
    "date_created": "2022-04-21T21:06:15.000",
    "date_modified": "2022-04-21T21:16:44.000",
    "request_status": "Pending",
    "responsible_agency": "Department of Public Works",
    "status": "Inspected",
    "rowid": "876711",
    "longitude": "0.0",
    "latitude": "0.0",
    "geocoded_column": {
      "latitude": "0.0",
      "longitude": "0.0"
    }
  },
  {
    "service_request": "2022-876710",
    "request_type": "Roads/Drainage",
    "request_reason": "Street Subsidence (Sinking)",
    "date_created": "2022-04-21T21:01:09.000",
    "date_modified": "2022-04-21T21:01:09.000",
    "request_status": "Pending",
    "responsible_agency": "Department of Public Works",
    "final_address": "6075 Vicksburg St",
    "address_councildis": "A",
    "status": "Pending",
    "rowid": "876710",
    "final_x": "3669015.09114",
    "final_y": "547843.053778",
    "longitude": "-90.10694162916343",
    "latitude": "30.00075173274033",
    "geocoded_column": {
      "latitude": "30.00075173274033",
      "longitude": "-90.10694162916343"
    }
  },
  {
    "service_request": "2022-876709",
    "request_type": "Trash/Recycling",
    "request_reason": "Illegal Dumping",
    "date_created": "2022-04-21T20:59:06.000",
    "date_modified": "2022-04-21T20:59:06.000",
    "request_status": "Pending",
    "responsible_agency": "Department of Sanitation",
    "final_address": "2821 Monticello Ave",
    "address_councildis": "A",
    "status": "Pending",
    "rowid": "876709",
    "final_x": "3662590.90739",
    "final_y": "535931.176775",
    "longitude": "-90.12763215658491",
    "latitude": "29.968185559234428",
    "geocoded_column": {
      "latitude": "29.968185559234428",
      "longitude": "-90.12763215658491"
    }
  },
  {
    "service_request": "2022-876708",
    "request_type": "Trash/Recycling",
    "request_reason": "Missed Trash Pick-Up",
    "date_created": "2022-04-21T20:51:11.000",
    "date_modified": "2022-04-21T20:51:11.000",
    "request_status": "Pending",
    "responsible_agency": "Department of Sanitation",
    "final_address": "918 Harmony St",
    "address_councildis": "B",
    "status": "Assigned to Contractor",
    "contractor": "Richards Disposal",
    "rowid": "876708",
    "final_x": "3676021.63144",
    "final_y": "519459.142391",
    "longitude": "-90.08578369731111",
    "latitude": "29.922497484388856",
    "geocoded_column": {
      "latitude": "29.922497484388856",
      "longitude": "-90.08578369731111"
    }
  },
  {
    "service_request": "2022-876707",
    "request_type": "Trash/Recycling",
    "request_reason": "Missed Trash Pick-Up",
    "date_created": "2022-04-21T20:50:37.000",
    "date_modified": "2022-04-21T20:50:38.000",
    "request_status": "Pending",
    "responsible_agency": "Department of Sanitation",
    "final_address": "918 Harmony St",
    "address_councildis": "B",
    "status": "Assigned to Contractor",
    "contractor": "Richards Disposal",
    "rowid": "876707",
    "final_x": "3676021.63144",
    "final_y": "519459.142391",
    "longitude": "-90.08578369731111",
    "latitude": "29.922497484388856",
    "geocoded_column": {
      "latitude": "29.922497484388856",
      "longitude": "-90.08578369731111"
    }
  },
  {
    "service_request": "2022-876706",
    "request_type": "Traffic Signals/Signs/Striping/Streetlights",
    "request_reason": "Street Light Outage/Malfunction",
    "date_created": "2022-04-21T20:44:52.000",
    "date_modified": "2022-04-21T20:44:53.000",
    "request_status": "Pending",
    "responsible_agency": "Department of Public Works",
    "final_address": "801 Canal St",
    "address_councildis": "C",
    "status": "Pending",
    "contractor": "Royal Engineering",
    "rowid": "876706",
    "final_x": "3680951.89391",
    "final_y": "530998.395906",
    "longitude": "-90.0698192041145",
    "latitude": "29.954078078458494",
    "geocoded_column": {
      "latitude": "29.954078078458494",
      "longitude": "-90.0698192041145"
    }
  },
  {
    "service_request": "2022-876705",
    "request_type": "Roads/Drainage",
    "request_reason": "Damaged Sidewalk",
    "date_created": "2022-04-21T20:39:07.000",
    "date_modified": "2022-04-21T20:39:07.000",
    "request_status": "Pending",
    "responsible_agency": "Department of Public Works",
    "final_address": "801 Canal St",
    "address_councildis": "C",
    "status": "Pending",
    "rowid": "876705",
    "final_x": "3680951.89391",
    "final_y": "530998.395906",
    "longitude": "-90.0698192041145",
    "latitude": "29.954078078458494",
    "geocoded_column": {
      "latitude": "29.954078078458494",
      "longitude": "-90.0698192041145"
    }
  },
  {
    "service_request": "2022-876704",
    "request_type": "Trash/Recycling",
    "request_reason": "Replace Trash Cart",
    "date_created": "2022-04-21T20:22:23.000",
    "date_modified": "2022-04-21T20:22:24.000",
    "request_status": "Pending",
    "responsible_agency": "Department of Sanitation",
    "final_address": "22 Tennyson Pl",
    "address_councildis": "C",
    "status": "Assigned to Contractor",
    "contractor": "Richards Disposal",
    "rowid": "876704",
    "final_x": "3705253.45867",
    "final_y": "517830.350134",
    "longitude": "-89.99357147953206",
    "latitude": "29.917111380289263",
    "geocoded_column": {
      "latitude": "29.917111380289263",
      "longitude": "-89.99357147953206"
    }
  },
  {
    "service_request": "2022-876703",
    "request_type": "Property Maintenance",
    "request_reason": "Property Maintenance",
    "date_created": "2022-04-21T20:19:14.000",
    "date_modified": "2022-04-21T20:19:14.000",
    "request_status": "Pending",
    "responsible_agency": "Department of Code Enforcement",
    "final_address": "6336 Louisville St",
    "address_councildis": "A",
    "status": "Pending",
    "rowid": "876703",
    "final_x": "3667864.22567",
    "final_y": "549687.340628",
    "longitude": "-90.11051513241343",
    "latitude": "30.00585670046995",
    "geocoded_column": {
      "latitude": "30.00585670046995",
      "longitude": "-90.11051513241343"
    }
  },
  {
    "service_request": "2022-876702",
    "request_type": "Roads/Drainage",
    "request_reason": "Street Flooding / Drainage",
    "date_created": "2022-04-21T20:18:27.000",
    "date_modified": "2022-04-21T20:18:27.000",
    "request_status": "Pending",
    "responsible_agency": "Department of Public Works",
    "final_address": "7500 Ligustrum Dr",
    "address_councildis": "E",
    "status": "Pending",
    "rowid": "876702",
    "final_x": "3701607.10769",
    "final_y": "560701.204766",
    "longitude": "-90.0035103759444",
    "latitude": "30.035107313324755",
    "geocoded_column": {
      "latitude": "30.035107313324755",
      "longitude": "-90.0035103759444"
    }
  },
  {
    "service_request": "2022-876701",
    "request_type": "Trash/Recycling",
    "request_reason": "Request a Large Item Pick Up",
    "date_created": "2022-04-21T20:14:43.000",
    "date_modified": "2022-04-21T20:14:44.000",
    "request_status": "Pending",
    "responsible_agency": "Department of Sanitation",
    "final_address": "7642 Shorewood Blvd",
    "address_councildis": "E",
    "status": "Assigned to Contractor",
    "contractor": "Metro Disposal",
    "rowid": "876701",
    "final_x": "3719656.18245",
    "final_y": "572725.743529",
    "longitude": "-89.94601305544357",
    "latitude": "30.067581508992095",
    "geocoded_column": {
      "latitude": "30.067581508992095",
      "longitude": "-89.94601305544357"
    }
  },
  {
    "service_request": "2022-876700",
    "request_type": "Roads/Drainage",
    "request_reason": "Street Flooding / Drainage",
    "date_created": "2022-04-21T20:13:22.000",
    "date_modified": "2022-04-21T20:13:22.000",
    "request_status": "Pending",
    "responsible_agency": "Department of Public Works",
    "final_address": "7508 Ligustrum Dr",
    "address_councildis": "E",
    "status": "Pending",
    "rowid": "876700",
    "final_x": "3701588.75511",
    "final_y": "560752.20323",
    "longitude": "-90.003566502323",
    "latitude": "30.035248124874062",
    "geocoded_column": {
      "latitude": "30.035248124874062",
      "longitude": "-90.003566502323"
    }
  },
  {
    "service_request": "2022-876699",
    "request_type": "Trash/Recycling",
    "request_reason": "Missed Trash Pick-Up",
    "date_created": "2022-04-21T20:05:50.000",
    "date_modified": "2022-04-21T20:05:51.000",
    "request_status": "Pending",
    "responsible_agency": "Department of Sanitation",
    "final_address": "915 Sixth St",
    "address_councildis": "B",
    "status": "Assigned to Contractor",
    "contractor": "Richards Disposal",
    "rowid": "876699",
    "final_x": "3676994.15125",
    "final_y": "520069.34828",
    "longitude": "-90.0826928195403",
    "latitude": "29.924146202614033",
    "geocoded_column": {
      "latitude": "29.924146202614033",
      "longitude": "-90.0826928195403"
    }
  },
  {
    "service_request": "2022-876698",
    "request_type": "Trash/Recycling",
    "request_reason": "Request a Large Item Pick Up",
    "date_created": "2022-04-21T19:47:24.000",
    "date_modified": "2022-04-21T19:47:24.000",
    "request_status": "Pending",
    "responsible_agency": "Department of Sanitation",
    "final_address": "754 Delachaise St",
    "address_councildis": "B",
    "status": "Assigned to Contractor",
    "contractor": "Richards Disposal",
    "rowid": "876698",
    "final_x": "3675137.00693",
    "final_y": "518297.811894",
    "longitude": "-90.08861592492855",
    "latitude": "29.91933065216286",
    "geocoded_column": {
      "latitude": "29.91933065216286",
      "longitude": "-90.08861592492855"
    }
  },
  {
    "service_request": "2022-876697",
    "request_type": "Health Related Questions",
    "request_reason": "Noise Ordinance Complaint",
    "date_created": "2022-04-21T19:46:57.000",
    "date_modified": "2022-04-21T19:46:58.000",
    "request_status": "Pending",
    "responsible_agency": "Health Department",
    "final_address": "927 Foucher St",
    "address_councildis": "B",
    "status": "Pending",
    "rowid": "876697",
    "final_x": "3674374.13396",
    "final_y": "518842.953207",
    "longitude": "-90.09100527756176",
    "latitude": "29.920852380865426",
    "geocoded_column": {
      "latitude": "29.920852380865426",
      "longitude": "-90.09100527756176"
    }
  },
  {
    "service_request": "2022-876696",
    "request_type": "Trash/Recycling",
    "request_reason": "Missed Trash Pick-Up",
    "date_created": "2022-04-21T19:32:36.000",
    "date_modified": "2022-04-21T19:32:36.000",
    "request_status": "Pending",
    "responsible_agency": "Department of Sanitation",
    "final_address": "539 S Scott St",
    "address_councildis": "B",
    "status": "Assigned to Contractor",
    "contractor": "Richards Disposal",
    "rowid": "876696",
    "final_x": "3670569.37659",
    "final_y": "536303.657095",
    "longitude": "-90.10242311821497",
    "latitude": "29.968976501532676",
    "geocoded_column": {
      "latitude": "29.968976501532676",
      "longitude": "-90.10242311821497"
    }
  },
  {
    "service_request": "2022-876695",
    "request_type": "Trash/Recycling",
    "request_reason": "Missed Trash Pick-Up",
    "date_created": "2022-04-21T19:30:08.000",
    "date_modified": "2022-04-21T19:30:09.000",
    "request_status": "Pending",
    "responsible_agency": "Department of Sanitation",
    "final_address": "519 Philip St",
    "address_councildis": "B",
    "status": "Assigned to Contractor",
    "contractor": "Richards Disposal",
    "rowid": "876695",
    "final_x": "3679832.93039",
    "final_y": "520220.232952",
    "longitude": "-90.0737265581521",
    "latitude": "29.9244755846313",
    "geocoded_column": {
      "latitude": "29.9244755846313",
      "longitude": "-90.0737265581521"
    }
  },
  {
    "service_request": "2022-876694",
    "request_type": "Trash/Recycling",
    "request_reason": "Missed Trash Pick-Up",
    "date_created": "2022-04-21T19:29:14.000",
    "date_modified": "2022-04-21T19:29:14.000",
    "request_status": "Pending",
    "responsible_agency": "Department of Sanitation",
    "final_address": "1420 Toledano St",
    "address_councildis": "B",
    "status": "Assigned to Contractor",
    "contractor": "Richards Disposal",
    "rowid": "876694",
    "final_x": "3674836.93934",
    "final_y": "520873.713017",
    "longitude": "-90.08947482475853",
    "latitude": "29.92642251155036",
    "geocoded_column": {
      "latitude": "29.92642251155036",
      "longitude": "-90.08947482475853"
    }
  },
  {
    "service_request": "2022-876693",
    "request_type": "Trash/Recycling",
    "request_reason": "Request a Large Item Pick Up",
    "date_created": "2022-04-21T19:08:29.000",
    "date_modified": "2022-04-21T19:08:29.000",
    "request_status": "Pending",
    "responsible_agency": "Department of Sanitation",
    "final_address": "5970 Vicksburg St",
    "address_councildis": "A",
    "status": "Assigned to Contractor",
    "contractor": "Metro Disposal",
    "rowid": "876693",
    "final_x": "3668765.64942",
    "final_y": "547140.396881",
    "longitude": "-90.10775337829877",
    "latitude": "29.99882700823859",
    "geocoded_column": {
      "latitude": "29.99882700823859",
      "longitude": "-90.10775337829877"
    }
  },
  {
    "service_request": "2022-876691",
    "request_type": "Trash/Recycling",
    "request_reason": "MIssed Recycling Pick-Up",
    "date_created": "2022-04-21T19:00:57.000",
    "date_modified": "2022-04-21T19:00:58.000",
    "request_status": "Pending",
    "responsible_agency": "Department of Sanitation",
    "final_address": "5826 Clara St",
    "address_councildis": "A",
    "status": "Assigned to Contractor",
    "contractor": "Richards Disposal",
    "rowid": "876691",
    "final_x": "3666914.57978",
    "final_y": "525225.735933",
    "longitude": "-90.11433743670578",
    "latitude": "29.938623284611396",
    "geocoded_column": {
      "latitude": "29.938623284611396",
      "longitude": "-90.11433743670578"
    }
  },
  {
    "service_request": "2022-876690",
    "request_type": "Trash/Recycling",
    "request_reason": "Missed Trash Pick-Up",
    "date_created": "2022-04-21T18:56:24.000",
    "date_modified": "2022-04-21T18:56:25.000",
    "request_status": "Pending",
    "responsible_agency": "Department of Sanitation",
    "final_address": "1729 1st St, New Orleans, Louisiana, 70113",
    "status": "Assigned to Contractor",
    "rowid": "876690",
    "longitude": "0.0",
    "latitude": "0.0",
    "geocoded_column": {
      "latitude": "0.0",
      "longitude": "0.0"
    }
  },
  {
    "service_request": "2022-876689",
    "request_type": "Abandoned Vehicles",
    "request_reason": "Abandoned/Junk Vehicles",
    "date_created": "2022-04-21T18:54:53.000",
    "date_modified": "2022-04-21T18:54:53.000",
    "request_status": "Pending",
    "responsible_agency": "Department of Public Works",
    "final_address": "2227 Joliet St",
    "address_councildis": "A",
    "status": "Pending",
    "rowid": "876689",
    "final_x": "3663433.85683",
    "final_y": "532053.229315",
    "longitude": "-90.12509921081808",
    "latitude": "29.95749805629031",
    "geocoded_column": {
      "latitude": "29.95749805629031",
      "longitude": "-90.12509921081808"
    }
  },
  {
    "service_request": "2022-876688",
    "request_type": "Trash/Recycling",
    "request_reason": "Missed Trash Pick-Up",
    "date_created": "2022-04-21T18:49:14.000",
    "date_modified": "2022-04-21T18:49:15.000",
    "request_status": "Pending",
    "responsible_agency": "Department of Sanitation",
    "final_address": "3207 Fern St",
    "address_councildis": "B",
    "status": "Assigned to Contractor",
    "contractor": "Richards Disposal",
    "rowid": "876688",
    "final_x": "3667423.12295",
    "final_y": "533174.643972",
    "longitude": "-90.11246451829744",
    "latitude": "29.960465310448548",
    "geocoded_column": {
      "latitude": "29.960465310448548",
      "longitude": "-90.11246451829744"
    }
  },
  {
    "service_request": "2022-876687",
    "request_type": "Trash/Recycling",
    "request_reason": "Missed Trash Pick-Up",
    "date_created": "2022-04-21T18:33:41.000",
    "date_modified": "2022-04-21T18:33:41.000",
    "request_status": "Pending",
    "responsible_agency": "Department of Sanitation",
    "final_address": "5629 Marshal Foch St",
    "address_councildis": "A",
    "status": "Assigned to Contractor",
    "contractor": "Metro Disposal",
    "rowid": "876687",
    "final_x": "3669645.75674",
    "final_y": "544568.408911",
    "longitude": "-90.10506019576123",
    "latitude": "29.99172901590333",
    "geocoded_column": {
      "latitude": "29.99172901590333",
      "longitude": "-90.10506019576123"
    }
  },
  {
    "service_request": "2022-876685",
    "request_type": "Trash/Recycling",
    "request_reason": "Missed Trash Pick-Up",
    "date_created": "2022-04-21T18:33:40.000",
    "date_modified": "2022-04-21T18:33:41.000",
    "request_status": "Pending",
    "responsible_agency": "Department of Sanitation",
    "final_address": "5629 Marshal Foch St",
    "address_councildis": "A",
    "status": "Assigned to Contractor",
    "contractor": "Metro Disposal",
    "rowid": "876685",
    "final_x": "3669645.75674",
    "final_y": "544568.408911",
    "longitude": "-90.10506019576123",
    "latitude": "29.99172901590333",
    "geocoded_column": {
      "latitude": "29.99172901590333",
      "longitude": "-90.10506019576123"
    }
  },
  {
    "service_request": "2022-876686",
    "request_type": "Trash/Recycling",
    "request_reason": "Missed Trash Pick-Up",
    "date_created": "2022-04-21T18:33:40.000",
    "date_modified": "2022-04-21T18:33:41.000",
    "request_status": "Pending",
    "responsible_agency": "Department of Sanitation",
    "final_address": "5629 Marshal Foch St",
    "address_councildis": "A",
    "status": "Assigned to Contractor",
    "contractor": "Metro Disposal",
    "rowid": "876686",
    "final_x": "3669645.75674",
    "final_y": "544568.408911",
    "longitude": "-90.10506019576123",
    "latitude": "29.99172901590333",
    "geocoded_column": {
      "latitude": "29.99172901590333",
      "longitude": "-90.10506019576123"
    }
  },
  {
    "service_request": "2022-876683",
    "request_type": "Trash/Recycling",
    "request_reason": "MIssed Recycling Pick-Up",
    "date_created": "2022-04-21T18:20:39.000",
    "date_modified": "2022-04-21T18:20:40.000",
    "request_status": "Pending",
    "responsible_agency": "Department of Sanitation",
    "final_address": "6220 Freret St, New Orleans, Louisiana, 70118",
    "address_councildis": "A",
    "status": "Assigned to Contractor",
    "contractor": "Richards Disposal",
    "rowid": "876683",
    "final_x": "3665733.71892",
    "final_y": "524645.390204",
    "longitude": "-90.11808498670464",
    "latitude": "29.93706200929093",
    "geocoded_column": {
      "latitude": "29.93706200929093",
      "longitude": "-90.11808498670464"
    }
  },
  {
    "service_request": "2022-876682",
    "request_type": "Abandoned Vehicles",
    "request_reason": "Abandoned/Junk Vehicles",
    "date_created": "2022-04-21T18:20:23.000",
    "date_modified": "2022-04-21T18:23:01.000",
    "request_status": "Pending",
    "responsible_agency": "Department of Public Works",
    "final_address": "2300 Bienville Ave",
    "address_councildis": "B",
    "status": "Pending",
    "rowid": "876682",
    "final_x": "3677097.55432",
    "final_y": "534677.650246",
    "longitude": "-90.08186276958943",
    "latitude": "29.964311090905422",
    "geocoded_column": {
      "latitude": "29.964311090905422",
      "longitude": "-90.08186276958943"
    }
  },
  {
    "service_request": "2022-876681",
    "request_type": "Trash/Recycling",
    "request_reason": "Missed Trash Pick-Up",
    "date_created": "2022-04-21T18:11:26.000",
    "date_modified": "2022-04-21T18:11:26.000",
    "request_status": "Pending",
    "responsible_agency": "Department of Sanitation",
    "final_address": "2419 Carondelet St",
    "address_councildis": "B",
    "status": "Assigned to Contractor",
    "contractor": "Richards Disposal",
    "rowid": "876681",
    "final_x": "3676554.22427",
    "final_y": "523452.236411",
    "longitude": "-90.08396508126619",
    "latitude": "29.93346124097848",
    "geocoded_column": {
      "latitude": "29.93346124097848",
      "longitude": "-90.08396508126619"
    }
  },
  {
    "service_request": "2022-876680",
    "request_type": "Trash/Recycling",
    "request_reason": "Missed Trash Pick-Up",
    "date_created": "2022-04-21T18:07:53.000",
    "date_modified": "2022-04-21T18:07:54.000",
    "request_status": "Pending",
    "responsible_agency": "Department of Sanitation",
    "final_address": "1518 First St",
    "address_councildis": "B",
    "status": "Assigned to Contractor",
    "contractor": "Richards Disposal",
    "rowid": "876680",
    "final_x": "3677116.83842",
    "final_y": "522905.006971",
    "longitude": "-90.08220780251573",
    "latitude": "29.93193965915099",
    "geocoded_column": {
      "latitude": "29.93193965915099",
      "longitude": "-90.08220780251573"
    }
  },
  {
    "service_request": "2022-876679",
    "request_type": "Roads/Drainage",
    "request_reason": "Street Subsidence (Sinking)",
    "date_created": "2022-04-21T17:54:25.000",
    "date_modified": "2022-04-21T17:54:25.000",
    "request_status": "Pending",
    "responsible_agency": "Department of Public Works",
    "final_address": "1100 Elysian Fields Ave",
    "address_councildis": "C",
    "status": "Pending",
    "rowid": "876679",
    "final_x": "3684785.76418",
    "final_y": "536405.767751",
    "longitude": "-90.0575233054216",
    "latitude": "29.96882968875892",
    "geocoded_column": {
      "latitude": "29.96882968875892",
      "longitude": "-90.0575233054216"
    }
  },
  {
    "service_request": "2022-876678",
    "request_type": "Trash/Recycling",
    "request_reason": "Request a Large Item Pick Up",
    "date_created": "2022-04-21T17:52:39.000",
    "date_modified": "2022-04-21T17:52:40.000",
    "request_status": "Pending",
    "responsible_agency": "Department of Sanitation",
    "final_address": "3645 Timber Ct",
    "address_councildis": "C",
    "status": "Assigned to Contractor",
    "contractor": "Richards Disposal",
    "rowid": "876678",
    "final_x": "3703852.34513",
    "final_y": "511577.066224",
    "longitude": "-89.99822393943118",
    "latitude": "29.8999619551589",
    "geocoded_column": {
      "latitude": "29.8999619551589",
      "longitude": "-89.99822393943118"
    }
  },
  {
    "service_request": "2022-876677",
    "request_type": "Traffic Signals/Signs/Striping/Streetlights",
    "request_reason": "Traffic Sign Missing/Damaged",
    "date_created": "2022-04-21T17:48:01.000",
    "date_modified": "2022-04-21T17:48:01.000",
    "request_status": "Pending",
    "responsible_agency": "Department of Public Works",
    "final_address": "SHORT ST & JEANNETTE ST",
    "address_councildis": "A",
    "status": "Pending",
    "rowid": "876677",
    "final_x": "3663006.7",
    "final_y": "528848.78",
    "longitude": "-90.12655462033501",
    "latitude": "29.948699233920145",
    "geocoded_column": {
      "latitude": "29.948699233920145",
      "longitude": "-90.12655462033501"
    }
  },
  {
    "service_request": "2022-876676",
    "request_type": "Trash/Recycling",
    "request_reason": "MIssed Recycling Pick-Up",
    "date_created": "2022-04-21T17:47:30.000",
    "date_modified": "2022-04-21T17:47:31.000",
    "request_status": "Pending",
    "responsible_agency": "Department of Sanitation",
    "final_address": "18 Richmond Pl",
    "address_councildis": "A",
    "status": "Assigned to Contractor",
    "contractor": "Richards Disposal",
    "rowid": "876676",
    "final_x": "3666565.54554",
    "final_y": "524105.339644",
    "longitude": "-90.11547697427197",
    "latitude": "29.935552758662038",
    "geocoded_column": {
      "latitude": "29.935552758662038",
      "longitude": "-90.11547697427197"
    }
  },
  {
    "service_request": "2022-876675",
    "request_type": "Traffic Signals/Signs/Striping/Streetlights",
    "request_reason": "Traffic Signal Malfunctioning/Damaged",
    "date_created": "2022-04-21T17:44:53.000",
    "date_modified": "2022-04-21T17:44:53.000",
    "request_status": "Pending",
    "responsible_agency": "Department of Public Works",
    "final_address": "PARIS AVE & ROBERT E LEE BLVD",
    "address_councildis": "D",
    "status": "Pending",
    "rowid": "876675",
    "final_x": "3678920.0",
    "final_y": "555408.68",
    "longitude": "-90.07538891488271",
    "latitude": "30.0212592709237",
    "geocoded_column": {
      "latitude": "30.0212592709237",
      "longitude": "-90.07538891488271"
    }
  },
  {
    "service_request": "2022-876673",
    "request_type": "Trash/Recycling",
    "request_reason": "Request a Large Item Pick Up",
    "date_created": "2022-04-21T17:36:00.000",
    "date_modified": "2022-04-21T17:36:01.000",
    "request_status": "Pending",
    "responsible_agency": "Department of Sanitation",
    "final_address": "3759 Herald St",
    "address_councildis": "C",
    "status": "Assigned to Contractor",
    "contractor": "Richards Disposal",
    "rowid": "876673",
    "final_x": "3702097.37245",
    "final_y": "517079.066357",
    "longitude": "-90.00356088097642",
    "latitude": "29.915146698727803",
    "geocoded_column": {
      "latitude": "29.915146698727803",
      "longitude": "-90.00356088097642"
    }
  },
  {
    "service_request": "2022-876672",
    "request_type": "Trash/Recycling",
    "request_reason": "Request a Large Item Pick Up",
    "date_created": "2022-04-21T17:31:21.000",
    "date_modified": "2022-04-21T17:31:22.000",
    "request_status": "Pending",
    "responsible_agency": "Department of Sanitation",
    "final_address": "3622 Monroe St",
    "address_councildis": "A",
    "status": "Assigned to Contractor",
    "contractor": "Richards Disposal",
    "rowid": "876672",
    "final_x": "3666242.98874",
    "final_y": "536305.213895",
    "longitude": "-90.1160861393137",
    "latitude": "29.969107865874843",
    "geocoded_column": {
      "latitude": "29.969107865874843",
      "longitude": "-90.1160861393137"
    }
  },
  {
    "service_request": "2022-876671",
    "request_type": "Trash/Recycling",
    "request_reason": "Repair Trash Cart",
    "date_created": "2022-04-21T17:23:56.000",
    "date_modified": "2022-04-21T17:23:57.000",
    "request_status": "Pending",
    "responsible_agency": "Department of Sanitation",
    "final_address": "538 Huntlee Dr",
    "address_councildis": "C",
    "status": "Assigned to Contractor",
    "contractor": "Richards Disposal",
    "rowid": "876671",
    "final_x": "3701867.01489",
    "final_y": "521067.971193",
    "longitude": "-90.00414191758847",
    "latitude": "29.926122164854185",
    "geocoded_column": {
      "latitude": "29.926122164854185",
      "longitude": "-90.00414191758847"
    }
  },
  {
    "service_request": "2022-876670",
    "request_type": "Trash/Recycling",
    "request_reason": "MIssed Recycling Pick-Up",
    "date_created": "2022-04-21T17:20:18.000",
    "date_modified": "2022-04-21T17:20:18.000",
    "request_status": "Pending",
    "responsible_agency": "Department of Sanitation",
    "final_address": "7920 Forshey St",
    "address_councildis": "B",
    "status": "Assigned to Contractor",
    "contractor": "Richards Disposal",
    "rowid": "876670",
    "final_x": "3667434.12033",
    "final_y": "533486.52986",
    "longitude": "-90.11241929667231",
    "latitude": "29.96132257164784",
    "geocoded_column": {
      "latitude": "29.96132257164784",
      "longitude": "-90.11241929667231"
    }
  },
  {
    "service_request": "2022-876669",
    "request_type": "Trash/Recycling",
    "request_reason": "Order Trash Cart",
    "date_created": "2022-04-21T17:19:23.000",
    "date_modified": "2022-04-21T17:19:24.000",
    "request_status": "Pending",
    "responsible_agency": "Department of Sanitation",
    "final_address": "2343 Prentiss Ave",
    "address_councildis": "D",
    "status": "Assigned to Contractor",
    "contractor": "Metro Disposal",
    "rowid": "876669",
    "final_x": "3684710.60181",
    "final_y": "553997.883096",
    "longitude": "-90.05714190118718",
    "latitude": "30.01720402938333",
    "geocoded_column": {
      "latitude": "30.01720402938333",
      "longitude": "-90.05714190118718"
    }
  },
  {
    "service_request": "2022-876668",
    "request_type": "Trash/Recycling",
    "request_reason": "Missed Trash Pick-Up",
    "date_created": "2022-04-21T17:18:59.000",
    "date_modified": "2022-04-21T17:19:00.000",
    "request_status": "Pending",
    "responsible_agency": "Department of Sanitation",
    "final_address": "7920 Forshey St",
    "address_councildis": "B",
    "status": "Assigned to Contractor",
    "contractor": "Richards Disposal",
    "rowid": "876668",
    "final_x": "3667434.12033",
    "final_y": "533486.52986",
    "longitude": "-90.11241929667231",
    "latitude": "29.96132257164784",
    "geocoded_column": {
      "latitude": "29.96132257164784",
      "longitude": "-90.11241929667231"
    }
  },
  {
    "service_request": "2022-876667",
    "request_type": "Trash/Recycling",
    "request_reason": "Illegal Dumping",
    "date_created": "2022-04-21T17:13:19.000",
    "date_modified": "2022-04-21T17:13:19.000",
    "request_status": "Pending",
    "responsible_agency": "Department of Sanitation",
    "final_address": "271 Westpark Ct",
    "address_councildis": "C",
    "status": "Pending",
    "rowid": "876667",
    "final_x": "3696155.65411",
    "final_y": "522418.759546",
    "longitude": "-90.02212214286969",
    "latitude": "29.930017308849592",
    "geocoded_column": {
      "latitude": "29.930017308849592",
      "longitude": "-90.02212214286969"
    }
  },
  {
    "service_request": "2022-876666",
    "request_type": "Trash/Recycling",
    "request_reason": "MIssed Recycling Pick-Up",
    "date_created": "2022-04-21T17:12:58.000",
    "date_modified": "2022-04-21T17:12:58.000",
    "request_status": "Pending",
    "responsible_agency": "Department of Sanitation",
    "final_address": "2824 Calhoun St",
    "address_councildis": "A",
    "status": "Assigned to Contractor",
    "contractor": "Richards Disposal",
    "rowid": "876666",
    "final_x": "3666618.59533",
    "final_y": "527138.943231",
    "longitude": "-90.11520768200867",
    "latitude": "29.943892644482503",
    "geocoded_column": {
      "latitude": "29.943892644482503",
      "longitude": "-90.11520768200867"
    }
  },
  {
    "service_request": "2022-876665",
    "request_type": "Abandoned Vehicles",
    "request_reason": "Abandoned/Junk Vehicles",
    "date_created": "2022-04-21T17:07:04.000",
    "date_modified": "2022-04-21T17:07:04.000",
    "request_status": "Pending",
    "responsible_agency": "Department of Public Works",
    "final_address": "5531 Burgundy St",
    "address_councildis": "E",
    "status": "Pending",
    "rowid": "876665",
    "final_x": "3697765.892",
    "final_y": "533057.055236",
    "longitude": "-90.0166530147609",
    "latitude": "29.959218146197905",
    "geocoded_column": {
      "latitude": "29.959218146197905",
      "longitude": "-90.0166530147609"
    }
  },
  {
    "service_request": "2022-876664",
    "request_type": "Trash/Recycling",
    "request_reason": "Missed Trash Pick-Up",
    "date_created": "2022-04-21T17:03:06.000",
    "date_modified": "2022-04-21T17:03:07.000",
    "request_status": "Pending",
    "responsible_agency": "Department of Sanitation",
    "final_address": "76 Versailles Blvd",
    "address_councildis": "B",
    "status": "Assigned to Contractor",
    "contractor": "Richards Disposal",
    "rowid": "876664",
    "final_x": "3667859.38644",
    "final_y": "530665.146434",
    "longitude": "-90.11117140524786",
    "latitude": "29.953552227979444",
    "geocoded_column": {
      "latitude": "29.953552227979444",
      "longitude": "-90.11117140524786"
    }
  },
  {
    "service_request": "2022-876663",
    "request_type": "Traffic Signals/Signs/Striping/Streetlights",
    "request_reason": "Additional signage",
    "date_created": "2022-04-21T16:57:15.000",
    "date_modified": "2022-04-21T16:57:15.000",
    "request_status": "Pending",
    "responsible_agency": "Department of Public Works",
    "final_address": "GARDENA DR & PERLITA ST",
    "address_councildis": "D",
    "status": "Pending",
    "rowid": "876663",
    "final_x": "3678567.1",
    "final_y": "551509.38",
    "longitude": "-90.07663910771143",
    "latitude": "30.01054825293088",
    "geocoded_column": {
      "latitude": "30.01054825293088",
      "longitude": "-90.07663910771143"
    }
  },
  {
    "service_request": "2022-876662",
    "request_type": "Property Maintenance",
    "request_reason": "Property Maintenance",
    "date_created": "2022-04-21T16:56:36.000",
    "date_modified": "2022-04-21T16:56:36.000",
    "request_status": "Pending",
    "responsible_agency": "Department of Code Enforcement",
    "final_address": "6800 S Interstate 10 Service Rd",
    "address_councildis": "E",
    "status": "Pending",
    "rowid": "876662",
    "final_x": "3699572.72151",
    "final_y": "556889.258906",
    "longitude": "-90.01007843819505",
    "latitude": "30.02469069419991",
    "geocoded_column": {
      "latitude": "30.02469069419991",
      "longitude": "-90.01007843819505"
    }
  },
  {
    "service_request": "2022-876661",
    "request_type": "Abandoned Vehicles",
    "request_reason": "Abandoned/Junk Vehicles",
    "date_created": "2022-04-21T16:56:23.000",
    "date_modified": "2022-04-21T16:56:23.000",
    "request_status": "Pending",
    "responsible_agency": "Department of Public Works",
    "final_address": "5531 Burgundy St",
    "address_councildis": "E",
    "status": "Pending",
    "rowid": "876661",
    "final_x": "3697765.892",
    "final_y": "533057.055236",
    "longitude": "-90.0166530147609",
    "latitude": "29.959218146197905",
    "geocoded_column": {
      "latitude": "29.959218146197905",
      "longitude": "-90.0166530147609"
    }
  },
  {
    "service_request": "2022-876660",
    "request_type": "Property Maintenance",
    "request_reason": "Property Maintenance",
    "date_created": "2022-04-21T16:52:43.000",
    "date_modified": "2022-04-21T16:52:43.000",
    "request_status": "Pending",
    "responsible_agency": "Department of Code Enforcement",
    "final_address": "7939 Bass St",
    "address_councildis": "E",
    "status": "Pending",
    "rowid": "876660",
    "final_x": "3719501.37183",
    "final_y": "574400.994411",
    "longitude": "-89.94643833647199",
    "latitude": "30.072192895115084",
    "geocoded_column": {
      "latitude": "30.072192895115084",
      "longitude": "-89.94643833647199"
    }
  },
  {
    "service_request": "2022-876659",
    "request_type": "Trash/Recycling",
    "request_reason": "MIssed Recycling Pick-Up",
    "date_created": "2022-04-21T16:47:58.000",
    "date_modified": "2022-04-21T16:47:58.000",
    "request_status": "Pending",
    "responsible_agency": "Department of Sanitation",
    "final_address": "2724 Octavia St",
    "address_councildis": "A",
    "status": "Assigned to Contractor",
    "contractor": "Richards Disposal",
    "rowid": "876659",
    "final_x": "3667879.03162",
    "final_y": "525583.159933",
    "longitude": "-90.11128051480009",
    "latitude": "29.93957783801998",
    "geocoded_column": {
      "latitude": "29.93957783801998",
      "longitude": "-90.11128051480009"
    }
  },
  {
    "service_request": "2022-876658",
    "request_type": "Trash/Recycling",
    "request_reason": "MIssed Recycling Pick-Up",
    "date_created": "2022-04-21T16:47:31.000",
    "date_modified": "2022-04-21T16:47:32.000",
    "request_status": "Pending",
    "responsible_agency": "Department of Sanitation",
    "final_address": "5827 Magnolia St",
    "address_councildis": "A",
    "status": "Assigned to Contractor",
    "contractor": "Richards Disposal",
    "rowid": "876658",
    "final_x": "3666841.47911",
    "final_y": "525000.547517",
    "longitude": "-90.11457578599395",
    "latitude": "29.93800622681478",
    "geocoded_column": {
      "latitude": "29.93800622681478",
      "longitude": "-90.11457578599395"
    }
  },
  {
    "service_request": "2022-876657",
    "request_type": "Trash/Recycling",
    "request_reason": "Order Recycling Cart",
    "date_created": "2022-04-21T16:46:59.000",
    "date_modified": "2022-04-21T16:46:59.000",
    "request_status": "Pending",
    "responsible_agency": "Department of Sanitation",
    "final_address": "2620 Jefferson Ave",
    "address_councildis": "A",
    "status": "Pending",
    "rowid": "876657",
    "final_x": "3668065.72954",
    "final_y": "525169.983549",
    "longitude": "-90.11070500078586",
    "latitude": "29.938436259588826",
    "geocoded_column": {
      "latitude": "29.938436259588826",
      "longitude": "-90.11070500078586"
    }
  },
  {
    "service_request": "2022-876656",
    "request_type": "Trash/Recycling",
    "request_reason": "Request a Large Item Pick Up",
    "date_created": "2022-04-21T16:45:42.000",
    "date_modified": "2022-04-21T16:45:43.000",
    "request_status": "Pending",
    "responsible_agency": "Department of Sanitation",
    "final_address": "6701 Louisville St, New Orleans, Louisiana, 70124",
    "address_councildis": "A",
    "status": "Assigned to Contractor",
    "contractor": "Metro Disposal",
    "rowid": "876656",
    "final_x": "3668245.39457",
    "final_y": "552163.965846",
    "longitude": "-90.1092273399035",
    "latitude": "30.01265536264591",
    "geocoded_column": {
      "latitude": "30.01265536264591",
      "longitude": "-90.1092273399035"
    }
  },
  {
    "service_request": "2022-876655",
    "request_type": "Roads/Drainage",
    "request_reason": "Pothole",
    "date_created": "2022-04-21T16:34:28.000",
    "date_modified": "2022-04-21T16:34:28.000",
    "request_status": "Pending",
    "responsible_agency": "Department of Public Works",
    "final_address": "1440 Louisa St",
    "address_councildis": "C",
    "status": "Pending",
    "rowid": "876655",
    "final_x": "3689886.6824",
    "final_y": "537311.605448",
    "longitude": "-90.04138208824197",
    "latitude": "29.971163271124677",
    "geocoded_column": {
      "latitude": "29.971163271124677",
      "longitude": "-90.04138208824197"
    }
  },
  {
    "service_request": "2022-876654",
    "request_type": "Abandoned Vehicles",
    "request_reason": "Abandoned/Junk Vehicles",
    "date_created": "2022-04-21T16:25:46.000",
    "date_modified": "2022-04-21T16:25:46.000",
    "request_status": "Pending",
    "responsible_agency": "Department of Public Works",
    "final_address": "914 Piety St",
    "address_councildis": "C",
    "status": "Pending",
    "rowid": "876654",
    "final_x": "3689639.37078",
    "final_y": "535140.106374",
    "longitude": "-90.042240401619",
    "latitude": "29.965200075658636",
    "geocoded_column": {
      "latitude": "29.965200075658636",
      "longitude": "-90.042240401619"
    }
  },
  {
    "service_request": "2022-876653",
    "request_type": "Trash/Recycling",
    "request_reason": "Missed Trash Pick-Up",
    "date_created": "2022-04-21T16:22:07.000",
    "date_modified": "2022-04-21T16:22:08.000",
    "request_status": "Pending",
    "responsible_agency": "Department of Sanitation",
    "final_address": "1118 Fourth St",
    "address_councildis": "B",
    "status": "Assigned to Contractor",
    "contractor": "Richards Disposal",
    "rowid": "876653",
    "final_x": "3677169.36782",
    "final_y": "521105.730297",
    "longitude": "-90.08210399821482",
    "latitude": "29.926990657273855",
    "geocoded_column": {
      "latitude": "29.926990657273855",
      "longitude": "-90.08210399821482"
    }
  },
  {
    "service_request": "2022-876652",
    "request_type": "Trash/Recycling",
    "request_reason": "Missed Trash Pick-Up",
    "date_created": "2022-04-21T16:20:36.000",
    "date_modified": "2022-04-21T16:20:37.000",
    "request_status": "Pending",
    "responsible_agency": "Department of Sanitation",
    "final_address": "1900 BLK Josephine St",
    "address_councildis": "B",
    "status": "Assigned to Contractor",
    "contractor": "Richards Disposal",
    "rowid": "876652",
    "final_x": "3677031.90443",
    "final_y": "525087.988982",
    "longitude": "-90.08240069532373",
    "latitude": "29.937944694110026",
    "geocoded_column": {
      "latitude": "29.937944694110026",
      "longitude": "-90.08240069532373"
    }
  },
  {
    "service_request": "2022-876651",
    "request_type": "Safety & Permits",
    "request_reason": "Licenses & Permits",
    "date_created": "2022-04-21T16:19:50.000",
    "date_modified": "2022-04-21T16:19:50.000",
    "request_status": "Pending",
    "responsible_agency": "Safety and Permits",
    "final_address": "3111 Grand Route St John St",
    "address_councildis": "A",
    "status": "Pending",
    "rowid": "876651",
    "final_x": "3676507.66805",
    "final_y": "540406.357323",
    "longitude": "-90.0835282619005",
    "latitude": "29.980080781175236",
    "geocoded_column": {
      "latitude": "29.980080781175236",
      "longitude": "-90.0835282619005"
    }
  },
  {
    "service_request": "2022-876650",
    "request_type": "Trash/Recycling",
    "request_reason": "Missed Trash Pick-Up",
    "date_created": "2022-04-21T16:19:43.000",
    "date_modified": "2022-04-21T16:19:44.000",
    "request_status": "Pending",
    "responsible_agency": "Department of Sanitation",
    "final_address": "1222 Treme St",
    "address_councildis": "C",
    "status": "Assigned to Contractor",
    "contractor": "Richards Disposal",
    "rowid": "876650",
    "final_x": "3682092.53461",
    "final_y": "535425.059078",
    "longitude": "-90.06606293714056",
    "latitude": "29.96621525705201",
    "geocoded_column": {
      "latitude": "29.96621525705201",
      "longitude": "-90.06606293714056"
    }
  },
  {
    "service_request": "2022-876649",
    "request_type": "Trash/Recycling",
    "request_reason": "Order Trash Cart",
    "date_created": "2022-04-21T16:17:35.000",
    "date_modified": "2022-04-21T16:17:36.000",
    "request_status": "Pending",
    "responsible_agency": "Department of Sanitation",
    "final_address": "1222 Treme St",
    "address_councildis": "C",
    "status": "Assigned to Contractor",
    "contractor": "Richards Disposal",
    "rowid": "876649",
    "final_x": "3682092.53461",
    "final_y": "535425.059078",
    "longitude": "-90.06606293714056",
    "latitude": "29.96621525705201",
    "geocoded_column": {
      "latitude": "29.96621525705201",
      "longitude": "-90.06606293714056"
    }
  },
  {
    "service_request": "2022-876648",
    "request_type": "Trash/Recycling",
    "request_reason": "Request a Large Item Pick Up",
    "date_created": "2022-04-21T16:11:18.000",
    "date_modified": "2022-04-21T16:13:14.000",
    "request_status": "Pending",
    "responsible_agency": "Department of Sanitation",
    "final_address": "4956 Copernicus St",
    "address_councildis": "C",
    "status": "Assigned to Contractor",
    "contractor": "Richards Disposal",
    "rowid": "876648",
    "final_x": "3702445.32164",
    "final_y": "522514.981114",
    "longitude": "-90.00226332185771",
    "latitude": "29.93008248156346",
    "geocoded_column": {
      "latitude": "29.93008248156346",
      "longitude": "-90.00226332185771"
    }
  },
  {
    "service_request": "2022-876647",
    "request_type": "Trash/Recycling",
    "request_reason": "Missed Trash Pick-Up",
    "date_created": "2022-04-21T16:09:59.000",
    "date_modified": "2022-04-21T16:10:00.000",
    "request_status": "Pending",
    "responsible_agency": "Department of Sanitation",
    "final_address": "1218 Race St",
    "address_councildis": "B",
    "status": "Assigned to Contractor",
    "contractor": "Richards Disposal",
    "rowid": "876647",
    "final_x": "3679562.20181",
    "final_y": "523954.95238",
    "longitude": "-90.07445163294042",
    "latitude": "29.93475301917532",
    "geocoded_column": {
      "latitude": "29.93475301917532",
      "longitude": "-90.07445163294042"
    }
  },
  {
    "service_request": "2022-876646",
    "request_type": "Trash/Recycling",
    "request_reason": "Request a Large Item Pick Up",
    "date_created": "2022-04-21T16:02:27.000",
    "date_modified": "2022-04-21T16:02:31.000",
    "request_status": "Pending",
    "responsible_agency": "Department of Sanitation",
    "final_address": "4432 Perlita St",
    "address_councildis": "D",
    "status": "Assigned to Contractor",
    "contractor": "Metro Disposal",
    "rowid": "876646",
    "final_x": "3678690.03323",
    "final_y": "548886.230419",
    "longitude": "-90.07634162910945",
    "latitude": "30.003331821719847",
    "geocoded_column": {
      "latitude": "30.003331821719847",
      "longitude": "-90.07634162910945"
    }
  },
  {
    "service_request": "2022-876645",
    "request_type": "Parks & Parkways",
    "request_reason": "Request Tree Service (Right of Way/Public Property)",
    "date_created": "2022-04-21T15:56:28.000",
    "date_modified": "2022-04-21T15:58:05.000",
    "case_close_date": "2022-04-21T10:58:05.000",
    "request_status": "Closed",
    "responsible_agency": "Department of Parks & Parkway",
    "final_address": "119 Audubon Blvd",
    "address_councildis": "A",
    "status": "Resolved",
    "rowid": "876645",
    "final_x": "3666037.95655",
    "final_y": "527874.220031",
    "longitude": "-90.11701628163928",
    "latitude": "29.945931378710476",
    "geocoded_column": {
      "latitude": "29.945931378710476",
      "longitude": "-90.11701628163928"
    }
  },
  {
    "service_request": "2022-876644",
    "request_type": "Trash/Recycling",
    "request_reason": "Request a Large Item Pick Up",
    "date_created": "2022-04-21T15:50:44.000",
    "date_modified": "2022-04-21T15:50:45.000",
    "request_status": "Pending",
    "responsible_agency": "Department of Sanitation",
    "final_address": "3817 Palmyra St",
    "address_councildis": "A",
    "status": "Assigned to Contractor",
    "contractor": "Richards Disposal",
    "rowid": "876644",
    "final_x": "3671489.92289",
    "final_y": "537096.625288",
    "longitude": "-90.09948899924301",
    "latitude": "29.971129674039933",
    "geocoded_column": {
      "latitude": "29.971129674039933",
      "longitude": "-90.09948899924301"
    }
  },
  {
    "service_request": "2022-876643",
    "request_type": "Trash/Recycling",
    "request_reason": "Order Trash Cart",
    "date_created": "2022-04-21T15:44:12.000",
    "date_modified": "2022-04-21T15:44:13.000",
    "request_status": "Pending",
    "responsible_agency": "Department of Sanitation",
    "final_address": "2726 S Carrollton Ave",
    "address_councildis": "A",
    "status": "Assigned to Contractor",
    "contractor": "Richards Disposal",
    "rowid": "876643",
    "final_x": "3665735.94087",
    "final_y": "532532.562372",
    "longitude": "-90.11781382706118",
    "latitude": "29.95874911816156",
    "geocoded_column": {
      "latitude": "29.95874911816156",
      "longitude": "-90.11781382706118"
    }
  },
  {
    "service_request": "2022-876642",
    "request_type": "Trash/Recycling",
    "request_reason": "Order Trash Cart",
    "date_created": "2022-04-21T15:41:01.000",
    "date_modified": "2022-04-21T17:18:17.000",
    "request_status": "Pending",
    "responsible_agency": "Department of Sanitation",
    "final_address": "New Orleans,LA",
    "address_councildis": "A",
    "status": "Assigned to Contractor",
    "contractor": "Richards Disposal",
    "rowid": "876642",
    "final_x": "3665560.55757",
    "final_y": "520789.130745",
    "longitude": "-90.11876071632521",
    "latitude": "29.92646356748564",
    "geocoded_column": {
      "latitude": "29.92646356748564",
      "longitude": "-90.11876071632521"
    }
  },
  {
    "service_request": "2022-876641",
    "request_type": "Parks & Parkways",
    "request_reason": "Request Tree Service (Right of Way/Public Property)",
    "date_created": "2022-04-21T15:40:46.000",
    "date_modified": "2022-04-21T15:40:46.000",
    "request_status": "Pending",
    "responsible_agency": "Department of Parks & Parkway",
    "final_address": "3803 Camp St",
    "address_councildis": "B",
    "status": "Pending",
    "rowid": "876641",
    "final_x": "3673224.18747",
    "final_y": "519452.166455",
    "longitude": "-90.0946143520829",
    "latitude": "29.922561754824233",
    "geocoded_column": {
      "latitude": "29.922561754824233",
      "longitude": "-90.0946143520829"
    }
  },
  {
    "service_request": "2022-876640",
    "request_type": "Trash/Recycling",
    "request_reason": "Replace Trash Cart",
    "date_created": "2022-04-21T15:40:03.000",
    "date_modified": "2022-04-21T15:40:04.000",
    "request_status": "Pending",
    "responsible_agency": "Department of Sanitation",
    "final_address": "1700 Frenchmen St, New Orleans, Louisiana, 70116",
    "address_councildis": "D",
    "status": "Assigned to Contractor",
    "contractor": "Metro Disposal",
    "rowid": "876640",
    "final_x": "3684379.23957",
    "final_y": "538511.813833",
    "longitude": "-90.05873314920596",
    "latitude": "29.974633022584438",
    "geocoded_column": {
      "latitude": "29.974633022584438",
      "longitude": "-90.05873314920596"
    }
  },
  {
    "service_request": "2022-876639",
    "request_type": "Trash/Recycling",
    "request_reason": "Missed Trash Pick-Up",
    "date_created": "2022-04-21T15:39:00.000",
    "date_modified": "2022-04-21T15:39:00.000",
    "request_status": "Pending",
    "responsible_agency": "Department of Sanitation",
    "final_address": "4311 Fontainebleau Dr",
    "address_councildis": "B",
    "status": "Assigned to Contractor",
    "contractor": "Richards Disposal",
    "rowid": "876639",
    "final_x": "3669428.77799",
    "final_y": "529502.815681",
    "longitude": "-90.1062552174768",
    "latitude": "29.950310078720953",
    "geocoded_column": {
      "latitude": "29.950310078720953",
      "longitude": "-90.1062552174768"
    }
  },
  {
    "service_request": "2022-876638",
    "request_type": "Trash/Recycling",
    "request_reason": "Request a Large Item Pick Up",
    "date_created": "2022-04-21T15:36:10.000",
    "date_modified": "2022-04-21T15:36:13.000",
    "request_status": "Pending",
    "responsible_agency": "Department of Sanitation",
    "final_address": "2309 New Orleans St",
    "address_councildis": "D",
    "status": "Assigned to Contractor",
    "contractor": "Metro Disposal",
    "rowid": "876638",
    "final_x": "3682082.94607",
    "final_y": "540606.392459",
    "longitude": "-90.06591223049737",
    "latitude": "29.980462419852746",
    "geocoded_column": {
      "latitude": "29.980462419852746",
      "longitude": "-90.06591223049737"
    }
  },
  {
    "service_request": "2022-876637",
    "request_type": "Abandoned Vehicles",
    "request_reason": "Abandoned/Junk Vehicles",
    "date_created": "2022-04-21T15:35:15.000",
    "date_modified": "2022-04-21T15:38:14.000",
    "request_status": "Pending",
    "responsible_agency": "Department of Public Works",
    "final_address": "JACKSON AVE & DANNEEL ST",
    "address_councildis": "B",
    "status": "Pending",
    "rowid": "876637",
    "final_x": "3676646.0",
    "final_y": "524972.38",
    "longitude": "-90.08362300995661",
    "latitude": "29.937638386042135",
    "geocoded_column": {
      "latitude": "29.937638386042135",
      "longitude": "-90.08362300995661"
    }
  },
  {
    "service_request": "2022-876635",
    "request_type": "Trash/Recycling",
    "request_reason": "Replace Trash Cart",
    "date_created": "2022-04-21T15:28:49.000",
    "date_modified": "2022-04-21T15:28:54.000",
    "request_status": "Pending",
    "responsible_agency": "Department of Sanitation",
    "final_address": "4602 Camp St",
    "address_councildis": "B",
    "status": "Assigned to Contractor",
    "contractor": "Richards Disposal",
    "rowid": "876635",
    "final_x": "3670230.41025",
    "final_y": "519032.503671",
    "longitude": "-90.10407874062051",
    "latitude": "29.92149646769074",
    "geocoded_column": {
      "latitude": "29.92149646769074",
      "longitude": "-90.10407874062051"
    }
  },
  {
    "service_request": "2022-876634",
    "request_type": "Trash/Recycling",
    "request_reason": "Missed Trash Pick-Up",
    "date_created": "2022-04-21T15:27:31.000",
    "date_modified": "2022-04-21T15:27:32.000",
    "request_status": "Pending",
    "responsible_agency": "Department of Sanitation",
    "final_address": "4969 Metropolitan Dr",
    "address_councildis": "D",
    "status": "Assigned to Contractor",
    "contractor": "Metro Disposal",
    "rowid": "876634",
    "final_x": "3690543.00496",
    "final_y": "551996.416534",
    "longitude": "-90.03878538648146",
    "latitude": "30.01152083524177",
    "geocoded_column": {
      "latitude": "30.01152083524177",
      "longitude": "-90.03878538648146"
    }
  },
  {
    "service_request": "2022-876633",
    "request_type": "Property Maintenance",
    "request_reason": "Property Maintenance",
    "date_created": "2022-04-21T15:24:39.000",
    "date_modified": "2022-04-21T15:24:39.000",
    "request_status": "Pending",
    "responsible_agency": "Department of Code Enforcement",
    "final_address": "8326 Chef Menteur Hwy",
    "address_councildis": "E",
    "status": "Pending",
    "rowid": "876633",
    "final_x": "3706174.12689",
    "final_y": "553005.617687",
    "longitude": "-89.9893632249501",
    "latitude": "30.013800911153808",
    "geocoded_column": {
      "latitude": "30.013800911153808",
      "longitude": "-89.9893632249501"
    }
  },
  {
    "service_request": "2022-876632",
    "request_type": "Property Maintenance",
    "request_reason": "Property Maintenance",
    "date_created": "2022-04-21T15:21:36.000",
    "date_modified": "2022-04-21T15:21:37.000",
    "request_status": "Pending",
    "responsible_agency": "Department of Code Enforcement",
    "final_address": "2614 St Claude Ave",
    "address_councildis": "C",
    "status": "Pending",
    "rowid": "876632",
    "final_x": "3687260.29174",
    "final_y": "536391.462983",
    "longitude": "-90.04970911962272",
    "latitude": "29.968714364924857",
    "geocoded_column": {
      "latitude": "29.968714364924857",
      "longitude": "-90.04970911962272"
    }
  },
  {
    "service_request": "2022-876631",
    "request_type": "Abandoned Vehicles",
    "request_reason": "Abandoned/Junk Vehicles",
    "date_created": "2022-04-21T15:16:43.000",
    "date_modified": "2022-04-21T15:21:06.000",
    "case_close_date": "2022-04-21T10:21:06.000",
    "request_status": "Closed",
    "responsible_agency": "Department of Public Works",
    "final_address": "10200 Almonaster Ave",
    "address_councildis": "E",
    "status": "Pending",
    "rowid": "876631",
    "final_x": "3713684.56383",
    "final_y": "551626.395989",
    "longitude": "-89.96568637555853",
    "latitude": "30.00976423388402",
    "geocoded_column": {
      "latitude": "30.00976423388402",
      "longitude": "-89.96568637555853"
    }
  },
  {
    "service_request": "2022-876630",
    "request_type": "Trash/Recycling",
    "request_reason": "Request a Large Item Pick Up",
    "date_created": "2022-04-21T15:14:20.000",
    "date_modified": "2022-04-21T15:14:21.000",
    "request_status": "Pending",
    "responsible_agency": "Department of Sanitation",
    "final_address": "4400 Alba Rd",
    "address_councildis": "E",
    "status": "Assigned to Contractor",
    "contractor": "Metro Disposal",
    "rowid": "876630",
    "final_x": "3761536.34889",
    "final_y": "573082.416425",
    "longitude": "-89.8136105372372",
    "latitude": "30.067101456335692",
    "geocoded_column": {
      "latitude": "30.067101456335692",
      "longitude": "-89.8136105372372"
    }
  },
  {
    "service_request": "2022-876629",
    "request_type": "Traffic Signals/Signs/Striping/Streetlights",
    "request_reason": "Street Light Outage/Malfunction",
    "date_created": "2022-04-21T15:11:42.000",
    "date_modified": "2022-04-21T15:11:43.000",
    "request_status": "Pending",
    "responsible_agency": "Department of Public Works",
    "final_address": "841 Poland Ave",
    "address_councildis": "C",
    "status": "Pending",
    "contractor": "Royal Engineering",
    "rowid": "876629",
    "final_x": "3692886.2319",
    "final_y": "534149.390213",
    "longitude": "-90.0320225606901",
    "latitude": "29.96237496067432",
    "geocoded_column": {
      "latitude": "29.96237496067432",
      "longitude": "-90.0320225606901"
    }
  },
  {
    "service_request": "2022-876628",
    "request_type": "Trash/Recycling",
    "request_reason": "Missed Trash Pick-Up",
    "date_created": "2022-04-21T15:03:55.000",
    "date_modified": "2022-04-21T15:03:55.000",
    "request_status": "Pending",
    "responsible_agency": "Department of Sanitation",
    "final_address": "3332 Fern St",
    "address_councildis": "B",
    "status": "Assigned to Contractor",
    "contractor": "Richards Disposal",
    "rowid": "876628",
    "final_x": "3667739.72749",
    "final_y": "533619.235013",
    "longitude": "-90.11144977095482",
    "latitude": "29.96167850974573",
    "geocoded_column": {
      "latitude": "29.96167850974573",
      "longitude": "-90.11144977095482"
    }
  },
  {
    "service_request": "2022-876627",
    "request_type": "Abandoned Vehicles",
    "request_reason": "Abandoned/Junk Vehicles",
    "date_created": "2022-04-21T14:57:50.000",
    "date_modified": "2022-04-21T15:00:45.000",
    "request_status": "Pending",
    "responsible_agency": "Department of Public Works",
    "final_address": "5200 BLK Revel St",
    "address_councildis": "E",
    "status": "Pending",
    "rowid": "876627",
    "final_x": "3725072.52062",
    "final_y": "562765.091121",
    "longitude": "-89.92927706075099",
    "latitude": "30.040012465437115",
    "geocoded_column": {
      "latitude": "30.040012465437115",
      "longitude": "-89.92927706075099"
    }
  },
  {
    "service_request": "2022-876626",
    "request_type": "Trash/Recycling",
    "request_reason": "Dead Animal Pick Up",
    "date_created": "2022-04-21T14:56:24.000",
    "date_modified": "2022-04-21T14:56:26.000",
    "request_status": "Pending",
    "responsible_agency": "Department of Sanitation",
    "final_address": "928 S Cortez St",
    "address_councildis": "B",
    "status": "Assigned to Contractor",
    "contractor": "Richards Disposal",
    "rowid": "876626",
    "final_x": "3669834.8098",
    "final_y": "534514.853765",
    "longitude": "-90.10480350386855",
    "latitude": "29.964079566573314",
    "geocoded_column": {
      "latitude": "29.964079566573314",
      "longitude": "-90.10480350386855"
    }
  },
  {
    "service_request": "2022-876625",
    "request_type": "Traffic Signals/Signs/Striping/Streetlights",
    "request_reason": "Street Light Outage/Malfunction",
    "date_created": "2022-04-21T14:55:33.000",
    "date_modified": "2022-04-21T17:05:31.000",
    "request_status": "Pending",
    "responsible_agency": "Department of Public Works",
    "final_address": "New Orleans,LA",
    "address_councildis": "A",
    "status": "Pending",
    "contractor": "Royal Engineering",
    "rowid": "876625",
    "final_x": "3668591.19188",
    "final_y": "538483.697481",
    "longitude": "-90.10859678922827",
    "latitude": "29.97502916585339",
    "geocoded_column": {
      "latitude": "29.97502916585339",
      "longitude": "-90.10859678922827"
    }
  },
  {
    "service_request": "2022-876624",
    "request_type": "Trash/Recycling",
    "request_reason": "MIssed Recycling Pick-Up",
    "date_created": "2022-04-21T14:55:09.000",
    "date_modified": "2022-04-21T14:55:11.000",
    "request_status": "Pending",
    "responsible_agency": "Department of Sanitation",
    "final_address": "633 S Dupre St",
    "address_councildis": "B",
    "status": "Assigned to Contractor",
    "contractor": "Richards Disposal",
    "rowid": "876624",
    "final_x": "3673230.92424",
    "final_y": "533989.234693",
    "longitude": "-90.09409680717329",
    "latitude": "29.962533732794363",
    "geocoded_column": {
      "latitude": "29.962533732794363",
      "longitude": "-90.09409680717329"
    }
  },
  {
    "service_request": "2022-876623",
    "request_type": "Property Maintenance",
    "request_reason": "Property Maintenance",
    "date_created": "2022-04-21T14:53:01.000",
    "date_modified": "2022-04-21T14:53:01.000",
    "request_status": "Pending",
    "responsible_agency": "Department of Code Enforcement",
    "final_address": "646 Tchoupitoulas St",
    "address_councildis": "B",
    "status": "Pending",
    "rowid": "876623",
    "final_x": "3681804.13212",
    "final_y": "528265.190912",
    "longitude": "-90.06722354514535",
    "latitude": "29.946536819040386",
    "geocoded_column": {
      "latitude": "29.946536819040386",
      "longitude": "-90.06722354514535"
    }
  },
  {
    "service_request": "2022-876622",
    "request_type": "Traffic Signals/Signs/Striping/Streetlights",
    "request_reason": "Street Light Outage/Malfunction",
    "date_created": "2022-04-21T14:52:23.000",
    "date_modified": "2022-04-21T14:52:24.000",
    "request_status": "Pending",
    "responsible_agency": "Department of Public Works",
    "final_address": "7716 Coolidge Ct",
    "address_councildis": "B",
    "status": "Pending",
    "contractor": "Royal Engineering",
    "rowid": "876622",
    "final_x": "3668297.76116",
    "final_y": "533419.565188",
    "longitude": "-90.10969432001428",
    "latitude": "29.961113109568704",
    "geocoded_column": {
      "latitude": "29.961113109568704",
      "longitude": "-90.10969432001428"
    }
  },
  {
    "service_request": "2022-876621",
    "request_type": "Property Maintenance",
    "request_reason": "Property Maintenance",
    "date_created": "2022-04-21T14:52:05.000",
    "date_modified": "2022-04-21T14:52:06.000",
    "request_status": "Pending",
    "responsible_agency": "Department of Code Enforcement",
    "final_address": "3924 Packard St",
    "address_councildis": "D",
    "status": "Pending",
    "rowid": "876621",
    "final_x": "3688669.67004",
    "final_y": "547694.320914",
    "longitude": "-90.04485684974289",
    "latitude": "29.999749706259067",
    "geocoded_column": {
      "latitude": "29.999749706259067",
      "longitude": "-90.04485684974289"
    }
  },
  {
    "service_request": "2022-876620",
    "request_type": "Roads/Drainage",
    "request_reason": "Pothole",
    "date_created": "2022-04-21T14:51:59.000",
    "date_modified": "2022-04-21T14:51:59.000",
    "request_status": "Pending",
    "responsible_agency": "Department of Public Works",
    "final_address": "835 Julia St",
    "address_councildis": "B",
    "status": "Pending",
    "rowid": "876620",
    "final_x": "3679723.8436",
    "final_y": "528227.776256",
    "longitude": "-90.07379305504593",
    "latitude": "29.946496982187416",
    "geocoded_column": {
      "latitude": "29.946496982187416",
      "longitude": "-90.07379305504593"
    }
  },
  {
    "service_request": "2022-876619",
    "request_type": "Trash/Recycling",
    "request_reason": "MIssed Recycling Pick-Up",
    "date_created": "2022-04-21T14:51:30.000",
    "date_modified": "2022-04-21T14:51:31.000",
    "request_status": "Pending",
    "responsible_agency": "Department of Sanitation",
    "final_address": "2115 Joseph St",
    "address_councildis": "A",
    "status": "Assigned to Contractor",
    "contractor": "Richards Disposal",
    "rowid": "876619",
    "final_x": "3667307.59213",
    "final_y": "523902.726844",
    "longitude": "-90.11314112976541",
    "latitude": "29.9349739311684",
    "geocoded_column": {
      "latitude": "29.9349739311684",
      "longitude": "-90.11314112976541"
    }
  },
  {
    "service_request": "2022-876618",
    "request_type": "Roads/Drainage",
    "request_reason": "Man hole cover issue",
    "date_created": "2022-04-21T14:50:14.000",
    "date_modified": "2022-04-21T14:50:14.000",
    "request_status": "Pending",
    "responsible_agency": "Department of Public Works",
    "final_address": "900 Perdido St",
    "address_councildis": "B",
    "status": "Pending",
    "rowid": "876618",
    "final_x": "3679904.90651",
    "final_y": "529938.874689",
    "longitude": "-90.07316195918962",
    "latitude": "29.951196455396516",
    "geocoded_column": {
      "latitude": "29.951196455396516",
      "longitude": "-90.07316195918962"
    }
  },
  {
    "service_request": "2022-876617",
    "request_type": "Trash/Recycling",
    "request_reason": "Order Recycling Cart",
    "date_created": "2022-04-21T14:45:42.000",
    "date_modified": "2022-04-21T14:45:42.000",
    "request_status": "Pending",
    "responsible_agency": "Department of Sanitation",
    "final_address": "8434 Edinburgh St",
    "address_councildis": "A",
    "status": "Pending",
    "rowid": "876617",
    "final_x": "3666438.80282",
    "final_y": "535330.68423",
    "longitude": "-90.11550045229326",
    "latitude": "29.96642251111864",
    "geocoded_column": {
      "latitude": "29.96642251111864",
      "longitude": "-90.11550045229326"
    }
  },
  {
    "service_request": "2022-876616",
    "request_type": "Trash/Recycling",
    "request_reason": "MIssed Recycling Pick-Up",
    "date_created": "2022-04-21T14:45:31.000",
    "date_modified": "2022-04-21T14:45:32.000",
    "request_status": "Pending",
    "responsible_agency": "Department of Sanitation",
    "final_address": "5419 Freret St",
    "address_councildis": "A",
    "status": "Assigned to Contractor",
    "contractor": "Richards Disposal",
    "rowid": "876616",
    "final_x": "3667761.82676",
    "final_y": "524116.028156",
    "longitude": "-90.11169993103742",
    "latitude": "29.93554713323735",
    "geocoded_column": {
      "latitude": "29.93554713323735",
      "longitude": "-90.11169993103742"
    }
  },
  {
    "service_request": "2022-876615",
    "request_type": "Trash/Recycling",
    "request_reason": "Request a Large Item Pick Up",
    "date_created": "2022-04-21T14:44:49.000",
    "date_modified": "2022-04-21T14:44:54.000",
    "request_status": "Pending",
    "responsible_agency": "Department of Sanitation",
    "final_address": "8434 Edinburgh St",
    "address_councildis": "A",
    "status": "Assigned to Contractor",
    "contractor": "Richards Disposal",
    "rowid": "876615",
    "final_x": "3666438.80282",
    "final_y": "535330.68423",
    "longitude": "-90.11550045229326",
    "latitude": "29.96642251111864",
    "geocoded_column": {
      "latitude": "29.96642251111864",
      "longitude": "-90.11550045229326"
    }
  },
  {
    "service_request": "2022-876614",
    "request_type": "Trash/Recycling",
    "request_reason": "Request a Large Item Pick Up",
    "date_created": "2022-04-21T14:43:30.000",
    "date_modified": "2022-04-21T14:43:35.000",
    "request_status": "Pending",
    "responsible_agency": "Department of Sanitation",
    "final_address": "1327 Riviera Ave",
    "address_councildis": "D",
    "status": "Assigned to Contractor",
    "contractor": "Metro Disposal",
    "rowid": "876614",
    "final_x": "3677401.07586",
    "final_y": "550892.545301",
    "longitude": "-90.08034433686348",
    "latitude": "30.00888728985315",
    "geocoded_column": {
      "latitude": "30.00888728985315",
      "longitude": "-90.08034433686348"
    }
  },
  {
    "service_request": "2022-876613",
    "request_type": "Traffic Signals/Signs/Striping/Streetlights",
    "request_reason": "Striping/Road Surface Markings",
    "date_created": "2022-04-21T14:40:22.000",
    "date_modified": "2022-04-21T14:40:22.000",
    "request_status": "Pending",
    "responsible_agency": "Department of Public Works",
    "final_address": "ELYSIAN FIELDS AVE & I 610 W",
    "address_councildis": "D",
    "status": "Pending",
    "rowid": "876613",
    "final_x": "3684394.0",
    "final_y": "544639.28",
    "longitude": "-90.05847122150196",
    "latitude": "29.991480943716812",
    "geocoded_column": {
      "latitude": "29.991480943716812",
      "longitude": "-90.05847122150196"
    }
  },
  {
    "service_request": "2022-876612",
    "request_type": "Property Maintenance",
    "request_reason": "Property Maintenance",
    "date_created": "2022-04-21T14:39:19.000",
    "date_modified": "2022-04-21T14:39:19.000",
    "request_status": "Pending",
    "responsible_agency": "Department of Code Enforcement",
    "final_address": "1315 Jackson Ave",
    "address_councildis": "B",
    "status": "Pending",
    "rowid": "876612",
    "final_x": "3678416.22683",
    "final_y": "522880.170235",
    "longitude": "-90.0781066280203",
    "latitude": "29.93183229045679",
    "geocoded_column": {
      "latitude": "29.93183229045679",
      "longitude": "-90.0781066280203"
    }
  },
  {
    "service_request": "2022-876611",
    "request_type": "Trash/Recycling",
    "request_reason": "Replace Recycling Cart",
    "date_created": "2022-04-21T14:35:20.000",
    "date_modified": "2022-04-21T14:35:20.000",
    "request_status": "Pending",
    "responsible_agency": "Department of Sanitation",
    "final_address": "8420 Hickory St",
    "address_councildis": "A",
    "status": "Pending",
    "rowid": "876611",
    "final_x": "3662435.63501",
    "final_y": "530734.153858",
    "longitude": "-90.1282951192448",
    "latitude": "29.953899930237977",
    "geocoded_column": {
      "latitude": "29.953899930237977",
      "longitude": "-90.1282951192448"
    }
  },
  {
    "service_request": "2022-876610",
    "request_type": "Trash/Recycling",
    "request_reason": "Replace Trash Cart",
    "date_created": "2022-04-21T14:22:36.000",
    "date_modified": "2022-04-21T14:22:40.000",
    "request_status": "Pending",
    "responsible_agency": "Department of Sanitation",
    "final_address": "1834 Cambronne St",
    "address_councildis": "A",
    "status": "Assigned to Contractor",
    "contractor": "Richards Disposal",
    "rowid": "876610",
    "final_x": "3662721.63962",
    "final_y": "530869.552194",
    "longitude": "-90.12738753011241",
    "latitude": "29.95426395833758",
    "geocoded_column": {
      "latitude": "29.95426395833758",
      "longitude": "-90.12738753011241"
    }
  },
  {
    "service_request": "2022-876609",
    "request_type": "Traffic Signals/Signs/Striping/Streetlights",
    "request_reason": "Traffic Signal Malfunctioning/Damaged",
    "date_created": "2022-04-21T14:20:32.000",
    "date_modified": "2022-04-21T17:19:29.000",
    "request_status": "Pending",
    "responsible_agency": "Department of Public Works",
    "final_address": "MARTIN LUTHER KING JR BLVD & ST CHARLES AVE & MELPOMENE AVE",
    "address_councildis": "B",
    "status": "Pending",
    "rowid": "876609",
    "final_x": "3679175.06",
    "final_y": "525530.77",
    "longitude": "-90.07561922787677",
    "latitude": "29.93909768696377",
    "geocoded_column": {
      "latitude": "29.93909768696377",
      "longitude": "-90.07561922787677"
    }
  },
  {
    "service_request": "2022-876608",
    "request_type": "Traffic Signals/Signs/Striping/Streetlights",
    "request_reason": "Street Light Outage/Malfunction",
    "date_created": "2022-04-21T14:18:05.000",
    "date_modified": "2022-04-21T14:18:05.000",
    "request_status": "Pending",
    "responsible_agency": "Department of Public Works",
    "final_address": "6000 Warrington Dr",
    "address_councildis": "D",
    "status": "Pending",
    "contractor": "Royal Engineering",
    "rowid": "876608",
    "final_x": "3680645.95413",
    "final_y": "554584.232472",
    "longitude": "-90.06996410403346",
    "latitude": "30.01894012762408",
    "geocoded_column": {
      "latitude": "30.01894012762408",
      "longitude": "-90.06996410403346"
    }
  },
  {
    "service_request": "2022-876607",
    "request_type": "Trash/Recycling",
    "request_reason": "Order Recycling Cart",
    "date_created": "2022-04-21T14:16:54.000",
    "date_modified": "2022-04-21T14:17:18.000",
    "request_status": "Pending",
    "responsible_agency": "Department of Sanitation",
    "final_address": "4033 St Claude Ave",
    "address_councildis": "C",
    "contractor": "Metro Disposal",
    "rowid": "876607",
    "final_x": "3692077.42038",
    "final_y": "535398.111046",
    "longitude": "-90.03453196541587",
    "latitude": "29.965833736445788",
    "geocoded_column": {
      "latitude": "29.965833736445788",
      "longitude": "-90.03453196541587"
    }
  },
  {
    "service_request": "2022-876606",
    "request_type": "Traffic Signals/Signs/Striping/Streetlights",
    "request_reason": "Traffic Signal Malfunctioning/Damaged",
    "date_created": "2022-04-21T14:11:22.000",
    "date_modified": "2022-04-21T14:11:23.000",
    "request_status": "Pending",
    "responsible_agency": "Department of Public Works",
    "final_address": "GENERAL DE GAULLE DR & WESTBEND PKWY",
    "address_councildis": "C",
    "status": "Pending",
    "rowid": "876606",
    "final_x": "3696418.9",
    "final_y": "520711.38",
    "longitude": "-90.02135283780243",
    "latitude": "29.925314312408663",
    "geocoded_column": {
      "latitude": "29.925314312408663",
      "longitude": "-90.02135283780243"
    }
  },
  {
    "service_request": "2022-876605",
    "request_type": "Roads/Drainage",
    "request_reason": "Accessibility Ramps, Curbs and Sidewalk Repair",
    "date_created": "2022-04-21T14:09:18.000",
    "date_modified": "2022-04-21T14:09:18.000",
    "request_status": "Pending",
    "responsible_agency": "Department of Public Works",
    "final_address": "320 Camp St",
    "address_councildis": "B",
    "status": "Pending",
    "rowid": "876605",
    "final_x": "3681263.99381",
    "final_y": "529695.348097",
    "longitude": "-90.0688791237867",
    "latitude": "29.950485670270353",
    "geocoded_column": {
      "latitude": "29.950485670270353",
      "longitude": "-90.0688791237867"
    }
  },
  {
    "service_request": "2022-876604",
    "request_type": "Trash/Recycling",
    "request_reason": "Request a Large Item Pick Up",
    "date_created": "2022-04-21T13:59:56.000",
    "date_modified": "2022-04-21T13:59:56.000",
    "request_status": "Pending",
    "responsible_agency": "Department of Sanitation",
    "final_address": "5907 Annunciation St",
    "address_councildis": "A",
    "status": "Assigned to Contractor",
    "contractor": "Richards Disposal",
    "rowid": "876604",
    "final_x": "3664859.08205",
    "final_y": "517828.07199",
    "longitude": "-90.12107397934275",
    "latitude": "29.918342010095085",
    "geocoded_column": {
      "latitude": "29.918342010095085",
      "longitude": "-90.12107397934275"
    }
  },
  {
    "service_request": "2022-876603",
    "request_type": "Trash/Recycling",
    "request_reason": "Missed Trash Pick-Up",
    "date_created": "2022-04-21T13:57:41.000",
    "date_modified": "2022-04-21T13:57:41.000",
    "request_status": "Pending",
    "responsible_agency": "Department of Sanitation",
    "final_address": "5200 BLK Atlanta St",
    "address_councildis": "B",
    "status": "Assigned to Contractor",
    "contractor": "Richards Disposal",
    "rowid": "876603",
    "final_x": "3667939.31369",
    "final_y": "520720.530197",
    "longitude": "-90.11125392997842",
    "latitude": "29.926205391859135",
    "geocoded_column": {
      "latitude": "29.926205391859135",
      "longitude": "-90.11125392997842"
    }
  },
  {
    "service_request": "2022-876602",
    "request_type": "Trash/Recycling",
    "request_reason": "Request a Large Item Pick Up",
    "date_created": "2022-04-21T13:56:36.000",
    "date_modified": "2022-04-21T13:56:37.000",
    "request_status": "Pending",
    "responsible_agency": "Department of Sanitation",
    "final_address": "3016 Wall Blvd",
    "address_councildis": "C",
    "status": "Assigned to Contractor",
    "contractor": "Richards Disposal",
    "rowid": "876602",
    "final_x": "3695242.47472",
    "final_y": "523963.241404",
    "longitude": "-90.02494921124725",
    "latitude": "29.934292807316627",
    "geocoded_column": {
      "latitude": "29.934292807316627",
      "longitude": "-90.02494921124725"
    }
  },
  {
    "service_request": "2022-876601",
    "request_type": "Abandoned Vehicles",
    "request_reason": "Abandoned/Junk Vehicles",
    "date_created": "2022-04-21T13:51:41.000",
    "date_modified": "2022-04-21T13:51:41.000",
    "request_status": "Pending",
    "responsible_agency": "Department of Public Works",
    "final_address": "5600 BLK Cartier Ave",
    "address_councildis": "D",
    "status": "Pending",
    "rowid": "876601",
    "final_x": "3677575.63497",
    "final_y": "552846.176576",
    "longitude": "-90.07972532006474",
    "latitude": "30.01425382550774",
    "geocoded_column": {
      "latitude": "30.01425382550774",
      "longitude": "-90.07972532006474"
    }
  },
  {
    "service_request": "2022-876600",
    "request_type": "Roads/Drainage",
    "request_reason": "Street Subsidence (Sinking)",
    "date_created": "2022-04-21T13:44:36.000",
    "date_modified": "2022-04-21T13:45:18.000",
    "request_status": "Pending",
    "responsible_agency": "Department of Public Works",
    "final_address": "7420 W Laverne St",
    "address_councildis": "D",
    "status": "Pending",
    "rowid": "876600",
    "final_x": "3695288.63542",
    "final_y": "558073.425371",
    "longitude": "-90.02357258776958",
    "latitude": "30.02808204131781",
    "geocoded_column": {
      "latitude": "30.02808204131781",
      "longitude": "-90.02357258776958"
    }
  },
  {
    "service_request": "2022-876599",
    "request_type": "Trash/Recycling",
    "request_reason": "Missed Trash Pick-Up",
    "date_created": "2022-04-21T13:42:52.000",
    "date_modified": "2022-04-21T13:43:01.000",
    "request_status": "Pending",
    "responsible_agency": "Department of Sanitation",
    "final_address": "4522 Desire Dr",
    "address_councildis": "D",
    "status": "Assigned to Contractor",
    "contractor": "Metro Disposal",
    "rowid": "876599",
    "final_x": "3691907.28003",
    "final_y": "551003.148373",
    "longitude": "-90.03451066527076",
    "latitude": "30.008747263846498",
    "geocoded_column": {
      "latitude": "30.008747263846498",
      "longitude": "-90.03451066527076"
    }
  },
  {
    "service_request": "2022-876598",
    "request_type": "Trash/Recycling",
    "request_reason": "Missed Trash Pick-Up",
    "date_created": "2022-04-21T13:40:59.000",
    "date_modified": "2022-04-21T13:41:23.000",
    "request_status": "Pending",
    "responsible_agency": "Department of Sanitation",
    "final_address": "156 Alvin Callender St",
    "address_councildis": "A",
    "status": "Assigned to Contractor",
    "contractor": "Richards Disposal",
    "rowid": "876598",
    "final_x": "3661167.07462",
    "final_y": "523500.086523",
    "longitude": "-90.13254011090102",
    "latitude": "29.93404516898633",
    "geocoded_column": {
      "latitude": "29.93404516898633",
      "longitude": "-90.13254011090102"
    }
  },
  {
    "service_request": "2022-876596",
    "request_type": "Traffic Signals/Signs/Striping/Streetlights",
    "request_reason": "Striping/Road Surface Markings",
    "date_created": "2022-04-21T13:34:21.000",
    "date_modified": "2022-04-21T13:34:21.000",
    "request_status": "Pending",
    "responsible_agency": "Department of Public Works",
    "final_address": "700 Canal St",
    "address_councildis": "B",
    "status": "Pending",
    "rowid": "876596",
    "final_x": "3681088.32981",
    "final_y": "530625.904002",
    "longitude": "-90.06940136900302",
    "latitude": "29.95304971412305",
    "geocoded_column": {
      "latitude": "29.95304971412305",
      "longitude": "-90.06940136900302"
    }
  },