[
  {
    "service_request": "2023-968399",
    "request_type": "Abandoned Vehicles",
    "request_reason": "Abandoned/Junk Vehicles",
    "date_created": "2023-01-19T00:40:56.000",
    "date_modified": "2023-01-19T00:40:56.000",
    "request_status": "Pending",
    "responsible_agency": "Department of Public Works",
    "final_address": "2320 Jackson Ave",
    "address_councildis": "B",
    "status": "Pending",
    "rowid": "968399",
    "final_x": "3675673.1364",
    "final_y": "526165.71155",
    "longitude": "-90.08665342663011",
    "latitude": "29.94094879582612",
    "geocoded_column": {
      "latitude": "29.94094879582612",
      "longitude": "-90.08665342663011"
    }
  },
  {
    "service_request": "2023-968398",
    "request_type": "Trash/Recycling",
    "request_reason": "Missed Trash Pick-Up",
    "date_created": "2023-01-18T23:00:14.000",
    "date_modified": "2023-01-18T23:00:14.000",
    "request_status": "Pending",
    "responsible_agency": "Department of Sanitation",
    "final_address": "908 First St",
    "address_councildis": "B",
    "status": "Assigned to Contractor",
    "contractor": "Richards Disposal",
    "rowid": "968398",
    "final_x": "3678393.44386",
    "final_y": "520936.860473",
    "longitude": "-90.07824574866011",
    "latitude": "29.926489509719314",
    "geocoded_column": {
      "latitude": "29.926489509719314",
      "longitude": "-90.07824574866011"
    }
  },
  {
    "service_request": "2023-968397",
    "request_type": "Trash/Recycling",
    "request_reason": "Missed Trash Pick-Up",
    "date_created": "2023-01-18T22:52:56.000",
    "date_modified": "2023-01-18T22:52:57.000",
    "request_status": "Pending",
    "responsible_agency": "Department of Sanitation",
    "final_address": "5833 Fontainebleau Dr",
    "address_councildis": "B",
    "status": "Assigned to Contractor",
    "contractor": "Richards Disposal",
    "rowid": "968397",
    "final_x": "3668295.0434",
    "final_y": "529969.291137",
    "longitude": "-90.10981924139543",
    "latitude": "29.95162606932585",
    "geocoded_column": {
      "latitude": "29.95162606932585",
      "longitude": "-90.10981924139543"
    }
  },
  {
    "service_request": "2023-968396",
    "request_type": "Traffic Signals/Signs/Striping/Streetlights",
    "request_reason": "Street Light Outage/Malfunction",
    "date_created": "2023-01-18T22:52:14.000",
    "date_modified": "2023-01-18T22:52:15.000",
    "request_status": "Pending",
    "responsible_agency": "Department of Public Works",
    "final_address": "7927 Jeannette St",
    "address_councildis": "A",
    "status": "Assigned to Contractor",
    "contractor": "Legacy Professional Services",
    "rowid": "968396",
    "final_x": "3663123.94688",
    "final_y": "528797.335616",
    "longitude": "-90.12618613158307",
    "latitude": "29.948554382523913",
    "geocoded_column": {
      "latitude": "29.948554382523913",
      "longitude": "-90.12618613158307"
    }
  },
  {
    "service_request": "2023-968395",
    "request_type": "Trash/Recycling",
    "request_reason": "Order Trash Cart",
    "date_created": "2023-01-18T22:37:19.000",
    "date_modified": "2023-01-18T22:37:20.000",
    "request_status": "Pending",
    "responsible_agency": "Department of Sanitation",
    "final_address": "1464 N Roman St",
    "address_councildis": "D",
    "status": "Assigned to Contractor",
    "contractor": "IV Waste",
    "rowid": "968395",
    "final_x": "3681075.30498",
    "final_y": "537464.765192",
    "longitude": "-90.06920426214435",
    "latitude": "29.97185464248054",
    "geocoded_column": {
      "latitude": "29.97185464248054",
      "longitude": "-90.06920426214435"
    }
  },
  {
    "service_request": "2023-968394",
    "request_type": "Trash/Recycling",
    "request_reason": "Request a Large Item Pick Up",
    "date_created": "2023-01-18T22:29:54.000",
    "date_modified": "2023-01-18T22:29:55.000",
    "request_status": "Pending",
    "responsible_agency": "Department of Sanitation",
    "final_address": "811 Opelousas Ave",
    "address_councildis": "C",
    "status": "Assigned to Contractor",
    "contractor": "Richards Disposal",
    "rowid": "968394",
    "final_x": "3687924.93564",
    "final_y": "529038.100032",
    "longitude": "-90.04787066104254",
    "latitude": "29.948474669172093",
    "geocoded_column": {
      "latitude": "29.948474669172093",
      "longitude": "-90.04787066104254"
    }
  },
  {
    "service_request": "2023-968393",
    "request_type": "Trash/Recycling",
    "request_reason": "Request a Large Item Pick Up",
    "date_created": "2023-01-18T22:20:16.000",
    "date_modified": "2023-01-18T22:20:17.000",
    "request_status": "Pending",
    "responsible_agency": "Department of Sanitation",
    "final_address": "5501 Cherlyn Dr",
    "address_councildis": "A",
    "status": "Assigned to Contractor",
    "contractor": "IV Waste",
    "rowid": "968393",
    "final_x": "3665257.33824",
    "final_y": "544411.912783",
    "longitude": "-90.1189275708692",
    "latitude": "29.991427321933287",
    "geocoded_column": {
      "latitude": "29.991427321933287",
      "longitude": "-90.1189275708692"
    }
  },
  {
    "service_request": "2023-968392",
    "request_type": "Traffic Signals/Signs/Striping/Streetlights",
    "request_reason": "Street Light Outage/Malfunction",
    "date_created": "2023-01-18T22:09:38.000",
    "date_modified": "2023-01-18T22:09:39.000",
    "request_status": "Pending",
    "responsible_agency": "Department of Public Works",
    "final_address": "2421 Cambronne St",
    "address_councildis": "A",
    "status": "Assigned to Contractor",
    "contractor": "Legacy Professional Services",
    "rowid": "968392",
    "final_x": "3664249.49581",
    "final_y": "532428.240899",
    "longitude": "-90.12251114018925",
    "latitude": "29.95850554214829",
    "geocoded_column": {
      "latitude": "29.95850554214829",
      "longitude": "-90.12251114018925"
    }
  },
  {
    "service_request": "2023-968391",
    "request_type": "Trash/Recycling",
    "request_reason": "Illegal Dumping",
    "date_created": "2023-01-18T22:05:12.000",
    "date_modified": "2023-01-18T22:05:12.000",
    "request_status": "Pending",
    "responsible_agency": "Department of Sanitation",
    "final_address": "2421 Cambronne St",
    "address_councildis": "A",
    "status": "Pending",
    "rowid": "968391",
    "final_x": "3664249.49581",
    "final_y": "532428.240899",
    "longitude": "-90.12251114018925",
    "latitude": "29.95850554214829",
    "geocoded_column": {
      "latitude": "29.95850554214829",
      "longitude": "-90.12251114018925"
    }
  },
  {
    "service_request": "2023-968390",
    "request_type": "Trash/Recycling",
    "request_reason": "Request a Large Item Pick Up",
    "date_created": "2023-01-18T21:54:16.000",
    "date_modified": "2023-01-18T21:54:16.000",
    "request_status": "Pending",
    "responsible_agency": "Department of Sanitation",
    "final_address": "1234 Egania St",
    "address_councildis": "E",
    "status": "Assigned to Contractor",
    "contractor": "Waste Pro",
    "rowid": "968390",
    "final_x": "3696944.63178",
    "final_y": "534738.725894",
    "longitude": "-90.01918543823872",
    "latitude": "29.963868067328434",
    "geocoded_column": {
      "latitude": "29.963868067328434",
      "longitude": "-90.01918543823872"
    }
  },
  {
    "service_request": "2023-968389",
    "request_type": "Mosquito, Termite & Rodent Control",
    "request_reason": "Non-Rodent Complaint (Mice, Possums, Snakes)",
    "date_created": "2023-01-18T21:53:36.000",
    "date_modified": "2023-01-18T21:53:36.000",
    "request_status": "Pending",
    "responsible_agency": "Mosquito, Termite & Rodent Control Board",
    "final_address": "8526 Palm St",
    "address_councildis": "A",
    "status": "Pending",
    "rowid": "968389",
    "final_x": "3666452.45191",
    "final_y": "535796.120455",
    "longitude": "-90.11544172582488",
    "latitude": "29.96770190768809",
    "geocoded_column": {
      "latitude": "29.96770190768809",
      "longitude": "-90.11544172582488"
    }
  },
  {
    "service_request": "2023-968388",
    "request_type": "Trash/Recycling",
    "request_reason": "Request a Large Item Pick Up",
    "date_created": "2023-01-18T21:32:39.000",
    "date_modified": "2023-01-18T21:32:39.000",
    "request_status": "Pending",
    "responsible_agency": "Department of Sanitation",
    "final_address": "800 N Olympia St",
    "address_councildis": "A",
    "status": "Assigned to Contractor",
    "contractor": "Richards Disposal",
    "rowid": "968388",
    "final_x": "3671004.76564",
    "final_y": "541619.598412",
    "longitude": "-90.10086755440628",
    "latitude": "29.98358067266985",
    "geocoded_column": {
      "latitude": "29.98358067266985",
      "longitude": "-90.10086755440628"
    }
  },
  {
    "service_request": "2023-968386",
    "request_type": "Roads/Drainage",
    "request_reason": "Pothole",
    "date_created": "2023-01-18T20:59:31.000",
    "date_modified": "2023-01-18T20:59:31.000",
    "request_status": "Pending",
    "responsible_agency": "Department of Public Works",
    "final_address": "1042 Desire St",
    "address_councildis": "C",
    "status": "Pending",
    "rowid": "968386",
    "final_x": "3690113.09398",
    "final_y": "535580.058694",
    "longitude": "-90.04072874089687",
    "latitude": "29.96639510492585",
    "geocoded_column": {
      "latitude": "29.96639510492585",
      "longitude": "-90.04072874089687"
    }
  },
  {
    "service_request": "2023-968385",
    "request_type": "Trash/Recycling",
    "request_reason": "Order Trash Cart",
    "date_created": "2023-01-18T20:57:48.000",
    "date_modified": "2023-01-18T20:57:49.000",
    "request_status": "Pending",
    "responsible_agency": "Department of Sanitation",
    "final_address": "4637 Nottingham Dr",
    "address_councildis": "E",
    "status": "Assigned to Contractor",
    "contractor": "Waste Pro",
    "rowid": "968385",
    "final_x": "3716532.94808",
    "final_y": "556321.181082",
    "longitude": "-89.95650919237788",
    "latitude": "30.02257925236181",
    "geocoded_column": {
      "latitude": "30.02257925236181",
      "longitude": "-89.95650919237788"
    }
  },
  {
    "service_request": "2023-968384",
    "request_type": "Trash/Recycling",
    "request_reason": "Replace Recycling Cart",
    "date_created": "2023-01-18T20:41:49.000",
    "date_modified": "2023-01-18T20:41:50.000",
    "request_status": "Pending",
    "responsible_agency": "Department of Sanitation",
    "final_address": "2028 Music St",
    "address_councildis": "D",
    "status": "Pending",
    "rowid": "968384",
    "final_x": "3686522.70575",
    "final_y": "540004.431627",
    "longitude": "-90.05191085343617",
    "latitude": "29.978671461787066",
    "geocoded_column": {
      "latitude": "29.978671461787066",
      "longitude": "-90.05191085343617"
    }
  },
  {
    "service_request": "2023-968383",
    "request_type": "Trash/Recycling",
    "request_reason": "MIssed Recycling Pick-Up",
    "date_created": "2023-01-18T20:39:05.000",
    "date_modified": "2023-01-18T20:39:08.000",
    "request_status": "Pending",
    "responsible_agency": "Department of Sanitation",
    "final_address": "2216 Camp St",
    "address_councildis": "B",
    "status": "Assigned to Contractor",
    "contractor": "Richards Disposal",
    "rowid": "968383",
    "final_x": "3678502.41262",
    "final_y": "522245.417978",
    "longitude": "-90.07785650454653",
    "latitude": "29.93008433324849",
    "geocoded_column": {
      "latitude": "29.93008433324849",
      "longitude": "-90.07785650454653"
    }
  },
  {
    "service_request": "2023-968382",
    "request_type": "Property Maintenance",
    "request_reason": "Property Maintenance",
    "date_created": "2023-01-18T20:04:26.000",
    "date_modified": "2023-01-18T20:04:27.000",
    "request_status": "Pending",
    "responsible_agency": "Department of Code Enforcement",
    "final_address": "2521 St Roch Ave",
    "address_councildis": "D",
    "status": "Pending",
    "rowid": "968382",
    "final_x": "3686145.3135",
    "final_y": "541743.81678",
    "longitude": "-90.05304141415189",
    "latitude": "29.983465756264586",
    "geocoded_column": {
      "latitude": "29.983465756264586",
      "longitude": "-90.05304141415189"
    }
  },
  {
    "service_request": "2023-968381",
    "request_type": "Trash/Recycling",
    "request_reason": "Missed Trash Pick-Up",
    "date_created": "2023-01-18T19:58:19.000",
    "date_modified": "2023-01-18T19:58:20.000",
    "request_status": "Pending",
    "responsible_agency": "Department of Sanitation",
    "final_address": "2323 Terpsichore St",
    "address_councildis": "B",
    "status": "Assigned to Contractor",
    "contractor": "Richards Disposal",
    "rowid": "968381",
    "final_x": "3676327.74389",
    "final_y": "527014.364414",
    "longitude": "-90.08455751090263",
    "latitude": "29.943262711563445",
    "geocoded_column": {
      "latitude": "29.943262711563445",
      "longitude": "-90.08455751090263"
    }
  },
  {
    "service_request": "2023-968380",
    "request_type": "Roads/Drainage",
    "request_reason": "Catch Basin - Clogged",
    "date_created": "2023-01-18T19:50:06.000",
    "date_modified": "2023-01-18T19:50:06.000",
    "request_status": "Pending",
    "responsible_agency": "Department of Public Works",
    "final_address": "4400 Bienville Ave",
    "address_councildis": "A",
    "status": "Pending",
    "rowid": "968380",
    "final_x": "3670381.59866",
    "final_y": "539793.38977",
    "longitude": "-90.10289779034389",
    "latitude": "29.978577635408556",
    "geocoded_column": {
      "latitude": "29.978577635408556",
      "longitude": "-90.10289779034389"
    }
  },
  {
    "service_request": "2023-968379",
    "request_type": "Trash/Recycling",
    "request_reason": "MIssed Recycling Pick-Up",
    "date_created": "2023-01-18T19:41:32.000",
    "date_modified": "2023-01-18T19:41:32.000",
    "request_status": "Pending",
    "responsible_agency": "Department of Sanitation",
    "final_address": "2420 Gravier St",
    "address_councildis": "B",
    "status": "Assigned to Contractor",
    "contractor": "Richards Disposal",
    "rowid": "968379",
    "final_x": "3675029.24789",
    "final_y": "532769.903172",
    "longitude": "-90.08845977373535",
    "latitude": "29.959127379731946",
    "geocoded_column": {
      "latitude": "29.959127379731946",
      "longitude": "-90.08845977373535"
    }
  },
  {
    "service_request": "2023-968378",
    "request_type": "Trash/Recycling",
    "request_reason": "Request a Large Item Pick Up",
    "date_created": "2023-01-18T19:24:54.000",
    "date_modified": "2023-01-18T19:24:55.000",
    "request_status": "Pending",
    "responsible_agency": "Department of Sanitation",
    "final_address": "727 Wagner St",
    "address_councildis": "C",
    "status": "Assigned to Contractor",
    "contractor": "Richards Disposal",
    "rowid": "968378",
    "final_x": "3690490.19792",
    "final_y": "528738.741184",
    "longitude": "-90.03978175484028",
    "latitude": "29.94757215499732",
    "geocoded_column": {
      "latitude": "29.94757215499732",
      "longitude": "-90.03978175484028"
    }
  },
  {
    "service_request": "2023-968377",
    "request_type": "Trash/Recycling",
    "request_reason": "Repair Trash Cart",
    "date_created": "2023-01-18T18:54:33.000",
    "date_modified": "2023-01-18T18:54:33.000",
    "request_status": "Pending",
    "responsible_agency": "Department of Sanitation",
    "final_address": "3929 Chestnut St",
    "address_councildis": "B",
    "status": "Assigned to Contractor",
    "contractor": "Richards Disposal",
    "rowid": "968377",
    "final_x": "3672655.58516",
    "final_y": "519726.395128",
    "longitude": "-90.0963998601554",
    "latitude": "29.923332685777872",
    "geocoded_column": {
      "latitude": "29.923332685777872",
      "longitude": "-90.0963998601554"
    }
  },
  {
    "service_request": "2023-968376",
    "request_type": "Traffic Signals/Signs/Striping/Streetlights",
    "request_reason": "Street Light Outage/Malfunction",
    "date_created": "2023-01-18T18:54:28.000",
    "date_modified": "2023-01-18T18:54:29.000",
    "request_status": "Pending",
    "responsible_agency": "Department of Public Works",
    "final_address": "6101 Argonne Blvd",
    "address_councildis": "A",
    "status": "Assigned to Contractor",
    "contractor": "Legacy Professional Services",
    "rowid": "968376",
    "final_x": "3670281.2923",
    "final_y": "547836.900178",
    "longitude": "-90.1029418059407",
    "latitude": "30.000697488116646",
    "geocoded_column": {
      "latitude": "30.000697488116646",
      "longitude": "-90.1029418059407"
    }
  },
  {
    "service_request": "2023-968374",
    "request_type": "Trash/Recycling",
    "request_reason": "Request a Large Item Pick Up",
    "date_created": "2023-01-18T18:49:46.000",
    "date_modified": "2023-01-18T18:49:47.000",
    "request_status": "Pending",
    "responsible_agency": "Department of Sanitation",
    "final_address": "2411 Clouet St",
    "address_councildis": "D",
    "status": "Assigned to Contractor",
    "contractor": "IV Waste",
    "rowid": "968374",
    "final_x": "3690291.90467",
    "final_y": "540979.184267",
    "longitude": "-90.03997160655305",
    "latitude": "29.98123524299503",
    "geocoded_column": {
      "latitude": "29.98123524299503",
      "longitude": "-90.03997160655305"
    }
  },
  {
    "service_request": "2023-968373",
    "request_type": "Abandoned Vehicles",
    "request_reason": "Abandoned/Junk Vehicles",
    "date_created": "2023-01-18T18:36:44.000",
    "date_modified": "2023-01-18T18:36:44.000",
    "request_status": "Pending",
    "responsible_agency": "Department of Public Works",
    "final_address": "5812 Law St",
    "address_councildis": "E",
    "status": "Pending",
    "rowid": "968373",
    "final_x": "3700510.42193",
    "final_y": "539091.787914",
    "longitude": "-90.00776606010164",
    "latitude": "29.97572448644628",
    "geocoded_column": {
      "latitude": "29.97572448644628",
      "longitude": "-90.00776606010164"
    }
  },
  {
    "service_request": "2023-968372",
    "request_type": "Trash/Recycling",
    "request_reason": "Request a Large Item Pick Up",
    "date_created": "2023-01-18T18:34:23.000",
    "date_modified": "2023-01-18T18:34:24.000",
    "request_status": "Pending",
    "responsible_agency": "Department of Sanitation",
    "final_address": "6129 Constance St",
    "address_councildis": "A",
    "status": "Assigned to Contractor",
    "contractor": "Richards Disposal",
    "rowid": "968372",
    "final_x": "3663845.92141",
    "final_y": "519216.564215",
    "longitude": "-90.12422575250766",
    "latitude": "29.922189365599124",
    "geocoded_column": {
      "latitude": "29.922189365599124",
      "longitude": "-90.12422575250766"
    }
  },
  {
    "service_request": "2023-968371",
    "request_type": "Abandoned Vehicles",
    "request_reason": "Abandoned/Junk Vehicles",
    "date_created": "2023-01-18T18:32:46.000",
    "date_modified": "2023-01-18T18:32:46.000",
    "request_status": "Pending",
    "responsible_agency": "Department of Public Works",
    "final_address": "5812 Law St",
    "address_councildis": "E",
    "status": "Pending",
    "rowid": "968371",
    "final_x": "3700510.42193",
    "final_y": "539091.787914",
    "longitude": "-90.00776606010164",
    "latitude": "29.97572448644628",
    "geocoded_column": {
      "latitude": "29.97572448644628",
      "longitude": "-90.00776606010164"
    }
  },
  {
    "service_request": "2023-968370",
    "request_type": "Traffic Signals/Signs/Striping/Streetlights",
    "request_reason": "Street Light Outage/Malfunction",
    "date_created": "2023-01-18T18:32:10.000",
    "date_modified": "2023-01-18T18:32:10.000",
    "request_status": "Pending",
    "responsible_agency": "Department of Public Works",
    "final_address": "WALES ST & ALLISON RD",
    "address_councildis": "E",
    "status": "Assigned to Contractor",
    "contractor": "Legacy Professional Services",
    "rowid": "968370",
    "final_x": "3699762.6",
    "final_y": "561200.48",
    "longitude": "-90.00932104857777",
    "latitude": "30.036538857801517",
    "geocoded_column": {
      "latitude": "30.036538857801517",
      "longitude": "-90.00932104857777"
    }
  },
  {
    "service_request": "2023-968369",
    "request_type": "Traffic Signals/Signs/Striping/Streetlights",
    "request_reason": "Street Light Outage/Malfunction",
    "date_created": "2023-01-18T18:31:23.000",
    "date_modified": "2023-01-18T18:31:24.000",
    "request_status": "Pending",
    "responsible_agency": "Department of Public Works",
    "final_address": "BUTTERFIELD RD & WALES ST",
    "address_councildis": "E",
    "status": "Assigned to Contractor",
    "contractor": "Legacy Professional Services",
    "rowid": "968369",
    "final_x": "3699495.1",
    "final_y": "561087.98",
    "longitude": "-90.01017050383881",
    "latitude": "30.036238022709338",
    "geocoded_column": {
      "latitude": "30.036238022709338",
      "longitude": "-90.01017050383881"
    }
  },
  {
    "service_request": "2023-968367",
    "request_type": "Trash/Recycling",
    "request_reason": "Missed Trash Pick-Up",
    "date_created": "2023-01-18T18:07:50.000",
    "date_modified": "2023-01-18T18:07:51.000",
    "request_status": "Pending",
    "responsible_agency": "Department of Sanitation",
    "final_address": "933 Jackson Ave",
    "address_councildis": "B",
    "status": "Assigned to Contractor",
    "contractor": "Richards Disposal",
    "rowid": "968367",
    "final_x": "3679184.64719",
    "final_y": "521727.670074",
    "longitude": "-90.07572074062239",
    "latitude": "29.928640124267744",
    "geocoded_column": {
      "latitude": "29.928640124267744",
      "longitude": "-90.07572074062239"
    }
  },
  {
    "service_request": "2023-968366",
    "request_type": "Trash/Recycling",
    "request_reason": "Request a Large Item Pick Up",
    "date_created": "2023-01-18T17:56:54.000",
    "date_modified": "2023-01-18T17:56:54.000",
    "request_status": "Pending",
    "responsible_agency": "Department of Sanitation",
    "final_address": "4013 Lennox Blvd",
    "address_councildis": "C",
    "status": "Assigned to Contractor",
    "contractor": "Richards Disposal",
    "rowid": "968366",
    "final_x": "3700721.20106",
    "final_y": "515977.5733",
    "longitude": "-90.00794476433357",
    "latitude": "29.912161810227953",
    "geocoded_column": {
      "latitude": "29.912161810227953",
      "longitude": "-90.00794476433357"
    }
  },
  {
    "service_request": "2023-968365",
    "request_type": "Property Maintenance",
    "request_reason": "Property Maintenance",
    "date_created": "2023-01-18T17:44:51.000",
    "date_modified": "2023-01-18T17:44:51.000",
    "request_status": "Pending",
    "responsible_agency": "Department of Code Enforcement",
    "final_address": "1839 Audubon St",
    "address_councildis": "A",
    "status": "Pending",
    "rowid": "968365",
    "final_x": "3665811.61607",
    "final_y": "528339.35616",
    "longitude": "-90.11771533747023",
    "latitude": "29.947216957374124",
    "geocoded_column": {
      "latitude": "29.947216957374124",
      "longitude": "-90.11771533747023"
    }
  },
  {
    "service_request": "2023-968364",
    "request_type": "Trash/Recycling",
    "request_reason": "Request a Large Item Pick Up",
    "date_created": "2023-01-18T17:43:01.000",
    "date_modified": "2023-01-18T17:43:02.000",
    "request_status": "Pending",
    "responsible_agency": "Department of Sanitation",
    "final_address": "1839 Audubon St",
    "address_councildis": "A",
    "status": "Assigned to Contractor",
    "contractor": "Richards Disposal",
    "rowid": "968364",
    "final_x": "3665811.61607",
    "final_y": "528339.35616",
    "longitude": "-90.11771533747023",
    "latitude": "29.947216957374124",
    "geocoded_column": {
      "latitude": "29.947216957374124",
      "longitude": "-90.11771533747023"
    }
  },
  {
    "service_request": "2023-968363",
    "request_type": "Trash/Recycling",
    "request_reason": "Request a Large Item Pick Up",
    "date_created": "2023-01-18T17:37:33.000",
    "date_modified": "2023-01-18T17:37:34.000",
    "request_status": "Pending",
    "responsible_agency": "Department of Sanitation",
    "final_address": "3620 Annunciation St",
    "address_councildis": "B",
    "status": "Assigned to Contractor",
    "contractor": "Richards Disposal",
    "rowid": "968363",
    "final_x": "3674347.06964",
    "final_y": "518172.687862",
    "longitude": "-90.09111364422056",
    "latitude": "29.919010172508006",
    "geocoded_column": {
      "latitude": "29.919010172508006",
      "longitude": "-90.09111364422056"
    }
  },
  {
    "service_request": "2023-968362",
    "request_type": "Abandoned Vehicles",
    "request_reason": "Abandoned/Junk Vehicles",
    "date_created": "2023-01-18T17:37:09.000",
    "date_modified": "2023-01-18T17:37:09.000",
    "request_status": "Pending",
    "responsible_agency": "Department of Public Works",
    "final_address": "326 S Bernadotte St",
    "address_councildis": "A",
    "status": "Pending",
    "rowid": "968362",
    "final_x": "3668271.78023",
    "final_y": "539216.261258",
    "longitude": "-90.10958086750139",
    "latitude": "29.977052853511278",
    "geocoded_column": {
      "latitude": "29.977052853511278",
      "longitude": "-90.10958086750139"
    }
  },
  {
    "service_request": "2023-968361",
    "request_type": "Abandoned Vehicles",
    "request_reason": "Abandoned/Junk Vehicles",
    "date_created": "2023-01-18T17:34:28.000",
    "date_modified": "2023-01-18T17:34:28.000",
    "request_status": "Pending",
    "responsible_agency": "Department of Public Works",
    "final_address": "326 S Bernadotte St",
    "address_councildis": "A",
    "status": "Pending",
    "rowid": "968361",
    "final_x": "3668271.78023",
    "final_y": "539216.261258",
    "longitude": "-90.10958086750139",
    "latitude": "29.977052853511278",
    "geocoded_column": {
      "latitude": "29.977052853511278",
      "longitude": "-90.10958086750139"
    }
  },
  {
    "service_request": "2023-968360",
    "request_type": "Abandoned Vehicles",
    "request_reason": "Abandoned/Junk Vehicles",
    "date_created": "2023-01-18T17:24:52.000",
    "date_modified": "2023-01-18T17:24:52.000",
    "request_status": "Pending",
    "responsible_agency": "Department of Public Works",
    "final_address": "3419 Fourth St",
    "address_councildis": "B",
    "status": "Pending",
    "rowid": "968360",
    "final_x": "3672606.45947",
    "final_y": "528175.077632",
    "longitude": "-90.09626700581114",
    "latitude": "29.946565282982487",
    "geocoded_column": {
      "latitude": "29.946565282982487",
      "longitude": "-90.09626700581114"
    }
  },
  {
    "service_request": "2023-968359",
    "request_type": "Trash/Recycling",
    "request_reason": "Missed Trash Pick-Up",
    "date_created": "2023-01-18T17:23:56.000",
    "date_modified": "2023-01-18T17:23:57.000",
    "request_status": "Pending",
    "responsible_agency": "Department of Sanitation",
    "final_address": "3815 Nashville Ave",
    "address_councildis": "A",
    "status": "Assigned to Contractor",
    "contractor": "Richards Disposal",
    "rowid": "968359",
    "final_x": "3668589.50964",
    "final_y": "529533.329921",
    "longitude": "-90.10890416584348",
    "latitude": "29.95041866943906",
    "geocoded_column": {
      "latitude": "29.95041866943906",
      "longitude": "-90.10890416584348"
    }
  },
  {
    "service_request": "2023-968358",
    "request_type": "Trash/Recycling",
    "request_reason": "Illegal Dumping",
    "date_created": "2023-01-18T17:23:40.000",
    "date_modified": "2023-01-18T17:23:40.000",
    "request_status": "Pending",
    "responsible_agency": "Department of Sanitation",
    "final_address": "2600 Soniat St",
    "address_councildis": "B",
    "status": "Pending",
    "rowid": "968358",
    "final_x": "3668511.97377",
    "final_y": "524945.293245",
    "longitude": "-90.10930373629597",
    "latitude": "29.93780533349035",
    "geocoded_column": {
      "latitude": "29.93780533349035",
      "longitude": "-90.10930373629597"
    }
  },
  {
    "service_request": "2023-968357",
    "request_type": "Trash/Recycling",
    "request_reason": "Illegal Dumping",
    "date_created": "2023-01-18T17:22:54.000",
    "date_modified": "2023-01-18T17:22:54.000",
    "request_status": "Pending",
    "responsible_agency": "Department of Sanitation",
    "final_address": "3317 Toledano St",
    "address_councildis": "B",
    "status": "Pending",
    "rowid": "968357",
    "final_x": "3672105.8658",
    "final_y": "527802.636991",
    "longitude": "-90.09786024143823",
    "latitude": "29.94555604432485",
    "geocoded_column": {
      "latitude": "29.94555604432485",
      "longitude": "-90.09786024143823"
    }
  },
  {
    "service_request": "2023-968356",
    "request_type": "Trash/Recycling",
    "request_reason": "Order Recycling Cart",
    "date_created": "2023-01-18T17:19:55.000",
    "date_modified": "2023-01-18T17:19:55.000",
    "request_status": "Pending",
    "responsible_agency": "Department of Sanitation",
    "final_address": "1735 Pleasure St",
    "address_councildis": "D",
    "status": "Pending",
    "rowid": "968356",
    "final_x": "3680816.52834",
    "final_y": "544903.810959",
    "longitude": "-90.06976244359544",
    "latitude": "29.992317269490975",
    "geocoded_column": {
      "latitude": "29.992317269490975",
      "longitude": "-90.06976244359544"
    }
  },
  {
    "service_request": "2023-968355",
    "request_type": "Trash/Recycling",
    "request_reason": "Request a Large Item Pick Up",
    "date_created": "2023-01-18T17:09:13.000",
    "date_modified": "2023-01-18T17:11:30.000",
    "request_status": "Pending",
    "responsible_agency": "Department of Sanitation",
    "final_address": "2115 Valence St",
    "address_councildis": "B",
    "status": "Assigned to Contractor",
    "contractor": "Richards Disposal",
    "rowid": "968355",
    "final_x": "3669645.5595",
    "final_y": "522676.366906",
    "longitude": "-90.10580164371216",
    "latitude": "29.93153317001814",
    "geocoded_column": {
      "latitude": "29.93153317001814",
      "longitude": "-90.10580164371216"
    }
  },
  {
    "service_request": "2023-968354",
    "request_type": "Traffic Signals/Signs/Striping/Streetlights",
    "request_reason": "Street Light Outage/Malfunction",
    "date_created": "2023-01-18T17:03:41.000",
    "date_modified": "2023-01-18T17:03:42.000",
    "request_status": "Pending",
    "responsible_agency": "Department of Public Works",
    "final_address": "7455 Dominican St",
    "address_councildis": "A",
    "status": "Assigned to Contractor",
    "contractor": "Legacy Professional Services",
    "rowid": "968354",
    "final_x": "3661781.51104",
    "final_y": "524846.248188",
    "longitude": "-90.13055573928638",
    "latitude": "29.93772896909779",
    "geocoded_column": {
      "latitude": "29.93772896909779",
      "longitude": "-90.13055573928638"
    }
  },
  {
    "service_request": "2023-968353",
    "request_type": "Trash/Recycling",
    "request_reason": "Missed Trash Pick-Up",
    "date_created": "2023-01-18T17:02:50.000",
    "date_modified": "2023-01-18T17:02:51.000",
    "request_status": "Pending",
    "responsible_agency": "Department of Sanitation",
    "final_address": "1621 Valmont St",
    "address_councildis": "B",
    "status": "Assigned to Contractor",
    "contractor": "Richards Disposal",
    "rowid": "968353",
    "final_x": "3667953.26957",
    "final_y": "521506.716217",
    "longitude": "-90.11118340467041",
    "latitude": "29.928366744544313",
    "geocoded_column": {
      "latitude": "29.928366744544313",
      "longitude": "-90.11118340467041"
    }
  },
  {
    "service_request": "2023-968352",
    "request_type": "Trash/Recycling",
    "request_reason": "Replace Trash Cart",
    "date_created": "2023-01-18T17:02:28.000",
    "date_modified": "2023-01-18T17:02:29.000",
    "request_status": "Pending",
    "responsible_agency": "Department of Sanitation",
    "final_address": "339 N St Patrick St",
    "address_councildis": "A",
    "status": "Assigned to Contractor",
    "contractor": "Richards Disposal",
    "rowid": "968352",
    "final_x": "3669763.47284",
    "final_y": "540765.632971",
    "longitude": "-90.10481714347598",
    "latitude": "29.981269211266383",
    "geocoded_column": {
      "latitude": "29.981269211266383",
      "longitude": "-90.10481714347598"
    }
  },
  {
    "service_request": "2023-968351",
    "request_type": "Trash/Recycling",
    "request_reason": "Request a Large Item Pick Up",
    "date_created": "2023-01-18T16:59:47.000",
    "date_modified": "2023-01-18T16:59:47.000",
    "request_status": "Pending",
    "responsible_agency": "Department of Sanitation",
    "final_address": "4900 Constance St",
    "address_councildis": "B",
    "status": "Assigned to Contractor",
    "contractor": "Richards Disposal",
    "rowid": "968351",
    "final_x": "3668938.35873",
    "final_y": "518167.990646",
    "longitude": "-90.10818637476068",
    "latitude": "29.91915738019517",
    "geocoded_column": {
      "latitude": "29.91915738019517",
      "longitude": "-90.10818637476068"
    }
  },
  {
    "service_request": "2023-968350",
    "request_type": "Abandoned Vehicles",
    "request_reason": "Abandoned/Junk Vehicles",
    "date_created": "2023-01-18T16:51:05.000",
    "date_modified": "2023-01-18T16:51:05.000",
    "request_status": "Pending",
    "responsible_agency": "Department of Public Works",
    "final_address": "1637 Crete St",
    "address_councildis": "A",
    "status": "Pending",
    "rowid": "968350",
    "final_x": "3678229.74875",
    "final_y": "540821.054603",
    "longitude": "-90.07807486102037",
    "latitude": "29.981169295188433",
    "geocoded_column": {
      "latitude": "29.981169295188433",
      "longitude": "-90.07807486102037"
    }
  },
  {
    "service_request": "2023-968349",
    "request_type": "Traffic Signals/Signs/Striping/Streetlights",
    "request_reason": "Street Light Outage/Malfunction",
    "date_created": "2023-01-18T16:51:04.000",
    "date_modified": "2023-01-18T16:51:04.000",
    "request_status": "Pending",
    "responsible_agency": "Department of Public Works",
    "final_address": "4108 Cadillac St",
    "address_councildis": "D",
    "status": "Assigned to Contractor",
    "contractor": "Legacy Professional Services",
    "rowid": "968349",
    "final_x": "3676858.49019",
    "final_y": "547268.920273",
    "longitude": "-90.08218354927534",
    "latitude": "29.99893990966965",
    "geocoded_column": {
      "latitude": "29.99893990966965",
      "longitude": "-90.08218354927534"
    }
  },
  {
    "service_request": "2023-968348",
    "request_type": "Trash/Recycling",
    "request_reason": "Request a Large Item Pick Up",
    "date_created": "2023-01-18T16:50:47.000",
    "date_modified": "2023-01-18T16:50:48.000",
    "request_status": "Pending",
    "responsible_agency": "Department of Sanitation",
    "final_address": "8126 Apple St",
    "address_councildis": "A",
    "status": "Assigned to Contractor",
    "contractor": "Richards Disposal",
    "rowid": "968348",
    "final_x": "3665183.4953",
    "final_y": "532199.455235",
    "longitude": "-90.11956945759181",
    "latitude": "29.95784928496541",
    "geocoded_column": {
      "latitude": "29.95784928496541",
      "longitude": "-90.11956945759181"
    }
  },
  {
    "service_request": "2023-968347",
    "request_type": "Trash/Recycling",
    "request_reason": "Order Trash Cart",
    "date_created": "2023-01-18T16:50:08.000",
    "date_modified": "2023-01-18T16:50:09.000",
    "request_status": "Pending",
    "responsible_agency": "Department of Sanitation",
    "final_address": "5530 Norgate Dr",
    "address_councildis": "E",
    "status": "Assigned to Contractor",
    "contractor": "Waste Pro",
    "rowid": "968347",
    "final_x": "3707020.05534",
    "final_y": "558080.937243",
    "longitude": "-89.98650206835079",
    "latitude": "30.02772876199108",
    "geocoded_column": {
      "latitude": "30.02772876199108",
      "longitude": "-89.98650206835079"
    }
  },
  {
    "service_request": "2023-968346",
    "request_type": "Trash/Recycling",
    "request_reason": "Missed Trash Pick-Up",
    "date_created": "2023-01-18T16:48:59.000",
    "date_modified": "2023-01-18T16:49:00.000",
    "request_status": "Pending",
    "responsible_agency": "Department of Sanitation",
    "final_address": "5530 Norgate Dr",
    "address_councildis": "E",
    "status": "Assigned to Contractor",
    "contractor": "Waste Pro",
    "rowid": "968346",
    "final_x": "3707020.05534",
    "final_y": "558080.937243",
    "longitude": "-89.98650206835079",
    "latitude": "30.02772876199108",
    "geocoded_column": {
      "latitude": "30.02772876199108",
      "longitude": "-89.98650206835079"
    }
  },
  {
    "service_request": "2023-968345",
    "request_type": "Abandoned Vehicles",
    "request_reason": "Abandoned/Junk Vehicles",
    "date_created": "2023-01-18T16:48:27.000",
    "date_modified": "2023-01-18T16:48:27.000",
    "request_status": "Pending",
    "responsible_agency": "Department of Public Works",
    "final_address": "1637 Crete St",
    "address_councildis": "A",
    "status": "Pending",
    "rowid": "968345",
    "final_x": "3678229.74875",
    "final_y": "540821.054603",
    "longitude": "-90.07807486102037",
    "latitude": "29.981169295188433",
    "geocoded_column": {
      "latitude": "29.981169295188433",
      "longitude": "-90.07807486102037"
    }
  },
  {
    "service_request": "2023-968344",
    "request_type": "Trash/Recycling",
    "request_reason": "Missed Trash Pick-Up",
    "date_created": "2023-01-18T16:47:42.000",
    "date_modified": "2023-01-18T16:47:42.000",
    "request_status": "Pending",
    "responsible_agency": "Department of Sanitation",
    "final_address": "5530 Norgate Dr",
    "address_councildis": "E",
    "status": "Assigned to Contractor",
    "contractor": "Waste Pro",
    "rowid": "968344",
    "final_x": "3707020.05534",
    "final_y": "558080.937243",
    "longitude": "-89.98650206835079",
    "latitude": "30.02772876199108",
    "geocoded_column": {
      "latitude": "30.02772876199108",
      "longitude": "-89.98650206835079"
    }
  },
  {
    "service_request": "2023-968343",
    "request_type": "Trash/Recycling",
    "request_reason": "Request a Large Item Pick Up",
    "date_created": "2023-01-18T16:47:23.000",
    "date_modified": "2023-01-18T16:47:24.000",
    "request_status": "Pending",
    "responsible_agency": "Department of Sanitation",
    "final_address": "7724 Plum St",
    "address_councildis": "A",
    "status": "Assigned to Contractor",
    "contractor": "Richards Disposal",
    "rowid": "968343",
    "final_x": "3663107.10266",
    "final_y": "527756.711935",
    "longitude": "-90.126273928484",
    "latitude": "29.945693489234344",
    "geocoded_column": {
      "latitude": "29.945693489234344",
      "longitude": "-90.126273928484"
    }
  },
  {
    "service_request": "2023-968342",
    "request_type": "Abandoned Vehicles",
    "request_reason": "Abandoned/Junk Vehicles",
    "date_created": "2023-01-18T16:47:18.000",
    "date_modified": "2023-01-18T16:47:18.000",
    "request_status": "Pending",
    "responsible_agency": "Department of Public Works",
    "final_address": "4530 St Ann St",
    "address_councildis": "A",
    "status": "Pending",
    "rowid": "968342",
    "final_x": "3671066.84148",
    "final_y": "541602.449868",
    "longitude": "-90.10067206828269",
    "latitude": "29.98353168397486",
    "geocoded_column": {
      "latitude": "29.98353168397486",
      "longitude": "-90.10067206828269"
    }
  },
  {
    "service_request": "2023-968341",
    "request_type": "Traffic Signals/Signs/Striping/Streetlights",
    "request_reason": "Street Light Outage/Malfunction",
    "date_created": "2023-01-18T16:46:19.000",
    "date_modified": "2023-01-18T16:46:20.000",
    "request_status": "Pending",
    "responsible_agency": "Department of Public Works",
    "final_address": "419 Exposition Blvd",
    "address_councildis": "A",
    "status": "Assigned to Contractor",
    "contractor": "Legacy Professional Services",
    "rowid": "968341",
    "final_x": "3662648.28672",
    "final_y": "518721.711415",
    "longitude": "-90.12802263962828",
    "latitude": "29.920863369445737",
    "geocoded_column": {
      "latitude": "29.920863369445737",
      "longitude": "-90.12802263962828"
    }
  },
  {
    "service_request": "2023-968340",
    "request_type": "Tax and Revenue",
    "request_reason": "General Tax Question",
    "date_created": "2023-01-18T16:46:15.000",
    "date_modified": "2023-01-18T16:46:15.000",
    "request_status": "Pending",
    "responsible_agency": "Bureau of Revenue",
    "status": "Pending",
    "rowid": "968340",
    "longitude": "0.0",
    "latitude": "0.0",
    "geocoded_column": {
      "latitude": "0.0",
      "longitude": "0.0"
    }
  },
  {
    "service_request": "2023-968339",
    "request_type": "Mosquito, Termite & Rodent Control",
    "request_reason": "Mosquito Complaint",
    "date_created": "2023-01-18T16:44:37.000",
    "date_modified": "2023-01-18T16:44:37.000",
    "request_status": "Pending",
    "responsible_agency": "Mosquito, Termite & Rodent Control Board",
    "final_address": "OBANNON ST & LEXINGTON",
    "address_councildis": "C",
    "status": "Pending",
    "rowid": "968339",
    "final_x": "3692232.3",
    "final_y": "528770.18",
    "longitude": "-90.03428015718397",
    "latitude": "29.947604408918547",
    "geocoded_column": {
      "latitude": "29.947604408918547",
      "longitude": "-90.03428015718397"
    }
  },
  {
    "service_request": "2023-968338",
    "request_type": "Trash/Recycling",
    "request_reason": "Missed Trash Pick-Up",
    "date_created": "2023-01-18T16:40:15.000",
    "date_modified": "2023-01-18T16:40:16.000",
    "request_status": "Pending",
    "responsible_agency": "Department of Sanitation",
    "final_address": "632 Moss St",
    "address_councildis": "A",
    "status": "Assigned to Contractor",
    "contractor": "Richards Disposal",
    "rowid": "968338",
    "final_x": "3674392.55457",
    "final_y": "538514.037001",
    "longitude": "-90.09027352250254",
    "latitude": "29.97494081275978",
    "geocoded_column": {
      "latitude": "29.97494081275978",
      "longitude": "-90.09027352250254"
    }
  },
  {
    "service_request": "2023-968337",
    "request_type": "Trash/Recycling",
    "request_reason": "Repair Recycling Cart",
    "date_created": "2023-01-18T16:38:22.000",
    "date_modified": "2023-01-18T16:38:23.000",
    "request_status": "Pending",
    "responsible_agency": "Department of Sanitation",
    "final_address": "11408 N Easterlyn Cir",
    "address_councildis": "E",
    "status": "Pending",
    "rowid": "968337",
    "final_x": "3718331.62021",
    "final_y": "560759.912798",
    "longitude": "-89.95065664179107",
    "latitude": "30.034724432697715",
    "geocoded_column": {
      "latitude": "30.034724432697715",
      "longitude": "-89.95065664179107"
    }
  },
  {
    "service_request": "2023-968336",
    "request_type": "Trash/Recycling",
    "request_reason": "Missed Trash Pick-Up",
    "date_created": "2023-01-18T16:37:22.000",
    "date_modified": "2023-01-18T16:37:22.000",
    "request_status": "Pending",
    "responsible_agency": "Department of Sanitation",
    "final_address": "419 Exposition Blvd",
    "address_councildis": "A",
    "status": "Assigned to Contractor",
    "contractor": "Richards Disposal",
    "rowid": "968336",
    "final_x": "3662648.28672",
    "final_y": "518721.711415",
    "longitude": "-90.12802263962828",
    "latitude": "29.920863369445737",
    "geocoded_column": {
      "latitude": "29.920863369445737",
      "longitude": "-90.12802263962828"
    }
  },
  {
    "service_request": "2023-968335",
    "request_type": "Trash/Recycling",
    "request_reason": "Request a Large Item Pick Up",
    "date_created": "2023-01-18T16:36:56.000",
    "date_modified": "2023-01-18T16:36:57.000",
    "request_status": "Pending",
    "responsible_agency": "Department of Sanitation",
    "final_address": "1702 Delachaise St",
    "address_councildis": "B",
    "status": "Assigned to Contractor",
    "contractor": "Richards Disposal",
    "rowid": "968335",
    "final_x": "3673610.74811",
    "final_y": "521804.698746",
    "longitude": "-90.09331376980676",
    "latitude": "29.929018965806783",
    "geocoded_column": {
      "latitude": "29.929018965806783",
      "longitude": "-90.09331376980676"
    }
  },
  {
    "service_request": "2023-968334",
    "request_type": "Traffic Signals/Signs/Striping/Streetlights",
    "request_reason": "Street Light Outage/Malfunction",
    "date_created": "2023-01-18T16:33:18.000",
    "date_modified": "2023-01-18T16:33:19.000",
    "request_status": "Pending",
    "responsible_agency": "Department of Public Works",
    "final_address": "5400 Douglass St",
    "address_councildis": "E",
    "status": "Assigned to Contractor",
    "contractor": "Legacy Professional Services",
    "rowid": "968334",
    "final_x": "3696661.06275",
    "final_y": "531767.824899",
    "longitude": "-90.0201884338796",
    "latitude": "29.955708079711844",
    "geocoded_column": {
      "latitude": "29.955708079711844",
      "longitude": "-90.0201884338796"
    }
  },
  {
    "service_request": "2023-968333",
    "request_type": "Trash/Recycling",
    "request_reason": "Repair Recycling Cart",
    "date_created": "2023-01-18T16:33:13.000",
    "date_modified": "2023-01-18T16:33:13.000",
    "request_status": "Pending",
    "responsible_agency": "Department of Sanitation",
    "final_address": "419 Exposition Blvd",
    "address_councildis": "A",
    "status": "Pending",
    "rowid": "968333",
    "final_x": "3662648.28672",
    "final_y": "518721.711415",
    "longitude": "-90.12802263962828",
    "latitude": "29.920863369445737",
    "geocoded_column": {
      "latitude": "29.920863369445737",
      "longitude": "-90.12802263962828"
    }
  },
  {
    "service_request": "2023-968332",
    "request_type": "Traffic Signals/Signs/Striping/Streetlights",
    "request_reason": "Traffic Signal Malfunctioning/Damaged",
    "date_created": "2023-01-18T16:32:45.000",
    "date_modified": "2023-01-18T16:32:45.000",
    "request_status": "Pending",
    "responsible_agency": "Department of Public Works",
    "final_address": "FRERET ST & NAPOLEON AVE",
    "address_councildis": "B",
    "status": "Pending",
    "rowid": "968332",
    "final_x": "3670575.6",
    "final_y": "524047.98",
    "longitude": "-90.10281910815539",
    "latitude": "29.935277235589393",
    "geocoded_column": {
      "latitude": "29.935277235589393",
      "longitude": "-90.10281910815539"
    }
  },
  {
    "service_request": "2023-968331",
    "request_type": "Trash/Recycling",
    "request_reason": "Return Recycling Cart",
    "date_created": "2023-01-18T16:28:47.000",
    "date_modified": "2023-01-18T16:28:47.000",
    "request_status": "Pending",
    "responsible_agency": "Department of Sanitation",
    "final_address": "702 N Alexander St",
    "address_councildis": "A",
    "status": "Pending",
    "rowid": "968331",
    "final_x": "3671351.01294",
    "final_y": "540907.964747",
    "longitude": "-90.09979811718263",
    "latitude": "29.98161367813064",
    "geocoded_column": {
      "latitude": "29.98161367813064",
      "longitude": "-90.09979811718263"
    }
  },
  {
    "service_request": "2023-968330",
    "request_type": "Trash/Recycling",
    "request_reason": "Request a Large Item Pick Up",
    "date_created": "2023-01-18T16:25:06.000",
    "date_modified": "2023-01-18T16:25:07.000",
    "request_status": "Pending",
    "responsible_agency": "Department of Sanitation",
    "final_address": "1718 Short St",
    "address_councildis": "A",
    "status": "Assigned to Contractor",
    "contractor": "Richards Disposal",
    "rowid": "968330",
    "final_x": "3663557.86823",
    "final_y": "529508.914753",
    "longitude": "-90.12479235614776",
    "latitude": "29.950498419017233",
    "geocoded_column": {
      "latitude": "29.950498419017233",
      "longitude": "-90.12479235614776"
    }
  },
  {
    "service_request": "2023-968329",
    "request_type": "Trash/Recycling",
    "request_reason": "Repair Trash Cart",
    "date_created": "2023-01-18T16:23:19.000",
    "date_modified": "2023-01-18T16:23:20.000",
    "request_status": "Pending",
    "responsible_agency": "Department of Sanitation",
    "final_address": "2218 Jefferson Ave",
    "address_councildis": "A",
    "status": "Assigned to Contractor",
    "contractor": "Richards Disposal",
    "rowid": "968329",
    "final_x": "3667805.8258",
    "final_y": "523830.306811",
    "longitude": "-90.11157064313855",
    "latitude": "29.934760201097962",
    "geocoded_column": {
      "latitude": "29.934760201097962",
      "longitude": "-90.11157064313855"
    }
  },
  {
    "service_request": "2023-968328",
    "request_type": "Tax and Revenue",
    "request_reason": "Sales Tax Question",
    "date_created": "2023-01-18T16:23:14.000",
    "date_modified": "2023-01-18T16:23:14.000",
    "request_status": "Pending",
    "responsible_agency": "Bureau of Revenue",
    "status": "Pending",
    "rowid": "968328",
    "longitude": "0.0",
    "latitude": "0.0",
    "geocoded_column": {
      "latitude": "0.0",
      "longitude": "0.0"
    }
  },
  {
    "service_request": "2023-968327",
    "request_type": "Trash/Recycling",
    "request_reason": "Request a Large Item Pick Up",
    "date_created": "2023-01-18T16:19:34.000",
    "date_modified": "2023-01-18T16:19:35.000",
    "request_status": "Pending",
    "responsible_agency": "Department of Sanitation",
    "final_address": "5 Bear Creek Dr",
    "address_councildis": "C",
    "status": "Assigned to Contractor",
    "contractor": "Richards Disposal",
    "rowid": "968327",
    "final_x": "3718491.10309",
    "final_y": "514943.535027",
    "longitude": "-89.95189821066039",
    "latitude": "29.908741436554315",
    "geocoded_column": {
      "latitude": "29.908741436554315",
      "longitude": "-89.95189821066039"
    }
  },
  {
    "service_request": "2023-968326",
    "request_type": "Trash/Recycling",
    "request_reason": "Illegal Dumping",
    "date_created": "2023-01-18T16:06:53.000",
    "date_modified": "2023-01-18T16:06:53.000",
    "request_status": "Pending",
    "responsible_agency": "Department of Sanitation",
    "final_address": "9 Bamboo Rd",
    "status": "Pending",
    "rowid": "968326",
    "final_x": "3663449.29888",
    "final_y": "539272.234698",
    "longitude": "-90.1248100238451",
    "latitude": "29.97734749860781",
    "geocoded_column": {
      "latitude": "29.97734749860781",
      "longitude": "-90.1248100238451"
    }
  },
  {
    "service_request": "2023-968325",
    "request_type": "Property Maintenance",
    "request_reason": "Property Maintenance",
    "date_created": "2023-01-18T16:00:56.000",
    "date_modified": "2023-01-18T16:00:56.000",
    "request_status": "Pending",
    "responsible_agency": "Department of Code Enforcement",
    "final_address": "7628 Vanderkloot Ave",
    "address_councildis": "E",
    "status": "Pending",
    "rowid": "968325",
    "final_x": "3705797.657",
    "final_y": "563175.876256",
    "longitude": "-89.9901760059017",
    "latitude": "30.04177729193311",
    "geocoded_column": {
      "latitude": "30.04177729193311",
      "longitude": "-89.9901760059017"
    }
  },
  {
    "service_request": "2023-968324",
    "request_type": "Trash/Recycling",
    "request_reason": "Repair Trash Cart",
    "date_created": "2023-01-18T15:55:14.000",
    "date_modified": "2023-01-18T15:55:15.000",
    "request_status": "Pending",
    "responsible_agency": "Department of Sanitation",
    "final_address": "3522 Hollygrove ",
    "address_councildis": "A",
    "status": "Assigned to Contractor",
    "contractor": "Richards Disposal",
    "rowid": "968324",
    "final_x": "3665231.90727",
    "final_y": "536732.292295",
    "longitude": "-90.11926492875364",
    "latitude": "29.970311685099354",
    "geocoded_column": {
      "latitude": "29.970311685099354",
      "longitude": "-90.11926492875364"
    }
  },
  {
    "service_request": "2023-968323",
    "request_type": "Trash/Recycling",
    "request_reason": "Order Recycling Cart",
    "date_created": "2023-01-18T15:53:36.000",
    "date_modified": "2023-01-18T15:53:36.000",
    "request_status": "Pending",
    "responsible_agency": "Department of Sanitation",
    "final_address": "3522 Hollygrove ",
    "address_councildis": "A",
    "status": "Pending",
    "rowid": "968323",
    "final_x": "3665231.90727",
    "final_y": "536732.292295",
    "longitude": "-90.11926492875364",
    "latitude": "29.970311685099354",
    "geocoded_column": {
      "latitude": "29.970311685099354",
      "longitude": "-90.11926492875364"
    }
  },
  {
    "service_request": "2023-968322",
    "request_type": "Property Maintenance",
    "request_reason": "Property Maintenance",
    "date_created": "2023-01-18T15:53:26.000",
    "date_modified": "2023-01-18T15:53:26.000",
    "request_status": "Pending",
    "responsible_agency": "Department of Code Enforcement",
    "final_address": "937 Fats Domino Ave",
    "address_councildis": "E",
    "status": "Pending",
    "rowid": "968322",
    "final_x": "3697942.42627",
    "final_y": "533287.40378",
    "longitude": "-90.01608720362415",
    "latitude": "29.959845944005593",
    "geocoded_column": {
      "latitude": "29.959845944005593",
      "longitude": "-90.01608720362415"
    }
  },
  {
    "service_request": "2023-968321",
    "request_type": "Trash/Recycling",
    "request_reason": "MIssed Recycling Pick-Up",
    "date_created": "2023-01-18T15:52:07.000",
    "date_modified": "2023-01-18T15:52:08.000",
    "request_status": "Pending",
    "responsible_agency": "Department of Sanitation",
    "final_address": "3731 Rue Delphine",
    "address_councildis": "C",
    "status": "Assigned to Contractor",
    "contractor": "Richards Disposal",
    "rowid": "968321",
    "final_x": "3702964.07876",
    "final_y": "516808.361077",
    "longitude": "-90.00083519715507",
    "latitude": "29.914374666451153",
    "geocoded_column": {
      "latitude": "29.914374666451153",
      "longitude": "-90.00083519715507"
    }
  },
  {
    "service_request": "2023-968320",
    "request_type": "Roads/Drainage",
    "request_reason": "Pothole",
    "date_created": "2023-01-18T15:49:36.000",
    "date_modified": "2023-01-18T15:49:36.000",
    "request_status": "Pending",
    "responsible_agency": "Department of Public Works",
    "final_address": "125 S Pierce St",
    "address_councildis": "A",
    "status": "Pending",
    "rowid": "968320",
    "final_x": "3671274.2939",
    "final_y": "537871.169225",
    "longitude": "-90.10014366037348",
    "latitude": "29.9732657913976",
    "geocoded_column": {
      "latitude": "29.9732657913976",
      "longitude": "-90.10014366037348"
    }
  },
  {
    "service_request": "2023-968319",
    "request_type": "Trash/Recycling",
    "request_reason": "Request a Large Item Pick Up",
    "date_created": "2023-01-18T15:46:23.000",
    "date_modified": "2023-01-18T15:46:24.000",
    "request_status": "Pending",
    "responsible_agency": "Department of Sanitation",
    "final_address": "1557 Lafreniere St",
    "address_councildis": "D",
    "status": "Assigned to Contractor",
    "contractor": "IV Waste",
    "rowid": "968319",
    "final_x": "3679445.28027",
    "final_y": "545156.156495",
    "longitude": "-90.07408518906885",
    "latitude": "29.99305263804877",
    "geocoded_column": {
      "latitude": "29.99305263804877",
      "longitude": "-90.07408518906885"
    }
  },
  {
    "service_request": "2023-968318",
    "request_type": "Abandoned Vehicles",
    "request_reason": "Abandoned/Junk Vehicles",
    "date_created": "2023-01-18T15:41:44.000",
    "date_modified": "2023-01-18T15:41:44.000",
    "request_status": "Pending",
    "responsible_agency": "Department of Public Works",
    "final_address": "6208 S Rocheblave St",
    "address_councildis": "A",
    "status": "Pending",
    "rowid": "968318",
    "final_x": "3667550.22113",
    "final_y": "528688.319808",
    "longitude": "-90.11221414310245",
    "latitude": "29.94812566251198",
    "geocoded_column": {
      "latitude": "29.94812566251198",
      "longitude": "-90.11221414310245"
    }
  },
  {
    "service_request": "2023-968317",
    "request_type": "Abandoned Vehicles",
    "request_reason": "Abandoned/Junk Vehicles",
    "date_created": "2023-01-18T15:41:36.000",
    "date_modified": "2023-01-18T15:41:36.000",
    "request_status": "Pending",
    "responsible_agency": "Department of Public Works",
    "final_address": "6208 S Rocheblave St",
    "address_councildis": "A",
    "status": "Pending",
    "rowid": "968317",
    "final_x": "3667550.22113",
    "final_y": "528688.319808",
    "longitude": "-90.11221414310245",
    "latitude": "29.94812566251198",
    "geocoded_column": {
      "latitude": "29.94812566251198",
      "longitude": "-90.11221414310245"
    }
  },
  {
    "service_request": "2023-968315",
    "request_type": "Trash/Recycling",
    "request_reason": "Replace Trash Cart",
    "date_created": "2023-01-18T15:41:15.000",
    "date_modified": "2023-01-18T15:41:16.000",
    "request_status": "Pending",
    "responsible_agency": "Department of Sanitation",
    "final_address": "5562 Jacquelyn Ct",
    "address_councildis": "A",
    "status": "Assigned to Contractor",
    "contractor": "IV Waste",
    "rowid": "968315",
    "final_x": "3664304.0224",
    "final_y": "544716.187535",
    "longitude": "-90.12192873523702",
    "latitude": "29.99229172116914",
    "geocoded_column": {
      "latitude": "29.99229172116914",
      "longitude": "-90.12192873523702"
    }
  },
  {
    "service_request": "2023-968314",
    "request_type": "Trash/Recycling",
    "request_reason": "Order Recycling Cart",
    "date_created": "2023-01-18T15:41:13.000",
    "date_modified": "2023-01-18T15:41:13.000",
    "request_status": "Pending",
    "responsible_agency": "Department of Sanitation",
    "final_address": "4717 Wright Rd",
    "address_councildis": "E",
    "status": "Pending",
    "rowid": "968314",
    "final_x": "3716795.0846",
    "final_y": "556902.066202",
    "longitude": "-89.95565884459987",
    "latitude": "30.024167791952724",
    "geocoded_column": {
      "latitude": "30.024167791952724",
      "longitude": "-89.95565884459987"
    }
  },
  {
    "service_request": "2023-968313",
    "request_type": "Trash/Recycling",
    "request_reason": "MIssed Recycling Pick-Up",
    "date_created": "2023-01-18T15:37:19.000",
    "date_modified": "2023-01-18T15:37:20.000",
    "request_status": "Pending",
    "responsible_agency": "Department of Sanitation",
    "final_address": "9518 Palmetto St",
    "address_councildis": "A",
    "status": "Assigned to Contractor",
    "contractor": "Richards Disposal",
    "rowid": "968313",
    "final_x": "3664331.18656",
    "final_y": "538535.714633",
    "longitude": "-90.12204930827278",
    "latitude": "29.975296708920023",
    "geocoded_column": {
      "latitude": "29.975296708920023",
      "longitude": "-90.12204930827278"
    }
  },
  {
    "service_request": "2023-968312",
    "request_type": "Trash/Recycling",
    "request_reason": "Replace Recycling Cart",
    "date_created": "2023-01-18T15:36:46.000",
    "date_modified": "2023-01-18T15:36:46.000",
    "request_status": "Pending",
    "responsible_agency": "Department of Sanitation",
    "final_address": "2020 Sumpter St",
    "address_councildis": "D",
    "status": "Pending",
    "rowid": "968312",
    "final_x": "3682678.79663",
    "final_y": "549385.725395",
    "longitude": "-90.06372303939195",
    "latitude": "30.004584334349794",
    "geocoded_column": {
      "latitude": "30.004584334349794",
      "longitude": "-90.06372303939195"
    }
  },
  {
    "service_request": "2023-968311",
    "request_type": "Trash/Recycling",
    "request_reason": "Missed Trash Pick-Up",
    "date_created": "2023-01-18T15:34:09.000",
    "date_modified": "2023-01-18T15:34:10.000",
    "request_status": "Pending",
    "responsible_agency": "Department of Sanitation",
    "final_address": "1017 N Dupre St",
    "address_councildis": "A",
    "status": "Assigned to Contractor",
    "contractor": "Richards Disposal",
    "rowid": "968311",
    "final_x": "3676677.21249",
    "final_y": "538571.757513",
    "longitude": "-90.08305599492408",
    "latitude": "29.97503117634209",
    "geocoded_column": {
      "latitude": "29.97503117634209",
      "longitude": "-90.08305599492408"
    }
  },
  {
    "service_request": "2023-968310",
    "request_type": "Trash/Recycling",
    "request_reason": "Order Trash Cart",
    "date_created": "2023-01-18T15:32:37.000",
    "date_modified": "2023-01-18T15:32:38.000",
    "request_status": "Pending",
    "responsible_agency": "Department of Sanitation",
    "final_address": "2437 First St",
    "address_councildis": "B",
    "status": "Assigned to Contractor",
    "contractor": "Richards Disposal",
    "rowid": "968310",
    "final_x": "3675221.9595",
    "final_y": "525899.855357",
    "longitude": "-90.08808699661715",
    "latitude": "29.940231268501517",
    "geocoded_column": {
      "latitude": "29.940231268501517",
      "longitude": "-90.08808699661715"
    }
  },
  {
    "service_request": "2023-968309",
    "request_type": "Traffic Signals/Signs/Striping/Streetlights",
    "request_reason": "Additional signage",
    "date_created": "2023-01-18T15:32:26.000",
    "date_modified": "2023-01-18T15:32:26.000",
    "request_status": "Pending",
    "responsible_agency": "Department of Public Works",
    "final_address": "214 N Alexander St",
    "address_councildis": "A",
    "status": "Pending",
    "rowid": "968309",
    "final_x": "3670354.9954",
    "final_y": "539588.490634",
    "longitude": "-90.10298876225767",
    "latitude": "29.97801501768856",
    "geocoded_column": {
      "latitude": "29.97801501768856",
      "longitude": "-90.10298876225767"
    }
  },
  {
    "service_request": "2023-968308",
    "request_type": "Trash/Recycling",
    "request_reason": "Order Trash Cart",
    "date_created": "2023-01-18T15:31:34.000",
    "date_modified": "2023-01-18T15:31:35.000",
    "request_status": "Pending",
    "responsible_agency": "Department of Sanitation",
    "final_address": "7500 Shubrick Ave",
    "address_councildis": "E",
    "status": "Assigned to Contractor",
    "contractor": "Waste Pro",
    "rowid": "968308",
    "final_x": "3706946.32024",
    "final_y": "563266.118816",
    "longitude": "-89.98654248181435",
    "latitude": "30.041988350395833",
    "geocoded_column": {
      "latitude": "30.041988350395833",
      "longitude": "-89.98654248181435"
    }
  },
  {
    "service_request": "2023-968307",
    "request_type": "Trash/Recycling",
    "request_reason": "Order Trash Cart",
    "date_created": "2023-01-18T15:29:58.000",
    "date_modified": "2023-01-18T15:29:59.000",
    "request_status": "Pending",
    "responsible_agency": "Department of Sanitation",
    "final_address": "2435 First St",
    "address_councildis": "B",
    "status": "Assigned to Contractor",
    "contractor": "Richards Disposal",
    "rowid": "968307",
    "final_x": "3675228.47931",
    "final_y": "525888.432317",
    "longitude": "-90.08806680446573",
    "latitude": "29.94019966406219",
    "geocoded_column": {
      "latitude": "29.94019966406219",
      "longitude": "-90.08806680446573"
    }
  },
  {
    "service_request": "2023-968306",
    "request_type": "Trash/Recycling",
    "request_reason": "Request a Large Item Pick Up",
    "date_created": "2023-01-18T15:24:39.000",
    "date_modified": "2023-01-18T15:24:40.000",
    "request_status": "Pending",
    "responsible_agency": "Department of Sanitation",
    "final_address": "4315 Freret St",
    "address_councildis": "B",
    "status": "Assigned to Contractor",
    "contractor": "Richards Disposal",
    "rowid": "968306",
    "final_x": "3670766.53537",
    "final_y": "524116.578492",
    "longitude": "-90.10221399677866",
    "latitude": "29.935460219863828",
    "geocoded_column": {
      "latitude": "29.935460219863828",
      "longitude": "-90.10221399677866"
    }
  },
  {
    "service_request": "2023-968305",
    "request_type": "Trash/Recycling",
    "request_reason": "Replace Trash Cart",
    "date_created": "2023-01-18T15:17:52.000",
    "date_modified": "2023-01-18T15:17:52.000",
    "request_status": "Pending",
    "responsible_agency": "Department of Sanitation",
    "final_address": "2821 Joseph St",
    "address_councildis": "A",
    "status": "Assigned to Contractor",
    "contractor": "Richards Disposal",
    "rowid": "968305",
    "final_x": "3667859.75597",
    "final_y": "526317.96563",
    "longitude": "-90.11131662974273",
    "latitude": "29.941598882154363",
    "geocoded_column": {
      "latitude": "29.941598882154363",
      "longitude": "-90.11131662974273"
    }
  },
  {
    "service_request": "2023-968304",
    "request_type": "Trash/Recycling",
    "request_reason": "Request a Large Item Pick Up",
    "date_created": "2023-01-18T15:15:18.000",
    "date_modified": "2023-01-18T15:15:19.000",
    "request_status": "Pending",
    "responsible_agency": "Department of Sanitation",
    "final_address": "2010 Pauger St",
    "address_councildis": "C",
    "status": "Assigned to Contractor",
    "contractor": "IV Waste",
    "rowid": "968304",
    "final_x": "3683781.19068",
    "final_y": "537048.929544",
    "longitude": "-90.06067324678031",
    "latitude": "29.9706288780099",
    "geocoded_column": {
      "latitude": "29.9706288780099",
      "longitude": "-90.06067324678031"
    }
  },
  {
    "service_request": "2023-968303",
    "request_type": "Traffic Signals/Signs/Striping/Streetlights",
    "request_reason": "Street Light Outage/Malfunction",
    "date_created": "2023-01-18T15:15:03.000",
    "date_modified": "2023-01-18T15:15:04.000",
    "request_status": "Pending",
    "responsible_agency": "Department of Public Works",
    "final_address": "DUBLIN ST & SYCAMORE ST",
    "address_councildis": "A",
    "status": "Assigned to Contractor",
    "contractor": "Legacy Professional Services",
    "rowid": "968303",
    "final_x": "3664069.8",
    "final_y": "531211.28",
    "longitude": "-90.12311916189776",
    "latitude": "29.955164515609663",
    "geocoded_column": {
      "latitude": "29.955164515609663",
      "longitude": "-90.12311916189776"
    }
  },
  {
    "service_request": "2023-968302",
    "request_type": "Trash/Recycling",
    "request_reason": "Repair Recycling Cart",
    "date_created": "2023-01-18T15:14:08.000",
    "date_modified": "2023-01-18T15:14:09.000",
    "request_status": "Pending",
    "responsible_agency": "Department of Sanitation",
    "final_address": "907 Henry Clay Ave",
    "address_councildis": "A",
    "status": "Pending",
    "rowid": "968302",
    "final_x": "3663997.65524",
    "final_y": "519940.194424",
    "longitude": "-90.12372267611376",
    "latitude": "29.924174718876614",
    "geocoded_column": {
      "latitude": "29.924174718876614",
      "longitude": "-90.12372267611376"
    }
  },
  {
    "service_request": "2023-968301",
    "request_type": "Property Maintenance",
    "request_reason": "Property Maintenance",
    "date_created": "2023-01-18T15:12:21.000",
    "date_modified": "2023-01-18T15:12:21.000",
    "request_status": "Pending",
    "responsible_agency": "Department of Code Enforcement",
    "final_address": "4429 Woodland Dr",
    "address_councildis": "C",
    "status": "Pending",
    "rowid": "968301",
    "final_x": "3705362.17438",
    "final_y": "513757.696242",
    "longitude": "-89.99337865655097",
    "latitude": "29.905909485712012",
    "geocoded_column": {
      "latitude": "29.905909485712012",
      "longitude": "-89.99337865655097"
    }
  },
  {
    "service_request": "2023-968300",
    "request_type": "Trash/Recycling",
    "request_reason": "Request a Large Item Pick Up",
    "date_created": "2023-01-18T15:10:59.000",
    "date_modified": "2023-01-18T15:10:59.000",
    "request_status": "Pending",
    "responsible_agency": "Department of Sanitation",
    "final_address": "1213 Marengo St",
    "address_councildis": "B",
    "status": "Assigned to Contractor",
    "contractor": "Richards Disposal",
    "rowid": "968300",
    "final_x": "3672152.557",
    "final_y": "520054.375352",
    "longitude": "-90.09797657162883",
    "latitude": "29.924249448224813",
    "geocoded_column": {
      "latitude": "29.924249448224813",
      "longitude": "-90.09797657162883"
    }
  },
  {
    "service_request": "2023-968299",
    "request_type": "Traffic Signals/Signs/Striping/Streetlights",
    "request_reason": "Street Light Outage/Malfunction",
    "date_created": "2023-01-18T15:08:26.000",
    "date_modified": "2023-01-18T15:08:27.000",
    "request_status": "Pending",
    "responsible_agency": "Department of Public Works",
    "final_address": "4884 Coronado Dr",
    "address_councildis": "E",
    "status": "Assigned to Contractor",
    "contractor": "Legacy Professional Services",
    "rowid": "968299",
    "final_x": "3713984.46642",
    "final_y": "557201.640283",
    "longitude": "-89.96452847046727",
    "latitude": "30.02508412010466",
    "geocoded_column": {
      "latitude": "30.02508412010466",
      "longitude": "-89.96452847046727"
    }
  },
  {
    "service_request": "2023-968298",
    "request_type": "Traffic Signals/Signs/Striping/Streetlights",
    "request_reason": "Street Light Outage/Malfunction",
    "date_created": "2023-01-18T15:08:16.000",
    "date_modified": "2023-01-18T15:08:16.000",
    "request_status": "Pending",
    "responsible_agency": "Department of Public Works",
    "final_address": "5962 Durbridge Dr",
    "address_councildis": "C",
    "status": "Assigned to Contractor",
    "contractor": "Legacy Professional Services",
    "rowid": "968298",
    "final_x": "3705479.41252",
    "final_y": "520970.926585",
    "longitude": "-89.99274230074116",
    "latitude": "29.92573960882954",
    "geocoded_column": {
      "latitude": "29.92573960882954",
      "longitude": "-89.99274230074116"
    }
  },
  {
    "service_request": "2023-968297",
    "request_type": "Trash/Recycling",
    "request_reason": "Order Recycling Cart",
    "date_created": "2023-01-18T15:08:11.000",
    "date_modified": "2023-01-18T15:08:11.000",
    "request_status": "Pending",
    "responsible_agency": "Department of Sanitation",
    "final_address": "1712 Oriole St",
    "address_councildis": "D",
    "status": "Pending",
    "rowid": "968297",
    "final_x": "3678481.99317",
    "final_y": "557843.121947",
    "longitude": "-90.0766885350084",
    "latitude": "30.02796631215965",
    "geocoded_column": {
      "latitude": "30.02796631215965",
      "longitude": "-90.0766885350084"
    }
  },
  {
    "service_request": "2023-968296",
    "request_type": "Trash/Recycling",
    "request_reason": "Request a Large Item Pick Up",
    "date_created": "2023-01-18T15:06:23.000",
    "date_modified": "2023-01-18T15:06:24.000",
    "request_status": "Pending",
    "responsible_agency": "Department of Sanitation",
    "final_address": "4884 Coronado Dr",
    "address_councildis": "E",
    "status": "Assigned to Contractor",
    "contractor": "Waste Pro",
    "rowid": "968296",
    "final_x": "3713984.46642",
    "final_y": "557201.640283",
    "longitude": "-89.96452847046727",
    "latitude": "30.02508412010466",
    "geocoded_column": {
      "latitude": "30.02508412010466",
      "longitude": "-89.96452847046727"
    }
  },
  {
    "service_request": "2023-968295",
    "request_type": "Trash/Recycling",
    "request_reason": "Missed Trash Pick-Up",
    "date_created": "2023-01-18T15:04:03.000",
    "date_modified": "2023-01-18T15:04:05.000",
    "request_status": "Pending",
    "responsible_agency": "Department of Sanitation",
    "final_address": "9300 Palmetto St",
    "address_councildis": "A",
    "status": "Assigned to Contractor",
    "contractor": "Richards Disposal",
    "rowid": "968295",
    "final_x": "3664914.41984",
    "final_y": "537953.704329",
    "longitude": "-90.12022675482285",
    "latitude": "29.973679408591824",
    "geocoded_column": {
      "latitude": "29.973679408591824",
      "longitude": "-90.12022675482285"
    }
  },
  {
    "service_request": "2023-968294",
    "request_type": "Traffic Signals/Signs/Striping/Streetlights",
    "request_reason": "Street Light Outage/Malfunction",
    "date_created": "2023-01-18T15:03:18.000",
    "date_modified": "2023-01-18T15:03:19.000",
    "request_status": "Pending",
    "responsible_agency": "Department of Public Works",
    "final_address": "2813 Republic St",
    "address_councildis": "D",
    "status": "Assigned to Contractor",
    "contractor": "Legacy Professional Services",
    "rowid": "968294",
    "final_x": "3680712.05999",
    "final_y": "542759.378701",
    "longitude": "-90.07016711299431",
    "latitude": "29.986424002620943",
    "geocoded_column": {
      "latitude": "29.986424002620943",
      "longitude": "-90.07016711299431"
    }
  },
  {
    "service_request": "2023-968293",
    "request_type": "Traffic Signals/Signs/Striping/Streetlights",
    "request_reason": "Street Light Outage/Malfunction",
    "date_created": "2023-01-18T15:00:36.000",
    "date_modified": "2023-01-18T15:00:37.000",
    "request_status": "Pending",
    "responsible_agency": "Department of Public Works",
    "final_address": "417 S Olympia St",
    "address_councildis": "A",
    "status": "Assigned to Contractor",
    "contractor": "Legacy Professional Services",
    "rowid": "968293",
    "final_x": "3668538.4619",
    "final_y": "538532.378505",
    "longitude": "-90.10876168152984",
    "latitude": "29.97516457192898",
    "geocoded_column": {
      "latitude": "29.97516457192898",
      "longitude": "-90.10876168152984"
    }
  },
  {
    "service_request": "2023-968292",
    "request_type": "Trash/Recycling",
    "request_reason": "Replace Trash Cart",
    "date_created": "2023-01-18T14:52:40.000",
    "date_modified": "2023-01-18T14:52:41.000",
    "request_status": "Pending",
    "responsible_agency": "Department of Sanitation",
    "final_address": "5840 Winchester Park Dr",
    "address_councildis": "E",
    "status": "Assigned to Contractor",
    "contractor": "Waste Pro",
    "rowid": "968292",
    "final_x": "3714901.87563",
    "final_y": "562301.447583",
    "longitude": "-89.96143669719633",
    "latitude": "30.03907638425057",
    "geocoded_column": {
      "latitude": "30.03907638425057",
      "longitude": "-89.96143669719633"
    }
  },
  {
    "service_request": "2023-968291",
    "request_type": "Trash/Recycling",
    "request_reason": "Request a Large Item Pick Up",
    "date_created": "2023-01-18T14:51:16.000",
    "date_modified": "2023-01-18T14:51:17.000",
    "request_status": "Pending",
    "responsible_agency": "Department of Sanitation",
    "final_address": "32 Warbler St",
    "address_councildis": "D",
    "status": "Assigned to Contractor",
    "contractor": "IV Waste",
    "rowid": "968291",
    "final_x": "3673623.32424",
    "final_y": "556841.943258",
    "longitude": "-90.09207590817243",
    "latitude": "30.025359052634933",
    "geocoded_column": {
      "latitude": "30.025359052634933",
      "longitude": "-90.09207590817243"
    }
  },
  {
    "service_request": "2023-968290",
    "request_type": "Traffic Signals/Signs/Striping/Streetlights",
    "request_reason": "Additional signage",
    "date_created": "2023-01-18T14:50:43.000",
    "date_modified": "2023-01-18T14:50:43.000",
    "request_status": "Pending",
    "responsible_agency": "Department of Public Works",
    "final_address": "100 BLK S Solomon St",
    "address_councildis": "A",
    "status": "Pending",
    "rowid": "968290",
    "final_x": "3670450.07507",
    "final_y": "538549.2324",
    "longitude": "-90.10272371809172",
    "latitude": "29.975154601538577",
    "geocoded_column": {
      "latitude": "29.975154601538577",
      "longitude": "-90.10272371809172"
    }
  },
  {
    "service_request": "2023-968289",
    "request_type": "Trash/Recycling",
    "request_reason": "Return Recycling Cart",
    "date_created": "2023-01-18T14:49:05.000",
    "date_modified": "2023-01-18T14:49:05.000",
    "request_status": "Pending",
    "responsible_agency": "Department of Sanitation",
    "final_address": "233 S Solomon St",
    "address_councildis": "A",
    "status": "Pending",
    "rowid": "968289",
    "final_x": "3670140.79258",
    "final_y": "538204.021769",
    "longitude": "-90.10371221573364",
    "latitude": "29.97421451843979",
    "geocoded_column": {
      "latitude": "29.97421451843979",
      "longitude": "-90.10371221573364"
    }
  },
  {
    "service_request": "2023-968288",
    "request_type": "Safety & Permits",
    "request_reason": "Construction permit",
    "date_created": "2023-01-18T14:48:41.000",
    "date_modified": "2023-01-18T14:48:41.000",
    "request_status": "Pending",
    "responsible_agency": "Department of Code Enforcement",
    "final_address": "840 Elmira Ave",
    "address_councildis": "C",
    "status": "Pending",
    "rowid": "968288",
    "final_x": "3688190.57161",
    "final_y": "528370.48448",
    "longitude": "-90.04705560255485",
    "latitude": "29.946630757751965",
    "geocoded_column": {
      "latitude": "29.946630757751965",
      "longitude": "-90.04705560255485"
    }
  },
  {
    "service_request": "2023-968287",
    "request_type": "Trash/Recycling",
    "request_reason": "Repair Trash Cart",
    "date_created": "2023-01-18T14:45:11.000",
    "date_modified": "2023-01-18T14:45:13.000",
    "request_status": "Pending",
    "responsible_agency": "Department of Sanitation",
    "final_address": "2127 Clouet St",
    "address_councildis": "D",
    "status": "Assigned to Contractor",
    "contractor": "IV Waste",
    "rowid": "968287",
    "final_x": "3690032.05046",
    "final_y": "539965.505546",
    "longitude": "-90.04082845611514",
    "latitude": "29.978456049678897",
    "geocoded_column": {
      "latitude": "29.978456049678897",
      "longitude": "-90.04082845611514"
    }
  },
  {
    "service_request": "2023-968286",
    "request_type": "Trash/Recycling",
    "request_reason": "Request a Large Item Pick Up",
    "date_created": "2023-01-18T14:45:10.000",
    "date_modified": "2023-01-18T14:45:12.000",
    "request_status": "Pending",
    "responsible_agency": "Department of Sanitation",
    "final_address": "6643 Coventry St",
    "address_councildis": "E",
    "status": "Assigned to Contractor",
    "contractor": "Waste Pro",
    "rowid": "968286",
    "final_x": "3697771.64701",
    "final_y": "559422.910877",
    "longitude": "-90.01567743255546",
    "latitude": "30.031714334163297",
    "geocoded_column": {
      "latitude": "30.031714334163297",
      "longitude": "-90.01567743255546"
    }
  },
  {
    "service_request": "2023-968285",
    "request_type": "Trash/Recycling",
    "request_reason": "Request a Large Item Pick Up",
    "date_created": "2023-01-18T14:44:22.000",
    "date_modified": "2023-01-18T14:44:23.000",
    "request_status": "Pending",
    "responsible_agency": "Department of Sanitation",
    "final_address": "205 S Cortez St",
    "address_councildis": "A",
    "status": "Assigned to Contractor",
    "contractor": "Richards Disposal",
    "rowid": "968285",
    "final_x": "3671748.36711",
    "final_y": "537233.599432",
    "longitude": "-90.09866813460404",
    "latitude": "29.971498652098006",
    "geocoded_column": {
      "latitude": "29.971498652098006",
      "longitude": "-90.09866813460404"
    }
  },
  {
    "service_request": "2023-968284",
    "request_type": "Safety & Permits",
    "request_reason": "Licenses & Permits",
    "date_created": "2023-01-18T14:44:15.000",
    "date_modified": "2023-01-18T14:44:15.000",
    "request_status": "Pending",
    "responsible_agency": "Safety and Permits",
    "status": "Pending",
    "rowid": "968284",
    "longitude": "0.0",
    "latitude": "0.0",
    "geocoded_column": {
      "latitude": "0.0",
      "longitude": "0.0"
    }
  },
  {
    "service_request": "2023-968282",
    "request_type": "Trash/Recycling",
    "request_reason": "Missed Trash Pick-Up",
    "date_created": "2023-01-18T14:43:36.000",
    "date_modified": "2023-01-18T14:43:37.000",
    "request_status": "Pending",
    "responsible_agency": "Department of Sanitation",
    "final_address": "205 S Cortez St",
    "address_councildis": "A",
    "status": "Assigned to Contractor",
    "contractor": "Richards Disposal",
    "rowid": "968282",
    "final_x": "3671748.36711",
    "final_y": "537233.599432",
    "longitude": "-90.09866813460404",
    "latitude": "29.971498652098006",
    "geocoded_column": {
      "latitude": "29.971498652098006",
      "longitude": "-90.09866813460404"
    }
  },
  {
    "service_request": "2023-968281",
    "request_type": "Traffic Signals/Signs/Striping/Streetlights",
    "request_reason": "Traffic Signal Malfunctioning/Damaged",
    "date_created": "2023-01-18T14:39:29.000",
    "date_modified": "2023-01-18T14:42:10.000",
    "request_status": "Pending",
    "responsible_agency": "Department of Public Works",
    "final_address": "7500 BLK Read Blvd",
    "address_councildis": "E",
    "status": "Pending",
    "rowid": "968281",
    "final_x": "3708545.08156",
    "final_y": "564394.203348",
    "longitude": "-89.9814477741741",
    "latitude": "30.045038366029033",
    "geocoded_column": {
      "latitude": "30.045038366029033",
      "longitude": "-89.9814477741741"
    }
  },
  {
    "service_request": "2023-968280",
    "request_type": "Trash/Recycling",
    "request_reason": "Order Recycling Cart",
    "date_created": "2023-01-18T14:34:34.000",
    "date_modified": "2023-01-18T14:34:35.000",
    "request_status": "Pending",
    "responsible_agency": "Department of Sanitation",
    "final_address": "1527 Allen Toussaint Blvd",
    "address_councildis": "D",
    "status": "Pending",
    "rowid": "968280",
    "final_x": "3678757.4269",
    "final_y": "555482.046041",
    "longitude": "-90.0759000568439",
    "latitude": "30.021465907349434",
    "geocoded_column": {
      "latitude": "30.021465907349434",
      "longitude": "-90.0759000568439"
    }
  },
  {
    "service_request": "2023-968279",
    "request_type": "Trash/Recycling",
    "request_reason": "MIssed Recycling Pick-Up",
    "date_created": "2023-01-18T14:31:05.000",
    "date_modified": "2023-01-18T15:18:40.000",
    "request_status": "Pending",
    "responsible_agency": "Department of Sanitation",
    "final_address": "6830 Louisville St",
    "address_councildis": "A",
    "status": "Assigned to Contractor",
    "contractor": "IV Waste",
    "rowid": "968279",
    "final_x": "3668158.60666",
    "final_y": "553009.600215",
    "longitude": "-90.10947300622882",
    "latitude": "30.014983108672837",
    "geocoded_column": {
      "latitude": "30.014983108672837",
      "longitude": "-90.10947300622882"
    }
  },
  {
    "service_request": "2023-968278",
    "request_type": "Abandoned Vehicles",
    "request_reason": "Abandoned/Junk Vehicles",
    "date_created": "2023-01-18T14:30:36.000",
    "date_modified": "2023-01-18T14:40:09.000",
    "request_status": "Pending",
    "responsible_agency": "Department of Public Works",
    "final_address": "EBBTIDE DR & CURRAN BLVD",
    "address_councildis": "E",
    "status": "Inspected",
    "rowid": "968278",
    "final_x": "3702150.6",
    "final_y": "561610.98",
    "longitude": "-90.00175945454129",
    "latitude": "30.037591485206622",
    "geocoded_column": {
      "latitude": "30.037591485206622",
      "longitude": "-90.00175945454129"
    }
  },
  {
    "service_request": "2023-968277",
    "request_type": "Trash/Recycling",
    "request_reason": "Request a Large Item Pick Up",
    "date_created": "2023-01-18T14:28:48.000",
    "date_modified": "2023-01-18T14:28:48.000",
    "request_status": "Pending",
    "responsible_agency": "Department of Sanitation",
    "final_address": "1834 Cambronne St",
    "address_councildis": "A",
    "status": "Assigned to Contractor",
    "contractor": "Richards Disposal",
    "rowid": "968277",
    "final_x": "3662721.63962",
    "final_y": "530869.552194",
    "longitude": "-90.12738753011241",
    "latitude": "29.95426395833758",
    "geocoded_column": {
      "latitude": "29.95426395833758",
      "longitude": "-90.12738753011241"
    }
  },
  {
    "service_request": "2023-968276",
    "request_type": "Trash/Recycling",
    "request_reason": "Request a Large Item Pick Up",
    "date_created": "2023-01-18T14:26:22.000",
    "date_modified": "2023-01-18T14:26:23.000",
    "request_status": "Pending",
    "responsible_agency": "Department of Sanitation",
    "final_address": "221 Lavergne St",
    "address_councildis": "C",
    "status": "Assigned to Contractor",
    "contractor": "Richards Disposal",
    "rowid": "968276",
    "final_x": "3686653.73001",
    "final_y": "530841.43341",
    "longitude": "-90.05182069862622",
    "latitude": "29.953472371584414",
    "geocoded_column": {
      "latitude": "29.953472371584414",
      "longitude": "-90.05182069862622"
    }
  },
  {
    "service_request": "2023-968275",
    "request_type": "Traffic Signals/Signs/Striping/Streetlights",
    "request_reason": "Street Light Outage/Malfunction",
    "date_created": "2023-01-18T14:25:06.000",
    "date_modified": "2023-01-18T14:25:07.000",
    "request_status": "Pending",
    "responsible_agency": "Department of Public Works",
    "final_address": "5744 Providence Pl",
    "address_councildis": "D",
    "status": "Assigned to Contractor",
    "contractor": "Legacy Professional Services",
    "rowid": "968275",
    "final_x": "3688166.20195",
    "final_y": "554553.413144",
    "longitude": "-90.04620392214105",
    "latitude": "30.018625253147164",
    "geocoded_column": {
      "latitude": "30.018625253147164",
      "longitude": "-90.04620392214105"
    }
  },
  {
    "service_request": "2023-968274",
    "request_type": "Abandoned Vehicles",
    "request_reason": "Abandoned/Junk Vehicles",
    "date_created": "2023-01-18T14:23:12.000",
    "date_modified": "2023-01-18T14:30:33.000",
    "request_status": "Pending",
    "responsible_agency": "Department of Public Works",
    "final_address": "1800 BLK Pauger St",
    "address_councildis": "C",
    "status": "Pending",
    "rowid": "968274",
    "final_x": "3683860.16833",
    "final_y": "536392.32825",
    "longitude": "-90.06044686171849",
    "latitude": "29.96882103982973",
    "geocoded_column": {
      "latitude": "29.96882103982973",
      "longitude": "-90.06044686171849"
    }
  },
  {
    "service_request": "2023-968273",
    "request_type": "Abandoned Vehicles",
    "request_reason": "Abandoned/Junk Vehicles",
    "date_created": "2023-01-18T14:21:28.000",
    "date_modified": "2023-01-18T14:21:28.000",
    "request_status": "Pending",
    "responsible_agency": "Department of Public Works",
    "final_address": "3000 BLK Pine St",
    "address_councildis": "B",
    "status": "Pending",
    "rowid": "968273",
    "final_x": "3667596.39312",
    "final_y": "532196.150618",
    "longitude": "-90.11195030031288",
    "latitude": "29.957769698240096",
    "geocoded_column": {
      "latitude": "29.957769698240096",
      "longitude": "-90.11195030031288"
    }
  },
  {
    "service_request": "2023-968272",
    "request_type": "Trash/Recycling",
    "request_reason": "Request a Large Item Pick Up",
    "date_created": "2023-01-18T14:17:38.000",
    "date_modified": "2023-01-18T14:17:39.000",
    "request_status": "Pending",
    "responsible_agency": "Department of Sanitation",
    "final_address": "8219 Apricot St",
    "address_councildis": "A",
    "status": "Assigned to Contractor",
    "contractor": "Richards Disposal",
    "rowid": "968272",
    "final_x": "3665458.64525",
    "final_y": "533013.219204",
    "longitude": "-90.11867336938198",
    "latitude": "29.960078852514716",
    "geocoded_column": {
      "latitude": "29.960078852514716",
      "longitude": "-90.11867336938198"
    }
  },
  {
    "service_request": "2023-968271",
    "request_type": "Trash/Recycling",
    "request_reason": "Request a Large Item Pick Up",
    "date_created": "2023-01-18T14:14:47.000",
    "date_modified": "2023-01-18T15:04:09.000",
    "request_status": "Pending",
    "responsible_agency": "Department of Sanitation",
    "final_address": "1033 Kentucky St",
    "address_councildis": "C",
    "status": "Assigned to Contractor",
    "contractor": "IV Waste",
    "rowid": "968271",
    "final_x": "3693314.30621",
    "final_y": "534738.269894",
    "longitude": "-90.03064962748157",
    "latitude": "29.963980797889906",
    "geocoded_column": {
      "latitude": "29.963980797889906",
      "longitude": "-90.03064962748157"
    }
  },
  {
    "service_request": "2023-968269",
    "request_type": "Trash/Recycling",
    "request_reason": "Request a Large Item Pick Up",
    "date_created": "2023-01-18T14:09:12.000",
    "date_modified": "2023-01-18T14:09:13.000",
    "request_status": "Pending",
    "responsible_agency": "Department of Sanitation",
    "final_address": "6887 Catina St",
    "address_councildis": "A",
    "status": "Assigned to Contractor",
    "contractor": "IV Waste",
    "rowid": "968269",
    "final_x": "3667168.01889",
    "final_y": "553421.157783",
    "longitude": "-90.11258894928523",
    "latitude": "30.01614380220073",
    "geocoded_column": {
      "latitude": "30.01614380220073",
      "longitude": "-90.11258894928523"
    }
  },
  {
    "service_request": "2023-968268",
    "request_type": "Trash/Recycling",
    "request_reason": "Illegal Dumping",
    "date_created": "2023-01-18T14:07:41.000",
    "date_modified": "2023-01-18T14:07:41.000",
    "request_status": "Pending",
    "responsible_agency": "Department of Sanitation",
    "final_address": "1809 Governor Nicholls St",
    "address_councildis": "D",
    "status": "Pending",
    "rowid": "968268",
    "final_x": "3680530.30351",
    "final_y": "536386.660615",
    "longitude": "-90.07096297287633",
    "latitude": "29.968906747265923",
    "geocoded_column": {
      "latitude": "29.968906747265923",
      "longitude": "-90.07096297287633"
    }
  },
  {
    "service_request": "2023-968267",
    "request_type": "Trash/Recycling",
    "request_reason": "Missed Trash Pick-Up",
    "date_created": "2023-01-18T14:05:55.000",
    "date_modified": "2023-01-18T14:05:56.000",
    "request_status": "Pending",
    "responsible_agency": "Department of Sanitation",
    "final_address": "1124 Jackson Ave",
    "address_councildis": "B",
    "status": "Assigned to Contractor",
    "contractor": "Richards Disposal",
    "rowid": "968267",
    "final_x": "3678674.23976",
    "final_y": "522220.253882",
    "longitude": "-90.07731494512066",
    "latitude": "29.93000996235017",
    "geocoded_column": {
      "latitude": "29.93000996235017",
      "longitude": "-90.07731494512066"
    }
  },
  {
    "service_request": "2023-968266",
    "request_type": "Abandoned Vehicles",
    "request_reason": "Abandoned/Junk Vehicles",
    "date_created": "2023-01-18T14:05:49.000",
    "date_modified": "2023-01-18T14:05:49.000",
    "request_status": "Pending",
    "responsible_agency": "Department of Public Works",
    "final_address": "1118 Ursulines Ave",
    "address_councildis": "C",
    "status": "Pending",
    "rowid": "968266",
    "final_x": "3682108.93615",
    "final_y": "534627.713606",
    "longitude": "-90.06603899042658",
    "latitude": "29.964022331957846",
    "geocoded_column": {
      "latitude": "29.964022331957846",
      "longitude": "-90.06603899042658"
    }
  },
  {
    "service_request": "2023-968265",
    "request_type": "Trash/Recycling",
    "request_reason": "Request a Large Item Pick Up",
    "date_created": "2023-01-18T14:01:55.000",
    "date_modified": "2023-01-18T14:01:56.000",
    "request_status": "Pending",
    "responsible_agency": "Department of Sanitation",
    "final_address": "1240 N Dorgenois St",
    "address_councildis": "D",
    "status": "Assigned to Contractor",
    "contractor": "Richards Disposal",
    "rowid": "968265",
    "final_x": "3678492.85538",
    "final_y": "538323.502153",
    "longitude": "-90.07733031907581",
    "latitude": "29.97429396038604",
    "geocoded_column": {
      "latitude": "29.97429396038604",
      "longitude": "-90.07733031907581"
    }
  },
  {
    "service_request": "2023-968264",
    "request_type": "Trash/Recycling",
    "request_reason": "Order Recycling Cart",
    "date_created": "2023-01-18T13:59:48.000",
    "date_modified": "2023-01-18T13:59:49.000",
    "request_status": "Pending",
    "responsible_agency": "Department of Sanitation",
    "final_address": "3012 Grand Route St John St",
    "address_councildis": "A",
    "status": "Pending",
    "rowid": "968264",
    "final_x": "3677042.67701",
    "final_y": "540253.942603",
    "longitude": "-90.08184373661724",
    "latitude": "29.979645636778244",
    "geocoded_column": {
      "latitude": "29.979645636778244",
      "longitude": "-90.08184373661724"
    }
  },
  {
    "service_request": "2023-968263",
    "request_type": "Roads/Drainage",
    "request_reason": "Pothole",
    "date_created": "2023-01-18T13:57:37.000",
    "date_modified": "2023-01-18T13:57:37.000",
    "request_status": "Pending",
    "responsible_agency": "Department of Public Works",
    "final_address": "1100 BLK Allen Toussaint Blvd",
    "address_councildis": "D",
    "status": "Pending",
    "rowid": "968263",
    "final_x": "3675418.10188",
    "final_y": "555045.576376",
    "longitude": "-90.08646643711518",
    "latitude": "30.020366112076843",
    "geocoded_column": {
      "latitude": "30.020366112076843",
      "longitude": "-90.08646643711518"
    }
  },
  {
    "service_request": "2023-968262",
    "request_type": "Trash/Recycling",
    "request_reason": "Missed Trash Pick-Up",
    "date_created": "2023-01-18T13:56:42.000",
    "date_modified": "2023-01-18T13:56:43.000",
    "request_status": "Pending",
    "responsible_agency": "Department of Sanitation",
    "final_address": "4634 Gabriel Dr",
    "address_councildis": "E",
    "status": "Assigned to Contractor",
    "contractor": "Waste Pro",
    "rowid": "968262",
    "final_x": "3708884.86008",
    "final_y": "555027.255321",
    "longitude": "-89.98072338256253",
    "latitude": "30.019271929011495",
    "geocoded_column": {
      "latitude": "30.019271929011495",
      "longitude": "-89.98072338256253"
    }
  },
  {
    "service_request": "2023-968261",
    "request_type": "Abandoned Vehicles",
    "request_reason": "Abandoned/Junk Vehicles",
    "date_created": "2023-01-18T13:52:54.000",
    "date_modified": "2023-01-18T13:52:54.000",
    "request_status": "Pending",
    "responsible_agency": "Department of Public Works",
    "final_address": "2805 St Claude Ave",
    "address_councildis": "C",
    "status": "Pending",
    "rowid": "968261",
    "final_x": "3687808.26838",
    "final_y": "536409.090823",
    "longitude": "-90.04797795757085",
    "latitude": "29.96874594465968",
    "geocoded_column": {
      "latitude": "29.96874594465968",
      "longitude": "-90.04797795757085"
    }
  },
  {
    "service_request": "2023-968259",
    "request_type": "Trash/Recycling",
    "request_reason": "Missed Trash Pick-Up",
    "date_created": "2023-01-18T13:50:34.000",
    "date_modified": "2023-01-18T13:50:35.000",
    "request_status": "Pending",
    "responsible_agency": "Department of Sanitation",
    "final_address": "1111 St Mary St",
    "address_councildis": "B",
    "status": "Assigned to Contractor",
    "contractor": "Richards Disposal",
    "rowid": "968259",
    "final_x": "3679703.20667",
    "final_y": "522910.163643",
    "longitude": "-90.0740427325072",
    "latitude": "29.931875933766015",
    "geocoded_column": {
      "latitude": "29.931875933766015",
      "longitude": "-90.0740427325072"
    }
  },
  {
    "service_request": "2023-968258",
    "request_type": "Traffic Signals/Signs/Striping/Streetlights",
    "request_reason": "Street Light Outage/Malfunction",
    "date_created": "2023-01-18T13:50:20.000",
    "date_modified": "2023-01-18T13:50:21.000",
    "request_status": "Pending",
    "responsible_agency": "Department of Public Works",
    "final_address": "3412 Touro St",
    "address_councildis": "D",
    "status": "Assigned to Contractor",
    "contractor": "Legacy Professional Services",
    "rowid": "968258",
    "final_x": "3683466.49954",
    "final_y": "545210.460367",
    "longitude": "-90.06138095853912",
    "latitude": "29.993079828749657",
    "geocoded_column": {
      "latitude": "29.993079828749657",
      "longitude": "-90.06138095853912"
    }
  },
  {
    "service_request": "2023-968257",
    "request_type": "Trash/Recycling",
    "request_reason": "MIssed Recycling Pick-Up",
    "date_created": "2023-01-18T13:50:10.000",
    "date_modified": "2023-01-18T13:50:11.000",
    "request_status": "Pending",
    "responsible_agency": "Department of Sanitation",
    "final_address": "1822 S Gayoso St",
    "address_councildis": "B",
    "status": "Assigned to Contractor",
    "contractor": "Richards Disposal",
    "rowid": "968257",
    "final_x": "3670238.2697",
    "final_y": "529851.751169",
    "longitude": "-90.103687436738",
    "latitude": "29.951245675643673",
    "geocoded_column": {
      "latitude": "29.951245675643673",
      "longitude": "-90.103687436738"
    }
  },
  {
    "service_request": "2023-968256",
    "request_type": "Trash/Recycling",
    "request_reason": "Repair Trash Cart",
    "date_created": "2023-01-18T13:49:00.000",
    "date_modified": "2023-01-18T13:49:01.000",
    "request_status": "Pending",
    "responsible_agency": "Department of Sanitation",
    "final_address": "7568 Shorewood Blvd",
    "address_councildis": "E",
    "status": "Assigned to Contractor",
    "contractor": "Waste Pro",
    "rowid": "968256",
    "final_x": "3719990.17049",
    "final_y": "572630.074857",
    "longitude": "-89.94496093375021",
    "latitude": "30.06730733751172",
    "geocoded_column": {
      "latitude": "30.06730733751172",
      "longitude": "-89.94496093375021"
    }
  },
  {
    "service_request": "2023-968255",
    "request_type": "Roads/Drainage",
    "request_reason": "Catch Basin - Clogged",
    "date_created": "2023-01-18T13:46:53.000",
    "date_modified": "2023-01-18T13:46:53.000",
    "request_status": "Pending",
    "responsible_agency": "Department of Public Works",
    "final_address": "4700 BLK Magazine St",
    "address_councildis": "B",
    "status": "Pending",
    "rowid": "968255",
    "final_x": "3669768.69192",
    "final_y": "518659.805316",
    "longitude": "-90.10554879422342",
    "latitude": "29.920485277156327",
    "geocoded_column": {
      "latitude": "29.920485277156327",
      "longitude": "-90.10554879422342"
    }
  },