[
  {
    "service_request": "2025-1226014",
    "request_type": "Trash/Recycling",
    "request_reason": "Replace Trash Cart",
    "date_created": "2025-09-12T22:19:18.000",
    "date_modified": "2025-09-12T22:19:19.000",
    "request_status": "Pending",
    "responsible_agency": "Department of Sanitation",
    "final_address": "320 Lowerline St",
    "address_councildis": "A",
    "status": "Assigned to Contractor",
    "contractor": "IV Waste",
    "rowid": "1226014",
    "final_x": "3661425.57005",
    "final_y": "523521.074171",
    "longitude": "-90.13172335171288",
    "latitude": "29.93409542721818",
    "geocoded_column": {
      "latitude": "29.93409542721818",
      "longitude": "-90.13172335171288"
    }
  },
  {
    "service_request": "2025-1226013",
    "request_type": "Abandoned Vehicles",
    "request_reason": "Abandoned/Junk Vehicles",
    "date_created": "2025-09-12T22:18:27.000",
    "date_modified": "2025-09-12T22:18:29.000",
    "request_status": "Pending",
    "responsible_agency": "Department of Public Works",
    "final_address": "2770 Lavender St",
    "address_councildis": "D",
    "status": "Pending",
    "rowid": "1226013",
    "final_x": "3688368.49788",
    "final_y": "546996.816849",
    "longitude": "-90.045833020733",
    "latitude": "29.997841131335207",
    "geocoded_column": {
      "latitude": "29.997841131335207",
      "longitude": "-90.045833020733"
    }
  },
  {
    "service_request": "2025-1226012",
    "request_type": "Abandoned Vehicles",
    "request_reason": "Abandoned/Junk Vehicles",
    "date_created": "2025-09-12T21:21:00.000",
    "date_modified": "2025-09-12T21:21:02.000",
    "request_status": "Pending",
    "responsible_agency": "Department of Public Works",
    "final_address": "4437 Loyola Ave",
    "address_councildis": "B",
    "status": "Pending",
    "rowid": "1226012",
    "final_x": "3670276.20001",
    "final_y": "522999.607739",
    "longitude": "-90.1037998311242",
    "latitude": "29.93240338663925",
    "geocoded_column": {
      "latitude": "29.93240338663925",
      "longitude": "-90.1037998311242"
    }
  },
  {
    "service_request": "2025-1226011",
    "request_type": "Roads and Streets",
    "request_reason": "Street Subsidence (Sinking)",
    "date_created": "2025-09-12T19:59:47.000",
    "date_modified": "2025-09-12T19:59:48.000",
    "request_status": "Pending",
    "responsible_agency": "Sewerage & Water Board",
    "final_address": "106 Sherwood Forest Dr",
    "address_councildis": "A",
    "status": "Pending",
    "rowid": "1226011",
    "final_x": "3673124.55188",
    "final_y": "541297.367628",
    "longitude": "-90.09418314285642",
    "latitude": "29.9826317850061",
    "geocoded_column": {
      "latitude": "29.9826317850061",
      "longitude": "-90.09418314285642"
    }
  },
  {
    "service_request": "2025-1226010",
    "request_type": "Safety & Permits",
    "request_reason": "Construction permit",
    "date_created": "2025-09-12T19:36:20.000",
    "date_modified": "2025-09-12T19:36:22.000",
    "request_status": "Pending",
    "responsible_agency": "Safety and Permits",
    "final_address": "3501 Octavia St",
    "address_councildis": "A",
    "status": "Pending",
    "rowid": "1226010",
    "final_x": "3668632.47297",
    "final_y": "528378.351104",
    "longitude": "-90.10880748213752",
    "latitude": "29.947241591717965",
    "geocoded_column": {
      "latitude": "29.947241591717965",
      "longitude": "-90.10880748213752"
    }
  },
  {
    "service_request": "2025-1226009",
    "request_type": "Trash/Recycling",
    "request_reason": "Replace Recycling Cart",
    "date_created": "2025-09-12T19:20:59.000",
    "date_modified": "2025-09-12T19:21:01.000",
    "request_status": "Pending",
    "responsible_agency": "Department of Sanitation",
    "final_address": "2222 Cambronne St",
    "address_councildis": "A",
    "status": "Pending",
    "rowid": "1226009",
    "final_x": "3663646.12467",
    "final_y": "531890.178051",
    "longitude": "-90.12443436090143",
    "latitude": "29.95704356214727",
    "geocoded_column": {
      "latitude": "29.95704356214727",
      "longitude": "-90.12443436090143"
    }
  },
  {
    "service_request": "2025-1226008",
    "request_type": "Property Maintenance",
    "request_reason": "Property Maintenance",
    "date_created": "2025-09-12T19:14:27.000",
    "date_modified": "2025-09-12T19:14:30.000",
    "request_status": "Pending",
    "responsible_agency": "Department of Code Enforcement",
    "final_address": "3746 Preston Pl",
    "address_councildis": "C",
    "status": "Pending",
    "rowid": "1226008",
    "final_x": "3708342.3226",
    "final_y": "517212.188213",
    "longitude": "-89.98384477812589",
    "latitude": "29.91531198106221",
    "geocoded_column": {
      "latitude": "29.91531198106221",
      "longitude": "-89.98384477812589"
    }
  },
  {
    "service_request": "2025-1226007",
    "request_type": "Trash/Recycling",
    "request_reason": "Return Trash Cart",
    "date_created": "2025-09-12T19:08:02.000",
    "date_modified": "2025-09-12T19:08:04.000",
    "request_status": "Pending",
    "responsible_agency": "Department of Sanitation",
    "final_address": "47 Marywood Ct",
    "address_councildis": "E",
    "status": "Assigned to Contractor",
    "contractor": "Waste Pro",
    "rowid": "1226007",
    "final_x": "3712179.97656",
    "final_y": "567072.598628",
    "longitude": "-89.96985916897015",
    "latitude": "30.052284449063876",
    "geocoded_column": {
      "latitude": "30.052284449063876",
      "longitude": "-89.96985916897015"
    }
  },
  {
    "service_request": "2025-1226006",
    "request_type": "Abandoned Vehicles",
    "request_reason": "Abandoned/Junk Vehicles",
    "date_created": "2025-09-12T19:06:03.000",
    "date_modified": "2025-09-12T19:06:04.000",
    "request_status": "Pending",
    "responsible_agency": "Department of Public Works",
    "final_address": "2159 Treasure St",
    "address_councildis": "D",
    "status": "Pending",
    "rowid": "1226006",
    "final_x": "3684134.3197",
    "final_y": "544066.221454",
    "longitude": "-90.05931161954447",
    "latitude": "29.989913178060878",
    "geocoded_column": {
      "latitude": "29.989913178060878",
      "longitude": "-90.05931161954447"
    }
  },
  {
    "service_request": "2025-1226005",
    "request_type": "Trash/Recycling",
    "request_reason": "Request a Large Item Pick Up",
    "date_created": "2025-09-12T18:50:14.000",
    "date_modified": "2025-09-12T18:50:16.000",
    "request_status": "Pending",
    "responsible_agency": "Department of Sanitation",
    "final_address": "4888 Savoie Ct",
    "address_councildis": "E",
    "status": "Assigned to Contractor",
    "contractor": "Waste Pro",
    "rowid": "1226005",
    "final_x": "3725175.74617",
    "final_y": "561478.792991",
    "longitude": "-89.929000661561",
    "latitude": "30.036472197569157",
    "geocoded_column": {
      "latitude": "30.036472197569157",
      "longitude": "-89.929000661561"
    }
  },
  {
    "service_request": "2025-1226004",
    "request_type": "Trash/Recycling",
    "request_reason": "Return Trash Cart",
    "date_created": "2025-09-12T18:36:05.000",
    "date_modified": "2025-09-12T18:36:08.000",
    "request_status": "Pending",
    "responsible_agency": "Department of Sanitation",
    "final_address": "47 Marywood Ct",
    "address_councildis": "E",
    "status": "Assigned to Contractor",
    "contractor": "Waste Pro",
    "rowid": "1226004",
    "final_x": "3712179.97656",
    "final_y": "567072.598628",
    "longitude": "-89.96985916897015",
    "latitude": "30.052284449063876",
    "geocoded_column": {
      "latitude": "30.052284449063876",
      "longitude": "-89.96985916897015"
    }
  },
  {
    "service_request": "2025-1226003",
    "request_type": "Trash/Recycling",
    "request_reason": "Illegal Dumping",
    "date_created": "2025-09-12T18:21:33.000",
    "date_modified": "2025-09-12T18:21:37.000",
    "request_status": "Pending",
    "responsible_agency": "Department of Sanitation",
    "final_address": "608 S Murat St",
    "address_councildis": "A",
    "status": "Pending",
    "rowid": "1226003",
    "final_x": "3668483.94926",
    "final_y": "537714.599624",
    "longitude": "-90.10896144505642",
    "latitude": "29.972917556254767",
    "geocoded_column": {
      "latitude": "29.972917556254767",
      "longitude": "-90.10896144505642"
    }
  },
  {
    "service_request": "2025-1226002",
    "request_type": "General Services",
    "request_reason": "General Service Request",
    "date_created": "2025-09-12T18:01:05.000",
    "date_modified": "2025-09-12T18:01:07.000",
    "request_status": "Pending",
    "responsible_agency": "Orleans Parish Communication District",
    "final_address": "3631 Rue Colette",
    "address_councildis": "C",
    "status": "Pending",
    "rowid": "1226002",
    "final_x": "3704455.31761",
    "final_y": "517043.669429",
    "longitude": "-89.99611971084803",
    "latitude": "29.91497391554005",
    "geocoded_column": {
      "latitude": "29.91497391554005",
      "longitude": "-89.99611971084803"
    }
  },
  {
    "service_request": "2025-1226001",
    "request_type": "Drainage",
    "request_reason": "Catch Basin Not Draining",
    "date_created": "2025-09-12T18:01:02.000",
    "date_modified": "2025-09-12T18:01:04.000",
    "request_status": "Pending",
    "responsible_agency": "Sewerage & Water Board",
    "final_address": "5701 Willow St",
    "address_councildis": "A",
    "status": "Pending",
    "rowid": "1226001",
    "final_x": "3667556.47841",
    "final_y": "525471.710397",
    "longitude": "-90.1123026123019",
    "latitude": "29.93928084275595",
    "geocoded_column": {
      "latitude": "29.93928084275595",
      "longitude": "-90.1123026123019"
    }
  },
  {
    "service_request": "2025-1226000",
    "request_type": "Trash/Recycling",
    "request_reason": "Missed Trash Pick-Up",
    "date_created": "2025-09-12T17:59:42.000",
    "date_modified": "2025-09-12T17:59:44.000",
    "request_status": "Pending",
    "responsible_agency": "Department of Sanitation",
    "final_address": "3401 Annunciation St",
    "address_councildis": "B",
    "status": "Assigned to Contractor",
    "contractor": "IV Waste",
    "rowid": "1226000",
    "final_x": "3675348.05326",
    "final_y": "518605.898231",
    "longitude": "-90.08793918760863",
    "latitude": "29.920171485210638",
    "geocoded_column": {
      "latitude": "29.920171485210638",
      "longitude": "-90.08793918760863"
    }
  },
  {
    "service_request": "2025-1225999",
    "request_type": "Trash/Recycling",
    "request_reason": "Illegal Dumping",
    "date_created": "2025-09-12T17:55:49.000",
    "date_modified": "2025-09-12T17:55:51.000",
    "request_status": "Pending",
    "responsible_agency": "Department of Sanitation",
    "final_address": "6510 Coveview Ct",
    "address_councildis": "E",
    "status": "Pending",
    "rowid": "1225999",
    "final_x": "3698661.19946",
    "final_y": "555627.748697",
    "longitude": "-90.01300460790824",
    "latitude": "30.02125093509142",
    "geocoded_column": {
      "latitude": "30.02125093509142",
      "longitude": "-90.01300460790824"
    }
  },
  {
    "service_request": "2025-1225998",
    "request_type": "Trash/Recycling",
    "request_reason": "Order Trash Cart",
    "date_created": "2025-09-12T17:53:35.000",
    "date_modified": "2025-09-12T17:53:37.000",
    "request_status": "Pending",
    "responsible_agency": "Department of Sanitation",
    "final_address": "4203 S Broad St",
    "address_councildis": "B",
    "status": "Assigned to Contractor",
    "contractor": "IV Waste",
    "rowid": "1225998",
    "final_x": "3670563.56199",
    "final_y": "529410.792257",
    "longitude": "-90.10267527585485",
    "latitude": "29.950023580708798",
    "geocoded_column": {
      "latitude": "29.950023580708798",
      "longitude": "-90.10267527585485"
    }
  },
  {
    "service_request": "2025-1225997",
    "request_type": "Trash/Recycling",
    "request_reason": "Start Trash Service",
    "date_created": "2025-09-12T17:51:29.000",
    "date_modified": "2025-09-12T17:51:31.000",
    "request_status": "Pending",
    "responsible_agency": "Department of Sanitation",
    "final_address": "2507 Joseph St",
    "address_councildis": "A",
    "status": "Assigned to Contractor",
    "contractor": "IV Waste",
    "rowid": "1225997",
    "final_x": "3667591.5593",
    "final_y": "525173.706493",
    "longitude": "-90.1122018836742",
    "latitude": "29.938460399842594",
    "geocoded_column": {
      "latitude": "29.938460399842594",
      "longitude": "-90.1122018836742"
    }
  },
  {
    "service_request": "2025-1225996",
    "request_type": "Drainage",
    "request_reason": "Ditch and Culvert Maintenance",
    "date_created": "2025-09-12T17:50:13.000",
    "date_modified": "2025-09-12T17:50:15.000",
    "request_status": "Pending",
    "responsible_agency": "Department of Public Works",
    "final_address": "2800 Octavia St",
    "address_councildis": "A",
    "status": "Pending",
    "rowid": "1225996",
    "final_x": "3667916.40282",
    "final_y": "525752.171709",
    "longitude": "-90.11115683701111",
    "latitude": "29.940041469996498",
    "geocoded_column": {
      "latitude": "29.940041469996498",
      "longitude": "-90.11115683701111"
    }
  },
  {
    "service_request": "2025-1225995",
    "request_type": "Drainage",
    "request_reason": "Catch Basin Frame and Cover Missing or Damaged",
    "date_created": "2025-09-12T17:48:15.000",
    "date_modified": "2025-09-12T17:48:16.000",
    "request_status": "Pending",
    "responsible_agency": "Sewerage & Water Board",
    "final_address": "337 33Rd St",
    "address_councildis": "A",
    "status": "Pending",
    "rowid": "1225995",
    "final_x": "3665051.52224",
    "final_y": "551018.966357",
    "longitude": "-90.11935658780314",
    "latitude": "30.009600444632166",
    "geocoded_column": {
      "latitude": "30.009600444632166",
      "longitude": "-90.11935658780314"
    }
  },
  {
    "service_request": "2025-1225994",
    "request_type": "Healthy Homes",
    "request_reason": "Healthy Homes",
    "date_created": "2025-09-12T17:46:41.000",
    "date_modified": "2025-09-12T17:46:42.000",
    "request_status": "Pending",
    "responsible_agency": "Department of Code Enforcement",
    "final_address": "1616 Soniat St",
    "address_councildis": "B",
    "status": "Pending",
    "rowid": "1225994",
    "final_x": "3668384.53601",
    "final_y": "521339.785785",
    "longitude": "-90.10982761306128",
    "latitude": "29.927895083750844",
    "geocoded_column": {
      "latitude": "29.927895083750844",
      "longitude": "-90.10982761306128"
    }
  },
  {
    "service_request": "2025-1225993",
    "request_type": "Trash/Recycling",
    "request_reason": "MIssed Recycling Pick-Up",
    "date_created": "2025-09-12T17:45:03.000",
    "date_modified": "2025-09-12T17:45:05.000",
    "request_status": "Pending",
    "responsible_agency": "Department of Sanitation",
    "final_address": "4865 Tchoupitoulas St",
    "address_councildis": "B",
    "status": "Assigned to Contractor",
    "contractor": "IV Waste",
    "rowid": "1225993",
    "final_x": "3669156.2347",
    "final_y": "517287.831221",
    "longitude": "-90.10752837026175",
    "latitude": "29.91673081180043",
    "geocoded_column": {
      "latitude": "29.91673081180043",
      "longitude": "-90.10752837026175"
    }
  },
  {
    "service_request": "2025-1225992",
    "request_type": "Trash/Recycling",
    "request_reason": "Missed Trash Pick-Up",
    "date_created": "2025-09-12T17:43:19.000",
    "date_modified": "2025-09-12T17:43:21.000",
    "request_status": "Pending",
    "responsible_agency": "Department of Sanitation",
    "final_address": "4865 Tchoupitoulas St",
    "address_councildis": "B",
    "status": "Assigned to Contractor",
    "contractor": "IV Waste",
    "rowid": "1225992",
    "final_x": "3669156.2347",
    "final_y": "517287.831221",
    "longitude": "-90.10752837026175",
    "latitude": "29.91673081180043",
    "geocoded_column": {
      "latitude": "29.91673081180043",
      "longitude": "-90.10752837026175"
    }
  },
  {
    "service_request": "2025-1225991",
    "request_type": "Roads and Streets",
    "request_reason": "Sidewalk Damaged or Missing",
    "date_created": "2025-09-12T17:33:50.000",
    "date_modified": "2025-09-12T17:33:51.000",
    "request_status": "Pending",
    "responsible_agency": "Department of Public Works",
    "final_address": "935 Chartres St",
    "address_councildis": "C",
    "status": "Pending",
    "rowid": "1225991",
    "final_x": "3683442.11817",
    "final_y": "533077.308612",
    "longitude": "-90.06188325488948",
    "latitude": "29.959718639392378",
    "geocoded_column": {
      "latitude": "29.959718639392378",
      "longitude": "-90.06188325488948"
    }
  },
  {
    "service_request": "2025-1225990",
    "request_type": "Roads and Streets",
    "request_reason": "Sidewalk Damaged or Missing",
    "date_created": "2025-09-12T17:24:58.000",
    "date_modified": "2025-09-12T17:25:01.000",
    "request_status": "Pending",
    "responsible_agency": "Department of Public Works",
    "final_address": "8203 Jeannette St",
    "address_councildis": "A",
    "status": "Pending",
    "rowid": "1225990",
    "final_x": "3662403.72397",
    "final_y": "529447.301953",
    "longitude": "-90.12843860944567",
    "latitude": "29.950362424863496",
    "geocoded_column": {
      "latitude": "29.950362424863496",
      "longitude": "-90.12843860944567"
    }
  },
  {
    "service_request": "2025-1225989",
    "request_type": "Roads and Streets",
    "request_reason": "Street Subsidence (Sinking)",
    "date_created": "2025-09-12T17:16:07.000",
    "date_modified": "2025-09-12T17:16:09.000",
    "request_status": "Pending",
    "responsible_agency": "Sewerage & Water Board",
    "final_address": "2436 St Ann St",
    "address_councildis": "D",
    "status": "Pending",
    "rowid": "1225989",
    "final_x": "3677725.41538",
    "final_y": "536527.926727",
    "longitude": "-90.07981611339858",
    "latitude": "29.969379851030105",
    "geocoded_column": {
      "latitude": "29.969379851030105",
      "longitude": "-90.07981611339858"
    }
  },
  {
    "service_request": "2025-1225988",
    "request_type": "Roads and Streets",
    "request_reason": "Street Subsidence (Sinking)",
    "date_created": "2025-09-12T17:13:39.000",
    "date_modified": "2025-09-12T17:13:40.000",
    "request_status": "Pending",
    "responsible_agency": "Sewerage & Water Board",
    "final_address": "2436 St Ann St",
    "address_councildis": "D",
    "status": "Pending",
    "rowid": "1225988",
    "final_x": "3677725.41538",
    "final_y": "536527.926727",
    "longitude": "-90.07981611339858",
    "latitude": "29.969379851030105",
    "geocoded_column": {
      "latitude": "29.969379851030105",
      "longitude": "-90.07981611339858"
    }
  },
  {
    "service_request": "2025-1225987",
    "request_type": "Roads and Streets",
    "request_reason": "Street Subsidence (Sinking)",
    "date_created": "2025-09-12T17:12:39.000",
    "date_modified": "2025-09-12T17:12:40.000",
    "request_status": "Pending",
    "responsible_agency": "Sewerage & Water Board",
    "final_address": "2436 St Ann St",
    "address_councildis": "D",
    "status": "Pending",
    "rowid": "1225987",
    "final_x": "3677725.41538",
    "final_y": "536527.926727",
    "longitude": "-90.07981611339858",
    "latitude": "29.969379851030105",
    "geocoded_column": {
      "latitude": "29.969379851030105",
      "longitude": "-90.07981611339858"
    }
  },
  {
    "service_request": "2025-1225986",
    "request_type": "Traffic Signals",
    "request_reason": "Traffic Signal Malfunctioning or Damaged",
    "date_created": "2025-09-12T17:10:58.000",
    "date_modified": "2025-09-12T17:11:00.000",
    "request_status": "Pending",
    "responsible_agency": "Department of Public Works",
    "final_address": "1335 Coliseum St",
    "address_councildis": "B",
    "status": "Pending",
    "rowid": "1225986",
    "final_x": "3679965.07445",
    "final_y": "525004.747133",
    "longitude": "-90.07314332162451",
    "latitude": "29.937627431060843",
    "geocoded_column": {
      "latitude": "29.937627431060843",
      "longitude": "-90.07314332162451"
    }
  },
  {
    "service_request": "2025-1225985",
    "request_type": "City-Owned Cemeteries",
    "request_reason": "Property Maintenance",
    "date_created": "2025-09-12T17:08:50.000",
    "date_modified": "2025-09-12T17:08:51.000",
    "request_status": "Pending",
    "responsible_agency": "Department of Property Management",
    "final_address": "0 BLK Acadiana Pl",
    "address_councildis": "E",
    "status": "Pending",
    "rowid": "1225985",
    "final_x": "3725131.4083",
    "final_y": "564393.680055",
    "longitude": "-89.92902788187175",
    "latitude": "30.04448842646984",
    "geocoded_column": {
      "latitude": "30.04448842646984",
      "longitude": "-89.92902788187175"
    }
  },
  {
    "service_request": "2025-1225984",
    "request_type": "General Services",
    "request_reason": "General Service Request",
    "date_created": "2025-09-12T17:04:43.000",
    "date_modified": "2025-09-12T17:04:45.000",
    "request_status": "Pending",
    "responsible_agency": "Orleans Parish Communication District",
    "final_address": "2318 N Robertson St",
    "address_councildis": "C",
    "status": "Pending",
    "rowid": "1225984",
    "final_x": "3685831.09711",
    "final_y": "537808.09652",
    "longitude": "-90.0541726468882",
    "latitude": "29.97265355922506",
    "geocoded_column": {
      "latitude": "29.97265355922506",
      "longitude": "-90.0541726468882"
    }
  },
  {
    "service_request": "2025-1225983",
    "request_type": "Trash/Recycling",
    "request_reason": "Request a Large Item Pick Up",
    "date_created": "2025-09-12T16:58:52.000",
    "date_modified": "2025-09-12T16:59:03.000",
    "request_status": "Pending",
    "responsible_agency": "Department of Sanitation",
    "final_address": "2901 Ursulines Ave",
    "address_councildis": "A",
    "status": "Assigned to Contractor",
    "contractor": "IV Waste",
    "rowid": "1225983",
    "final_x": "3676827.44923",
    "final_y": "538882.582665",
    "longitude": "-90.08257079262258",
    "latitude": "29.975881330528857",
    "geocoded_column": {
      "latitude": "29.975881330528857",
      "longitude": "-90.08257079262258"
    }
  },
  {
    "service_request": "2025-1225982",
    "request_type": "Street and Traffic Signs",
    "request_reason": "Traffic or Parking Sign Damaged or Missing",
    "date_created": "2025-09-12T16:56:08.000",
    "date_modified": "2025-09-12T16:56:10.000",
    "request_status": "Pending",
    "responsible_agency": "Department of Public Works",
    "final_address": "4970 Palace St",
    "address_councildis": "E",
    "status": "Pending",
    "rowid": "1225982",
    "final_x": "3728945.41293",
    "final_y": "562946.453664",
    "longitude": "-89.91703060725568",
    "latitude": "30.040380081068257",
    "geocoded_column": {
      "latitude": "30.040380081068257",
      "longitude": "-89.91703060725568"
    }
  },
  {
    "service_request": "2025-1225981",
    "request_type": "Health Related Request",
    "request_reason": "Homeless Encampment Complaint",
    "date_created": "2025-09-12T16:47:23.000",
    "date_modified": "2025-09-12T16:47:25.000",
    "request_status": "Pending",
    "responsible_agency": "Office Of Homeless Services And Strategy",
    "final_address": "1016 Port St",
    "address_councildis": "C",
    "status": "Pending",
    "rowid": "1225981",
    "final_x": "3687307.61647",
    "final_y": "536124.552775",
    "longitude": "-90.04956910952522",
    "latitude": "29.96797899717178",
    "geocoded_column": {
      "latitude": "29.96797899717178",
      "longitude": "-90.04956910952522"
    }
  },
  {
    "service_request": "2025-1225980",
    "request_type": "Trash/Recycling",
    "request_reason": "Repair Recycling Cart",
    "date_created": "2025-09-12T16:44:02.000",
    "date_modified": "2025-09-12T16:44:03.000",
    "request_status": "Pending",
    "responsible_agency": "Department of Sanitation",
    "final_address": "5633 Abbey Dr",
    "address_councildis": "C",
    "status": "Pending",
    "rowid": "1225980",
    "final_x": "3704485.4627",
    "final_y": "521156.475769",
    "longitude": "-89.99587303934595",
    "latitude": "29.92628174255645",
    "geocoded_column": {
      "latitude": "29.92628174255645",
      "longitude": "-89.99587303934595"
    }
  },
  {
    "service_request": "2025-1225979",
    "request_type": "Property Maintenance",
    "request_reason": "Property Maintenance",
    "date_created": "2025-09-12T16:43:42.000",
    "date_modified": "2025-09-12T16:44:35.000",
    "request_status": "Pending",
    "responsible_agency": "Department of Code Enforcement",
    "final_address": "4718 Hickerson Dr",
    "address_councildis": "E",
    "status": "Pending",
    "rowid": "1225979",
    "final_x": "3710248.33093",
    "final_y": "555564.476569",
    "longitude": "-89.9763952200418",
    "latitude": "30.02070475158731",
    "geocoded_column": {
      "latitude": "30.02070475158731",
      "longitude": "-89.9763952200418"
    }
  },
  {
    "service_request": "2025-1225978",
    "request_type": "Trash/Recycling",
    "request_reason": "Replace Trash Cart",
    "date_created": "2025-09-12T16:41:12.000",
    "date_modified": "2025-09-12T16:41:14.000",
    "request_status": "Pending",
    "responsible_agency": "Department of Sanitation",
    "final_address": "2619 St Bernard Ave",
    "address_councildis": "D",
    "status": "Assigned to Contractor",
    "contractor": "IV Waste",
    "rowid": "1225978",
    "final_x": "3680104.01839",
    "final_y": "542030.591564",
    "longitude": "-90.07211302166688",
    "latitude": "29.984438509812914",
    "geocoded_column": {
      "latitude": "29.984438509812914",
      "longitude": "-90.07211302166688"
    }
  },
  {
    "service_request": "2025-1225977",
    "request_type": "Utility Poles",
    "request_reason": "Wires Sagging/Hanging Low",
    "date_created": "2025-09-12T16:40:55.000",
    "date_modified": "2025-09-12T16:40:58.000",
    "request_status": "Pending",
    "responsible_agency": "Utility Company Collective",
    "final_address": "201 Helena St",
    "address_councildis": "A",
    "status": "Pending",
    "rowid": "1225977",
    "final_x": "3668489.53428",
    "final_y": "540915.227467",
    "longitude": "-90.10883578552816",
    "latitude": "29.981718040331383",
    "geocoded_column": {
      "latitude": "29.981718040331383",
      "longitude": "-90.10883578552816"
    }
  },
  {
    "service_request": "2025-1225976",
    "request_type": "Trash/Recycling",
    "request_reason": "Replace Trash Cart",
    "date_created": "2025-09-12T16:40:23.000",
    "date_modified": "2025-09-12T16:40:25.000",
    "request_status": "Pending",
    "responsible_agency": "Department of Sanitation",
    "final_address": "920 Independence St",
    "address_councildis": "C",
    "status": "Assigned to Contractor",
    "contractor": "IV Waste",
    "rowid": "1225976",
    "final_x": "3690774.72572",
    "final_y": "534910.241286",
    "longitude": "-90.038663225496",
    "latitude": "29.964532802655263",
    "geocoded_column": {
      "latitude": "29.964532802655263",
      "longitude": "-90.038663225496"
    }
  },
  {
    "service_request": "2025-1225975",
    "request_type": "Trash/Recycling",
    "request_reason": "Request a Large Item Pick Up",
    "date_created": "2025-09-12T16:34:22.000",
    "date_modified": "2025-09-12T16:34:23.000",
    "request_status": "Pending",
    "responsible_agency": "Department of Sanitation",
    "final_address": "1900 Mazant St",
    "address_councildis": "D",
    "status": "Assigned to Contractor",
    "contractor": "IV Waste",
    "rowid": "1225975",
    "final_x": "3692821.90032",
    "final_y": "538270.746953",
    "longitude": "-90.03207791112992",
    "latitude": "29.973709243266075",
    "geocoded_column": {
      "latitude": "29.973709243266075",
      "longitude": "-90.03207791112992"
    }
  },
  {
    "service_request": "2025-1225974",
    "request_type": "Trash/Recycling",
    "request_reason": "Request a Large Item Pick Up",
    "date_created": "2025-09-12T16:34:12.000",
    "date_modified": "2025-09-12T16:34:15.000",
    "request_status": "Pending",
    "responsible_agency": "Department of Sanitation",
    "final_address": "11325 Curran Rd",
    "address_councildis": "E",
    "status": "Assigned to Contractor",
    "contractor": "Waste Pro",
    "rowid": "1225974",
    "final_x": "3711257.37259",
    "final_y": "566686.607075",
    "longitude": "-89.9727897048572",
    "latitude": "30.05125328291266",
    "geocoded_column": {
      "latitude": "30.05125328291266",
      "longitude": "-89.9727897048572"
    }
  },
  {
    "service_request": "2025-1225973",
    "request_type": "Property Maintenance",
    "request_reason": "Property Maintenance",
    "date_created": "2025-09-12T16:31:08.000",
    "date_modified": "2025-09-12T16:31:10.000",
    "request_status": "Pending",
    "responsible_agency": "Department of Code Enforcement",
    "final_address": "4740 Crowder Blvd",
    "address_councildis": "E",
    "status": "Pending",
    "rowid": "1225973",
    "final_x": "3706314.85886",
    "final_y": "555782.329113",
    "longitude": "-89.98881564708256",
    "latitude": "30.0214312564467",
    "geocoded_column": {
      "latitude": "30.0214312564467",
      "longitude": "-89.98881564708256"
    }
  },
  {
    "service_request": "2025-1225972",
    "request_type": "Trash/Recycling",
    "request_reason": "Request a Large Item Pick Up",
    "date_created": "2025-09-12T16:29:08.000",
    "date_modified": "2025-09-12T16:29:10.000",
    "request_status": "Pending",
    "responsible_agency": "Department of Sanitation",
    "final_address": "4730 Virgilian St",
    "address_councildis": "D",
    "status": "Assigned to Contractor",
    "contractor": "Waste Pro",
    "rowid": "1225972",
    "final_x": "3697401.53783",
    "final_y": "553739.819415",
    "longitude": "-90.0170532922721",
    "latitude": "30.016099694533985",
    "geocoded_column": {
      "latitude": "30.016099694533985",
      "longitude": "-90.0170532922721"
    }
  },
  {
    "service_request": "2025-1225971",
    "request_type": "Parks & Parkways",
    "request_reason": "Request Tree Service (Right of Way/Public Property)",
    "date_created": "2025-09-12T16:26:14.000",
    "date_modified": "2025-09-12T16:27:23.000",
    "request_status": "Pending",
    "responsible_agency": "Department of Parks & Parkway",
    "final_address": "5859 West End Blvd",
    "address_councildis": "A",
    "status": "Pending",
    "rowid": "1225971",
    "final_x": "3666485.56052",
    "final_y": "546926.517649",
    "longitude": "-90.11496341693643",
    "latitude": "29.998305774247612",
    "geocoded_column": {
      "latitude": "29.998305774247612",
      "longitude": "-90.11496341693643"
    }
  },
  {
    "service_request": "2025-1225970",
    "request_type": "Trash/Recycling",
    "request_reason": "Request a Large Item Pick Up",
    "date_created": "2025-09-12T16:23:51.000",
    "date_modified": "2025-09-12T16:23:53.000",
    "request_status": "Pending",
    "responsible_agency": "Department of Sanitation",
    "final_address": "7321 Shaw Ave",
    "address_councildis": "E",
    "status": "Assigned to Contractor",
    "contractor": "Waste Pro",
    "rowid": "1225970",
    "final_x": "3707759.82955",
    "final_y": "563312.103392",
    "longitude": "-89.9839697956971",
    "latitude": "30.042088473342336",
    "geocoded_column": {
      "latitude": "30.042088473342336",
      "longitude": "-89.9839697956971"
    }
  },
  {
    "service_request": "2025-1225969",
    "request_type": "Parks & Parkways",
    "request_reason": "Request Tree Service (Right of Way/Public Property)",
    "date_created": "2025-09-12T16:18:19.000",
    "date_modified": "2025-09-12T16:22:33.000",
    "request_status": "Pending",
    "responsible_agency": "Department of Parks & Parkway",
    "final_address": "5859 West End Blvd",
    "address_councildis": "A",
    "status": "Pending",
    "rowid": "1225969",
    "final_x": "3666485.56052",
    "final_y": "546926.517649",
    "longitude": "-90.11496341693643",
    "latitude": "29.998305774247612",
    "geocoded_column": {
      "latitude": "29.998305774247612",
      "longitude": "-90.11496341693643"
    }
  },
  {
    "service_request": "2025-1225968",
    "request_type": "Streetlights",
    "request_reason": "Streetlight Knocked Down/Leaning",
    "date_created": "2025-09-12T16:17:22.000",
    "date_modified": "2025-09-12T16:17:24.000",
    "request_status": "Pending",
    "responsible_agency": "Department of Public Works",
    "final_address": "4970 Palace St",
    "address_councildis": "E",
    "status": "Pending",
    "rowid": "1225968",
    "final_x": "3728945.41293",
    "final_y": "562946.453664",
    "longitude": "-89.91703060725568",
    "latitude": "30.040380081068257",
    "geocoded_column": {
      "latitude": "30.040380081068257",
      "longitude": "-89.91703060725568"
    }
  },
  {
    "service_request": "2025-1225967",
    "request_type": "Roads and Streets",
    "request_reason": "Abandoned Service Cut",
    "date_created": "2025-09-12T16:12:16.000",
    "date_modified": "2025-09-12T16:12:18.000",
    "request_status": "Pending",
    "responsible_agency": "Department of Public Works",
    "final_address": "3016 Paris Ave",
    "address_councildis": "D",
    "status": "Pending",
    "rowid": "1225967",
    "final_x": "3679776.93109",
    "final_y": "543430.184078",
    "longitude": "-90.0730975246997",
    "latitude": "29.988296794869314",
    "geocoded_column": {
      "latitude": "29.988296794869314",
      "longitude": "-90.0730975246997"
    }
  },
  {
    "service_request": "2025-1225966",
    "request_type": "Trash/Recycling",
    "request_reason": "Request a Large Item Pick Up",
    "date_created": "2025-09-12T16:11:43.000",
    "date_modified": "2025-09-12T16:11:45.000",
    "request_status": "Pending",
    "responsible_agency": "Department of Sanitation",
    "final_address": "4809 Majestic Oaks Dr",
    "address_councildis": "D",
    "status": "Assigned to Contractor",
    "contractor": "Waste Pro",
    "rowid": "1225966",
    "final_x": "3697799.86461",
    "final_y": "554694.863832",
    "longitude": "-90.01576006507803",
    "latitude": "30.018713117649995",
    "geocoded_column": {
      "latitude": "30.018713117649995",
      "longitude": "-90.01576006507803"
    }
  },
  {
    "service_request": "2025-1225965",
    "request_type": "Roads and Streets",
    "request_reason": "Street Subsidence (Sinking)",
    "date_created": "2025-09-12T16:00:36.000",
    "date_modified": "2025-09-12T16:00:38.000",
    "request_status": "Pending",
    "responsible_agency": "Sewerage & Water Board",
    "final_address": "2436 St Ann St",
    "address_councildis": "D",
    "status": "Pending",
    "rowid": "1225965",
    "final_x": "3677725.41538",
    "final_y": "536527.926727",
    "longitude": "-90.07981611339858",
    "latitude": "29.969379851030105",
    "geocoded_column": {
      "latitude": "29.969379851030105",
      "longitude": "-90.07981611339858"
    }
  },
  {
    "service_request": "2025-1225964",
    "request_type": "Trash/Recycling",
    "request_reason": "Request a Large Item Pick Up",
    "date_created": "2025-09-12T15:59:50.000",
    "date_modified": "2025-09-12T15:59:57.000",
    "request_status": "Pending",
    "responsible_agency": "Department of Sanitation",
    "final_address": "3300 Prytania St",
    "address_councildis": "B",
    "status": "Assigned to Contractor",
    "contractor": "IV Waste",
    "rowid": "1225964",
    "final_x": "3674748.49179",
    "final_y": "521130.272569",
    "longitude": "-90.08974523954882",
    "latitude": "29.927130607259524",
    "geocoded_column": {
      "latitude": "29.927130607259524",
      "longitude": "-90.08974523954882"
    }
  },
  {
    "service_request": "2025-1225963",
    "request_type": "Trash/Recycling",
    "request_reason": "Request a Large Item Pick Up",
    "date_created": "2025-09-12T15:57:57.000",
    "date_modified": "2025-09-12T15:57:59.000",
    "request_status": "Pending",
    "responsible_agency": "Department of Sanitation",
    "final_address": "7163 Yorktown Dr",
    "address_councildis": "E",
    "status": "Assigned to Contractor",
    "contractor": "Waste Pro",
    "rowid": "1225963",
    "final_x": "3705902.05796",
    "final_y": "561202.284382",
    "longitude": "-89.9899191901613",
    "latitude": "30.036347328718595",
    "geocoded_column": {
      "latitude": "30.036347328718595",
      "longitude": "-89.9899191901613"
    }
  },
  {
    "service_request": "2025-1225962",
    "request_type": "Parks & Parkways",
    "request_reason": "Request Tree Service (Right of Way/Public Property)",
    "date_created": "2025-09-12T15:55:20.000",
    "date_modified": "2025-09-12T15:55:24.000",
    "request_status": "Pending",
    "responsible_agency": "Department of Parks & Parkway",
    "final_address": "3849 Lennox Blvd",
    "address_councildis": "C",
    "status": "Pending",
    "rowid": "1225962",
    "final_x": "3700460.35632",
    "final_y": "516896.266101",
    "longitude": "-90.00873453519354",
    "latitude": "29.914696196815182",
    "geocoded_column": {
      "latitude": "29.914696196815182",
      "longitude": "-90.00873453519354"
    }
  },
  {
    "service_request": "2025-1225961",
    "request_type": "Streetlights",
    "request_reason": "Streetlight Outage/Malfunction",
    "date_created": "2025-09-12T15:55:09.000",
    "date_modified": "2025-09-12T15:55:10.000",
    "request_status": "Pending",
    "responsible_agency": "Department of Public Works",
    "final_address": "7717 Mercier St",
    "address_councildis": "E",
    "status": "Pending",
    "rowid": "1225961",
    "final_x": "3711260.6147",
    "final_y": "566841.929636",
    "longitude": "-89.97277362855071",
    "latitude": "30.051680251104568",
    "geocoded_column": {
      "latitude": "30.051680251104568",
      "longitude": "-89.97277362855071"
    }
  },
  {
    "service_request": "2025-1225960",
    "request_type": "Trash/Recycling",
    "request_reason": "Change Size of Trash Cart",
    "date_created": "2025-09-12T15:55:06.000",
    "date_modified": "2025-09-12T15:55:08.000",
    "request_status": "Pending",
    "responsible_agency": "Department of Sanitation",
    "final_address": "1437 Nunez St",
    "address_councildis": "C",
    "status": "Assigned to Contractor",
    "contractor": "Richards Disposal",
    "rowid": "1225960",
    "final_x": "3687010.42178",
    "final_y": "526110.533694",
    "longitude": "-90.05086161401945",
    "latitude": "29.940453034256233",
    "geocoded_column": {
      "latitude": "29.940453034256233",
      "longitude": "-90.05086161401945"
    }
  },
  {
    "service_request": "2025-1225959",
    "request_type": "Property Maintenance",
    "request_reason": "Property Maintenance",
    "date_created": "2025-09-12T15:54:26.000",
    "date_modified": "2025-09-12T15:57:51.000",
    "request_status": "Pending",
    "responsible_agency": "Department of Code Enforcement",
    "final_address": "ST BERNARD AVE & N GALVEZ ST",
    "address_councildis": "D",
    "status": "Pending",
    "rowid": "1225959",
    "final_x": "3681311.9",
    "final_y": "539580.88",
    "longitude": "-90.0683832810682",
    "latitude": "29.977666045789643",
    "geocoded_column": {
      "latitude": "29.977666045789643",
      "longitude": "-90.0683832810682"
    }
  },
  {
    "service_request": "2025-1225958",
    "request_type": "Trash/Recycling",
    "request_reason": "Order Recycling Cart",
    "date_created": "2025-09-12T15:53:26.000",
    "date_modified": "2025-09-12T15:53:28.000",
    "request_status": "Pending",
    "responsible_agency": "Department of Sanitation",
    "final_address": "4323 Burgundy St",
    "address_councildis": "C",
    "status": "Pending",
    "rowid": "1225958",
    "final_x": "3692759.43958",
    "final_y": "534281.309253",
    "longitude": "-90.03241822151108",
    "latitude": "29.96274165046304",
    "geocoded_column": {
      "latitude": "29.96274165046304",
      "longitude": "-90.03241822151108"
    }
  },
  {
    "service_request": "2025-1225957",
    "request_type": "Abandoned Vehicles",
    "request_reason": "Abandoned/Junk Vehicles",
    "date_created": "2025-09-12T15:50:28.000",
    "date_modified": "2025-09-12T15:50:30.000",
    "request_status": "Pending",
    "responsible_agency": "Department of Public Works",
    "final_address": "4320 Banks St",
    "address_councildis": "A",
    "status": "Pending",
    "rowid": "1225957",
    "final_x": "3669365.90574",
    "final_y": "538055.999049",
    "longitude": "-90.10616450229591",
    "latitude": "29.97383034761862",
    "geocoded_column": {
      "latitude": "29.97383034761862",
      "longitude": "-90.10616450229591"
    }
  },
  {
    "service_request": "2025-1225956",
    "request_type": "Abandoned Vehicles",
    "request_reason": "Abandoned/Junk Vehicles",
    "date_created": "2025-09-12T15:49:42.000",
    "date_modified": "2025-09-12T15:49:44.000",
    "request_status": "Pending",
    "responsible_agency": "Department of Public Works",
    "final_address": "4921 Marseille St",
    "address_councildis": "E",
    "status": "Pending",
    "rowid": "1225956",
    "final_x": "3729695.48563",
    "final_y": "562743.918624",
    "longitude": "-89.91466809479522",
    "latitude": "30.039797680729652",
    "geocoded_column": {
      "latitude": "30.039797680729652",
      "longitude": "-89.91466809479522"
    }
  },
  {
    "service_request": "2025-1225955",
    "request_type": "Abandoned Vehicles",
    "request_reason": "Abandoned/Junk Vehicles",
    "date_created": "2025-09-12T15:48:40.000",
    "date_modified": "2025-09-12T15:48:42.000",
    "request_status": "Pending",
    "responsible_agency": "Department of Public Works",
    "final_address": "4320 Banks St",
    "address_councildis": "A",
    "status": "Pending",
    "rowid": "1225955",
    "final_x": "3669365.90574",
    "final_y": "538055.999049",
    "longitude": "-90.10616450229591",
    "latitude": "29.97383034761862",
    "geocoded_column": {
      "latitude": "29.97383034761862",
      "longitude": "-90.10616450229591"
    }
  },
  {
    "service_request": "2025-1225954",
    "request_type": "Abandoned Vehicles",
    "request_reason": "Abandoned/Junk Vehicles",
    "date_created": "2025-09-12T15:44:43.000",
    "date_modified": "2025-09-12T15:44:44.000",
    "request_status": "Pending",
    "responsible_agency": "Department of Public Works",
    "final_address": "4320 Banks St",
    "address_councildis": "A",
    "status": "Pending",
    "rowid": "1225954",
    "final_x": "3669365.90574",
    "final_y": "538055.999049",
    "longitude": "-90.10616450229591",
    "latitude": "29.97383034761862",
    "geocoded_column": {
      "latitude": "29.97383034761862",
      "longitude": "-90.10616450229591"
    }
  },
  {
    "service_request": "2025-1225953",
    "request_type": "Trash/Recycling",
    "request_reason": "Return Trash Cart",
    "date_created": "2025-09-12T15:42:38.000",
    "date_modified": "2025-09-12T15:42:40.000",
    "request_status": "Pending",
    "responsible_agency": "Department of Sanitation",
    "final_address": "1003 Gordon St",
    "address_councildis": "E",
    "status": "Assigned to Contractor",
    "contractor": "Waste Pro",
    "rowid": "1225953",
    "final_x": "3699037.55204",
    "final_y": "533057.014212",
    "longitude": "-90.01263744668289",
    "latitude": "29.95917779253088",
    "geocoded_column": {
      "latitude": "29.95917779253088",
      "longitude": "-90.01263744668289"
    }
  },
  {
    "service_request": "2025-1225952",
    "request_type": "Property Maintenance",
    "request_reason": "Property Maintenance",
    "date_created": "2025-09-12T15:41:00.000",
    "date_modified": "2025-09-12T15:41:02.000",
    "request_status": "Pending",
    "responsible_agency": "Department of Code Enforcement",
    "final_address": "2413 State St",
    "address_councildis": "A",
    "status": "Pending",
    "rowid": "1225952",
    "final_x": "3666789.1497",
    "final_y": "525449.843837",
    "longitude": "-90.11472590958984",
    "latitude": "29.939243177974493",
    "geocoded_column": {
      "latitude": "29.939243177974493",
      "longitude": "-90.11472590958984"
    }
  },
  {
    "service_request": "2025-1225951",
    "request_type": "Trash/Recycling",
    "request_reason": "Repair Trash Cart",
    "date_created": "2025-09-12T15:38:15.000",
    "date_modified": "2025-09-12T15:38:17.000",
    "request_status": "Pending",
    "responsible_agency": "Department of Sanitation",
    "final_address": "2811 Danbury Dr",
    "address_councildis": "C",
    "status": "Assigned to Contractor",
    "contractor": "Richards Disposal",
    "rowid": "1225951",
    "final_x": "3703571.52593",
    "final_y": "520311.736632",
    "longitude": "-89.99878911355063",
    "latitude": "29.923988304012127",
    "geocoded_column": {
      "latitude": "29.923988304012127",
      "longitude": "-89.99878911355063"
    }
  },
  {
    "service_request": "2025-1225949",
    "request_type": "Trash/Recycling",
    "request_reason": "Repair Trash Cart",
    "date_created": "2025-09-12T15:30:45.000",
    "date_modified": "2025-09-12T15:30:47.000",
    "request_status": "Pending",
    "responsible_agency": "Department of Sanitation",
    "final_address": "902 Jackson Ave",
    "address_councildis": "B",
    "status": "Assigned to Contractor",
    "contractor": "IV Waste",
    "rowid": "1225949",
    "final_x": "3679231.64923",
    "final_y": "521484.270393",
    "longitude": "-90.0755807990971",
    "latitude": "29.927969436201504",
    "geocoded_column": {
      "latitude": "29.927969436201504",
      "longitude": "-90.0755807990971"
    }
  },
  {
    "service_request": "2025-1225948",
    "request_type": "Property Maintenance",
    "request_reason": "Property Maintenance",
    "date_created": "2025-09-12T15:23:09.000",
    "date_modified": "2025-09-12T15:56:20.000",
    "request_status": "Pending",
    "responsible_agency": "Department of Code Enforcement",
    "final_address": "2714 Orchid St",
    "address_councildis": "A",
    "status": "Pending",
    "rowid": "1225948",
    "final_x": "3677713.44949",
    "final_y": "538638.167689",
    "longitude": "-90.07978099493424",
    "latitude": "29.975182650895718",
    "geocoded_column": {
      "latitude": "29.975182650895718",
      "longitude": "-90.07978099493424"
    }
  },
  {
    "service_request": "2025-1225947",
    "request_type": "Trash/Recycling",
    "request_reason": "Order Recycling Cart",
    "date_created": "2025-09-12T15:22:02.000",
    "date_modified": "2025-09-12T15:22:05.000",
    "request_status": "Pending",
    "responsible_agency": "Department of Sanitation",
    "final_address": "3001 Royal St",
    "address_councildis": "C",
    "status": "Pending",
    "rowid": "1225947",
    "final_x": "3688102.23964",
    "final_y": "534660.827846",
    "longitude": "-90.04711155670542",
    "latitude": "29.963929760703298",
    "geocoded_column": {
      "latitude": "29.963929760703298",
      "longitude": "-90.04711155670542"
    }
  },
  {
    "service_request": "2025-1225946",
    "request_type": "Trash/Recycling",
    "request_reason": "Request a Large Item Pick Up",
    "date_created": "2025-09-12T15:20:36.000",
    "date_modified": "2025-09-12T15:20:38.000",
    "request_status": "Pending",
    "responsible_agency": "Department of Sanitation",
    "final_address": "2132 Lizardi St",
    "address_councildis": "E",
    "status": "Assigned to Contractor",
    "contractor": "Waste Pro",
    "rowid": "1225946",
    "final_x": "3697623.52394",
    "final_y": "538114.795657",
    "longitude": "-90.01691909002827",
    "latitude": "29.973129624283953",
    "geocoded_column": {
      "latitude": "29.973129624283953",
      "longitude": "-90.01691909002827"
    }
  },
  {
    "service_request": "2025-1225945",
    "request_type": "Trash/Recycling",
    "request_reason": "Return Recycling Cart",
    "date_created": "2025-09-12T15:20:26.000",
    "date_modified": "2025-09-12T15:20:28.000",
    "request_status": "Pending",
    "responsible_agency": "Department of Sanitation",
    "final_address": "720 St Ferdinand St",
    "address_councildis": "C",
    "status": "Pending",
    "rowid": "1225945",
    "final_x": "3687336.73961",
    "final_y": "534983.031942",
    "longitude": "-90.04951752833651",
    "latitude": "29.9648393151902",
    "geocoded_column": {
      "latitude": "29.9648393151902",
      "longitude": "-90.04951752833651"
    }
  },
  {
    "service_request": "2025-1225944",
    "request_type": "Streetlights",
    "request_reason": "Streetlight Outage/Malfunction",
    "date_created": "2025-09-12T15:19:46.000",
    "date_modified": "2025-09-12T15:34:25.000",
    "request_status": "Pending",
    "responsible_agency": "Department of Public Works",
    "final_address": "821 Polk St",
    "address_councildis": "A",
    "status": "Pending",
    "rowid": "1225944",
    "final_x": "3669383.22529",
    "final_y": "547289.461137",
    "longitude": "-90.10579739856149",
    "latitude": "29.999218705935974",
    "geocoded_column": {
      "latitude": "29.999218705935974",
      "longitude": "-90.10579739856149"
    }
  },
  {
    "service_request": "2025-1225943",
    "request_type": "Trash/Recycling",
    "request_reason": "Request a Large Item Pick Up",
    "date_created": "2025-09-12T15:18:20.000",
    "date_modified": "2025-09-12T15:18:22.000",
    "request_status": "Pending",
    "responsible_agency": "Department of Sanitation",
    "final_address": "1864 N Galvez St",
    "address_councildis": "D",
    "status": "Assigned to Contractor",
    "contractor": "IV Waste",
    "rowid": "1225943",
    "final_x": "3682691.14703",
    "final_y": "539794.493194",
    "longitude": "-90.06401967884592",
    "latitude": "29.978211468709798",
    "geocoded_column": {
      "latitude": "29.978211468709798",
      "longitude": "-90.06401967884592"
    }
  },
  {
    "service_request": "2025-1225942",
    "request_type": "Trash/Recycling",
    "request_reason": "Request a Large Item Pick Up",
    "date_created": "2025-09-12T15:16:43.000",
    "date_modified": "2025-09-12T15:16:44.000",
    "request_status": "Pending",
    "responsible_agency": "Department of Sanitation",
    "final_address": "1784 Pratt Dr",
    "address_councildis": "D",
    "status": "Assigned to Contractor",
    "contractor": "IV Waste",
    "rowid": "1225942",
    "final_x": "3680685.33499",
    "final_y": "549573.018899",
    "longitude": "-90.0700142447891",
    "latitude": "30.005159907525577",
    "geocoded_column": {
      "latitude": "30.005159907525577",
      "longitude": "-90.0700142447891"
    }
  },
  {
    "service_request": "2025-1225941",
    "request_type": "Property Maintenance",
    "request_reason": "Property Maintenance",
    "date_created": "2025-09-12T15:16:39.000",
    "date_modified": "2025-09-12T15:16:40.000",
    "request_status": "Pending",
    "responsible_agency": "Department of Code Enforcement",
    "final_address": "2459 N Galvez St",
    "address_councildis": "D",
    "status": "Pending",
    "rowid": "1225941",
    "final_x": "3686706.19215",
    "final_y": "540186.216139",
    "longitude": "-90.05132491248128",
    "latitude": "29.979165661592",
    "geocoded_column": {
      "latitude": "29.979165661592",
      "longitude": "-90.05132491248128"
    }
  },
  {
    "service_request": "2025-1225940",
    "request_type": "Trash/Recycling",
    "request_reason": "Request a Large Item Pick Up",
    "date_created": "2025-09-12T15:16:04.000",
    "date_modified": "2025-09-12T15:16:05.000",
    "request_status": "Pending",
    "responsible_agency": "Department of Sanitation",
    "final_address": "3727 Annunciation St",
    "address_councildis": "B",
    "status": "Assigned to Contractor",
    "contractor": "IV Waste",
    "rowid": "1225940",
    "final_x": "3673684.96123",
    "final_y": "518094.64287",
    "longitude": "-90.09320624972527",
    "latitude": "29.918815294266782",
    "geocoded_column": {
      "latitude": "29.918815294266782",
      "longitude": "-90.09320624972527"
    }
  },
  {
    "service_request": "2025-1225939",
    "request_type": "Mosquito, Termite & Rodent Control",
    "request_reason": "Rodent Complaint (Mice & Rats)",
    "date_created": "2025-09-12T15:14:55.000",
    "date_modified": "2025-09-12T15:14:56.000",
    "request_status": "Pending",
    "responsible_agency": "Mosquito, Termite & Rodent Control Board",
    "final_address": "2461 N Galvez St",
    "address_councildis": "D",
    "status": "Pending",
    "rowid": "1225939",
    "final_x": "3686736.9455",
    "final_y": "540187.631883",
    "longitude": "-90.05122773162951",
    "latitude": "29.979168608253207",
    "geocoded_column": {
      "latitude": "29.979168608253207",
      "longitude": "-90.05122773162951"
    }
  },
  {
    "service_request": "2025-1225938",
    "request_type": "Parks & Parkways",
    "request_reason": "Request Tree Service (Right of Way/Public Property)",
    "date_created": "2025-09-12T15:14:16.000",
    "date_modified": "2025-09-12T15:14:24.000",
    "request_status": "Pending",
    "responsible_agency": "Department of Parks & Parkway",
    "final_address": "3426 Piedmont Dr",
    "address_councildis": "D",
    "status": "Pending",
    "rowid": "1225938",
    "final_x": "3686296.05807",
    "final_y": "545423.661072",
    "longitude": "-90.05243535634186",
    "latitude": "29.993579384987463",
    "geocoded_column": {
      "latitude": "29.993579384987463",
      "longitude": "-90.05243535634186"
    }
  },
  {
    "service_request": "2025-1225937",
    "request_type": "Trash/Recycling",
    "request_reason": "Order Trash Cart",
    "date_created": "2025-09-12T15:06:57.000",
    "date_modified": "2025-09-12T15:06:59.000",
    "request_status": "Pending",
    "responsible_agency": "Department of Sanitation",
    "final_address": "1774 Abundance St",
    "address_councildis": "D",
    "status": "Assigned to Contractor",
    "contractor": "IV Waste",
    "rowid": "1225937",
    "final_x": "3681238.32271",
    "final_y": "543355.143246",
    "longitude": "-90.0684840783082",
    "latitude": "29.988046183198055",
    "geocoded_column": {
      "latitude": "29.988046183198055",
      "longitude": "-90.0684840783082"
    }
  },
  {
    "service_request": "2025-1225936",
    "request_type": "Safety & Permits",
    "request_reason": "Zoning Enforcement",
    "date_created": "2025-09-12T15:02:09.000",
    "date_modified": "2025-09-12T15:21:06.000",
    "request_status": "Pending",
    "responsible_agency": "Safety and Permits",
    "final_address": "3745 Frenchmen St",
    "address_councildis": "D",
    "status": "Wrong Agency",
    "rowid": "1225936",
    "final_x": "3683805.75535",
    "final_y": "546552.388497",
    "longitude": "-90.0602622127931",
    "latitude": "29.99675929295467",
    "geocoded_column": {
      "latitude": "29.99675929295467",
      "longitude": "-90.0602622127931"
    }
  },
  {
    "service_request": "2025-1225935",
    "request_type": "Trash/Recycling",
    "request_reason": "Request a Large Item Pick Up",
    "date_created": "2025-09-12T14:57:26.000",
    "date_modified": "2025-09-12T14:57:28.000",
    "request_status": "Pending",
    "responsible_agency": "Department of Sanitation",
    "final_address": "206 S Hennessey St",
    "address_councildis": "A",
    "status": "Assigned to Contractor",
    "contractor": "IV Waste",
    "rowid": "1225935",
    "final_x": "3670032.06663",
    "final_y": "538531.438153",
    "longitude": "-90.10404450482757",
    "latitude": "29.975118010851265",
    "geocoded_column": {
      "latitude": "29.975118010851265",
      "longitude": "-90.10404450482757"
    }
  },
  {
    "service_request": "2025-1225934",
    "request_type": "Roads and Streets",
    "request_reason": "Pothole",
    "date_created": "2025-09-12T14:56:48.000",
    "date_modified": "2025-09-12T14:56:49.000",
    "request_status": "Pending",
    "responsible_agency": "Department of Public Works",
    "final_address": "1001 First St",
    "address_councildis": "B",
    "status": "Pending",
    "rowid": "1225934",
    "final_x": "3678289.96392",
    "final_y": "521232.155961",
    "longitude": "-90.07856219835894",
    "latitude": "29.927304592344935",
    "geocoded_column": {
      "latitude": "29.927304592344935",
      "longitude": "-90.07856219835894"
    }
  },
  {
    "service_request": "2025-1225933",
    "request_type": "Property Maintenance",
    "request_reason": "Property Maintenance",
    "date_created": "2025-09-12T14:53:31.000",
    "date_modified": "2025-09-12T14:53:32.000",
    "request_status": "Pending",
    "responsible_agency": "Department of Code Enforcement",
    "final_address": "HAMMOND ST & FLAKE AVE",
    "address_councildis": "E",
    "status": "Pending",
    "rowid": "1225933",
    "final_x": "3706070.0",
    "final_y": "555760.48",
    "longitude": "-89.98959013746978",
    "latitude": "30.021379077669053",
    "geocoded_column": {
      "latitude": "30.021379077669053",
      "longitude": "-89.98959013746978"
    }
  },
  {
    "service_request": "2025-1225932",
    "request_type": "Trash/Recycling",
    "request_reason": "Request a Large Item Pick Up",
    "date_created": "2025-09-12T14:53:25.000",
    "date_modified": "2025-09-12T14:55:44.000",
    "request_status": "Pending",
    "responsible_agency": "Department of Sanitation",
    "final_address": "11400 Will Stutley Dr",
    "address_councildis": "E",
    "status": "Assigned to Contractor",
    "contractor": "Waste Pro",
    "rowid": "1225932",
    "final_x": "3717430.99116",
    "final_y": "558209.854363",
    "longitude": "-89.9535997637599",
    "latitude": "30.02774264871035",
    "geocoded_column": {
      "latitude": "30.02774264871035",
      "longitude": "-89.9535997637599"
    }
  },
  {
    "service_request": "2025-1225931",
    "request_type": "Trash/Recycling",
    "request_reason": "Missed Trash Pick-Up",
    "date_created": "2025-09-12T14:52:32.000",
    "date_modified": "2025-09-12T16:20:35.000",
    "case_close_date": "2025-09-12T11:20:33.000",
    "request_status": "Closed",
    "responsible_agency": "Department of Sanitation",
    "final_address": "713 Elysian Fields Ave",
    "address_councildis": "C",
    "status": "Invalid Request",
    "contractor": "IV Waste",
    "contractor_action": "Invalid",
    "rowid": "1225931",
    "final_x": "3685193.13161",
    "final_y": "535000.57127",
    "longitude": "-90.05628627463268",
    "latitude": "29.964953407473416",
    "geocoded_column": {
      "latitude": "29.964953407473416",
      "longitude": "-90.05628627463268"
    }
  },
  {
    "service_request": "2025-1225930",
    "request_type": "Trash/Recycling",
    "request_reason": "Illegal Dumping",
    "date_created": "2025-09-12T14:49:05.000",
    "date_modified": "2025-09-12T14:49:51.000",
    "request_status": "Pending",
    "responsible_agency": "Department of Sanitation",
    "final_address": "419 W Harrison Ave",
    "address_councildis": "A",
    "status": "Pending",
    "rowid": "1225930",
    "final_x": "3664665.11232",
    "final_y": "549712.620052",
    "longitude": "-90.12062107914983",
    "latitude": "30.006019695955477",
    "geocoded_column": {
      "latitude": "30.006019695955477",
      "longitude": "-90.12062107914983"
    }
  },
  {
    "service_request": "2025-1225929",
    "request_type": "Trash/Recycling",
    "request_reason": "Illegal Dumping",
    "date_created": "2025-09-12T14:45:05.000",
    "date_modified": "2025-09-12T14:45:06.000",
    "request_status": "Pending",
    "responsible_agency": "Department of Sanitation",
    "final_address": "3200 BLK Huntlee Dr",
    "address_councildis": "C",
    "status": "Pending",
    "rowid": "1225929",
    "final_x": "3701744.16537",
    "final_y": "519011.057238",
    "longitude": "-90.00460500954595",
    "latitude": "29.92047027806106",
    "geocoded_column": {
      "latitude": "29.92047027806106",
      "longitude": "-90.00460500954595"
    }
  },
  {
    "service_request": "2025-1225928",
    "request_type": "Drainage",
    "request_reason": "Catch Basin Frame and Cover Missing or Damaged",
    "date_created": "2025-09-12T14:45:05.000",
    "date_modified": "2025-09-12T14:48:21.000",
    "request_status": "Pending",
    "responsible_agency": "Sewerage & Water Board",
    "final_address": "7700 Sandy Cove Dr",
    "address_councildis": "E",
    "status": "Pending",
    "rowid": "1225928",
    "final_x": "3715335.48837",
    "final_y": "569596.912166",
    "longitude": "-89.95978999908155",
    "latitude": "30.059121651749937",
    "geocoded_column": {
      "latitude": "30.059121651749937",
      "longitude": "-89.95978999908155"
    }
  },
  {
    "service_request": "2025-1225927",
    "request_type": "Trash/Recycling",
    "request_reason": "Request a Large Item Pick Up",
    "date_created": "2025-09-12T14:42:18.000",
    "date_modified": "2025-09-12T14:42:20.000",
    "request_status": "Pending",
    "responsible_agency": "Department of Sanitation",
    "final_address": "4036 Buick St",
    "address_councildis": "D",
    "status": "Assigned to Contractor",
    "contractor": "IV Waste",
    "rowid": "1225927",
    "final_x": "3688823.39798",
    "final_y": "548225.948754",
    "longitude": "-90.04435232604216",
    "latitude": "30.001206735602302",
    "geocoded_column": {
      "latitude": "30.001206735602302",
      "longitude": "-90.04435232604216"
    }
  },
  {
    "service_request": "2025-1225926",
    "request_type": "Healthy Homes",
    "request_reason": "Healthy Homes",
    "date_created": "2025-09-12T14:39:25.000",
    "date_modified": "2025-09-12T14:39:26.000",
    "request_status": "Pending",
    "responsible_agency": "Department of Code Enforcement",
    "final_address": "3335 Diana St",
    "address_councildis": "C",
    "status": "Pending",
    "rowid": "1225926",
    "final_x": "3696688.60451",
    "final_y": "527332.884415",
    "longitude": "-90.02026194491441",
    "latitude": "29.94351267679083",
    "geocoded_column": {
      "latitude": "29.94351267679083",
      "longitude": "-90.02026194491441"
    }
  },
  {
    "service_request": "2025-1225925",
    "request_type": "Abandoned Vehicles",
    "request_reason": "Abandoned/Junk Vehicles",
    "date_created": "2025-09-12T14:38:51.000",
    "date_modified": "2025-09-12T14:38:52.000",
    "request_status": "Pending",
    "responsible_agency": "Department of Public Works",
    "final_address": "9696 Hayne Blvd Apt E-27",
    "address_councildis": "E",
    "status": "Pending",
    "rowid": "1225925",
    "final_x": "3706952.67896",
    "final_y": "565028.099042",
    "longitude": "-89.986456931065",
    "latitude": "30.046832888365277",
    "geocoded_column": {
      "latitude": "30.046832888365277",
      "longitude": "-89.986456931065"
    }
  },
  {
    "service_request": "2025-1225924",
    "request_type": "Roads and Streets",
    "request_reason": "Pothole",
    "date_created": "2025-09-12T14:38:16.000",
    "date_modified": "2025-09-12T14:38:17.000",
    "request_status": "Pending",
    "responsible_agency": "Department of Public Works",
    "final_address": "103 Sherwood Forest Dr",
    "address_councildis": "A",
    "status": "Pending",
    "rowid": "1225924",
    "final_x": "3673256.92436",
    "final_y": "541280.025036",
    "longitude": "-90.09376563636803",
    "latitude": "29.982580161976518",
    "geocoded_column": {
      "latitude": "29.982580161976518",
      "longitude": "-90.09376563636803"
    }
  },
  {
    "service_request": "2025-1225923",
    "request_type": "Trash/Recycling",
    "request_reason": "Repair Trash Cart",
    "date_created": "2025-09-12T14:36:02.000",
    "date_modified": "2025-09-12T15:27:13.000",
    "request_status": "Pending",
    "responsible_agency": "Department of Sanitation",
    "final_address": "121 Maryland Drive, New Orleans, LA 70124",
    "address_councildis": "A",
    "status": "Assigned to Contractor",
    "contractor": "IV Waste",
    "rowid": "1225923",
    "final_x": "3663780.89069",
    "final_y": "542326.784461",
    "longitude": "-90.12366089498397",
    "latitude": "29.985736867074955",
    "geocoded_column": {
      "latitude": "29.985736867074955",
      "longitude": "-90.12366089498397"
    }
  },
  {
    "service_request": "2025-1225922",
    "request_type": "Trash/Recycling",
    "request_reason": "Request a Large Item Pick Up",
    "date_created": "2025-09-12T14:35:19.000",
    "date_modified": "2025-09-12T14:35:21.000",
    "request_status": "Pending",
    "responsible_agency": "Department of Sanitation",
    "final_address": "1131 Marigny St",
    "address_councildis": "C",
    "status": "Assigned to Contractor",
    "contractor": "IV Waste",
    "rowid": "1225922",
    "final_x": "3685423.25884",
    "final_y": "536668.622407",
    "longitude": "-90.0555008043378",
    "latitude": "29.969532915102068",
    "geocoded_column": {
      "latitude": "29.969532915102068",
      "longitude": "-90.0555008043378"
    }
  },
  {
    "service_request": "2025-1225921",
    "request_type": "Trash/Recycling",
    "request_reason": "Repair Trash Cart",
    "date_created": "2025-09-12T14:34:00.000",
    "date_modified": "2025-09-12T14:34:02.000",
    "request_status": "Pending",
    "responsible_agency": "Department of Sanitation",
    "final_address": "1730 Dante St",
    "address_councildis": "A",
    "status": "Assigned to Contractor",
    "contractor": "IV Waste",
    "rowid": "1225921",
    "final_x": "3662750.19226",
    "final_y": "530382.421058",
    "longitude": "-90.1273135613551",
    "latitude": "29.952923678756232",
    "geocoded_column": {
      "latitude": "29.952923678756232",
      "longitude": "-90.1273135613551"
    }
  },
  {
    "service_request": "2025-1225920",
    "request_type": "Traffic Signals",
    "request_reason": "Traffic Signal Malfunctioning or Damaged",
    "date_created": "2025-09-12T14:33:42.000",
    "date_modified": "2025-09-12T14:33:45.000",
    "request_status": "Pending",
    "responsible_agency": "Department of Public Works",
    "final_address": "WASHINGTON AVE & ST CHARLES AVE",
    "address_councildis": "B",
    "status": "Pending",
    "rowid": "1225920",
    "final_x": "3675909.8",
    "final_y": "522558.48",
    "longitude": "-90.08603020771396",
    "latitude": "29.931023006797286",
    "geocoded_column": {
      "latitude": "29.931023006797286",
      "longitude": "-90.08603020771396"
    }
  },
  {
    "service_request": "2025-1225919",
    "request_type": "Trash/Recycling",
    "request_reason": "Request a Large Item Pick Up",
    "date_created": "2025-09-12T14:30:08.000",
    "date_modified": "2025-09-12T14:30:10.000",
    "request_status": "Pending",
    "responsible_agency": "Department of Sanitation",
    "final_address": "6203 Fontainebleau Dr",
    "address_councildis": "B",
    "status": "Assigned to Contractor",
    "contractor": "IV Waste",
    "rowid": "1225919",
    "final_x": "3668050.84442",
    "final_y": "530086.736769",
    "longitude": "-90.11058634923687",
    "latitude": "29.951956174025657",
    "geocoded_column": {
      "latitude": "29.951956174025657",
      "longitude": "-90.11058634923687"
    }
  },
  {
    "service_request": "2025-1225918",
    "request_type": "Trash/Recycling",
    "request_reason": "Request a Large Item Pick Up",
    "date_created": "2025-09-12T14:30:00.000",
    "date_modified": "2025-09-12T14:30:03.000",
    "request_status": "Pending",
    "responsible_agency": "Department of Sanitation",
    "final_address": "106 Norland Ave",
    "address_councildis": "C",
    "status": "Assigned to Contractor",
    "contractor": "Richards Disposal",
    "rowid": "1225918",
    "final_x": "3705971.03556",
    "final_y": "520482.352248",
    "longitude": "-89.99120847264905",
    "latitude": "29.92438037515692",
    "geocoded_column": {
      "latitude": "29.92438037515692",
      "longitude": "-89.99120847264905"
    }
  },
  {
    "service_request": "2025-1225917",
    "request_type": "Trash/Recycling",
    "request_reason": "Illegal Dumping",
    "date_created": "2025-09-12T14:16:32.000",
    "date_modified": "2025-09-12T14:16:34.000",
    "request_status": "Pending",
    "responsible_agency": "Department of Sanitation",
    "final_address": "700 BLK River Oaks Dr",
    "address_councildis": "C",
    "status": "Pending",
    "rowid": "1225917",
    "final_x": "3701465.27846",
    "final_y": "519836.196664",
    "longitude": "-90.00545513535191",
    "latitude": "29.922748017377632",
    "geocoded_column": {
      "latitude": "29.922748017377632",
      "longitude": "-90.00545513535191"
    }
  },
  {
    "service_request": "2025-1225916",
    "request_type": "Trash/Recycling",
    "request_reason": "Request a Large Item Pick Up",
    "date_created": "2025-09-12T14:07:36.000",
    "date_modified": "2025-09-12T14:07:38.000",
    "request_status": "Pending",
    "responsible_agency": "Department of Sanitation",
    "final_address": "4851 Friar Tuck Dr",
    "address_councildis": "E",
    "status": "Assigned to Contractor",
    "contractor": "Waste Pro",
    "rowid": "1225916",
    "final_x": "3717769.04671",
    "final_y": "557581.736731",
    "longitude": "-89.95255546331352",
    "latitude": "30.02600437972448",
    "geocoded_column": {
      "latitude": "30.02600437972448",
      "longitude": "-89.95255546331352"
    }
  },
  {
    "service_request": "2025-1225915",
    "request_type": "Trash/Recycling",
    "request_reason": "Request a Large Item Pick Up",
    "date_created": "2025-09-12T14:03:52.000",
    "date_modified": "2025-09-12T14:05:24.000",
    "request_status": "Pending",
    "responsible_agency": "Department of Sanitation",
    "final_address": "4811 Friar Tuck Dr",
    "address_councildis": "E",
    "status": "Assigned to Contractor",
    "contractor": "Waste Pro",
    "rowid": "1225915",
    "final_x": "3717798.67141",
    "final_y": "557278.881755",
    "longitude": "-89.95247338680763",
    "latitude": "30.025170668007856",
    "geocoded_column": {
      "latitude": "30.025170668007856",
      "longitude": "-89.95247338680763"
    }
  },
  {
    "service_request": "2025-1225914",
    "request_type": "Drainage",
    "request_reason": "Catch Basin Frame and Cover Missing or Damaged",
    "date_created": "2025-09-12T14:00:07.000",
    "date_modified": "2025-09-12T14:00:10.000",
    "request_status": "Pending",
    "responsible_agency": "Sewerage & Water Board",
    "final_address": "11300 BLK Lake Forest Blvd",
    "address_councildis": "E",
    "status": "Pending",
    "rowid": "1225914",
    "final_x": "3720154.87527",
    "final_y": "562479.576272",
    "longitude": "-89.9448291072418",
    "latitude": "30.03939218659508",
    "geocoded_column": {
      "latitude": "30.03939218659508",
      "longitude": "-89.9448291072418"
    }
  },
  {
    "service_request": "2025-1225913",
    "request_type": "Trash/Recycling",
    "request_reason": "Replace Trash Cart",
    "date_created": "2025-09-12T13:58:25.000",
    "date_modified": "2025-09-12T13:58:27.000",
    "request_status": "Pending",
    "responsible_agency": "Department of Sanitation",
    "final_address": "4130 General Pershing St",
    "address_councildis": "B",
    "status": "Assigned to Contractor",
    "contractor": "IV Waste",
    "rowid": "1225913",
    "final_x": "3669942.42484",
    "final_y": "529351.867841",
    "longitude": "-90.10463849624922",
    "latitude": "29.949879886687896",
    "geocoded_column": {
      "latitude": "29.949879886687896",
      "longitude": "-90.10463849624922"
    }
  },
  {
    "service_request": "2025-1225912",
    "request_type": "Drainage",
    "request_reason": "Catch Basin Frame and Cover Missing or Damaged",
    "date_created": "2025-09-12T13:57:45.000",
    "date_modified": "2025-09-12T13:57:47.000",
    "request_status": "Pending",
    "responsible_agency": "Sewerage & Water Board",
    "final_address": "11300 BLK Lake Forest Blvd",
    "address_councildis": "E",
    "status": "Pending",
    "rowid": "1225912",
    "final_x": "3720154.87527",
    "final_y": "562479.576272",
    "longitude": "-89.9448291072418",
    "latitude": "30.03939218659508",
    "geocoded_column": {
      "latitude": "30.03939218659508",
      "longitude": "-89.9448291072418"
    }
  },
  {
    "service_request": "2025-1225911",
    "request_type": "Trash/Recycling",
    "request_reason": "Request a Large Item Pick Up",
    "date_created": "2025-09-12T13:52:48.000",
    "date_modified": "2025-09-12T13:52:50.000",
    "request_status": "Pending",
    "responsible_agency": "Department of Sanitation",
    "final_address": "4811 Camelot Dr",
    "address_councildis": "E",
    "status": "Assigned to Contractor",
    "contractor": "Waste Pro",
    "rowid": "1225911",
    "final_x": "3708391.36574",
    "final_y": "556110.401114",
    "longitude": "-89.98224228819782",
    "latitude": "30.02226616703344",
    "geocoded_column": {
      "latitude": "30.02226616703344",
      "longitude": "-89.98224228819782"
    }
  },
  {
    "service_request": "2025-1225910",
    "request_type": "Trash/Recycling",
    "request_reason": "Replace Recycling Cart",
    "date_created": "2025-09-12T13:52:30.000",
    "date_modified": "2025-09-12T13:52:32.000",
    "request_status": "Pending",
    "responsible_agency": "Department of Sanitation",
    "final_address": "7710 Pebble Dr",
    "address_councildis": "E",
    "status": "Pending",
    "rowid": "1225910",
    "final_x": "3714799.54603",
    "final_y": "569280.807846",
    "longitude": "-89.96149601448765",
    "latitude": "30.05827014900997",
    "geocoded_column": {
      "latitude": "30.05827014900997",
      "longitude": "-89.96149601448765"
    }
  },
  {
    "service_request": "2025-1225909",
    "request_type": "Trash/Recycling",
    "request_reason": "Repair Trash Cart",
    "date_created": "2025-09-12T13:46:50.000",
    "date_modified": "2025-09-12T13:48:26.000",
    "request_status": "Pending",
    "responsible_agency": "Department of Sanitation",
    "final_address": "2019 Annette St",
    "address_councildis": "D",
    "status": "Assigned to Contractor",
    "contractor": "IV Waste",
    "rowid": "1225909",
    "final_x": "3682902.51336",
    "final_y": "539634.513354",
    "longitude": "-90.06335770900982",
    "latitude": "29.977765140192652",
    "geocoded_column": {
      "latitude": "29.977765140192652",
      "longitude": "-90.06335770900982"
    }
  },
  {
    "service_request": "2025-1225908",
    "request_type": "Trash/Recycling",
    "request_reason": "Request a Large Item Pick Up",
    "date_created": "2025-09-12T13:45:16.000",
    "date_modified": "2025-09-12T13:47:17.000",
    "request_status": "Pending",
    "responsible_agency": "Department of Sanitation",
    "final_address": "4412 S Tonti St",
    "address_councildis": "B",
    "status": "Assigned to Contractor",
    "contractor": "IV Waste",
    "rowid": "1225908",
    "final_x": "3669932.36398",
    "final_y": "528084.450239",
    "longitude": "-90.10471317245715",
    "latitude": "29.9463951990462",
    "geocoded_column": {
      "latitude": "29.9463951990462",
      "longitude": "-90.10471317245715"
    }
  },
  {
    "service_request": "2025-1225907",
    "request_type": "Property Maintenance",
    "request_reason": "Property Maintenance",
    "date_created": "2025-09-12T13:43:08.000",
    "date_modified": "2025-09-12T13:57:43.000",
    "case_close_date": "2025-09-12T08:57:42.000",
    "request_status": "Closed",
    "responsible_agency": "Department of Code Enforcement",
    "final_address": "231 S Pierce St",
    "address_councildis": "A",
    "status": "Referred to Code Enforcement",
    "rowid": "1225907",
    "final_x": "3671022.3538",
    "final_y": "537529.297352",
    "longitude": "-90.1009509526006",
    "latitude": "29.972333212200446",
    "geocoded_column": {
      "latitude": "29.972333212200446",
      "longitude": "-90.1009509526006"
    }
  },
  {
    "service_request": "2025-1225906",
    "request_type": "Trash/Recycling",
    "request_reason": "Order Recycling Cart",
    "date_created": "2025-09-12T13:42:23.000",
    "date_modified": "2025-09-12T13:42:25.000",
    "request_status": "Pending",
    "responsible_agency": "Department of Sanitation",
    "final_address": "1221 Marais St",
    "address_councildis": "C",
    "status": "Pending",
    "rowid": "1225906",
    "final_x": "3681790.92604",
    "final_y": "535650.933766",
    "longitude": "-90.06700752684003",
    "latitude": "29.966845503457595",
    "geocoded_column": {
      "latitude": "29.966845503457595",
      "longitude": "-90.06700752684003"
    }
  },
  {
    "service_request": "2025-1225905",
    "request_type": "Property Maintenance",
    "request_reason": "Property Maintenance",
    "date_created": "2025-09-12T13:41:50.000",
    "date_modified": "2025-09-12T13:41:51.000",
    "request_status": "Pending",
    "responsible_agency": "Department of Code Enforcement",
    "final_address": "13301 Chef Menteur Hwy",
    "address_councildis": "E",
    "status": "Pending",
    "rowid": "1225905",
    "final_x": "3725700.88537",
    "final_y": "559802.700125",
    "longitude": "-89.92740612968588",
    "latitude": "30.031845923767623",
    "geocoded_column": {
      "latitude": "30.031845923767623",
      "longitude": "-89.92740612968588"
    }
  },
  {
    "service_request": "2025-1225904",
    "request_type": "Drainage",
    "request_reason": "Catch Basin Not Draining",
    "date_created": "2025-09-12T13:41:43.000",
    "date_modified": "2025-09-12T13:41:44.000",
    "request_status": "Pending",
    "responsible_agency": "Sewerage & Water Board",
    "final_address": "2519 Joseph St",
    "address_councildis": "A",
    "status": "Pending",
    "rowid": "1225904",
    "final_x": "3667618.17588",
    "final_y": "525259.808253",
    "longitude": "-90.11211495500864",
    "latitude": "29.938696372032208",
    "geocoded_column": {
      "latitude": "29.938696372032208",
      "longitude": "-90.11211495500864"
    }
  },
  {
    "service_request": "2025-1225903",
    "request_type": "Trash/Recycling",
    "request_reason": "Order Trash Cart",
    "date_created": "2025-09-12T13:38:09.000",
    "date_modified": "2025-09-12T13:38:11.000",
    "request_status": "Pending",
    "responsible_agency": "Department of Sanitation",
    "final_address": "2709 Comet St",
    "address_councildis": "C",
    "status": "Assigned to Contractor",
    "contractor": "Richards Disposal",
    "rowid": "1225903",
    "final_x": "3699773.67383",
    "final_y": "520982.308217",
    "longitude": "-90.01075306891516",
    "latitude": "29.925953225480917",
    "geocoded_column": {
      "latitude": "29.925953225480917",
      "longitude": "-90.01075306891516"
    }
  },
  {
    "service_request": "2025-1225902",
    "request_type": "Street and Traffic Signs",
    "request_reason": "Disabled Parking Sign Missing or Damaged",
    "date_created": "2025-09-12T13:37:54.000",
    "date_modified": "2025-09-12T13:37:56.000",
    "request_status": "Pending",
    "responsible_agency": "Department of Public Works",
    "final_address": "4132 Willow St",
    "address_councildis": "B",
    "status": "Pending",
    "rowid": "1225902",
    "final_x": "3671330.94644",
    "final_y": "525484.554493",
    "longitude": "-90.10038567318367",
    "latitude": "29.93920502428152",
    "geocoded_column": {
      "latitude": "29.93920502428152",
      "longitude": "-90.10038567318367"
    }
  },
  {
    "service_request": "2025-1225901",
    "request_type": "Streetlights",
    "request_reason": "Streetlight Outage/Malfunction",
    "date_created": "2025-09-12T13:34:22.000",
    "date_modified": "2025-09-12T13:34:24.000",
    "request_status": "Pending",
    "responsible_agency": "Department of Public Works",
    "final_address": "4659 Perelli Dr",
    "address_councildis": "E",
    "status": "Pending",
    "rowid": "1225901",
    "final_x": "3711838.126",
    "final_y": "555607.961177",
    "longitude": "-89.9713703558933",
    "latitude": "30.02077245464532",
    "geocoded_column": {
      "latitude": "30.02077245464532",
      "longitude": "-89.9713703558933"
    }
  },
  {
    "service_request": "2025-1225900",
    "request_type": "Trash/Recycling",
    "request_reason": "Request a Large Item Pick Up",
    "date_created": "2025-09-12T13:33:32.000",
    "date_modified": "2025-09-12T13:33:34.000",
    "request_status": "Pending",
    "responsible_agency": "Department of Sanitation",
    "final_address": "10240 Brookfield Dr",
    "address_councildis": "E",
    "status": "Assigned to Contractor",
    "contractor": "Waste Pro",
    "rowid": "1225900",
    "final_x": "3710377.23077",
    "final_y": "563042.336096",
    "longitude": "-89.97570799013343",
    "latitude": "30.041261709972005",
    "geocoded_column": {
      "latitude": "30.041261709972005",
      "longitude": "-89.97570799013343"
    }
  },
  {
    "service_request": "2025-1225899",
    "request_type": "Abandoned Vehicles",
    "request_reason": "Abandoned/Junk Vehicles",
    "date_created": "2025-09-12T13:23:12.000",
    "date_modified": "2025-09-12T13:24:08.000",
    "request_status": "Pending",
    "responsible_agency": "Department of Public Works",
    "final_address": "5858 Milne Blvd",
    "address_councildis": "A",
    "status": "Inspected",
    "rowid": "1225899",
    "final_x": "3666902.94932",
    "final_y": "546939.287569",
    "longitude": "-90.1136444535481",
    "latitude": "29.99832867734629",
    "geocoded_column": {
      "latitude": "29.99832867734629",
      "longitude": "-90.1136444535481"
    }
  },
  {
    "service_request": "2025-1225898",
    "request_type": "Trash/Recycling",
    "request_reason": "Request a Large Item Pick Up",
    "date_created": "2025-09-12T13:11:38.000",
    "date_modified": "2025-09-12T13:11:40.000",
    "request_status": "Pending",
    "responsible_agency": "Department of Sanitation",
    "final_address": "3042 Boyd St",
    "address_councildis": "C",
    "status": "Assigned to Contractor",
    "contractor": "Richards Disposal",
    "rowid": "1225898",
    "final_x": "3708145.29016",
    "final_y": "519335.053879",
    "longitude": "-89.98438779732439",
    "latitude": "29.921155501175047",
    "geocoded_column": {
      "latitude": "29.921155501175047",
      "longitude": "-89.98438779732439"
    }
  },
  {
    "service_request": "2025-1225897",
    "request_type": "Drainage",
    "request_reason": "Catch Basin Not Draining",
    "date_created": "2025-09-12T13:11:03.000",
    "date_modified": "2025-09-12T13:11:05.000",
    "request_status": "Pending",
    "responsible_agency": "Sewerage & Water Board",
    "final_address": "8711 Oleander St",
    "address_councildis": "A",
    "status": "Pending",
    "rowid": "1225897",
    "final_x": "3665159.71053",
    "final_y": "535182.703878",
    "longitude": "-90.11954477461902",
    "latitude": "29.966052932441592",
    "geocoded_column": {
      "latitude": "29.966052932441592",
      "longitude": "-90.11954477461902"
    }
  },
  {
    "service_request": "2025-1225896",
    "request_type": "Trash/Recycling",
    "request_reason": "Return Trash Cart",
    "date_created": "2025-09-12T13:10:38.000",
    "date_modified": "2025-09-12T13:10:39.000",
    "request_status": "Pending",
    "responsible_agency": "Department of Sanitation",
    "final_address": "7131 Lake Barrington Dr",
    "address_councildis": "E",
    "status": "Assigned to Contractor",
    "contractor": "Waste Pro",
    "rowid": "1225896",
    "final_x": "3712435.92421",
    "final_y": "564236.362977",
    "longitude": "-89.96915692857465",
    "latitude": "30.044477573672697",
    "geocoded_column": {
      "latitude": "30.044477573672697",
      "longitude": "-89.96915692857465"
    }
  },
  {
    "service_request": "2025-1225895",
    "request_type": "Trash/Recycling",
    "request_reason": "Request a Large Item Pick Up",
    "date_created": "2025-09-12T13:08:19.000",
    "date_modified": "2025-09-12T13:08:21.000",
    "request_status": "Pending",
    "responsible_agency": "Department of Sanitation",
    "final_address": "613 Aurora Oaks Dr",
    "address_councildis": "C",
    "status": "Assigned to Contractor",
    "contractor": "Richards Disposal",
    "rowid": "1225895",
    "final_x": "3701238.34449",
    "final_y": "520720.470649",
    "longitude": "-90.0061391403518",
    "latitude": "29.925186695662415",
    "geocoded_column": {
      "latitude": "29.925186695662415",
      "longitude": "-90.0061391403518"
    }
  },
  {
    "service_request": "2025-1225894",
    "request_type": "Trash/Recycling",
    "request_reason": "Replace Trash Cart",
    "date_created": "2025-09-12T13:05:56.000",
    "date_modified": "2025-09-12T13:05:58.000",
    "request_status": "Pending",
    "responsible_agency": "Department of Sanitation",
    "final_address": "3317 Magazine St",
    "address_councildis": "B",
    "status": "Assigned to Contractor",
    "contractor": "IV Waste",
    "rowid": "1225894",
    "final_x": "3675193.07995",
    "final_y": "519773.305528",
    "longitude": "-90.08838832832632",
    "latitude": "29.923386110650632",
    "geocoded_column": {
      "latitude": "29.923386110650632",
      "longitude": "-90.08838832832632"
    }
  },
  {
    "service_request": "2025-1225893",
    "request_type": "Trash/Recycling",
    "request_reason": "Request a Large Item Pick Up",
    "date_created": "2025-09-12T13:04:47.000",
    "date_modified": "2025-09-12T13:04:50.000",
    "request_status": "Pending",
    "responsible_agency": "Department of Sanitation",
    "final_address": "146 26Th St",
    "address_councildis": "A",
    "status": "Assigned to Contractor",
    "contractor": "IV Waste",
    "rowid": "1225893",
    "final_x": "3665777.15104",
    "final_y": "549852.585876",
    "longitude": "-90.11710317511744",
    "latitude": "30.006372144945683",
    "geocoded_column": {
      "latitude": "30.006372144945683",
      "longitude": "-90.11710317511744"
    }
  },
  {
    "service_request": "2025-1225892",
    "request_type": "Trash/Recycling",
    "request_reason": "Replace Trash Cart",
    "date_created": "2025-09-12T13:04:45.000",
    "date_modified": "2025-09-12T13:04:47.000",
    "request_status": "Pending",
    "responsible_agency": "Department of Sanitation",
    "final_address": "3008 Boyd St",
    "address_councildis": "C",
    "status": "Assigned to Contractor",
    "contractor": "Richards Disposal",
    "rowid": "1225892",
    "final_x": "3708170.63249",
    "final_y": "519559.250423",
    "longitude": "-89.98429947181255",
    "latitude": "29.921771142928506",
    "geocoded_column": {
      "latitude": "29.921771142928506",
      "longitude": "-89.98429947181255"
    }
  },
  {
    "service_request": "2025-1225891",
    "request_type": "Trash/Recycling",
    "request_reason": "Missed Trash Pick-Up",
    "date_created": "2025-09-12T13:02:34.000",
    "date_modified": "2025-09-12T13:02:36.000",
    "request_status": "Pending",
    "responsible_agency": "Department of Sanitation",
    "final_address": "7321 Crestmont Rd",
    "address_councildis": "E",
    "status": "Assigned to Contractor",
    "contractor": "Waste Pro",
    "rowid": "1225891",
    "final_x": "3700066.34589",
    "final_y": "559466.781341",
    "longitude": "-90.00842450561441",
    "latitude": "30.031762204692928",
    "geocoded_column": {
      "latitude": "30.031762204692928",
      "longitude": "-90.00842450561441"
    }
  },
  {
    "service_request": "2025-1225890",
    "request_type": "Trash/Recycling",
    "request_reason": "Request a Large Item Pick Up",
    "date_created": "2025-09-12T12:56:46.000",
    "date_modified": "2025-09-12T12:56:48.000",
    "request_status": "Pending",
    "responsible_agency": "Department of Sanitation",
    "final_address": "7814 Lafourche St",
    "address_councildis": "E",
    "status": "Assigned to Contractor",
    "contractor": "Waste Pro",
    "rowid": "1225890",
    "final_x": "3709768.87992",
    "final_y": "566180.766499",
    "longitude": "-89.97751321552639",
    "latitude": "30.04991093829064",
    "geocoded_column": {
      "latitude": "30.04991093829064",
      "longitude": "-89.97751321552639"
    }
  },
  {
    "service_request": "2025-1225889",
    "request_type": "Trash/Recycling",
    "request_reason": "Request a Large Item Pick Up",
    "date_created": "2025-09-12T12:56:34.000",
    "date_modified": "2025-09-12T12:56:38.000",
    "request_status": "Pending",
    "responsible_agency": "Department of Sanitation",
    "final_address": "626 Seguin St",
    "address_councildis": "C",
    "status": "Assigned to Contractor",
    "contractor": "Richards Disposal",
    "rowid": "1225889",
    "final_x": "3686804.23042",
    "final_y": "529494.935169",
    "longitude": "-90.05139304994734",
    "latitude": "29.94976533292116",
    "geocoded_column": {
      "latitude": "29.94976533292116",
      "longitude": "-90.05139304994734"
    }
  },
  {
    "service_request": "2025-1225888",
    "request_type": "Drainage",
    "request_reason": "Illegal Dumping (Sewer Odor)",
    "date_created": "2025-09-12T12:52:32.000",
    "date_modified": "2025-09-12T12:52:34.000",
    "request_status": "Pending",
    "responsible_agency": "Sewerage & Water Board",
    "final_address": "1625 Erie St",
    "address_councildis": "C",
    "status": "Pending",
    "rowid": "1225888",
    "final_x": "3690158.70249",
    "final_y": "522225.375802",
    "longitude": "-90.04106034478465",
    "latitude": "29.929672901055564",
    "geocoded_column": {
      "latitude": "29.929672901055564",
      "longitude": "-90.04106034478465"
    }
  },
  {
    "service_request": "2025-1225887",
    "request_type": "Trash/Recycling",
    "request_reason": "Request a Large Item Pick Up",
    "date_created": "2025-09-12T12:42:11.000",
    "date_modified": "2025-09-12T12:42:12.000",
    "request_status": "Pending",
    "responsible_agency": "Department of Sanitation",
    "final_address": "1215 Ursulines Ave",
    "address_councildis": "C",
    "status": "Assigned to Contractor",
    "contractor": "IV Waste",
    "rowid": "1225887",
    "final_x": "3681850.69416",
    "final_y": "534906.35239",
    "longitude": "-90.0668447690184",
    "latitude": "29.964796343985576",
    "geocoded_column": {
      "latitude": "29.964796343985576",
      "longitude": "-90.0668447690184"
    }
  },
  {
    "service_request": "2025-1225886",
    "request_type": "Trash/Recycling",
    "request_reason": "Illegal Dumping",
    "date_created": "2025-09-12T12:40:53.000",
    "date_modified": "2025-09-12T12:40:55.000",
    "request_status": "Pending",
    "responsible_agency": "Department of Sanitation",
    "final_address": "3210 St Thomas St",
    "address_councildis": "B",
    "status": "Pending",
    "rowid": "1225886",
    "final_x": "3676554.10702",
    "final_y": "518295.685878",
    "longitude": "-90.08414292372474",
    "latitude": "29.919282402142905",
    "geocoded_column": {
      "latitude": "29.919282402142905",
      "longitude": "-90.08414292372474"
    }
  },
  {
    "service_request": "2025-1225885",
    "request_type": "Trash/Recycling",
    "request_reason": "Missed Trash Pick-Up",
    "date_created": "2025-09-12T12:39:55.000",
    "date_modified": "2025-09-12T12:39:57.000",
    "request_status": "Pending",
    "responsible_agency": "Department of Sanitation",
    "final_address": "7325 Malvern Dr",
    "address_councildis": "E",
    "status": "Assigned to Contractor",
    "contractor": "Waste Pro",
    "rowid": "1225885",
    "final_x": "3702870.02225",
    "final_y": "560814.293854",
    "longitude": "-89.99951523209411",
    "latitude": "30.03537790256463",
    "geocoded_column": {
      "latitude": "30.03537790256463",
      "longitude": "-89.99951523209411"
    }
  },
  {
    "service_request": "2025-1225884",
    "request_type": "Trash/Recycling",
    "request_reason": "Repair Trash Cart",
    "date_created": "2025-09-12T12:33:33.000",
    "date_modified": "2025-09-12T12:33:35.000",
    "request_status": "Pending",
    "responsible_agency": "Department of Sanitation",
    "final_address": "2437 Orleans Ave",
    "address_councildis": "D",
    "status": "Assigned to Contractor",
    "contractor": "IV Waste",
    "rowid": "1225884",
    "final_x": "3677680.99938",
    "final_y": "536420.847815",
    "longitude": "-90.07996008170355",
    "latitude": "29.96908675654216",
    "geocoded_column": {
      "latitude": "29.96908675654216",
      "longitude": "-90.07996008170355"
    }
  },
  {
    "service_request": "2025-1225883",
    "request_type": "Trash/Recycling",
    "request_reason": "Request a Large Item Pick Up",
    "date_created": "2025-09-12T12:33:11.000",
    "date_modified": "2025-09-12T12:33:12.000",
    "request_status": "Pending",
    "responsible_agency": "Department of Sanitation",
    "final_address": "1002 St Peter St",
    "address_councildis": "C",
    "status": "Assigned to Contractor",
    "contractor": "IV Waste",
    "rowid": "1225883",
    "final_x": "3681627.67298",
    "final_y": "533099.080708",
    "longitude": "-90.067612098221",
    "latitude": "29.95983374074987",
    "geocoded_column": {
      "latitude": "29.95983374074987",
      "longitude": "-90.067612098221"
    }
  },
  {
    "service_request": "2025-1225882",
    "request_type": "Trash/Recycling",
    "request_reason": "Request a Large Item Pick Up",
    "date_created": "2025-09-12T12:23:23.000",
    "date_modified": "2025-09-12T12:23:26.000",
    "request_status": "Pending",
    "responsible_agency": "Department of Sanitation",
    "final_address": "7531 Expedition Dr",
    "address_councildis": "E",
    "status": "Assigned to Contractor",
    "contractor": "Waste Pro",
    "rowid": "1225882",
    "final_x": "3726242.63744",
    "final_y": "571213.884648",
    "longitude": "-89.92525106167803",
    "latitude": "30.06320362807709",
    "geocoded_column": {
      "latitude": "30.06320362807709",
      "longitude": "-89.92525106167803"
    }
  },
  {
    "service_request": "2025-1225881",
    "request_type": "Trash/Recycling",
    "request_reason": "Replace Trash Cart",
    "date_created": "2025-09-12T12:19:23.000",
    "date_modified": "2025-09-12T12:19:24.000",
    "request_status": "Pending",
    "responsible_agency": "Department of Sanitation",
    "final_address": "8504 Spruce St",
    "address_councildis": "A",
    "status": "Assigned to Contractor",
    "contractor": "IV Waste",
    "rowid": "1225881",
    "final_x": "3662718.50522",
    "final_y": "531427.149251",
    "longitude": "-90.12737889692937",
    "latitude": "29.955797260536603",
    "geocoded_column": {
      "latitude": "29.955797260536603",
      "longitude": "-90.12737889692937"
    }
  },
  {
    "service_request": "2025-1225880",
    "request_type": "Trash/Recycling",
    "request_reason": "Repair Trash Cart",
    "date_created": "2025-09-12T12:17:19.000",
    "date_modified": "2025-09-12T12:17:21.000",
    "request_status": "Pending",
    "responsible_agency": "Department of Sanitation",
    "final_address": "31 Lark St",
    "address_councildis": "D",
    "status": "Assigned to Contractor",
    "contractor": "IV Waste",
    "rowid": "1225880",
    "final_x": "3675726.88264",
    "final_y": "556294.203226",
    "longitude": "-90.0854478170898",
    "latitude": "30.023790141792947",
    "geocoded_column": {
      "latitude": "30.023790141792947",
      "longitude": "-90.0854478170898"
    }
  },
  {
    "service_request": "2025-1225879",
    "request_type": "Property Maintenance",
    "request_reason": "Property Maintenance",
    "date_created": "2025-09-12T12:13:08.000",
    "date_modified": "2025-09-12T13:21:51.000",
    "case_close_date": "2025-09-12T08:21:49.000",
    "request_status": "Closed",
    "responsible_agency": "Department of Code Enforcement",
    "final_address": "7030 Manchester St",
    "address_councildis": "E",
    "status": "Referred to Code Enforcement",
    "rowid": "1225879",
    "final_x": "3699127.05892",
    "final_y": "559963.708253",
    "longitude": "-90.01137456891179",
    "latitude": "30.033158391366563",
    "geocoded_column": {
      "latitude": "30.033158391366563",
      "longitude": "-90.01137456891179"
    }
  },
  {
    "service_request": "2025-1225878",
    "request_type": "Trash/Recycling",
    "request_reason": "Replace Trash Cart",
    "date_created": "2025-09-12T12:08:26.000",
    "date_modified": "2025-09-12T12:08:28.000",
    "request_status": "Pending",
    "responsible_agency": "Department of Sanitation",
    "final_address": "4609 Dryades St",
    "address_councildis": "B",
    "status": "Assigned to Contractor",
    "contractor": "IV Waste",
    "rowid": "1225878",
    "final_x": "3669890.49748",
    "final_y": "521898.685178",
    "longitude": "-90.10505471810245",
    "latitude": "29.929387576832408",
    "geocoded_column": {
      "latitude": "29.929387576832408",
      "longitude": "-90.10505471810245"
    }
  },
  {
    "service_request": "2025-1225877",
    "request_type": "Trash/Recycling",
    "request_reason": "Order Recycling Cart",
    "date_created": "2025-09-12T12:06:43.000",
    "date_modified": "2025-09-12T12:06:45.000",
    "request_status": "Pending",
    "responsible_agency": "Department of Sanitation",
    "final_address": "237 N Anthony St",
    "address_councildis": "A",
    "status": "Pending",
    "rowid": "1225877",
    "final_x": "3668837.99866",
    "final_y": "540941.987339",
    "longitude": "-90.10773426385384",
    "latitude": "29.981781377002317",
    "geocoded_column": {
      "latitude": "29.981781377002317",
      "longitude": "-90.10773426385384"
    }
  },
  {
    "service_request": "2025-1225876",
    "request_type": "Trash/Recycling",
    "request_reason": "Request a Large Item Pick Up",
    "date_created": "2025-09-12T12:06:11.000",
    "date_modified": "2025-09-12T12:06:12.000",
    "request_status": "Pending",
    "responsible_agency": "Department of Sanitation",
    "final_address": "8015 Sheephead St",
    "address_councildis": "E",
    "status": "Assigned to Contractor",
    "contractor": "Waste Pro",
    "rowid": "1225876",
    "final_x": "3699275.28861",
    "final_y": "561493.154015",
    "longitude": "-90.0108503685756",
    "latitude": "30.037359071420212",
    "geocoded_column": {
      "latitude": "30.037359071420212",
      "longitude": "-90.0108503685756"
    }
  },
  {
    "service_request": "2025-1225875",
    "request_type": "Trash/Recycling",
    "request_reason": "Request a Large Item Pick Up",
    "date_created": "2025-09-12T12:05:56.000",
    "date_modified": "2025-09-12T12:05:58.000",
    "request_status": "Pending",
    "responsible_agency": "Department of Sanitation",
    "final_address": "7936 Sheephead St",
    "address_councildis": "E",
    "status": "Assigned to Contractor",
    "contractor": "Waste Pro",
    "rowid": "1225875",
    "final_x": "3699188.99652",
    "final_y": "561329.171806",
    "longitude": "-90.01112904976806",
    "latitude": "30.036910922225196",
    "geocoded_column": {
      "latitude": "30.036910922225196",
      "longitude": "-90.01112904976806"
    }
  },