[
  {
    "service_request": "2024-1102569",
    "request_type": "Abandoned Vehicles",
    "request_reason": "Abandoned/Junk Vehicles",
    "date_created": "2024-06-11T23:31:47.000",
    "date_modified": "2024-06-11T23:31:47.000",
    "request_status": "Pending",
    "responsible_agency": "Department of Public Works",
    "final_address": "7600 Morel St",
    "address_councildis": "E",
    "status": "Pending",
    "rowid": "1102569",
    "final_x": "3718820.42873",
    "final_y": "571757.216104",
    "longitude": "-89.9486919964376",
    "latitude": "30.06494626114381",
    "geocoded_column": {
      "latitude": "30.06494626114381",
      "longitude": "-89.9486919964376"
    }
  },
  {
    "service_request": "2024-1102568",
    "request_type": "Abandoned Vehicles",
    "request_reason": "Abandoned/Junk Vehicles",
    "date_created": "2024-06-11T23:30:17.000",
    "date_modified": "2024-06-11T23:30:17.000",
    "request_status": "Pending",
    "responsible_agency": "Department of Public Works",
    "final_address": "7600 Morel St",
    "address_councildis": "E",
    "status": "Pending",
    "rowid": "1102568",
    "final_x": "3718820.42873",
    "final_y": "571757.216104",
    "longitude": "-89.9486919964376",
    "latitude": "30.06494626114381",
    "geocoded_column": {
      "latitude": "30.06494626114381",
      "longitude": "-89.9486919964376"
    }
  },
  {
    "service_request": "2024-1102567",
    "request_type": "Traffic Signals/Signs/Striping/Streetlights",
    "request_reason": "Traffic Sign Missing/Damaged",
    "date_created": "2024-06-11T23:06:20.000",
    "date_modified": "2024-06-11T23:06:20.000",
    "request_status": "Pending",
    "responsible_agency": "Department of Public Works",
    "final_address": "900 BLK Andry St",
    "address_councildis": "E",
    "status": "Pending",
    "rowid": "1102567",
    "final_x": "3696998.23195",
    "final_y": "533363.789031",
    "longitude": "-90.01906597622047",
    "latitude": "29.960085788377306",
    "geocoded_column": {
      "latitude": "29.960085788377306",
      "longitude": "-90.01906597622047"
    }
  },
  {
    "service_request": "2024-1102566",
    "request_type": "Trash/Recycling",
    "request_reason": "Request a Large Item Pick Up",
    "date_created": "2024-06-11T23:04:14.000",
    "date_modified": "2024-06-11T23:04:14.000",
    "request_status": "Pending",
    "responsible_agency": "Department of Sanitation",
    "final_address": "5328 Burgundy St",
    "address_councildis": "E",
    "status": "Assigned to Contractor",
    "contractor": "Waste Pro",
    "rowid": "1102566",
    "final_x": "3696830.97219",
    "final_y": "533180.813572",
    "longitude": "-90.01960076829295",
    "latitude": "29.959587944631473",
    "geocoded_column": {
      "latitude": "29.959587944631473",
      "longitude": "-90.01960076829295"
    }
  },
  {
    "service_request": "2024-1102565",
    "request_type": "Trash/Recycling",
    "request_reason": "Replace Trash Cart",
    "date_created": "2024-06-11T22:25:55.000",
    "date_modified": "2024-06-11T22:25:56.000",
    "request_status": "Pending",
    "responsible_agency": "Department of Sanitation",
    "final_address": "3981 Peach Tree Ct",
    "address_councildis": "C",
    "status": "Assigned to Contractor",
    "contractor": "Richards Disposal",
    "rowid": "1102565",
    "final_x": "3703926.3722",
    "final_y": "512989.617521",
    "longitude": "-89.99793836752139",
    "latitude": "29.903843620406008",
    "geocoded_column": {
      "latitude": "29.903843620406008",
      "longitude": "-89.99793836752139"
    }
  },
  {
    "service_request": "2024-1102564",
    "request_type": "Traffic Signals/Signs/Striping/Streetlights",
    "request_reason": "Street Light Outage/Malfunction",
    "date_created": "2024-06-11T22:21:24.000",
    "date_modified": "2024-06-11T22:21:25.000",
    "request_status": "Pending",
    "responsible_agency": "Department of Public Works",
    "final_address": "4035 Octavia St",
    "address_councildis": "B",
    "status": "Assigned to Contractor",
    "contractor": "Legacy Professional Services",
    "rowid": "1102564",
    "final_x": "3669009.61204",
    "final_y": "530286.525761",
    "longitude": "-90.10755225598791",
    "latitude": "29.95247736114578",
    "geocoded_column": {
      "latitude": "29.95247736114578",
      "longitude": "-90.10755225598791"
    }
  },
  {
    "service_request": "2024-1102563",
    "request_type": "Trash/Recycling",
    "request_reason": "Request a Large Item Pick Up",
    "date_created": "2024-06-11T22:21:19.000",
    "date_modified": "2024-06-11T22:21:20.000",
    "request_status": "Pending",
    "responsible_agency": "Department of Sanitation",
    "final_address": "4715 Rhodes Dr",
    "address_councildis": "E",
    "status": "Assigned to Contractor",
    "contractor": "Waste Pro",
    "rowid": "1102563",
    "final_x": "3702603.64113",
    "final_y": "554175.997976",
    "longitude": "-90.00060103259554",
    "latitude": "30.017133677784727",
    "geocoded_column": {
      "latitude": "30.017133677784727",
      "longitude": "-90.00060103259554"
    }
  },
  {
    "service_request": "2024-1102562",
    "request_type": "Traffic Signals/Signs/Striping/Streetlights",
    "request_reason": "Street Light Outage/Malfunction",
    "date_created": "2024-06-11T22:09:04.000",
    "date_modified": "2024-06-11T22:09:04.000",
    "request_status": "Pending",
    "responsible_agency": "Department of Public Works",
    "final_address": "6446 Memphis St",
    "address_councildis": "A",
    "status": "Assigned to Contractor",
    "contractor": "Legacy Professional Services",
    "rowid": "1102562",
    "final_x": "3669385.82126",
    "final_y": "550399.642324",
    "longitude": "-90.10568393153284",
    "latitude": "30.007770543971198",
    "geocoded_column": {
      "latitude": "30.007770543971198",
      "longitude": "-90.10568393153284"
    }
  },
  {
    "service_request": "2024-1102561",
    "request_type": "Traffic Signals/Signs/Striping/Streetlights",
    "request_reason": "Street Light Outage/Malfunction",
    "date_created": "2024-06-11T22:02:50.000",
    "date_modified": "2024-06-11T22:02:50.000",
    "request_status": "Pending",
    "responsible_agency": "Department of Public Works",
    "final_address": "6622 Memphis St",
    "address_councildis": "A",
    "status": "Assigned to Contractor",
    "contractor": "Legacy Professional Services",
    "rowid": "1102561",
    "final_x": "3669486.09742",
    "final_y": "551512.471509",
    "longitude": "-90.10532945006746",
    "latitude": "30.01082747914417",
    "geocoded_column": {
      "latitude": "30.01082747914417",
      "longitude": "-90.10532945006746"
    }
  },
  {
    "service_request": "2024-1102560",
    "request_type": "Traffic Signals/Signs/Striping/Streetlights",
    "request_reason": "Street Light Outage/Malfunction",
    "date_created": "2024-06-11T22:00:37.000",
    "date_modified": "2024-06-11T22:00:37.000",
    "request_status": "Pending",
    "responsible_agency": "Department of Public Works",
    "final_address": "6658 Memphis St",
    "address_councildis": "A",
    "status": "Assigned to Contractor",
    "contractor": "Legacy Professional Services",
    "rowid": "1102560",
    "final_x": "3669508.71591",
    "final_y": "551760.703829",
    "longitude": "-90.10524958364348",
    "latitude": "30.01150936414639",
    "geocoded_column": {
      "latitude": "30.01150936414639",
      "longitude": "-90.10524958364348"
    }
  },
  {
    "service_request": "2024-1102559",
    "request_type": "Traffic Signals/Signs/Striping/Streetlights",
    "request_reason": "Street Light Outage/Malfunction",
    "date_created": "2024-06-11T21:54:48.000",
    "date_modified": "2024-06-11T21:54:49.000",
    "request_status": "Pending",
    "responsible_agency": "Department of Public Works",
    "final_address": "6850 Memphis St",
    "address_councildis": "A",
    "status": "Assigned to Contractor",
    "contractor": "Legacy Professional Services",
    "rowid": "1102559",
    "final_x": "3669622.7819",
    "final_y": "553025.795223",
    "longitude": "-90.1048463486104",
    "latitude": "30.014984557119256",
    "geocoded_column": {
      "latitude": "30.014984557119256",
      "longitude": "-90.1048463486104"
    }
  },
  {
    "service_request": "2024-1102558",
    "request_type": "Traffic Signals/Signs/Striping/Streetlights",
    "request_reason": "Street Light Outage/Malfunction",
    "date_created": "2024-06-11T21:46:00.000",
    "date_modified": "2024-06-11T21:46:00.000",
    "request_status": "Pending",
    "responsible_agency": "Department of Public Works",
    "final_address": "6951 Memphis St",
    "address_councildis": "A",
    "status": "Assigned to Contractor",
    "contractor": "Legacy Professional Services",
    "rowid": "1102558",
    "final_x": "3669866.9419",
    "final_y": "553668.141783",
    "longitude": "-90.10405314424752",
    "latitude": "30.016743582662375",
    "geocoded_column": {
      "latitude": "30.016743582662375",
      "longitude": "-90.10405314424752"
    }
  },
  {
    "service_request": "2024-1102557",
    "request_type": "Traffic Signals/Signs/Striping/Streetlights",
    "request_reason": "Street Light Outage/Malfunction",
    "date_created": "2024-06-11T21:36:50.000",
    "date_modified": "2024-06-11T21:36:50.000",
    "request_status": "Pending",
    "responsible_agency": "Department of Public Works",
    "final_address": "1647 Dufossat St",
    "address_councildis": "B",
    "status": "Assigned to Contractor",
    "contractor": "Legacy Professional Services",
    "rowid": "1102557",
    "final_x": "3668222.78055",
    "final_y": "521624.656825",
    "longitude": "-90.11032864068387",
    "latitude": "29.9286831367378",
    "geocoded_column": {
      "latitude": "29.9286831367378",
      "longitude": "-90.11032864068387"
    }
  },
  {
    "service_request": "2024-1102556",
    "request_type": "Traffic Signals/Signs/Striping/Streetlights",
    "request_reason": "Street Light Outage/Malfunction",
    "date_created": "2024-06-11T21:35:54.000",
    "date_modified": "2024-06-11T21:35:54.000",
    "request_status": "Pending",
    "responsible_agency": "Department of Public Works",
    "final_address": "6650 Memphis St",
    "address_councildis": "A",
    "status": "Assigned to Contractor",
    "contractor": "Legacy Professional Services",
    "rowid": "1102556",
    "final_x": "3669504.17441",
    "final_y": "551711.034069",
    "longitude": "-90.10526561404846",
    "latitude": "30.01137292362441",
    "geocoded_column": {
      "latitude": "30.01137292362441",
      "longitude": "-90.10526561404846"
    }
  },
  {
    "service_request": "2024-1102555",
    "request_type": "Traffic Signals/Signs/Striping/Streetlights",
    "request_reason": "Street Light Outage/Malfunction",
    "date_created": "2024-06-11T21:32:20.000",
    "date_modified": "2024-06-11T21:32:21.000",
    "request_status": "Pending",
    "responsible_agency": "Department of Public Works",
    "final_address": "6558 Memphis St",
    "address_councildis": "A",
    "status": "Assigned to Contractor",
    "contractor": "Legacy Professional Services",
    "rowid": "1102555",
    "final_x": "3669447.6313",
    "final_y": "551100.746581",
    "longitude": "-90.1054649191889",
    "latitude": "30.009696513734298",
    "geocoded_column": {
      "latitude": "30.009696513734298",
      "longitude": "-90.1054649191889"
    }
  },
  {
    "service_request": "2024-1102554",
    "request_type": "Abandoned Vehicles",
    "request_reason": "Abandoned/Junk Vehicles",
    "date_created": "2024-06-11T21:18:31.000",
    "date_modified": "2024-06-11T21:18:31.000",
    "request_status": "Pending",
    "responsible_agency": "Department of Public Works",
    "final_address": "4112 Paris Ave",
    "address_councildis": "D",
    "status": "Pending",
    "rowid": "1102554",
    "final_x": "3679432.50555",
    "final_y": "547451.966993",
    "longitude": "-90.07404584138746",
    "latitude": "29.999365691009064",
    "geocoded_column": {
      "latitude": "29.999365691009064",
      "longitude": "-90.07404584138746"
    }
  },
  {
    "service_request": "2024-1102553",
    "request_type": "Traffic Signals/Signs/Striping/Streetlights",
    "request_reason": "Street Light Outage/Malfunction",
    "date_created": "2024-06-11T21:15:36.000",
    "date_modified": "2024-06-11T21:15:37.000",
    "request_status": "Pending",
    "responsible_agency": "Department of Public Works",
    "final_address": "ROBERT ST & DANNEEL ST",
    "address_councildis": "B",
    "status": "Assigned to Contractor",
    "contractor": "Legacy Professional Services",
    "rowid": "1102553",
    "final_x": "3668756.8",
    "final_y": "522139.78",
    "longitude": "-90.10862546659267",
    "latitude": "29.930083877757287",
    "geocoded_column": {
      "latitude": "29.930083877757287",
      "longitude": "-90.10862546659267"
    }
  },
  {
    "service_request": "2024-1102552",
    "request_type": "Traffic Signals/Signs/Striping/Streetlights",
    "request_reason": "Street Light Outage/Malfunction",
    "date_created": "2024-06-11T21:14:36.000",
    "date_modified": "2024-06-11T21:14:36.000",
    "request_status": "Pending",
    "responsible_agency": "Department of Public Works",
    "final_address": "8001 Hickory St",
    "address_councildis": "A",
    "status": "Assigned to Contractor",
    "contractor": "Legacy Professional Services",
    "rowid": "1102552",
    "final_x": "3663712.68627",
    "final_y": "529687.265409",
    "longitude": "-90.12429757677877",
    "latitude": "29.950984334930467",
    "geocoded_column": {
      "latitude": "29.950984334930467",
      "longitude": "-90.12429757677877"
    }
  },
  {
    "service_request": "2024-1102551",
    "request_type": "Trash/Recycling",
    "request_reason": "Repair Trash Cart",
    "date_created": "2024-06-11T20:55:39.000",
    "date_modified": "2024-06-11T20:55:40.000",
    "request_status": "Pending",
    "responsible_agency": "Department of Sanitation",
    "final_address": "227 S Olympia St",
    "address_councildis": "A",
    "status": "Assigned to Contractor",
    "contractor": "IV Waste",
    "rowid": "1102551",
    "final_x": "3668973.4265",
    "final_y": "539111.710474",
    "longitude": "-90.10736836872894",
    "latitude": "29.976744750752307",
    "geocoded_column": {
      "latitude": "29.976744750752307",
      "longitude": "-90.10736836872894"
    }
  },
  {
    "service_request": "2024-1102550",
    "request_type": "Property Maintenance",
    "request_reason": "Property Maintenance",
    "date_created": "2024-06-11T20:37:26.000",
    "date_modified": "2024-06-11T20:37:26.000",
    "request_status": "Pending",
    "responsible_agency": "Department of Code Enforcement",
    "final_address": "7632 Anne Marie Ct",
    "address_councildis": "E",
    "status": "Pending",
    "rowid": "1102550",
    "final_x": "3717845.56639",
    "final_y": "571185.50916",
    "longitude": "-89.95179539224074",
    "latitude": "30.06340666090678",
    "geocoded_column": {
      "latitude": "30.06340666090678",
      "longitude": "-89.95179539224074"
    }
  },
  {
    "service_request": "2024-1102549",
    "request_type": "Traffic Signals/Signs/Striping/Streetlights",
    "request_reason": "Traffic Sign Missing/Damaged",
    "date_created": "2024-06-11T20:36:11.000",
    "date_modified": "2024-06-11T20:36:11.000",
    "request_status": "Pending",
    "responsible_agency": "Department of Public Works",
    "final_address": "13499 Morrison Rd",
    "address_councildis": "E",
    "status": "Pending",
    "rowid": "1102549",
    "final_x": "3716935.10866",
    "final_y": "569439.455846",
    "longitude": "-89.95473977244595",
    "latitude": "30.0586358913449",
    "geocoded_column": {
      "latitude": "30.0586358913449",
      "longitude": "-89.95473977244595"
    }
  },
  {
    "service_request": "2024-1102548",
    "request_type": "Trash/Recycling",
    "request_reason": "Replace Trash Cart",
    "date_created": "2024-06-11T20:31:58.000",
    "date_modified": "2024-06-11T20:31:59.000",
    "request_status": "Pending",
    "responsible_agency": "Department of Sanitation",
    "final_address": "7807 Jeannette St",
    "address_councildis": "A",
    "status": "Assigned to Contractor",
    "contractor": "IV Waste",
    "rowid": "1102548",
    "final_x": "3663480.69075",
    "final_y": "528466.831488",
    "longitude": "-90.1250707399096",
    "latitude": "29.94763526350596",
    "geocoded_column": {
      "latitude": "29.94763526350596",
      "longitude": "-90.1250707399096"
    }
  },
  {
    "service_request": "2024-1102547",
    "request_type": "Trash/Recycling",
    "request_reason": "Replace Trash Cart",
    "date_created": "2024-06-11T19:55:54.000",
    "date_modified": "2024-06-11T19:55:55.000",
    "request_status": "Pending",
    "responsible_agency": "Department of Sanitation",
    "final_address": "5963 Tchoupitoulas St",
    "address_councildis": "A",
    "status": "Assigned to Contractor",
    "contractor": "IV Waste",
    "rowid": "1102547",
    "final_x": "3664334.21908",
    "final_y": "517508.550006",
    "longitude": "-90.1227413536739",
    "latitude": "29.91747868226124",
    "geocoded_column": {
      "latitude": "29.91747868226124",
      "longitude": "-90.1227413536739"
    }
  },
  {
    "service_request": "2024-1102546",
    "request_type": "Trash/Recycling",
    "request_reason": "Missed Trash Pick-Up",
    "date_created": "2024-06-11T19:53:56.000",
    "date_modified": "2024-06-11T19:53:57.000",
    "request_status": "Pending",
    "responsible_agency": "Department of Sanitation",
    "final_address": "7561 Jahncke Rd",
    "address_councildis": "E",
    "status": "Assigned to Contractor",
    "contractor": "Waste Pro",
    "rowid": "1102546",
    "final_x": "3714423.08107",
    "final_y": "568015.782885",
    "longitude": "-89.96273379680284",
    "latitude": "30.054804237648845",
    "geocoded_column": {
      "latitude": "30.054804237648845",
      "longitude": "-89.96273379680284"
    }
  },
  {
    "service_request": "2024-1102545",
    "request_type": "Trash/Recycling",
    "request_reason": "Order Recycling Cart",
    "date_created": "2024-06-11T19:39:42.000",
    "date_modified": "2024-06-11T19:39:42.000",
    "request_status": "Pending",
    "responsible_agency": "Department of Sanitation",
    "final_address": "3360 Somerset Dr",
    "address_councildis": "C",
    "status": "Pending",
    "rowid": "1102545",
    "final_x": "3702584.68938",
    "final_y": "518747.477559",
    "longitude": "-90.00196155497353",
    "latitude": "29.91971869741165",
    "geocoded_column": {
      "latitude": "29.91971869741165",
      "longitude": "-90.00196155497353"
    }
  },
  {
    "service_request": "2024-1102544",
    "request_type": "Traffic Signals/Signs/Striping/Streetlights",
    "request_reason": "Street Light Outage/Malfunction",
    "date_created": "2024-06-11T19:38:34.000",
    "date_modified": "2024-06-11T19:38:34.000",
    "request_status": "Pending",
    "responsible_agency": "Department of Public Works",
    "final_address": "14511 Tilbury Rd",
    "address_councildis": "E",
    "status": "Assigned to Contractor",
    "contractor": "Legacy Professional Services",
    "rowid": "1102544",
    "final_x": "3720602.98092",
    "final_y": "573049.594985",
    "longitude": "-89.9430076628318",
    "latitude": "30.0684404103012",
    "geocoded_column": {
      "latitude": "30.0684404103012",
      "longitude": "-89.9430076628318"
    }
  },
  {
    "service_request": "2024-1102543",
    "request_type": "Traffic Signals/Signs/Striping/Streetlights",
    "request_reason": "Traffic Sign Missing/Damaged",
    "date_created": "2024-06-11T19:26:36.000",
    "date_modified": "2024-06-11T19:26:36.000",
    "request_status": "Pending",
    "responsible_agency": "Department of Public Works",
    "final_address": "7300 Primrose Dr",
    "address_councildis": "E",
    "status": "Pending",
    "rowid": "1102543",
    "final_x": "3702060.21002",
    "final_y": "560205.039005",
    "longitude": "-90.00209672641239",
    "latitude": "30.033728583982967",
    "geocoded_column": {
      "latitude": "30.033728583982967",
      "longitude": "-90.00209672641239"
    }
  },
  {
    "service_request": "2024-1102542",
    "request_type": "Trash/Recycling",
    "request_reason": "Replace Trash Cart",
    "date_created": "2024-06-11T19:20:04.000",
    "date_modified": "2024-06-11T19:20:05.000",
    "request_status": "Pending",
    "responsible_agency": "Department of Sanitation",
    "final_address": "105 Maumus Ave",
    "address_councildis": "C",
    "status": "Assigned to Contractor",
    "contractor": "Richards Disposal",
    "rowid": "1102542",
    "final_x": "3705704.34686",
    "final_y": "516707.242101",
    "longitude": "-89.99218978842292",
    "latitude": "29.914008717148118",
    "geocoded_column": {
      "latitude": "29.914008717148118",
      "longitude": "-89.99218978842292"
    }
  },
  {
    "service_request": "2024-1102540",
    "request_type": "Trash/Recycling",
    "request_reason": "Replace Trash Cart",
    "date_created": "2024-06-11T19:16:23.000",
    "date_modified": "2024-06-11T19:16:24.000",
    "request_status": "Pending",
    "responsible_agency": "Department of Sanitation",
    "final_address": "4 Monplaiser Pl",
    "address_councildis": "C",
    "status": "Assigned to Contractor",
    "contractor": "Richards Disposal",
    "rowid": "1102540",
    "final_x": "3689112.86019",
    "final_y": "530665.284226",
    "longitude": "-90.0440620902997",
    "latitude": "29.95291216896027",
    "geocoded_column": {
      "latitude": "29.95291216896027",
      "longitude": "-90.0440620902997"
    }
  },
  {
    "service_request": "2024-1102539",
    "request_type": "Trash/Recycling",
    "request_reason": "Request a Large Item Pick Up",
    "date_created": "2024-06-11T19:14:49.000",
    "date_modified": "2024-06-11T19:14:49.000",
    "request_status": "Pending",
    "responsible_agency": "Department of Sanitation",
    "final_address": "4822 Nottingham Dr",
    "address_councildis": "E",
    "status": "Assigned to Contractor",
    "contractor": "Waste Pro",
    "rowid": "1102539",
    "final_x": "3716281.04607",
    "final_y": "557266.235803",
    "longitude": "-89.95726927273842",
    "latitude": "30.025186097226108",
    "geocoded_column": {
      "latitude": "30.025186097226108",
      "longitude": "-89.95726927273842"
    }
  },
  {
    "service_request": "2024-1102538",
    "request_type": "Trash/Recycling",
    "request_reason": "Repair Recycling Cart",
    "date_created": "2024-06-11T19:06:49.000",
    "date_modified": "2024-06-11T19:06:49.000",
    "request_status": "Pending",
    "responsible_agency": "Department of Sanitation",
    "final_address": "1836 Burdette St",
    "address_councildis": "A",
    "status": "Pending",
    "rowid": "1102538",
    "final_x": "3664366.33364",
    "final_y": "529408.889537",
    "longitude": "-90.12224296822077",
    "latitude": "29.950199910671408",
    "geocoded_column": {
      "latitude": "29.950199910671408",
      "longitude": "-90.12224296822077"
    }
  },
  {
    "service_request": "2024-1102537",
    "request_type": "Trash/Recycling",
    "request_reason": "Missed Trash Pick-Up",
    "date_created": "2024-06-11T19:01:56.000",
    "date_modified": "2024-06-11T19:01:57.000",
    "request_status": "Pending",
    "responsible_agency": "Department of Sanitation",
    "final_address": "8300 BLK Pritchard Pl",
    "address_councildis": "A",
    "status": "Assigned to Contractor",
    "contractor": "IV Waste",
    "rowid": "1102537",
    "final_x": "3665397.78925",
    "final_y": "533486.518773",
    "longitude": "-90.11884969917807",
    "latitude": "29.961382044833698",
    "geocoded_column": {
      "latitude": "29.961382044833698",
      "longitude": "-90.11884969917807"
    }
  },
  {
    "service_request": "2024-1102536",
    "request_type": "Roads/Drainage",
    "request_reason": "Street Subsidence (Sinking)",
    "date_created": "2024-06-11T19:01:54.000",
    "date_modified": "2024-06-11T19:01:54.000",
    "request_status": "Pending",
    "responsible_agency": "Department of Public Works",
    "final_address": "2417 Valence St",
    "address_councildis": "B",
    "status": "Pending",
    "rowid": "1102536",
    "final_x": "3669492.12801",
    "final_y": "523744.351995",
    "longitude": "-90.10624990466535",
    "latitude": "29.93447430517518",
    "geocoded_column": {
      "latitude": "29.93447430517518",
      "longitude": "-90.10624990466535"
    }
  },
  {
    "service_request": "2024-1102535",
    "request_type": "Property Maintenance",
    "request_reason": "Property Maintenance",
    "date_created": "2024-06-11T18:57:48.000",
    "date_modified": "2024-06-11T18:57:48.000",
    "request_status": "Pending",
    "responsible_agency": "Department of Code Enforcement",
    "final_address": "4835 Bright Dr",
    "address_councildis": "E",
    "status": "Pending",
    "rowid": "1102535",
    "final_x": "3715859.89215",
    "final_y": "557310.766107",
    "longitude": "-89.95859835086843",
    "latitude": "30.025322437963084",
    "geocoded_column": {
      "latitude": "30.025322437963084",
      "longitude": "-89.95859835086843"
    }
  },
  {
    "service_request": "2024-1102533",
    "request_type": "Trash/Recycling",
    "request_reason": "Replace Trash Cart",
    "date_created": "2024-06-11T18:46:46.000",
    "date_modified": "2024-06-11T18:46:46.000",
    "request_status": "Pending",
    "responsible_agency": "Department of Sanitation",
    "final_address": "3814 Dumaine St",
    "address_councildis": "A",
    "status": "Assigned to Contractor",
    "contractor": "IV Waste",
    "rowid": "1102533",
    "final_x": "3673671.65089",
    "final_y": "540114.235595",
    "longitude": "-90.09249559580684",
    "latitude": "29.97936229759645",
    "geocoded_column": {
      "latitude": "29.97936229759645",
      "longitude": "-90.09249559580684"
    }
  },
  {
    "service_request": "2024-1102531",
    "request_type": "Trash/Recycling",
    "request_reason": "Replace Recycling Cart",
    "date_created": "2024-06-11T18:36:05.000",
    "date_modified": "2024-06-11T18:36:05.000",
    "request_status": "Pending",
    "responsible_agency": "Department of Sanitation",
    "final_address": "8515 Pritchard Pl",
    "address_councildis": "A",
    "status": "Pending",
    "rowid": "1102531",
    "final_x": "3664920.16455",
    "final_y": "533978.022853",
    "longitude": "-90.12034153089475",
    "latitude": "29.962747431012936",
    "geocoded_column": {
      "latitude": "29.962747431012936",
      "longitude": "-90.12034153089475"
    }
  },
  {
    "service_request": "2024-1102530",
    "request_type": "Trash/Recycling",
    "request_reason": "Replace Trash Cart",
    "date_created": "2024-06-11T18:33:21.000",
    "date_modified": "2024-06-11T18:33:22.000",
    "request_status": "Pending",
    "responsible_agency": "Department of Sanitation",
    "final_address": "8515 Pritchard Pl",
    "address_councildis": "A",
    "status": "Assigned to Contractor",
    "contractor": "IV Waste",
    "rowid": "1102530",
    "final_x": "3664920.16455",
    "final_y": "533978.022853",
    "longitude": "-90.12034153089475",
    "latitude": "29.962747431012936",
    "geocoded_column": {
      "latitude": "29.962747431012936",
      "longitude": "-90.12034153089475"
    }
  },
  {
    "service_request": "2024-1102528",
    "request_type": "Trash/Recycling",
    "request_reason": "Request a Large Item Pick Up",
    "date_created": "2024-06-11T18:24:14.000",
    "date_modified": "2024-06-11T18:24:15.000",
    "request_status": "Pending",
    "responsible_agency": "Department of Sanitation",
    "final_address": "1822 Fern St",
    "address_councildis": "A",
    "status": "Assigned to Contractor",
    "contractor": "IV Waste",
    "rowid": "1102528",
    "final_x": "3664053.10016",
    "final_y": "529583.259265",
    "longitude": "-90.12322618423777",
    "latitude": "29.95068847075053",
    "geocoded_column": {
      "latitude": "29.95068847075053",
      "longitude": "-90.12322618423777"
    }
  },
  {
    "service_request": "2024-1102527",
    "request_type": "Trash/Recycling",
    "request_reason": "Repair Trash Cart",
    "date_created": "2024-06-11T18:22:16.000",
    "date_modified": "2024-06-11T18:22:17.000",
    "request_status": "Pending",
    "responsible_agency": "Department of Sanitation",
    "final_address": "2502 Peniston St",
    "address_councildis": "B",
    "status": "Assigned to Contractor",
    "contractor": "IV Waste",
    "rowid": "1102527",
    "final_x": "3672038.04155",
    "final_y": "524257.110972",
    "longitude": "-90.09819505303118",
    "latitude": "29.935809013126164",
    "geocoded_column": {
      "latitude": "29.935809013126164",
      "longitude": "-90.09819505303118"
    }
  },
  {
    "service_request": "2024-1102526",
    "request_type": "Trash/Recycling",
    "request_reason": "Request a Large Item Pick Up",
    "date_created": "2024-06-11T18:05:22.000",
    "date_modified": "2024-06-11T18:05:23.000",
    "request_status": "Pending",
    "responsible_agency": "Department of Sanitation",
    "final_address": "130 Horseshoe Bend",
    "address_councildis": "E",
    "status": "Assigned to Contractor",
    "contractor": "Waste Pro",
    "rowid": "1102526",
    "final_x": "3720124.63052",
    "final_y": "561626.157791",
    "longitude": "-89.9449573675473",
    "latitude": "30.037046641322327",
    "geocoded_column": {
      "latitude": "30.037046641322327",
      "longitude": "-89.9449573675473"
    }
  },
  {
    "service_request": "2024-1102525",
    "request_type": "Trash/Recycling",
    "request_reason": "Request a Large Item Pick Up",
    "date_created": "2024-06-11T17:48:45.000",
    "date_modified": "2024-06-11T17:48:46.000",
    "request_status": "Pending",
    "responsible_agency": "Department of Sanitation",
    "final_address": "7801 Hampson St",
    "address_councildis": "A",
    "status": "Assigned to Contractor",
    "contractor": "IV Waste",
    "rowid": "1102525",
    "final_x": "3661617.67936",
    "final_y": "526404.367998",
    "longitude": "-90.1310213558698",
    "latitude": "29.942018032350934",
    "geocoded_column": {
      "latitude": "29.942018032350934",
      "longitude": "-90.1310213558698"
    }
  },
  {
    "service_request": "2024-1102524",
    "request_type": "Traffic Signals/Signs/Striping/Streetlights",
    "request_reason": "Street Light Outage/Malfunction",
    "date_created": "2024-06-11T17:34:54.000",
    "date_modified": "2024-06-11T17:34:54.000",
    "request_status": "Pending",
    "responsible_agency": "Department of Public Works",
    "final_address": "313 St Charles Ave",
    "address_councildis": "B",
    "status": "Assigned to Contractor",
    "contractor": "Legacy Professional Services",
    "rowid": "1102524",
    "final_x": "3680830.00725",
    "final_y": "529945.320961",
    "longitude": "-90.07024072708761",
    "latitude": "29.95118617279039",
    "geocoded_column": {
      "latitude": "29.95118617279039",
      "longitude": "-90.07024072708761"
    }
  },
  {
    "service_request": "2024-1102523",
    "request_type": "EMS",
    "request_reason": "EMS General",
    "date_created": "2024-06-11T17:31:29.000",
    "date_modified": "2024-06-11T17:31:29.000",
    "request_status": "Pending",
    "responsible_agency": "Emergency Medical Services",
    "final_address": "4002 S Carrollton Ave Apt 105",
    "address_councildis": "A",
    "status": "Pending",
    "rowid": "1102523",
    "final_x": "3669226.54228",
    "final_y": "535863.788423",
    "longitude": "-90.10667876202054",
    "latitude": "29.967806605921577",
    "geocoded_column": {
      "latitude": "29.967806605921577",
      "longitude": "-90.10667876202054"
    }
  },
  {
    "service_request": "2024-1102522",
    "request_type": "Roads/Drainage",
    "request_reason": "Man hole cover issue",
    "date_created": "2024-06-11T17:27:07.000",
    "date_modified": "2024-06-11T17:27:07.000",
    "request_status": "Pending",
    "responsible_agency": "Department of Public Works",
    "final_address": "133 St Charles Ave",
    "address_councildis": "B",
    "status": "Pending",
    "rowid": "1102522",
    "final_x": "3680976.20776",
    "final_y": "530433.485186",
    "longitude": "-90.06976210119763",
    "latitude": "29.952524027578857",
    "geocoded_column": {
      "latitude": "29.952524027578857",
      "longitude": "-90.06976210119763"
    }
  },
  {
    "service_request": "2024-1102521",
    "request_type": "EMS",
    "request_reason": "EMS General",
    "date_created": "2024-06-11T17:26:32.000",
    "date_modified": "2024-06-11T17:26:32.000",
    "request_status": "Pending",
    "responsible_agency": "Emergency Medical Services",
    "final_address": "4002 S Carrollton Ave Apt 106",
    "address_councildis": "A",
    "status": "Pending",
    "rowid": "1102521",
    "final_x": "3669237.27713",
    "final_y": "535857.750023",
    "longitude": "-90.10664506509637",
    "latitude": "29.967789686342638",
    "geocoded_column": {
      "latitude": "29.967789686342638",
      "longitude": "-90.10664506509637"
    }
  },
  {
    "service_request": "2024-1102520",
    "request_type": "Traffic Signals/Signs/Striping/Streetlights",
    "request_reason": "Street Light Outage/Malfunction",
    "date_created": "2024-06-11T17:22:56.000",
    "date_modified": "2024-06-11T17:22:57.000",
    "request_status": "Pending",
    "responsible_agency": "Department of Public Works",
    "final_address": "133 St Charles Ave",
    "address_councildis": "B",
    "status": "Assigned to Contractor",
    "contractor": "Legacy Professional Services",
    "rowid": "1102520",
    "final_x": "3680976.20776",
    "final_y": "530433.485186",
    "longitude": "-90.06976210119763",
    "latitude": "29.952524027578857",
    "geocoded_column": {
      "latitude": "29.952524027578857",
      "longitude": "-90.06976210119763"
    }
  },
  {
    "service_request": "2024-1102519",
    "request_type": "Utility Poles",
    "request_reason": "Utility Pole Leaning",
    "date_created": "2024-06-11T17:15:34.000",
    "date_modified": "2024-06-11T17:15:38.000",
    "request_status": "Pending",
    "responsible_agency": "Utility Company Collective",
    "final_address": "929 Dublin St",
    "address_councildis": "A",
    "status": "Pending",
    "rowid": "1102519",
    "final_x": "3661174.91776",
    "final_y": "527975.670655",
    "longitude": "-90.13236726007574",
    "latitude": "29.946351381695944",
    "geocoded_column": {
      "latitude": "29.946351381695944",
      "longitude": "-90.13236726007574"
    }
  },
  {
    "service_request": "2024-1102518",
    "request_type": "Abandoned Vehicles",
    "request_reason": "Abandoned/Junk Vehicles",
    "date_created": "2024-06-11T17:11:33.000",
    "date_modified": "2024-06-11T17:11:33.000",
    "request_status": "Pending",
    "responsible_agency": "Department of Public Works",
    "final_address": "1000 BLK S Lopez St",
    "address_councildis": "B",
    "status": "Pending",
    "rowid": "1102518",
    "final_x": "3671125.41985",
    "final_y": "532441.682608",
    "longitude": "-90.10079828398307",
    "latitude": "29.958340924186174",
    "geocoded_column": {
      "latitude": "29.958340924186174",
      "longitude": "-90.10079828398307"
    }
  },
  {
    "service_request": "2024-1102517",
    "request_type": "Trash/Recycling",
    "request_reason": "Request a Large Item Pick Up",
    "date_created": "2024-06-11T16:52:40.000",
    "date_modified": "2024-06-11T16:52:40.000",
    "request_status": "Pending",
    "responsible_agency": "Department of Sanitation",
    "final_address": "4521 Walmsley Ave",
    "address_councildis": "B",
    "status": "Assigned to Contractor",
    "contractor": "IV Waste",
    "rowid": "1102517",
    "final_x": "3669190.45799",
    "final_y": "530367.307266",
    "longitude": "-90.10697849521809",
    "latitude": "29.952694162979927",
    "geocoded_column": {
      "latitude": "29.952694162979927",
      "longitude": "-90.10697849521809"
    }
  },
  {
    "service_request": "2024-1102516",
    "request_type": "Trash/Recycling",
    "request_reason": "Request a Large Item Pick Up",
    "date_created": "2024-06-11T16:52:29.000",
    "date_modified": "2024-06-11T16:52:29.000",
    "request_status": "Pending",
    "responsible_agency": "Department of Sanitation",
    "final_address": "4521 Walmsley Ave",
    "address_councildis": "B",
    "status": "Assigned to Contractor",
    "contractor": "IV Waste",
    "rowid": "1102516",
    "final_x": "3669190.45799",
    "final_y": "530367.307266",
    "longitude": "-90.10697849521809",
    "latitude": "29.952694162979927",
    "geocoded_column": {
      "latitude": "29.952694162979927",
      "longitude": "-90.10697849521809"
    }
  },
  {
    "service_request": "2024-1102515",
    "request_type": "Trash/Recycling",
    "request_reason": "Repair Trash Cart",
    "date_created": "2024-06-11T16:52:22.000",
    "date_modified": "2024-06-11T16:52:23.000",
    "request_status": "Pending",
    "responsible_agency": "Department of Sanitation",
    "final_address": "416 Eliza St",
    "address_councildis": "C",
    "status": "Assigned to Contractor",
    "contractor": "Richards Disposal",
    "rowid": "1102515",
    "final_x": "3686740.0598",
    "final_y": "529779.944833",
    "longitude": "-90.05158559913043",
    "latitude": "29.950550986076788",
    "geocoded_column": {
      "latitude": "29.950550986076788",
      "longitude": "-90.05158559913043"
    }
  },
  {
    "service_request": "2024-1102514",
    "request_type": "Trash/Recycling",
    "request_reason": "Replace Trash Cart",
    "date_created": "2024-06-11T16:52:21.000",
    "date_modified": "2024-06-11T16:52:22.000",
    "request_status": "Pending",
    "responsible_agency": "Department of Sanitation",
    "final_address": "543 Pacific Ave",
    "address_councildis": "C",
    "status": "Assigned to Contractor",
    "contractor": "Richards Disposal",
    "rowid": "1102514",
    "final_x": "3688446.08041",
    "final_y": "529537.630657",
    "longitude": "-90.04620747692685",
    "latitude": "29.949832121178336",
    "geocoded_column": {
      "latitude": "29.949832121178336",
      "longitude": "-90.04620747692685"
    }
  },
  {
    "service_request": "2024-1102513",
    "request_type": "Property Maintenance",
    "request_reason": "Property Maintenance",
    "date_created": "2024-06-11T16:48:50.000",
    "date_modified": "2024-06-11T16:48:51.000",
    "request_status": "Pending",
    "responsible_agency": "Department of Code Enforcement",
    "final_address": "13900 Hayne Blvd",
    "address_councildis": "E",
    "status": "Pending",
    "rowid": "1102513",
    "final_x": "3717393.92191",
    "final_y": "572843.408361",
    "longitude": "-89.95315992476364",
    "latitude": "30.06798015606697",
    "geocoded_column": {
      "latitude": "30.06798015606697",
      "longitude": "-89.95315992476364"
    }
  },
  {
    "service_request": "2024-1102512",
    "request_type": "Trash/Recycling",
    "request_reason": "Request a Large Item Pick Up",
    "date_created": "2024-06-11T16:46:55.000",
    "date_modified": "2024-06-11T16:46:55.000",
    "request_status": "Pending",
    "responsible_agency": "Department of Sanitation",
    "final_address": "361 Lowerline St",
    "address_councildis": "A",
    "status": "Assigned to Contractor",
    "contractor": "IV Waste",
    "rowid": "1102512",
    "final_x": "3661690.8496",
    "final_y": "523794.957179",
    "longitude": "-90.13087679605313",
    "latitude": "29.93484086718701",
    "geocoded_column": {
      "latitude": "29.93484086718701",
      "longitude": "-90.13087679605313"
    }
  },
  {
    "service_request": "2024-1102511",
    "request_type": "Trash/Recycling",
    "request_reason": "Repair Recycling Cart",
    "date_created": "2024-06-11T16:41:57.000",
    "date_modified": "2024-06-11T16:41:57.000",
    "request_status": "Pending",
    "responsible_agency": "Department of Sanitation",
    "final_address": "7331 Cranbrook Dr",
    "address_councildis": "E",
    "status": "Pending",
    "rowid": "1102511",
    "final_x": "3713834.21618",
    "final_y": "566007.681187",
    "longitude": "-89.96467086624615",
    "latitude": "30.049302132060895",
    "geocoded_column": {
      "latitude": "30.049302132060895",
      "longitude": "-89.96467086624615"
    }
  },
  {
    "service_request": "2024-1102510",
    "request_type": "Trash/Recycling",
    "request_reason": "Request a Large Item Pick Up",
    "date_created": "2024-06-11T16:37:53.000",
    "date_modified": "2024-06-11T16:37:54.000",
    "request_status": "Pending",
    "responsible_agency": "Department of Sanitation",
    "final_address": "231 N Clark St",
    "address_councildis": "B",
    "status": "Assigned to Contractor",
    "contractor": "IV Waste",
    "rowid": "1102510",
    "final_x": "3673247.80744",
    "final_y": "537572.385352",
    "longitude": "-90.09392110105597",
    "latitude": "29.972385687883314",
    "geocoded_column": {
      "latitude": "29.972385687883314",
      "longitude": "-90.09392110105597"
    }
  },
  {
    "service_request": "2024-1102509",
    "request_type": "Trash/Recycling",
    "request_reason": "Request a Large Item Pick Up",
    "date_created": "2024-06-11T16:35:19.000",
    "date_modified": "2024-06-11T16:35:20.000",
    "request_status": "Pending",
    "responsible_agency": "Department of Sanitation",
    "final_address": "4054 Fairmont Dr",
    "address_councildis": "D",
    "status": "Assigned to Contractor",
    "contractor": "IV Waste",
    "rowid": "1102509",
    "final_x": "3684584.4029",
    "final_y": "547300.264721",
    "longitude": "-90.05777621171484",
    "latitude": "29.998791874033913",
    "geocoded_column": {
      "latitude": "29.998791874033913",
      "longitude": "-90.05777621171484"
    }
  },
  {
    "service_request": "2024-1102508",
    "request_type": "Trash/Recycling",
    "request_reason": "Replace Trash Cart",
    "date_created": "2024-06-11T16:34:19.000",
    "date_modified": "2024-06-11T16:34:20.000",
    "request_status": "Pending",
    "responsible_agency": "Department of Sanitation",
    "final_address": "1923 Evergreen Ave",
    "address_councildis": "C",
    "status": "Assigned to Contractor",
    "contractor": "Richards Disposal",
    "rowid": "1102508",
    "final_x": "3688111.42844",
    "final_y": "524827.798396",
    "longitude": "-90.04743101317054",
    "latitude": "29.936892016333594",
    "geocoded_column": {
      "latitude": "29.936892016333594",
      "longitude": "-90.04743101317054"
    }
  },
  {
    "service_request": "2024-1102507",
    "request_type": "Trash/Recycling",
    "request_reason": "Request a Large Item Pick Up",
    "date_created": "2024-06-11T16:32:55.000",
    "date_modified": "2024-06-11T16:32:55.000",
    "request_status": "Pending",
    "responsible_agency": "Department of Sanitation",
    "final_address": "2583 Valentine Ct",
    "address_councildis": "C",
    "status": "Assigned to Contractor",
    "contractor": "Richards Disposal",
    "rowid": "1102507",
    "final_x": "3699054.20183",
    "final_y": "521632.081785",
    "longitude": "-90.01300058116621",
    "latitude": "29.927762694545066",
    "geocoded_column": {
      "latitude": "29.927762694545066",
      "longitude": "-90.01300058116621"
    }
  },
  {
    "service_request": "2024-1102506",
    "request_type": "Trash/Recycling",
    "request_reason": "Missed Trash Pick-Up",
    "date_created": "2024-06-11T16:29:48.000",
    "date_modified": "2024-06-11T16:29:48.000",
    "request_status": "Pending",
    "responsible_agency": "Department of Sanitation",
    "final_address": "1719 Lark St",
    "address_councildis": "D",
    "status": "Assigned to Contractor",
    "contractor": "IV Waste",
    "rowid": "1102506",
    "final_x": "3678620.13224",
    "final_y": "557842.861147",
    "longitude": "-90.07625203354101",
    "latitude": "30.027961428711603",
    "geocoded_column": {
      "latitude": "30.027961428711603",
      "longitude": "-90.07625203354101"
    }
  },
  {
    "service_request": "2024-1102505",
    "request_type": "Roads/Drainage",
    "request_reason": "Pothole",
    "date_created": "2024-06-11T16:22:28.000",
    "date_modified": "2024-06-11T16:22:28.000",
    "request_status": "Pending",
    "responsible_agency": "Department of Public Works",
    "final_address": "1312 Milan St",
    "address_councildis": "B",
    "status": "Pending",
    "rowid": "1102505",
    "final_x": "3671625.82823",
    "final_y": "520286.919608",
    "longitude": "-90.09963137110304",
    "latitude": "29.92490447494246",
    "geocoded_column": {
      "latitude": "29.92490447494246",
      "longitude": "-90.09963137110304"
    }
  },
  {
    "service_request": "2024-1102504",
    "request_type": "Trash/Recycling",
    "request_reason": "Order Trash Cart",
    "date_created": "2024-06-11T16:21:26.000",
    "date_modified": "2024-06-11T16:21:26.000",
    "request_status": "Pending",
    "responsible_agency": "Department of Sanitation",
    "final_address": "7126 Chef Menteur Hwy",
    "address_councildis": "E",
    "status": "Assigned to Contractor",
    "contractor": "Waste Pro",
    "rowid": "1102504",
    "final_x": "3701262.59754",
    "final_y": "552063.26735",
    "longitude": "-90.00491554329656",
    "latitude": "30.01136729131207",
    "geocoded_column": {
      "latitude": "30.01136729131207",
      "longitude": "-90.00491554329656"
    }
  },
  {
    "service_request": "2024-1102503",
    "request_type": "Trash/Recycling",
    "request_reason": "Request a Large Item Pick Up",
    "date_created": "2024-06-11T16:18:33.000",
    "date_modified": "2024-06-11T16:18:33.000",
    "request_status": "Pending",
    "responsible_agency": "Department of Sanitation",
    "final_address": "1124 N Robertson St",
    "address_councildis": "C",
    "status": "Assigned to Contractor",
    "contractor": "IV Waste",
    "rowid": "1102503",
    "final_x": "3681112.77736",
    "final_y": "535681.666503",
    "longitude": "-90.06914804771814",
    "latitude": "29.96695059799113",
    "geocoded_column": {
      "latitude": "29.96695059799113",
      "longitude": "-90.06914804771814"
    }
  },
  {
    "service_request": "2024-1102502",
    "request_type": "Trash/Recycling",
    "request_reason": "Repair Trash Cart",
    "date_created": "2024-06-11T16:16:20.000",
    "date_modified": "2024-06-11T16:16:21.000",
    "request_status": "Pending",
    "responsible_agency": "Department of Sanitation",
    "final_address": "3930 Palmyra St",
    "address_councildis": "A",
    "status": "Assigned to Contractor",
    "contractor": "IV Waste",
    "rowid": "1102502",
    "final_x": "3671059.70279",
    "final_y": "537247.421704",
    "longitude": "-90.10084257307058",
    "latitude": "29.971557044538482",
    "geocoded_column": {
      "latitude": "29.971557044538482",
      "longitude": "-90.10084257307058"
    }
  },
  {
    "service_request": "2024-1102501",
    "request_type": "Parks & Parkways",
    "request_reason": "Request Tree Service (Right of Way/Public Property)",
    "date_created": "2024-06-11T16:15:17.000",
    "date_modified": "2024-06-11T16:15:18.000",
    "request_status": "Pending",
    "responsible_agency": "Department of Parks & Parkway",
    "final_address": "6220 Stratford Pl",
    "address_councildis": "C",
    "status": "Pending",
    "rowid": "1102501",
    "final_x": "3707077.95505",
    "final_y": "516235.292596",
    "longitude": "-89.98787175992624",
    "latitude": "29.912666740363584",
    "geocoded_column": {
      "latitude": "29.912666740363584",
      "longitude": "-89.98787175992624"
    }
  },
  {
    "service_request": "2024-1102500",
    "request_type": "Trash/Recycling",
    "request_reason": "Order Trash Cart",
    "date_created": "2024-06-11T16:12:48.000",
    "date_modified": "2024-06-11T16:12:48.000",
    "request_status": "Pending",
    "responsible_agency": "Department of Sanitation",
    "final_address": "6238 Wainwright Dr",
    "address_councildis": "D",
    "status": "Assigned to Contractor",
    "contractor": "IV Waste",
    "rowid": "1102500",
    "final_x": "3681284.1293",
    "final_y": "556096.843162",
    "longitude": "-90.06789491438504",
    "latitude": "30.023079890909678",
    "geocoded_column": {
      "latitude": "30.023079890909678",
      "longitude": "-90.06789491438504"
    }
  },
  {
    "service_request": "2024-1102499",
    "request_type": "Trash/Recycling",
    "request_reason": "Request a Large Item Pick Up",
    "date_created": "2024-06-11T16:12:36.000",
    "date_modified": "2024-06-11T16:12:37.000",
    "request_status": "Pending",
    "responsible_agency": "Department of Sanitation",
    "final_address": "5820 Wright Rd",
    "address_councildis": "E",
    "status": "Assigned to Contractor",
    "contractor": "Waste Pro",
    "rowid": "1102499",
    "final_x": "3714037.02047",
    "final_y": "561271.026846",
    "longitude": "-89.96420876710835",
    "latitude": "30.036271584558637",
    "geocoded_column": {
      "latitude": "30.036271584558637",
      "longitude": "-89.96420876710835"
    }
  },
  {
    "service_request": "2024-1102498",
    "request_type": "Roads/Drainage",
    "request_reason": "Street Flooding / Drainage",
    "date_created": "2024-06-11T16:12:11.000",
    "date_modified": "2024-06-11T16:12:11.000",
    "request_status": "Pending",
    "responsible_agency": "Department of Public Works",
    "final_address": "7216 Ransom St",
    "address_councildis": "E",
    "status": "Pending",
    "rowid": "1102498",
    "final_x": "3701968.71005",
    "final_y": "553326.721047",
    "longitude": "-90.00263830375398",
    "latitude": "30.01481878063871",
    "geocoded_column": {
      "latitude": "30.01481878063871",
      "longitude": "-90.00263830375398"
    }
  },
  {
    "service_request": "2024-1102497",
    "request_type": "Trash/Recycling",
    "request_reason": "Request a Large Item Pick Up",
    "date_created": "2024-06-11T16:10:29.000",
    "date_modified": "2024-06-11T16:10:29.000",
    "request_status": "Pending",
    "responsible_agency": "Department of Sanitation",
    "final_address": "3507 Nashville Ave",
    "address_councildis": "A",
    "status": "Assigned to Contractor",
    "contractor": "IV Waste",
    "rowid": "1102497",
    "final_x": "3668279.3778",
    "final_y": "528505.468224",
    "longitude": "-90.10991805566245",
    "latitude": "29.94760149341001",
    "geocoded_column": {
      "latitude": "29.94760149341001",
      "longitude": "-90.10991805566245"
    }
  },
  {
    "service_request": "2024-1102496",
    "request_type": "Trash/Recycling",
    "request_reason": "Request a Large Item Pick Up",
    "date_created": "2024-06-11T16:09:33.000",
    "date_modified": "2024-06-11T16:09:33.000",
    "request_status": "Pending",
    "responsible_agency": "Department of Sanitation",
    "final_address": "6030 Perrier St",
    "address_councildis": "A",
    "status": "Assigned to Contractor",
    "contractor": "IV Waste",
    "rowid": "1102496",
    "final_x": "3664864.0137",
    "final_y": "520542.62348",
    "longitude": "-90.12096775408406",
    "latitude": "29.92580603324055",
    "geocoded_column": {
      "latitude": "29.92580603324055",
      "longitude": "-90.12096775408406"
    }
  },
  {
    "service_request": "2024-1102495",
    "request_type": "Roads/Drainage",
    "request_reason": "Damaged Sidewalk",
    "date_created": "2024-06-11T16:09:03.000",
    "date_modified": "2024-06-11T16:09:03.000",
    "request_status": "Pending",
    "responsible_agency": "Department of Public Works",
    "final_address": "922 Pleasant St",
    "address_councildis": "B",
    "status": "Pending",
    "rowid": "1102495",
    "final_x": "3675759.62862",
    "final_y": "519378.989175",
    "longitude": "-90.08661348812633",
    "latitude": "29.92228492996462",
    "geocoded_column": {
      "latitude": "29.92228492996462",
      "longitude": "-90.08661348812633"
    }
  },
  {
    "service_request": "2024-1102494",
    "request_type": "Roads/Drainage",
    "request_reason": "Pothole",
    "date_created": "2024-06-11T16:07:51.000",
    "date_modified": "2024-06-11T16:07:51.000",
    "request_status": "Pending",
    "responsible_agency": "Department of Public Works",
    "final_address": "500 Clara St",
    "address_councildis": "B",
    "status": "Pending",
    "rowid": "1102494",
    "final_x": "3677430.23963",
    "final_y": "530986.682882",
    "longitude": "-90.08093957244546",
    "latitude": "29.954152179801515",
    "geocoded_column": {
      "latitude": "29.954152179801515",
      "longitude": "-90.08093957244546"
    }
  },
  {
    "service_request": "2024-1102493",
    "request_type": "Trash/Recycling",
    "request_reason": "Order Recycling Cart",
    "date_created": "2024-06-11T16:04:52.000",
    "date_modified": "2024-06-11T16:04:52.000",
    "request_status": "Pending",
    "responsible_agency": "Department of Sanitation",
    "final_address": "5312 Pasteur Blvd",
    "address_councildis": "D",
    "status": "Pending",
    "rowid": "1102493",
    "final_x": "3682861.08412",
    "final_y": "552372.034006",
    "longitude": "-90.06304256859966",
    "latitude": "30.012790047662513",
    "geocoded_column": {
      "latitude": "30.012790047662513",
      "longitude": "-90.06304256859966"
    }
  },
  {
    "service_request": "2024-1102492",
    "request_type": "Trash/Recycling",
    "request_reason": "Repair Trash Cart",
    "date_created": "2024-06-11T16:04:35.000",
    "date_modified": "2024-06-11T16:04:36.000",
    "request_status": "Pending",
    "responsible_agency": "Department of Sanitation",
    "final_address": "5312 Pasteur Blvd",
    "address_councildis": "D",
    "status": "Assigned to Contractor",
    "contractor": "IV Waste",
    "rowid": "1102492",
    "final_x": "3682861.08412",
    "final_y": "552372.034006",
    "longitude": "-90.06304256859966",
    "latitude": "30.012790047662513",
    "geocoded_column": {
      "latitude": "30.012790047662513",
      "longitude": "-90.06304256859966"
    }
  },
  {
    "service_request": "2024-1102491",
    "request_type": "Roads/Drainage",
    "request_reason": "Pothole",
    "date_created": "2024-06-11T16:03:41.000",
    "date_modified": "2024-06-11T16:03:41.000",
    "request_status": "Pending",
    "responsible_agency": "Department of Public Works",
    "final_address": "1709 Poydras St",
    "address_councildis": "B",
    "status": "Pending",
    "rowid": "1102491",
    "final_x": "3677245.28949",
    "final_y": "530911.219266",
    "longitude": "-90.08152617407193",
    "latitude": "29.953950237256482",
    "geocoded_column": {
      "latitude": "29.953950237256482",
      "longitude": "-90.08152617407193"
    }
  },
  {
    "service_request": "2024-1102490",
    "request_type": "Roads/Drainage",
    "request_reason": "Damaged Sidewalk",
    "date_created": "2024-06-11T16:01:40.000",
    "date_modified": "2024-06-11T16:01:40.000",
    "request_status": "Pending",
    "responsible_agency": "Department of Public Works",
    "final_address": "11 Honeysuckle Ln",
    "address_councildis": "E",
    "status": "Pending",
    "rowid": "1102490",
    "final_x": "3713056.1285",
    "final_y": "568190.722469",
    "longitude": "-89.96704780090653",
    "latitude": "30.055330137531605",
    "geocoded_column": {
      "latitude": "30.055330137531605",
      "longitude": "-89.96704780090653"
    }
  },
  {
    "service_request": "2024-1102489",
    "request_type": "Abandoned Vehicles",
    "request_reason": "Abandoned/Junk Vehicles",
    "date_created": "2024-06-11T16:00:02.000",
    "date_modified": "2024-06-11T16:00:02.000",
    "request_status": "Pending",
    "responsible_agency": "Department of Public Works",
    "final_address": "5165 Basinview Dr",
    "address_councildis": "E",
    "status": "Pending",
    "rowid": "1102489",
    "final_x": "3698716.85687",
    "final_y": "556510.910746",
    "longitude": "-90.01279658713617",
    "latitude": "30.023677530379796",
    "geocoded_column": {
      "latitude": "30.023677530379796",
      "longitude": "-90.01279658713617"
    }
  },
  {
    "service_request": "2024-1102488",
    "request_type": "Trash/Recycling",
    "request_reason": "Request a Large Item Pick Up",
    "date_created": "2024-06-11T15:59:39.000",
    "date_modified": "2024-06-11T15:59:39.000",
    "request_status": "Pending",
    "responsible_agency": "Department of Sanitation",
    "final_address": "1621 Crete St",
    "address_councildis": "A",
    "status": "Assigned to Contractor",
    "contractor": "IV Waste",
    "rowid": "1102488",
    "final_x": "3678154.74728",
    "final_y": "540654.689291",
    "longitude": "-90.07831750489657",
    "latitude": "29.980714107192828",
    "geocoded_column": {
      "latitude": "29.980714107192828",
      "longitude": "-90.07831750489657"
    }
  },
  {
    "service_request": "2024-1102487",
    "request_type": "Property Maintenance",
    "request_reason": "Property Maintenance",
    "date_created": "2024-06-11T15:58:55.000",
    "date_modified": "2024-06-11T15:58:56.000",
    "request_status": "Pending",
    "responsible_agency": "Department of Code Enforcement",
    "final_address": "3321 Newton St",
    "address_councildis": "C",
    "status": "Pending",
    "rowid": "1102487",
    "final_x": "3696587.31376",
    "final_y": "527709.535551",
    "longitude": "-90.02056812028265",
    "latitude": "29.94455152773683",
    "geocoded_column": {
      "latitude": "29.94455152773683",
      "longitude": "-90.02056812028265"
    }
  },
  {
    "service_request": "2024-1102486",
    "request_type": "Traffic Signals/Signs/Striping/Streetlights",
    "request_reason": "Street Light Knocked Down/Leaning",
    "date_created": "2024-06-11T15:57:43.000",
    "date_modified": "2024-06-11T15:57:43.000",
    "request_status": "Pending",
    "responsible_agency": "Department of Public Works",
    "final_address": "1555 Poydras St",
    "address_councildis": "B",
    "status": "Pending",
    "contractor": "Legacy Professional Services",
    "rowid": "1102486",
    "final_x": "3677963.7917",
    "final_y": "530354.310466",
    "longitude": "-90.079276682772",
    "latitude": "29.95239732174202",
    "geocoded_column": {
      "latitude": "29.95239732174202",
      "longitude": "-90.079276682772"
    }
  },
  {
    "service_request": "2024-1102485",
    "request_type": "Trash/Recycling",
    "request_reason": "Request a Large Item Pick Up",
    "date_created": "2024-06-11T15:57:14.000",
    "date_modified": "2024-06-11T15:57:14.000",
    "request_status": "Pending",
    "responsible_agency": "Department of Sanitation",
    "final_address": "932 Esplanade Ave",
    "address_councildis": "C",
    "status": "Assigned to Contractor",
    "contractor": "Empire Services",
    "rowid": "1102485",
    "final_x": "3683221.22671",
    "final_y": "534954.574854",
    "longitude": "-90.06251503374615",
    "latitude": "29.964887215099008",
    "geocoded_column": {
      "latitude": "29.964887215099008",
      "longitude": "-90.06251503374615"
    }
  },
  {
    "service_request": "2024-1102484",
    "request_type": "Trash/Recycling",
    "request_reason": "Repair Trash Cart",
    "date_created": "2024-06-11T15:54:35.000",
    "date_modified": "2024-06-11T15:54:36.000",
    "request_status": "Pending",
    "responsible_agency": "Department of Sanitation",
    "final_address": "7340 Fieldston Rd",
    "address_councildis": "E",
    "status": "Assigned to Contractor",
    "contractor": "Waste Pro",
    "rowid": "1102484",
    "final_x": "3700659.04605",
    "final_y": "559858.048221",
    "longitude": "-90.00653723623822",
    "latitude": "30.032819179822038",
    "geocoded_column": {
      "latitude": "30.032819179822038",
      "longitude": "-90.00653723623822"
    }
  },
  {
    "service_request": "2024-1102483",
    "request_type": "Abandoned Vehicles",
    "request_reason": "Abandoned/Junk Vehicles",
    "date_created": "2024-06-11T15:54:05.000",
    "date_modified": "2024-06-11T15:54:05.000",
    "request_status": "Pending",
    "responsible_agency": "Department of Public Works",
    "final_address": "5165 Bayouview Ct",
    "address_councildis": "E",
    "status": "Pending",
    "rowid": "1102483",
    "final_x": "3699247.72202",
    "final_y": "556419.31497",
    "longitude": "-90.0111225102717",
    "latitude": "30.023408844055467",
    "geocoded_column": {
      "latitude": "30.023408844055467",
      "longitude": "-90.0111225102717"
    }
  },
  {
    "service_request": "2024-1102482",
    "request_type": "Healthy Homes",
    "request_reason": "Healthy Homes",
    "date_created": "2024-06-11T15:53:58.000",
    "date_modified": "2024-06-11T15:53:58.000",
    "request_status": "Pending",
    "responsible_agency": "Department of Code Enforcement",
    "final_address": "10151 Curran Rd Apt 107",
    "address_councildis": "E",
    "status": "Pending",
    "rowid": "1102482",
    "final_x": "3708619.31499",
    "final_y": "565360.391522",
    "longitude": "-89.98117712913569",
    "latitude": "30.047692587796565",
    "geocoded_column": {
      "latitude": "30.047692587796565",
      "longitude": "-89.98117712913569"
    }
  },
  {
    "service_request": "2024-1102481",
    "request_type": "Traffic Signals/Signs/Striping/Streetlights",
    "request_reason": "Traffic Sign Missing/Damaged",
    "date_created": "2024-06-11T15:51:14.000",
    "date_modified": "2024-06-11T15:51:14.000",
    "request_status": "Pending",
    "responsible_agency": "Department of Public Works",
    "final_address": "1615 Poydras St",
    "address_councildis": "B",
    "status": "Pending",
    "rowid": "1102481",
    "final_x": "3677744.54139",
    "final_y": "530458.22925",
    "longitude": "-90.0799653859107",
    "latitude": "29.95268965979097",
    "geocoded_column": {
      "latitude": "29.95268965979097",
      "longitude": "-90.0799653859107"
    }
  },
  {
    "service_request": "2024-1102480",
    "request_type": "Trash/Recycling",
    "request_reason": "Request a Large Item Pick Up",
    "date_created": "2024-06-11T15:50:53.000",
    "date_modified": "2024-06-11T15:50:54.000",
    "request_status": "Pending",
    "responsible_agency": "Department of Sanitation",
    "final_address": "4906 Burgundy St",
    "address_councildis": "E",
    "status": "Assigned to Contractor",
    "contractor": "Waste Pro",
    "rowid": "1102480",
    "final_x": "3695244.3928",
    "final_y": "533588.743813",
    "longitude": "-90.02459608256262",
    "latitude": "29.960759531212037",
    "geocoded_column": {
      "latitude": "29.960759531212037",
      "longitude": "-90.02459608256262"
    }
  },
  {
    "service_request": "2024-1102479",
    "request_type": "Trash/Recycling",
    "request_reason": "Repair Trash Cart",
    "date_created": "2024-06-11T15:50:39.000",
    "date_modified": "2024-06-11T15:50:39.000",
    "request_status": "Pending",
    "responsible_agency": "Department of Sanitation",
    "final_address": "6726 Pontchartrain Blvd",
    "address_councildis": "A",
    "status": "Assigned to Contractor",
    "contractor": "IV Waste",
    "rowid": "1102479",
    "final_x": "3666332.94407",
    "final_y": "552880.853207",
    "longitude": "-90.11524557609746",
    "latitude": "30.014682590446675",
    "geocoded_column": {
      "latitude": "30.014682590446675",
      "longitude": "-90.11524557609746"
    }
  },
  {
    "service_request": "2024-1102478",
    "request_type": "Trash/Recycling",
    "request_reason": "Missed Trash Pick-Up",
    "date_created": "2024-06-11T15:47:15.000",
    "date_modified": "2024-06-11T15:47:16.000",
    "request_status": "Pending",
    "responsible_agency": "Department of Sanitation",
    "final_address": "4906 Burgundy St",
    "address_councildis": "E",
    "status": "Assigned to Contractor",
    "contractor": "Waste Pro",
    "rowid": "1102478",
    "final_x": "3695244.3928",
    "final_y": "533588.743813",
    "longitude": "-90.02459608256262",
    "latitude": "29.960759531212037",
    "geocoded_column": {
      "latitude": "29.960759531212037",
      "longitude": "-90.02459608256262"
    }
  },
  {
    "service_request": "2024-1102477",
    "request_type": "Roads/Drainage",
    "request_reason": "Damaged Sidewalk",
    "date_created": "2024-06-11T15:46:14.000",
    "date_modified": "2024-06-11T15:46:14.000",
    "request_status": "Pending",
    "responsible_agency": "Department of Public Works",
    "final_address": "1555 Poydras St",
    "address_councildis": "B",
    "status": "Pending",
    "rowid": "1102477",
    "final_x": "3677963.7917",
    "final_y": "530354.310466",
    "longitude": "-90.079276682772",
    "latitude": "29.95239732174202",
    "geocoded_column": {
      "latitude": "29.95239732174202",
      "longitude": "-90.079276682772"
    }
  },
  {
    "service_request": "2024-1102476",
    "request_type": "Trash/Recycling",
    "request_reason": "Request a Large Item Pick Up",
    "date_created": "2024-06-11T15:40:18.000",
    "date_modified": "2024-06-11T15:40:19.000",
    "request_status": "Pending",
    "responsible_agency": "Department of Sanitation",
    "final_address": "2437 Second St",
    "address_councildis": "B",
    "status": "Assigned to Contractor",
    "contractor": "IV Waste",
    "rowid": "1102476",
    "final_x": "3674970.83669",
    "final_y": "525723.641405",
    "longitude": "-90.08888587387925",
    "latitude": "29.93975423959803",
    "geocoded_column": {
      "latitude": "29.93975423959803",
      "longitude": "-90.08888587387925"
    }
  },
  {
    "service_request": "2024-1102475",
    "request_type": "Trash/Recycling",
    "request_reason": "Illegal Dumping",
    "date_created": "2024-06-11T15:40:08.000",
    "date_modified": "2024-06-11T15:40:09.000",
    "request_status": "Pending",
    "responsible_agency": "Department of Sanitation",
    "final_address": "CADIZ ST & LA SALLE ST",
    "address_councildis": "B",
    "status": "Pending",
    "rowid": "1102475",
    "final_x": "3669822.3",
    "final_y": "523620.28",
    "longitude": "-90.10521175524975",
    "latitude": "29.93412342060117",
    "geocoded_column": {
      "latitude": "29.93412342060117",
      "longitude": "-90.10521175524975"
    }
  },
  {
    "service_request": "2024-1102474",
    "request_type": "Property Maintenance",
    "request_reason": "Property Maintenance",
    "date_created": "2024-06-11T15:39:38.000",
    "date_modified": "2024-06-11T15:39:39.000",
    "request_status": "Pending",
    "responsible_agency": "Department of Code Enforcement",
    "final_address": "7527 Vanderkloot Ave",
    "address_councildis": "E",
    "status": "Pending",
    "rowid": "1102474",
    "final_x": "3706108.98635",
    "final_y": "563016.9752",
    "longitude": "-89.98919798844709",
    "latitude": "30.0413303388575",
    "geocoded_column": {
      "latitude": "30.0413303388575",
      "longitude": "-89.98919798844709"
    }
  },
  {
    "service_request": "2024-1102473",
    "request_type": "Roads/Drainage",
    "request_reason": "Pothole",
    "date_created": "2024-06-11T15:33:22.000",
    "date_modified": "2024-06-11T15:33:22.000",
    "request_status": "Pending",
    "responsible_agency": "Department of Public Works",
    "final_address": "4216 Chestnut St",
    "address_councildis": "B",
    "status": "Pending",
    "rowid": "1102473",
    "final_x": "3671574.31393",
    "final_y": "519539.203703",
    "longitude": "-90.09981939416457",
    "latitude": "29.922850019854593",
    "geocoded_column": {
      "latitude": "29.922850019854593",
      "longitude": "-90.09981939416457"
    }
  },
  {
    "service_request": "2024-1102472",
    "request_type": "Traffic Signals/Signs/Striping/Streetlights",
    "request_reason": "Request for Traffic Calming due to Speeding",
    "date_created": "2024-06-11T15:32:34.000",
    "date_modified": "2024-06-11T15:32:34.000",
    "request_status": "Pending",
    "responsible_agency": "Department of Public Works",
    "final_address": "1835 Fats Domino Ave",
    "address_councildis": "E",
    "status": "Pending",
    "rowid": "1102472",
    "final_x": "3698852.13616",
    "final_y": "536641.747847",
    "longitude": "-90.01309251545544",
    "latitude": "29.969040404360292",
    "geocoded_column": {
      "latitude": "29.969040404360292",
      "longitude": "-90.01309251545544"
    }
  },
  {
    "service_request": "2024-1102471",
    "request_type": "Trash/Recycling",
    "request_reason": "Request a Large Item Pick Up",
    "date_created": "2024-06-11T15:32:29.000",
    "date_modified": "2024-06-11T15:32:30.000",
    "request_status": "Pending",
    "responsible_agency": "Department of Sanitation",
    "final_address": "2905 Broadway St",
    "address_councildis": "B",
    "status": "Assigned to Contractor",
    "contractor": "IV Waste",
    "rowid": "1102471",
    "final_x": "3667570.67764",
    "final_y": "531605.235203",
    "longitude": "-90.11205139062442",
    "latitude": "29.956145628462227",
    "geocoded_column": {
      "latitude": "29.956145628462227",
      "longitude": "-90.11205139062442"
    }
  },
  {
    "service_request": "2024-1102470",
    "request_type": "Trash/Recycling",
    "request_reason": "Request a Large Item Pick Up",
    "date_created": "2024-06-11T15:24:28.000",
    "date_modified": "2024-06-11T15:24:29.000",
    "request_status": "Pending",
    "responsible_agency": "Department of Sanitation",
    "final_address": "1943 Port St",
    "address_councildis": "D",
    "status": "Assigned to Contractor",
    "contractor": "IV Waste",
    "rowid": "1102470",
    "final_x": "3688298.99011",
    "final_y": "539705.577738",
    "longitude": "-90.04631130171201",
    "latitude": "29.97779497890893",
    "geocoded_column": {
      "latitude": "29.97779497890893",
      "longitude": "-90.04631130171201"
    }
  },
  {
    "service_request": "2024-1102469",
    "request_type": "Abandoned Vehicles",
    "request_reason": "Abandoned/Junk Vehicles",
    "date_created": "2024-06-11T15:22:41.000",
    "date_modified": "2024-06-11T15:25:29.000",
    "request_status": "Pending",
    "responsible_agency": "Department of Public Works",
    "final_address": "2023 Kerlerec St",
    "address_councildis": "D",
    "status": "Pending",
    "rowid": "1102469",
    "final_x": "3680224.93019",
    "final_y": "537918.762505",
    "longitude": "-90.07187409422669",
    "latitude": "29.973128747433247",
    "geocoded_column": {
      "latitude": "29.973128747433247",
      "longitude": "-90.07187409422669"
    }
  },
  {
    "service_request": "2024-1102468",
    "request_type": "Trash/Recycling",
    "request_reason": "Request a Large Item Pick Up",
    "date_created": "2024-06-11T15:22:27.000",
    "date_modified": "2024-06-11T15:22:27.000",
    "request_status": "Pending",
    "responsible_agency": "Department of Sanitation",
    "final_address": "5000 N Prieur St",
    "address_councildis": "E",
    "status": "Assigned to Contractor",
    "contractor": "Waste Pro",
    "rowid": "1102468",
    "final_x": "3696820.63101",
    "final_y": "537159.73076",
    "longitude": "-90.01948935629362",
    "latitude": "29.97052887698136",
    "geocoded_column": {
      "latitude": "29.97052887698136",
      "longitude": "-90.01948935629362"
    }
  },
  {
    "service_request": "2024-1102467",
    "request_type": "Trash/Recycling",
    "request_reason": "Request a Large Item Pick Up",
    "date_created": "2024-06-11T15:21:10.000",
    "date_modified": "2024-06-11T15:23:08.000",
    "request_status": "Pending",
    "responsible_agency": "Department of Sanitation",
    "final_address": "7334 Cameo St",
    "address_councildis": "D",
    "contractor": "IV Waste",
    "rowid": "1102467",
    "final_x": "3667718.67847",
    "final_y": "555553.056793",
    "longitude": "-90.11077723284939",
    "latitude": "30.021989627782137",
    "geocoded_column": {
      "latitude": "30.021989627782137",
      "longitude": "-90.11077723284939"
    }
  },
  {
    "service_request": "2024-1102466",
    "request_type": "Trash/Recycling",
    "request_reason": "Request a Large Item Pick Up",
    "date_created": "2024-06-11T15:20:05.000",
    "date_modified": "2024-06-11T15:20:05.000",
    "request_status": "Pending",
    "responsible_agency": "Department of Sanitation",
    "final_address": "7922 Devine Ave",
    "address_councildis": "E",
    "status": "Assigned to Contractor",
    "contractor": "Waste Pro",
    "rowid": "1102466",
    "final_x": "3705106.30468",
    "final_y": "563897.813345",
    "longitude": "-89.99233421710983",
    "latitude": "30.04378459788819",
    "geocoded_column": {
      "latitude": "30.04378459788819",
      "longitude": "-89.99233421710983"
    }
  },
  {
    "service_request": "2024-1102465",
    "request_type": "Trash/Recycling",
    "request_reason": "Request a Large Item Pick Up",
    "date_created": "2024-06-11T15:18:52.000",
    "date_modified": "2024-06-11T15:18:53.000",
    "request_status": "Pending",
    "responsible_agency": "Department of Sanitation",
    "final_address": "4812 Charlene Dr",
    "address_councildis": "E",
    "status": "Assigned to Contractor",
    "contractor": "Waste Pro",
    "rowid": "1102465",
    "final_x": "3707789.07569",
    "final_y": "556108.263258",
    "longitude": "-89.98414543906961",
    "latitude": "30.022279802208708",
    "geocoded_column": {
      "latitude": "30.022279802208708",
      "longitude": "-89.98414543906961"
    }
  },
  {
    "service_request": "2024-1102464",
    "request_type": "Trash/Recycling",
    "request_reason": "Replace Trash Cart",
    "date_created": "2024-06-11T15:17:04.000",
    "date_modified": "2024-06-11T15:17:05.000",
    "request_status": "Pending",
    "responsible_agency": "Department of Sanitation",
    "final_address": "4824 Pauger St",
    "address_councildis": "D",
    "status": "Assigned to Contractor",
    "contractor": "IV Waste",
    "rowid": "1102464",
    "final_x": "3682684.65916",
    "final_y": "550390.195284",
    "longitude": "-90.06366935620764",
    "latitude": "30.00734608583197",
    "geocoded_column": {
      "latitude": "30.00734608583197",
      "longitude": "-90.06366935620764"
    }
  },
  {
    "service_request": "2024-1102463",
    "request_type": "Trash/Recycling",
    "request_reason": "Repair Recycling Cart",
    "date_created": "2024-06-11T15:16:08.000",
    "date_modified": "2024-06-11T15:16:08.000",
    "request_status": "Pending",
    "responsible_agency": "Department of Sanitation",
    "final_address": "12410 Hayne Blvd",
    "address_councildis": "E",
    "status": "Pending",
    "rowid": "1102463",
    "final_x": "3713592.44831",
    "final_y": "569722.376038",
    "longitude": "-89.96529481829668",
    "latitude": "30.05952396140663",
    "geocoded_column": {
      "latitude": "30.05952396140663",
      "longitude": "-89.96529481829668"
    }
  },
  {
    "service_request": "2024-1102462",
    "request_type": "Property Maintenance",
    "request_reason": "Property Maintenance",
    "date_created": "2024-06-11T15:15:53.000",
    "date_modified": "2024-06-11T15:22:26.000",
    "case_close_date": "2024-06-11T10:22:26.000",
    "request_status": "Closed",
    "responsible_agency": "Department of Code Enforcement",
    "final_address": "APRICOT ST & MONROE ST",
    "address_councildis": "A",
    "status": "Invalid Request",
    "contractor_action": "Additional information required from resident",
    "rowid": "1102462",
    "final_x": "3664252.7",
    "final_y": "534053.68",
    "longitude": "-90.12244678132879",
    "latitude": "29.962974875087685",
    "geocoded_column": {
      "latitude": "29.962974875087685",
      "longitude": "-90.12244678132879"
    }
  },
  {
    "service_request": "2024-1102461",
    "request_type": "Traffic Signals/Signs/Striping/Streetlights",
    "request_reason": "Disabled Parking Sign ",
    "date_created": "2024-06-11T15:14:03.000",
    "date_modified": "2024-06-11T15:14:04.000",
    "request_status": "Pending",
    "responsible_agency": "Department of Public Works",
    "final_address": "841 St Philip St",
    "address_councildis": "C",
    "status": "Pending",
    "rowid": "1102461",
    "final_x": "3682708.71292",
    "final_y": "533783.935365",
    "longitude": "-90.06417446497971",
    "latitude": "29.961683977653585",
    "geocoded_column": {
      "latitude": "29.961683977653585",
      "longitude": "-90.06417446497971"
    }
  },
  {
    "service_request": "2024-1102460",
    "request_type": "Traffic Signals/Signs/Striping/Streetlights",
    "request_reason": "Street Light Knocked Down/Leaning",
    "date_created": "2024-06-11T15:13:54.000",
    "date_modified": "2024-06-11T15:13:55.000",
    "request_status": "Pending",
    "responsible_agency": "Department of Public Works",
    "final_address": "ST PETER ST & BOURBON ST",
    "address_councildis": "C",
    "status": "Pending",
    "contractor": "Legacy Professional Services",
    "rowid": "1102460",
    "final_x": "3682250.2",
    "final_y": "532663.48",
    "longitude": "-90.06566151625142",
    "latitude": "29.958617064477945",
    "geocoded_column": {
      "latitude": "29.958617064477945",
      "longitude": "-90.06566151625142"
    }
  },
  {
    "service_request": "2024-1102459",
    "request_type": "Traffic Signals/Signs/Striping/Streetlights",
    "request_reason": "Street Light Outage/Malfunction",
    "date_created": "2024-06-11T15:09:21.000",
    "date_modified": "2024-06-11T15:09:21.000",
    "request_status": "Pending",
    "responsible_agency": "Department of Public Works",
    "final_address": "213 Maumus Ave",
    "address_councildis": "C",
    "status": "Assigned to Contractor",
    "contractor": "Legacy Professional Services",
    "rowid": "1102459",
    "final_x": "3706445.12209",
    "final_y": "516688.732469",
    "longitude": "-89.98985236390915",
    "latitude": "29.913933960617474",
    "geocoded_column": {
      "latitude": "29.913933960617474",
      "longitude": "-89.98985236390915"
    }
  },
  {
    "service_request": "2024-1102458",
    "request_type": "Trash/Recycling",
    "request_reason": "Return Trash Cart",
    "date_created": "2024-06-11T15:08:22.000",
    "date_modified": "2024-06-11T15:08:23.000",
    "request_status": "Pending",
    "responsible_agency": "Department of Sanitation",
    "final_address": "2121 Foucher St",
    "address_councildis": "B",
    "status": "Assigned to Contractor",
    "contractor": "IV Waste",
    "rowid": "1102458",
    "final_x": "3672886.90344",
    "final_y": "523140.542523",
    "longitude": "-90.09555325510428",
    "latitude": "29.93271362444143",
    "geocoded_column": {
      "latitude": "29.93271362444143",
      "longitude": "-90.09555325510428"
    }
  },
  {
    "service_request": "2024-1102457",
    "request_type": "Trash/Recycling",
    "request_reason": "Request a Large Item Pick Up",
    "date_created": "2024-06-11T15:07:18.000",
    "date_modified": "2024-06-11T15:07:19.000",
    "request_status": "Pending",
    "responsible_agency": "Department of Sanitation",
    "final_address": "1522 Hillary St",
    "address_councildis": "A",
    "status": "Assigned to Contractor",
    "contractor": "IV Waste",
    "rowid": "1102457",
    "final_x": "3664042.71924",
    "final_y": "528124.974783",
    "longitude": "-90.12330758650158",
    "latitude": "29.94667895973529",
    "geocoded_column": {
      "latitude": "29.94667895973529",
      "longitude": "-90.12330758650158"
    }
  },
  {
    "service_request": "2024-1102456",
    "request_type": "Trash/Recycling",
    "request_reason": "Order Recycling Cart",
    "date_created": "2024-06-11T15:06:38.000",
    "date_modified": "2024-06-11T15:06:39.000",
    "request_status": "Pending",
    "responsible_agency": "Department of Sanitation",
    "final_address": "2619 Dante St",
    "address_councildis": "A",
    "status": "Pending",
    "rowid": "1102456",
    "final_x": "3664958.73402",
    "final_y": "532686.313284",
    "longitude": "-90.12026291689541",
    "latitude": "29.959194530169015",
    "geocoded_column": {
      "latitude": "29.959194530169015",
      "longitude": "-90.12026291689541"
    }
  },
  {
    "service_request": "2024-1102455",
    "request_type": "Trash/Recycling",
    "request_reason": "Order Trash Cart",
    "date_created": "2024-06-11T15:06:21.000",
    "date_modified": "2024-06-11T15:06:22.000",
    "request_status": "Pending",
    "responsible_agency": "Department of Sanitation",
    "final_address": "2619 Dante St",
    "address_councildis": "A",
    "status": "Assigned to Contractor",
    "contractor": "IV Waste",
    "rowid": "1102455",
    "final_x": "3664958.73402",
    "final_y": "532686.313284",
    "longitude": "-90.12026291689541",
    "latitude": "29.959194530169015",
    "geocoded_column": {
      "latitude": "29.959194530169015",
      "longitude": "-90.12026291689541"
    }
  },
  {
    "service_request": "2024-1102454",
    "request_type": "Roads/Drainage",
    "request_reason": "Damaged Sidewalk",
    "date_created": "2024-06-11T15:04:38.000",
    "date_modified": "2024-06-11T15:04:38.000",
    "request_status": "Pending",
    "responsible_agency": "Department of Public Works",
    "final_address": "7220 Chadbourne Dr",
    "address_councildis": "E",
    "status": "Pending",
    "rowid": "1102454",
    "final_x": "3700951.81495",
    "final_y": "557373.310747",
    "longitude": "-90.00570304392102",
    "latitude": "30.02597778727682",
    "geocoded_column": {
      "latitude": "30.02597778727682",
      "longitude": "-90.00570304392102"
    }
  },
  {
    "service_request": "2024-1102453",
    "request_type": "Trash/Recycling",
    "request_reason": "Illegal Dumping",
    "date_created": "2024-06-11T15:03:09.000",
    "date_modified": "2024-06-11T15:03:09.000",
    "request_status": "Pending",
    "responsible_agency": "Department of Sanitation",
    "final_address": "HICKORY ST & ADAMS ST",
    "address_councildis": "A",
    "status": "Pending",
    "rowid": "1102453",
    "final_x": "3664470.4",
    "final_y": "528938.38",
    "longitude": "-90.1219300864036",
    "latitude": "29.9489031365215",
    "geocoded_column": {
      "latitude": "29.9489031365215",
      "longitude": "-90.1219300864036"
    }
  },
  {
    "service_request": "2024-1102452",
    "request_type": "Trash/Recycling",
    "request_reason": "Request a Large Item Pick Up",
    "date_created": "2024-06-11T15:01:57.000",
    "date_modified": "2024-06-11T15:01:58.000",
    "request_status": "Pending",
    "responsible_agency": "Department of Sanitation",
    "final_address": "3828 Franklin Ave",
    "address_councildis": "D",
    "status": "Assigned to Contractor",
    "contractor": "IV Waste",
    "rowid": "1102452",
    "final_x": "3687002.91798",
    "final_y": "547175.779537",
    "longitude": "-90.05014051942359",
    "latitude": "29.998375334169015",
    "geocoded_column": {
      "latitude": "29.998375334169015",
      "longitude": "-90.05014051942359"
    }
  },
  {
    "service_request": "2024-1102451",
    "request_type": "Roads/Drainage",
    "request_reason": "Pothole",
    "date_created": "2024-06-11T15:00:38.000",
    "date_modified": "2024-06-11T15:00:38.000",
    "request_status": "Pending",
    "responsible_agency": "Department of Public Works",
    "final_address": "1301 Gravier St",
    "address_councildis": "B",
    "status": "Pending",
    "rowid": "1102451",
    "final_x": "3678967.79726",
    "final_y": "530922.74093",
    "longitude": "-90.07608679946424",
    "latitude": "29.953930062256113",
    "geocoded_column": {
      "latitude": "29.953930062256113",
      "longitude": "-90.07608679946424"
    }
  },
  {
    "service_request": "2024-1102450",
    "request_type": "Trash/Recycling",
    "request_reason": "Illegal Dumping",
    "date_created": "2024-06-11T14:56:59.000",
    "date_modified": "2024-06-11T14:57:00.000",
    "request_status": "Pending",
    "responsible_agency": "Department of Sanitation",
    "final_address": "10115 Hillwood St",
    "address_councildis": "E",
    "status": "Pending",
    "rowid": "1102450",
    "final_x": "3712895.53202",
    "final_y": "556733.577754",
    "longitude": "-89.96798691921111",
    "latitude": "30.023832855832204",
    "geocoded_column": {
      "latitude": "30.023832855832204",
      "longitude": "-89.96798691921111"
    }
  },
  {
    "service_request": "2024-1102449",
    "request_type": "Roads/Drainage",
    "request_reason": "Unpermitted work in ROW",
    "date_created": "2024-06-11T14:55:22.000",
    "date_modified": "2024-06-11T14:56:33.000",
    "request_status": "Pending",
    "responsible_agency": "Department of Public Works",
    "final_address": "805 Roosevelt Pl",
    "address_councildis": "A",
    "status": "Pending",
    "rowid": "1102449",
    "final_x": "3673511.08276",
    "final_y": "539718.969162",
    "longitude": "-90.09301624771327",
    "latitude": "29.97828023006953",
    "geocoded_column": {
      "latitude": "29.97828023006953",
      "longitude": "-90.09301624771327"
    }
  },
  {
    "service_request": "2024-1102448",
    "request_type": "Traffic Signals/Signs/Striping/Streetlights",
    "request_reason": "Traffic Signal Malfunctioning/Damaged",
    "date_created": "2024-06-11T14:52:57.000",
    "date_modified": "2024-06-11T14:52:57.000",
    "request_status": "Pending",
    "responsible_agency": "Department of Public Works",
    "final_address": "202 S Rampart St",
    "address_councildis": "B",
    "status": "Pending",
    "rowid": "1102448",
    "final_x": "3679703.434",
    "final_y": "530846.130498",
    "longitude": "-90.07376661946898",
    "latitude": "29.953697194691593",
    "geocoded_column": {
      "latitude": "29.953697194691593",
      "longitude": "-90.07376661946898"
    }
  },
  {
    "service_request": "2024-1102447",
    "request_type": "Property Maintenance",
    "request_reason": "Property Maintenance",
    "date_created": "2024-06-11T14:51:42.000",
    "date_modified": "2024-06-11T15:05:09.000",
    "case_close_date": "2024-06-11T10:05:09.000",
    "request_status": "Closed",
    "responsible_agency": "Department of Code Enforcement",
    "final_address": "526 Wagner St",
    "address_councildis": "C",
    "status": "Referred to Code Enforcement",
    "rowid": "1102447",
    "final_x": "3690623.22364",
    "final_y": "529561.023105",
    "longitude": "-90.0393324226902",
    "latitude": "29.94982901728436",
    "geocoded_column": {
      "latitude": "29.94982901728436",
      "longitude": "-90.0393324226902"
    }
  },
  {
    "service_request": "2024-1102446",
    "request_type": "Trash/Recycling",
    "request_reason": "Replace Recycling Cart",
    "date_created": "2024-06-11T14:48:50.000",
    "date_modified": "2024-06-11T14:48:50.000",
    "request_status": "Pending",
    "responsible_agency": "Department of Sanitation",
    "final_address": "900 BLK N Rendon St",
    "address_councildis": "A",
    "status": "Pending",
    "rowid": "1102446",
    "final_x": "3675541.29619",
    "final_y": "539021.854159",
    "longitude": "-90.08662804924809",
    "latitude": "29.976302819847753",
    "geocoded_column": {
      "latitude": "29.976302819847753",
      "longitude": "-90.08662804924809"
    }
  },
  {
    "service_request": "2024-1102445",
    "request_type": "Traffic Signals/Signs/Striping/Streetlights",
    "request_reason": "Request for Stop Sign",
    "date_created": "2024-06-11T14:48:20.000",
    "date_modified": "2024-06-11T14:48:20.000",
    "request_status": "Pending",
    "responsible_agency": "Department of Public Works",
    "final_address": "PLUM ST & BURDETTE ST",
    "address_councildis": "A",
    "status": "Pending",
    "rowid": "1102445",
    "final_x": "3663030.8",
    "final_y": "527875.38",
    "longitude": "-90.12651089614832",
    "latitude": "29.946021998345326",
    "geocoded_column": {
      "latitude": "29.946021998345326",
      "longitude": "-90.12651089614832"
    }
  },
  {
    "service_request": "2024-1102444",
    "request_type": "Trash/Recycling",
    "request_reason": "Request a Large Item Pick Up",
    "date_created": "2024-06-11T14:48:09.000",
    "date_modified": "2024-06-11T14:48:10.000",
    "request_status": "Pending",
    "responsible_agency": "Department of Sanitation",
    "final_address": "1501 N Villere St",
    "address_councildis": "C",
    "status": "Assigned to Contractor",
    "contractor": "IV Waste",
    "rowid": "1102444",
    "final_x": "3682268.27496",
    "final_y": "536807.234824",
    "longitude": "-90.0654596558524",
    "latitude": "29.970010418493665",
    "geocoded_column": {
      "latitude": "29.970010418493665",
      "longitude": "-90.0654596558524"
    }
  },
  {
    "service_request": "2024-1102443",
    "request_type": "Trash/Recycling",
    "request_reason": "Order Trash Cart",
    "date_created": "2024-06-11T14:45:32.000",
    "date_modified": "2024-06-11T14:45:33.000",
    "request_status": "Pending",
    "responsible_agency": "Department of Sanitation",
    "final_address": "2231 Constance St",
    "address_councildis": "B",
    "status": "Assigned to Contractor",
    "contractor": "IV Waste",
    "rowid": "1102443",
    "final_x": "3678842.43906",
    "final_y": "521638.939961",
    "longitude": "-90.07680409168192",
    "latitude": "29.92840646849455",
    "geocoded_column": {
      "latitude": "29.92840646849455",
      "longitude": "-90.07680409168192"
    }
  },
  {
    "service_request": "2024-1102442",
    "request_type": "Abandoned Vehicles",
    "request_reason": "Abandoned/Junk Vehicles",
    "date_created": "2024-06-11T14:45:29.000",
    "date_modified": "2024-06-11T14:47:50.000",
    "request_status": "Pending",
    "responsible_agency": "Department of Public Works",
    "final_address": "6029 Pasteur Blvd",
    "address_councildis": "D",
    "status": "Pending",
    "rowid": "1102442",
    "final_x": "3682843.03471",
    "final_y": "555142.166105",
    "longitude": "-90.06300256504177",
    "latitude": "30.020407449469165",
    "geocoded_column": {
      "latitude": "30.020407449469165",
      "longitude": "-90.06300256504177"
    }
  },
  {
    "service_request": "2024-1102441",
    "request_type": "Trash/Recycling",
    "request_reason": "Request a Large Item Pick Up",
    "date_created": "2024-06-11T14:44:51.000",
    "date_modified": "2024-06-11T14:44:51.000",
    "request_status": "Pending",
    "responsible_agency": "Department of Sanitation",
    "final_address": "11299 Midpoint Dr",
    "address_councildis": "E",
    "status": "Assigned to Contractor",
    "contractor": "Waste Pro",
    "rowid": "1102441",
    "final_x": "3718522.94738",
    "final_y": "559684.433053",
    "longitude": "-89.95009305512761",
    "latitude": "30.031760948250856",
    "geocoded_column": {
      "latitude": "30.031760948250856",
      "longitude": "-89.95009305512761"
    }
  },
  {
    "service_request": "2024-1102440",
    "request_type": "Trash/Recycling",
    "request_reason": "Request a Large Item Pick Up",
    "date_created": "2024-06-11T14:44:11.000",
    "date_modified": "2024-06-11T14:44:12.000",
    "request_status": "Pending",
    "responsible_agency": "Department of Sanitation",
    "final_address": "628 8th St, New Orleans, Louisiana, 70115",
    "status": "Assigned to Contractor",
    "rowid": "1102440",
    "longitude": "0.0",
    "latitude": "0.0",
    "geocoded_column": {
      "latitude": "0.0",
      "longitude": "0.0"
    }
  },
  {
    "service_request": "2024-1102439",
    "request_type": "Trash/Recycling",
    "request_reason": "Order Trash Cart",
    "date_created": "2024-06-11T14:43:33.000",
    "date_modified": "2024-06-11T14:43:34.000",
    "request_status": "Pending",
    "responsible_agency": "Department of Sanitation",
    "final_address": "1409 Jourdan Ave",
    "address_councildis": "E",
    "status": "Assigned to Contractor",
    "contractor": "Waste Pro",
    "rowid": "1102439",
    "final_x": "3695421.30198",
    "final_y": "535714.790023",
    "longitude": "-90.0239607225342",
    "latitude": "29.96659984833802",
    "geocoded_column": {
      "latitude": "29.96659984833802",
      "longitude": "-90.0239607225342"
    }
  },
  {
    "service_request": "2024-1102438",
    "request_type": "Traffic Signals/Signs/Striping/Streetlights",
    "request_reason": "Traffic Sign Missing/Damaged",
    "date_created": "2024-06-11T14:43:19.000",
    "date_modified": "2024-06-11T14:43:20.000",
    "request_status": "Pending",
    "responsible_agency": "Department of Public Works",
    "final_address": "N CLAIBORNE AVE & ARTS ST",
    "address_councildis": "C",
    "status": "Pending",
    "rowid": "1102438",
    "final_x": "3687061.4",
    "final_y": "538322.48",
    "longitude": "-90.05026894403744",
    "latitude": "29.974030110889288",
    "geocoded_column": {
      "latitude": "29.974030110889288",
      "longitude": "-90.05026894403744"
    }
  },
  {
    "service_request": "2024-1102437",
    "request_type": "Trash/Recycling",
    "request_reason": "Order Trash Cart",
    "date_created": "2024-06-11T14:43:10.000",
    "date_modified": "2024-06-11T14:43:11.000",
    "request_status": "Pending",
    "responsible_agency": "Department of Sanitation",
    "final_address": "1407 Jourdan Ave",
    "address_councildis": "E",
    "status": "Assigned to Contractor",
    "contractor": "Waste Pro",
    "rowid": "1102437",
    "final_x": "3695418.49949",
    "final_y": "535703.649799",
    "longitude": "-90.02396997474196",
    "latitude": "29.96656930473556",
    "geocoded_column": {
      "latitude": "29.96656930473556",
      "longitude": "-90.02396997474196"
    }
  },
  {
    "service_request": "2024-1102436",
    "request_type": "Trash/Recycling",
    "request_reason": "Request a Large Item Pick Up",
    "date_created": "2024-06-11T14:42:56.000",
    "date_modified": "2024-06-11T14:42:57.000",
    "request_status": "Pending",
    "responsible_agency": "Department of Sanitation",
    "final_address": "8900 Hayne Blvd",
    "address_councildis": "E",
    "status": "Assigned to Contractor",
    "contractor": "Waste Pro",
    "rowid": "1102436",
    "final_x": "3704527.09758",
    "final_y": "564000.500897",
    "longitude": "-89.9941609566151",
    "latitude": "30.044085573744834",
    "geocoded_column": {
      "latitude": "30.044085573744834",
      "longitude": "-89.9941609566151"
    }
  },
  {
    "service_request": "2024-1102435",
    "request_type": "Traffic Signals/Signs/Striping/Streetlights",
    "request_reason": "Street Light Knocked Down/Leaning",
    "date_created": "2024-06-11T14:42:28.000",
    "date_modified": "2024-06-11T14:42:29.000",
    "request_status": "Pending",
    "responsible_agency": "Department of Public Works",
    "final_address": "1317 Canal St",
    "address_councildis": "C",
    "status": "Pending",
    "contractor": "Legacy Professional Services",
    "rowid": "1102435",
    "final_x": "3679584.47291",
    "final_y": "532029.234947",
    "longitude": "-90.07410119456044",
    "latitude": "29.956953927872995",
    "geocoded_column": {
      "latitude": "29.956953927872995",
      "longitude": "-90.07410119456044"
    }
  },
  {
    "service_request": "2024-1102433",
    "request_type": "Traffic Signals/Signs/Striping/Streetlights",
    "request_reason": "Street Light Outage/Malfunction",
    "date_created": "2024-06-11T14:36:53.000",
    "date_modified": "2024-06-11T14:36:54.000",
    "request_status": "Pending",
    "responsible_agency": "Department of Public Works",
    "final_address": "1826 Fats Domino Ave",
    "address_councildis": "E",
    "status": "Assigned to Contractor",
    "contractor": "Legacy Professional Services",
    "rowid": "1102433",
    "final_x": "3698693.04157",
    "final_y": "536634.158087",
    "longitude": "-90.01359522010313",
    "latitude": "29.969024574653155",
    "geocoded_column": {
      "latitude": "29.969024574653155",
      "longitude": "-90.01359522010313"
    }
  },
  {
    "service_request": "2024-1102432",
    "request_type": "Trash/Recycling",
    "request_reason": "Request a Large Item Pick Up",
    "date_created": "2024-06-11T14:36:03.000",
    "date_modified": "2024-06-11T14:36:04.000",
    "request_status": "Pending",
    "responsible_agency": "Department of Sanitation",
    "final_address": "7831 Sail St",
    "address_councildis": "E",
    "status": "Assigned to Contractor",
    "contractor": "Waste Pro",
    "rowid": "1102432",
    "final_x": "3720089.65695",
    "final_y": "574081.918314",
    "longitude": "-89.94459081871601",
    "latitude": "30.071295979379556",
    "geocoded_column": {
      "latitude": "30.071295979379556",
      "longitude": "-89.94459081871601"
    }
  },
  {
    "service_request": "2024-1102431",
    "request_type": "Roads/Drainage",
    "request_reason": "Accessibility Ramps, Curbs and Sidewalk Repair",
    "date_created": "2024-06-11T14:35:56.000",
    "date_modified": "2024-06-11T14:35:56.000",
    "request_status": "Pending",
    "responsible_agency": "Department of Public Works",
    "final_address": "1800 BLK Fats Domino Ave",
    "address_councildis": "E",
    "status": "Pending",
    "rowid": "1102431",
    "final_x": "3698759.12771",
    "final_y": "536564.953889",
    "longitude": "-90.01338903442968",
    "latitude": "29.96883219487609",
    "geocoded_column": {
      "latitude": "29.96883219487609",
      "longitude": "-90.01338903442968"
    }
  },
  {
    "service_request": "2024-1102430",
    "request_type": "Property Maintenance",
    "request_reason": "Property Maintenance",
    "date_created": "2024-06-11T14:35:45.000",
    "date_modified": "2024-06-11T14:51:35.000",
    "case_close_date": "2024-06-11T09:51:35.000",
    "request_status": "Closed",
    "responsible_agency": "Department of Code Enforcement",
    "final_address": "4766 Camelot Dr",
    "address_councildis": "E",
    "status": "Referred to Code Enforcement",
    "rowid": "1102430",
    "final_x": "3708286.05636",
    "final_y": "555747.611865",
    "longitude": "-89.98258855001272",
    "latitude": "30.0212720517902",
    "geocoded_column": {
      "latitude": "30.0212720517902",
      "longitude": "-89.98258855001272"
    }
  },
  {
    "service_request": "2024-1102429",
    "request_type": "Roads/Drainage",
    "request_reason": "Accessibility Ramps, Curbs and Sidewalk Repair",
    "date_created": "2024-06-11T14:34:49.000",
    "date_modified": "2024-06-11T14:34:49.000",
    "request_status": "Pending",
    "responsible_agency": "Department of Public Works",
    "final_address": "1800 BLK Fats Domino Ave",
    "address_councildis": "E",
    "status": "Pending",
    "rowid": "1102429",
    "final_x": "3698794.99476",
    "final_y": "536556.624509",
    "longitude": "-90.01327606779304",
    "latitude": "29.96880815595364",
    "geocoded_column": {
      "latitude": "29.96880815595364",
      "longitude": "-90.01327606779304"
    }
  },
  {
    "service_request": "2024-1102428",
    "request_type": "Trash/Recycling",
    "request_reason": "Request a Large Item Pick Up",
    "date_created": "2024-06-11T14:34:19.000",
    "date_modified": "2024-06-11T14:34:20.000",
    "request_status": "Pending",
    "responsible_agency": "Department of Sanitation",
    "final_address": "6876 General Diaz St",
    "address_councildis": "A",
    "status": "Assigned to Contractor",
    "contractor": "IV Waste",
    "rowid": "1102428",
    "final_x": "3669992.04641",
    "final_y": "553187.948631",
    "longitude": "-90.10367414750958",
    "latitude": "30.015419530635125",
    "geocoded_column": {
      "latitude": "30.015419530635125",
      "longitude": "-90.10367414750958"
    }
  },