[
  {
    "service_request": "2026-1271103",
    "request_type": "Abandoned Vehicles",
    "request_reason": "Abandoned/Junk Vehicles",
    "date_created": "2026-04-04T23:51:10.000",
    "date_modified": "2026-04-04T23:51:12.000",
    "request_status": "Pending",
    "responsible_agency": "Department of Public Works",
    "final_address": "2016 Seventh St",
    "address_councildis": "B",
    "status": "Pending",
    "rowid": "1271103",
    "final_x": "3674350.60334",
    "final_y": "523387.842683",
    "longitude": "-90.09092400098878",
    "latitude": "29.933350062137272",
    "geocoded_column": {
      "latitude": "29.933350062137272",
      "longitude": "-90.09092400098878"
    }
  },
  {
    "service_request": "2026-1271102",
    "request_type": "Trash/Recycling",
    "request_reason": "Request a Large Item Pick Up",
    "date_created": "2026-04-04T23:13:47.000",
    "date_modified": "2026-04-04T23:13:49.000",
    "request_status": "Pending",
    "responsible_agency": "Department of Sanitation",
    "final_address": "8005 Lehigh St",
    "address_councildis": "E",
    "status": "Assigned to Contractor",
    "contractor": "Waste Pro",
    "rowid": "1271102",
    "final_x": "3709858.87217",
    "final_y": "566870.965796",
    "longitude": "-89.97720296796288",
    "latitude": "30.051805779269852",
    "geocoded_column": {
      "latitude": "30.051805779269852",
      "longitude": "-89.97720296796288"
    }
  },
  {
    "service_request": "2026-1271101",
    "request_type": "Parks & Parkways",
    "request_reason": "Park Maintenance/Clean Up",
    "date_created": "2026-04-04T22:33:36.000",
    "date_modified": "2026-04-04T22:33:38.000",
    "request_status": "Pending",
    "responsible_agency": "Department of Parks & Parkway",
    "final_address": "2503 Ap Tureaud Ave",
    "address_councildis": "D",
    "status": "Pending",
    "rowid": "1271101",
    "final_x": "3681655.93564",
    "final_y": "541266.097612",
    "longitude": "-90.0672378890003",
    "latitude": "29.982289358728462",
    "geocoded_column": {
      "latitude": "29.982289358728462",
      "longitude": "-90.0672378890003"
    }
  },
  {
    "service_request": "2026-1271100",
    "request_type": "Trash/Recycling",
    "request_reason": "Request a Large Item Pick Up",
    "date_created": "2026-04-04T22:20:02.000",
    "date_modified": "2026-04-04T22:20:03.000",
    "request_status": "Pending",
    "responsible_agency": "Department of Sanitation",
    "final_address": "3516 Delachaise St",
    "address_councildis": "B",
    "status": "Assigned to Contractor",
    "contractor": "IV Waste",
    "rowid": "1271100",
    "final_x": "3671305.46139",
    "final_y": "527838.951359",
    "longitude": "-90.10038615089142",
    "latitude": "29.945679602762244",
    "geocoded_column": {
      "latitude": "29.945679602762244",
      "longitude": "-90.10038615089142"
    }
  },
  {
    "service_request": "2026-1271099",
    "request_type": "Business Issues",
    "request_reason": "Illegal Business",
    "date_created": "2026-04-04T22:19:55.000",
    "date_modified": "2026-04-04T22:19:59.000",
    "request_status": "Pending",
    "responsible_agency": "Bureau of Revenue",
    "final_address": "1815 N Derbigny St",
    "address_councildis": "C",
    "status": "Pending",
    "rowid": "1271099",
    "final_x": "3683463.25327",
    "final_y": "538444.289801",
    "longitude": "-90.06162842193527",
    "latitude": "29.974475339905588",
    "geocoded_column": {
      "latitude": "29.974475339905588",
      "longitude": "-90.06162842193527"
    }
  },
  {
    "service_request": "2026-1271098",
    "request_type": "Safety & Permits",
    "request_reason": "Licenses & Permits",
    "date_created": "2026-04-04T21:46:43.000",
    "date_modified": "2026-04-04T21:46:45.000",
    "request_status": "Pending",
    "responsible_agency": "Safety and Permits",
    "final_address": "720 Soraparu St",
    "address_councildis": "B",
    "status": "Pending",
    "rowid": "1271098",
    "final_x": "3679016.42984",
    "final_y": "520573.663224",
    "longitude": "-90.07629173255124",
    "latitude": "29.925472057705953",
    "geocoded_column": {
      "latitude": "29.925472057705953",
      "longitude": "-90.07629173255124"
    }
  },
  {
    "service_request": "2026-1271097",
    "request_type": "Roads and Streets",
    "request_reason": "Pothole",
    "date_created": "2026-04-04T21:28:48.000",
    "date_modified": "2026-04-04T21:28:51.000",
    "request_status": "Pending",
    "responsible_agency": "Department of Public Works",
    "final_address": "738 Toulouse St",
    "address_councildis": "C",
    "status": "Pending",
    "rowid": "1271097",
    "final_x": "3682055.2004",
    "final_y": "532311.350531",
    "longitude": "-90.06628956898791",
    "latitude": "29.957654758842732",
    "geocoded_column": {
      "latitude": "29.957654758842732",
      "longitude": "-90.06628956898791"
    }
  },
  {
    "service_request": "2026-1271096",
    "request_type": "Health Related Request",
    "request_reason": "Noise Ordinance Complaint",
    "date_created": "2026-04-04T20:59:33.000",
    "date_modified": "2026-04-04T20:59:35.000",
    "request_status": "Pending",
    "responsible_agency": "Health Department",
    "final_address": "800 Bourbon St, New Orleans, Louisiana, 70116",
    "address_councildis": "C",
    "status": "Pending",
    "rowid": "1271096",
    "final_x": "3682553.51528",
    "final_y": "533013.631428",
    "longitude": "-90.06469148499534",
    "latitude": "29.95957063099051",
    "geocoded_column": {
      "latitude": "29.95957063099051",
      "longitude": "-90.06469148499534"
    }
  },
  {
    "service_request": "2026-1271095",
    "request_type": "Health Related Request",
    "request_reason": "Noise Ordinance Complaint",
    "date_created": "2026-04-04T20:59:04.000",
    "date_modified": "2026-04-04T20:59:06.000",
    "request_status": "Pending",
    "responsible_agency": "Health Department",
    "final_address": "801 Bourbon St, New Orleans, Louisiana, 70116",
    "address_councildis": "C",
    "status": "Pending",
    "rowid": "1271095",
    "final_x": "3682490.98735",
    "final_y": "533018.672772",
    "longitude": "-90.06488875731978",
    "latitude": "29.959586396383013",
    "geocoded_column": {
      "latitude": "29.959586396383013",
      "longitude": "-90.06488875731978"
    }
  },
  {
    "service_request": "2026-1271094",
    "request_type": "New Orleans Recreation Development Commission (NORDC)",
    "request_reason": "Facilities and Parks Maintenance/Clean Up",
    "date_created": "2026-04-04T20:32:52.000",
    "date_modified": "2026-04-04T20:32:54.000",
    "request_status": "Pending",
    "responsible_agency": "New Orleans Recreation Development Commission",
    "final_address": "913 Napoleon Ave",
    "address_councildis": "B",
    "status": "Pending",
    "rowid": "1271094",
    "final_x": "3671189.70785",
    "final_y": "518989.146167",
    "longitude": "-90.10105212046298",
    "latitude": "29.921348915678774",
    "geocoded_column": {
      "latitude": "29.921348915678774",
      "longitude": "-90.10105212046298"
    }
  },
  {
    "service_request": "2026-1271093",
    "request_type": "Trash/Recycling",
    "request_reason": "Illegal Dumping",
    "date_created": "2026-04-04T20:29:47.000",
    "date_modified": "2026-04-04T20:29:49.000",
    "request_status": "Pending",
    "responsible_agency": "Department of Sanitation",
    "final_address": "1035 L. B. Landry Ave",
    "address_councildis": "C",
    "status": "Pending",
    "rowid": "1271093",
    "final_x": "3690081.51926",
    "final_y": "527574.389823",
    "longitude": "-90.04111356762006",
    "latitude": "29.944383267377486",
    "geocoded_column": {
      "latitude": "29.944383267377486",
      "longitude": "-90.04111356762006"
    }
  },
  {
    "service_request": "2026-1271092",
    "request_type": "Traffic Signals",
    "request_reason": "Traffic Signal Malfunctioning or Damaged",
    "date_created": "2026-04-04T20:15:33.000",
    "date_modified": "2026-04-04T20:15:36.000",
    "request_status": "Pending",
    "responsible_agency": "Department of Public Works",
    "final_address": "1333 Coliseum St",
    "address_councildis": "B",
    "status": "Pending",
    "rowid": "1271092",
    "final_x": "3679981.79944",
    "final_y": "525096.268989",
    "longitude": "-90.07308734169115",
    "latitude": "29.937878580071118",
    "geocoded_column": {
      "latitude": "29.937878580071118",
      "longitude": "-90.07308734169115"
    }
  },
  {
    "service_request": "2026-1271091",
    "request_type": "Health Related Request",
    "request_reason": "Noise Ordinance Complaint",
    "date_created": "2026-04-04T19:12:30.000",
    "date_modified": "2026-04-04T19:12:33.000",
    "request_status": "Pending",
    "responsible_agency": "Health Department",
    "final_address": "2712 S Galvez St",
    "address_councildis": "B",
    "status": "Pending",
    "rowid": "1271091",
    "final_x": "3672433.14049",
    "final_y": "528195.848384",
    "longitude": "-90.09681352917316",
    "latitude": "29.94662753971199",
    "geocoded_column": {
      "latitude": "29.94662753971199",
      "longitude": "-90.09681352917316"
    }
  },
  {
    "service_request": "2026-1271090",
    "request_type": "Abandoned Vehicles",
    "request_reason": "Abandoned/Junk Vehicles",
    "date_created": "2026-04-04T19:06:10.000",
    "date_modified": "2026-04-04T19:06:12.000",
    "request_status": "Pending",
    "responsible_agency": "Department of Public Works",
    "final_address": "2125 Peniston St",
    "address_councildis": "B",
    "status": "Pending",
    "rowid": "1271090",
    "final_x": "3672486.50151",
    "final_y": "523103.378043",
    "longitude": "-90.09681856029567",
    "latitude": "29.93262332119722",
    "geocoded_column": {
      "latitude": "29.93262332119722",
      "longitude": "-90.09681856029567"
    }
  },
  {
    "service_request": "2026-1271089",
    "request_type": "General Services",
    "request_reason": "General Service Request",
    "date_created": "2026-04-04T17:55:35.000",
    "date_modified": "2026-04-04T17:55:39.000",
    "request_status": "Pending",
    "responsible_agency": "Orleans Parish Communication District",
    "final_address": "600 Moss St",
    "address_councildis": "A",
    "status": "Pending",
    "rowid": "1271089",
    "final_x": "3674312.65089",
    "final_y": "538215.115849",
    "longitude": "-90.09053611862858",
    "latitude": "29.974121264641237",
    "geocoded_column": {
      "latitude": "29.974121264641237",
      "longitude": "-90.09053611862858"
    }
  },
  {
    "service_request": "2026-1271088",
    "request_type": "Trash/Recycling",
    "request_reason": "Order Recycling Cart",
    "date_created": "2026-04-04T17:23:34.000",
    "date_modified": "2026-04-04T17:23:37.000",
    "request_status": "Pending",
    "responsible_agency": "Department of Sanitation",
    "final_address": "2020 Coliseum St Unit D",
    "address_councildis": "B",
    "status": "Pending",
    "rowid": "1271088",
    "final_x": "3678721.80693",
    "final_y": "523232.568827",
    "longitude": "-90.07712974836342",
    "latitude": "29.932792062844687",
    "geocoded_column": {
      "latitude": "29.932792062844687",
      "longitude": "-90.07712974836342"
    }
  },
  {
    "service_request": "2026-1271087",
    "request_type": "Trash/Recycling",
    "request_reason": "Request a Large Item Pick Up",
    "date_created": "2026-04-04T16:47:57.000",
    "date_modified": "2026-04-04T16:48:00.000",
    "request_status": "Pending",
    "responsible_agency": "Department of Sanitation",
    "final_address": "6121 West End Blvd",
    "address_councildis": "A",
    "status": "Assigned to Contractor",
    "contractor": "IV Waste",
    "rowid": "1271087",
    "final_x": "3666550.42733",
    "final_y": "548316.676114",
    "longitude": "-90.11471179775694",
    "latitude": "30.00212633406665",
    "geocoded_column": {
      "latitude": "30.00212633406665",
      "longitude": "-90.11471179775694"
    }
  },
  {
    "service_request": "2026-1271086",
    "request_type": "Drainage",
    "request_reason": "Illegal Dumping (Sewer Odor)",
    "date_created": "2026-04-04T16:31:04.000",
    "date_modified": "2026-04-04T16:31:05.000",
    "request_status": "Pending",
    "responsible_agency": "Sewerage & Water Board",
    "final_address": "2408 Valence St",
    "address_councildis": "B",
    "status": "Pending",
    "rowid": "1271086",
    "final_x": "3669397.30945",
    "final_y": "523673.356795",
    "longitude": "-90.10655164498321",
    "latitude": "29.93428188289645",
    "geocoded_column": {
      "latitude": "29.93428188289645",
      "longitude": "-90.10655164498321"
    }
  },
  {
    "service_request": "2026-1271085",
    "request_type": "Roads and Streets",
    "request_reason": "Pothole",
    "date_created": "2026-04-04T16:29:31.000",
    "date_modified": "2026-04-04T16:29:32.000",
    "request_status": "Pending",
    "responsible_agency": "Department of Public Works",
    "final_address": "662 N Pierce St",
    "address_councildis": "A",
    "status": "Pending",
    "rowid": "1271085",
    "final_x": "3672949.65377",
    "final_y": "539809.256458",
    "longitude": "-90.09478636415307",
    "latitude": "29.978545187602222",
    "geocoded_column": {
      "latitude": "29.978545187602222",
      "longitude": "-90.09478636415307"
    }
  },
  {
    "service_request": "2026-1271084",
    "request_type": "Roads and Streets",
    "request_reason": "Abandoned Service Cut",
    "date_created": "2026-04-04T16:28:04.000",
    "date_modified": "2026-04-04T16:28:06.000",
    "request_status": "Pending",
    "responsible_agency": "Department of Public Works",
    "final_address": "662 N Pierce St",
    "address_councildis": "A",
    "status": "Pending",
    "rowid": "1271084",
    "final_x": "3672949.65377",
    "final_y": "539809.256458",
    "longitude": "-90.09478636415307",
    "latitude": "29.978545187602222",
    "geocoded_column": {
      "latitude": "29.978545187602222",
      "longitude": "-90.09478636415307"
    }
  },
  {
    "service_request": "2026-1271083",
    "request_type": "Traffic Signals",
    "request_reason": "Traffic Signal Malfunctioning or Damaged",
    "date_created": "2026-04-04T16:27:06.000",
    "date_modified": "2026-04-04T16:27:09.000",
    "request_status": "Pending",
    "responsible_agency": "Department of Public Works",
    "final_address": "2501 Napoleon Ave Apt B",
    "address_councildis": "B",
    "status": "Pending",
    "rowid": "1271083",
    "final_x": "3670649.67502",
    "final_y": "524087.519164",
    "longitude": "-90.10258391194614",
    "latitude": "29.93538376799356",
    "geocoded_column": {
      "latitude": "29.93538376799356",
      "longitude": "-90.10258391194614"
    }
  },
  {
    "service_request": "2026-1271082",
    "request_type": "Property Maintenance",
    "request_reason": "Property Maintenance",
    "date_created": "2026-04-04T15:53:48.000",
    "date_modified": "2026-04-04T15:53:50.000",
    "request_status": "Pending",
    "responsible_agency": "Department of Code Enforcement",
    "final_address": "5497 Canal Blvd",
    "address_councildis": "A",
    "status": "Pending",
    "rowid": "1271082",
    "final_x": "3668291.71783",
    "final_y": "543797.117838",
    "longitude": "-90.10936335462512",
    "latitude": "29.989648069717173",
    "geocoded_column": {
      "latitude": "29.989648069717173",
      "longitude": "-90.10936335462512"
    }
  },
  {
    "service_request": "2026-1271081",
    "request_type": "Abandoned Vehicles",
    "request_reason": "Abandoned/Junk Vehicles",
    "date_created": "2026-04-04T15:10:46.000",
    "date_modified": "2026-04-04T15:10:49.000",
    "request_status": "Pending",
    "responsible_agency": "Department of Public Works",
    "final_address": "200 BLK Jewel St",
    "address_councildis": "D",
    "status": "Pending",
    "rowid": "1271081",
    "final_x": "3667417.56277",
    "final_y": "555815.628314",
    "longitude": "-90.1117198398558",
    "latitude": "30.02272043674029",
    "geocoded_column": {
      "latitude": "30.02272043674029",
      "longitude": "-90.1117198398558"
    }
  },
  {
    "service_request": "2026-1271080",
    "request_type": "Abandoned Vehicles",
    "request_reason": "Abandoned/Junk Vehicles",
    "date_created": "2026-04-04T15:00:42.000",
    "date_modified": "2026-04-04T15:00:43.000",
    "request_status": "Pending",
    "responsible_agency": "Department of Public Works",
    "final_address": "489 Amethyst St",
    "address_councildis": "D",
    "status": "Pending",
    "rowid": "1271080",
    "final_x": "3668185.47341",
    "final_y": "556885.164122",
    "longitude": "-90.10925730975411",
    "latitude": "30.025638745599412",
    "geocoded_column": {
      "latitude": "30.025638745599412",
      "longitude": "-90.10925730975411"
    }
  },
  {
    "service_request": "2026-1271079",
    "request_type": "Street and Traffic Signs",
    "request_reason": "Stop Sign Missing or Damaged",
    "date_created": "2026-04-04T14:57:58.000",
    "date_modified": "2026-04-04T14:58:00.000",
    "request_status": "Pending",
    "responsible_agency": "Department of Public Works",
    "final_address": "427 Virginia St",
    "address_councildis": "A",
    "status": "Pending",
    "rowid": "1271079",
    "final_x": "3668716.80263",
    "final_y": "541846.180172",
    "longitude": "-90.10808652148434",
    "latitude": "29.98427116427192",
    "geocoded_column": {
      "latitude": "29.98427116427192",
      "longitude": "-90.10808652148434"
    }
  },
  {
    "service_request": "2026-1271077",
    "request_type": "Roads and Streets",
    "request_reason": "Sidewalk Damaged or Missing",
    "date_created": "2026-04-04T14:49:12.000",
    "date_modified": "2026-04-04T14:49:14.000",
    "request_status": "Pending",
    "responsible_agency": "Department of Public Works",
    "final_address": "1017 Dufossat St",
    "address_councildis": "B",
    "status": "Pending",
    "rowid": "1271077",
    "final_x": "3668146.15796",
    "final_y": "519143.010743",
    "longitude": "-90.11065411694987",
    "latitude": "29.921861644987967",
    "geocoded_column": {
      "latitude": "29.921861644987967",
      "longitude": "-90.11065411694987"
    }
  },
  {
    "service_request": "2026-1271078",
    "request_type": "Roads and Streets",
    "request_reason": "Sidewalk Damaged or Missing",
    "date_created": "2026-04-04T14:49:12.000",
    "date_modified": "2026-04-04T14:49:14.000",
    "request_status": "Pending",
    "responsible_agency": "Department of Public Works",
    "final_address": "1017 Dufossat St",
    "address_councildis": "B",
    "status": "Pending",
    "rowid": "1271078",
    "final_x": "3668146.15796",
    "final_y": "519143.010743",
    "longitude": "-90.11065411694987",
    "latitude": "29.921861644987967",
    "geocoded_column": {
      "latitude": "29.921861644987967",
      "longitude": "-90.11065411694987"
    }
  },
  {
    "service_request": "2026-1271076",
    "request_type": "Abandoned Vehicles",
    "request_reason": "Abandoned/Junk Vehicles",
    "date_created": "2026-04-04T14:33:26.000",
    "date_modified": "2026-04-04T14:33:28.000",
    "request_status": "Pending",
    "responsible_agency": "Department of Public Works",
    "final_address": "221 Jewel St",
    "address_councildis": "D",
    "status": "Pending",
    "rowid": "1271076",
    "final_x": "3667274.70957",
    "final_y": "555915.699225",
    "longitude": "-90.11216785461505",
    "latitude": "30.022999783133542",
    "geocoded_column": {
      "latitude": "30.022999783133542",
      "longitude": "-90.11216785461505"
    }
  },
  {
    "service_request": "2026-1271075",
    "request_type": "Trash/Recycling",
    "request_reason": "Request a Large Item Pick Up",
    "date_created": "2026-04-04T14:24:10.000",
    "date_modified": "2026-04-04T14:24:12.000",
    "request_status": "Pending",
    "responsible_agency": "Department of Sanitation",
    "final_address": "131 S Rendon St",
    "address_councildis": "B",
    "status": "Assigned to Contractor",
    "contractor": "IV Waste",
    "rowid": "1271075",
    "final_x": "3673384.83054",
    "final_y": "536244.110535",
    "longitude": "-90.09353374655623",
    "latitude": "29.968729305338623",
    "geocoded_column": {
      "latitude": "29.968729305338623",
      "longitude": "-90.09353374655623"
    }
  },
  {
    "service_request": "2026-1271074",
    "request_type": "Health Related Request",
    "request_reason": "Noise Ordinance Complaint",
    "date_created": "2026-04-04T13:59:40.000",
    "date_modified": "2026-04-04T13:59:43.000",
    "request_status": "Pending",
    "responsible_agency": "Health Department",
    "final_address": "3320 N Prieur St, New Orleans, Louisiana, 70117",
    "address_councildis": "D",
    "status": "Pending",
    "rowid": "1271074",
    "final_x": "3690744.99849",
    "final_y": "538644.460809",
    "longitude": "-90.0386238570071",
    "latitude": "29.97480151383121",
    "geocoded_column": {
      "latitude": "29.97480151383121",
      "longitude": "-90.0386238570071"
    }
  },
  {
    "service_request": "2026-1271073",
    "request_type": "General Services",
    "request_reason": "General Service Request",
    "date_created": "2026-04-04T13:44:44.000",
    "date_modified": "2026-04-04T13:44:46.000",
    "request_status": "Pending",
    "responsible_agency": "Orleans Parish Communication District",
    "final_address": "4700 Cerise Ave",
    "address_councildis": "E",
    "status": "Pending",
    "rowid": "1271073",
    "final_x": "3708561.54872",
    "final_y": "555404.955481",
    "longitude": "-89.98173084981232",
    "latitude": "30.02032094765503",
    "geocoded_column": {
      "latitude": "30.02032094765503",
      "longitude": "-89.98173084981232"
    }
  },
  {
    "service_request": "2026-1271072",
    "request_type": "Trash/Recycling",
    "request_reason": "Request a Large Item Pick Up",
    "date_created": "2026-04-04T13:34:17.000",
    "date_modified": "2026-04-04T13:34:19.000",
    "request_status": "Pending",
    "responsible_agency": "Department of Sanitation",
    "final_address": "4343 Genoa St",
    "address_councildis": "E",
    "status": "Assigned to Contractor",
    "contractor": "Waste Pro",
    "rowid": "1271072",
    "final_x": "3760916.38589",
    "final_y": "573658.667946",
    "longitude": "-89.8155461661284",
    "latitude": "30.068708476580923",
    "geocoded_column": {
      "latitude": "30.068708476580923",
      "longitude": "-89.8155461661284"
    }
  },
  {
    "service_request": "2026-1271071",
    "request_type": "Trash/Recycling",
    "request_reason": "Replace Trash Cart",
    "date_created": "2026-04-04T13:30:20.000",
    "date_modified": "2026-04-04T13:30:22.000",
    "request_status": "Pending",
    "responsible_agency": "Department of Sanitation",
    "final_address": "2322 Camp St",
    "address_councildis": "B",
    "status": "Assigned to Contractor",
    "contractor": "IV Waste",
    "rowid": "1271071",
    "final_x": "3678178.37538",
    "final_y": "521993.739898",
    "longitude": "-90.07888813542188",
    "latitude": "29.92940205926746",
    "geocoded_column": {
      "latitude": "29.92940205926746",
      "longitude": "-90.07888813542188"
    }
  },
  {
    "service_request": "2026-1271070",
    "request_type": "Trash/Recycling",
    "request_reason": "Order Trash Cart",
    "date_created": "2026-04-04T13:26:38.000",
    "date_modified": "2026-04-04T13:26:41.000",
    "request_status": "Pending",
    "responsible_agency": "Department of Sanitation",
    "final_address": "7925 Lacombe St",
    "address_councildis": "E",
    "status": "Assigned to Contractor",
    "contractor": "Waste Pro",
    "rowid": "1271070",
    "final_x": "3709109.55505",
    "final_y": "566275.206243",
    "longitude": "-89.97959355153753",
    "latitude": "30.050192044119736",
    "geocoded_column": {
      "latitude": "30.050192044119736",
      "longitude": "-89.97959355153753"
    }
  },
  {
    "service_request": "2026-1271069",
    "request_type": "General Services",
    "request_reason": "General Service Request",
    "date_created": "2026-04-04T13:24:26.000",
    "date_modified": "2026-04-04T13:24:28.000",
    "request_status": "Pending",
    "responsible_agency": "Orleans Parish Communication District",
    "final_address": "2201 General Pershing St",
    "address_councildis": "B",
    "status": "Pending",
    "rowid": "1271069",
    "final_x": "3671116.44647",
    "final_y": "523085.599227",
    "longitude": "-90.10114432350021",
    "latitude": "29.932615017234376",
    "geocoded_column": {
      "latitude": "29.932615017234376",
      "longitude": "-90.10114432350021"
    }
  },
  {
    "service_request": "2026-1271068",
    "request_type": "Trash/Recycling",
    "request_reason": "Illegal Dumping",
    "date_created": "2026-04-04T13:15:40.000",
    "date_modified": "2026-04-04T13:15:42.000",
    "request_status": "Pending",
    "responsible_agency": "Department of Sanitation",
    "final_address": "2200 BLK Fats Domino Ave",
    "address_councildis": "E",
    "status": "Pending",
    "rowid": "1271068",
    "final_x": "3699131.00984",
    "final_y": "537931.787113",
    "longitude": "-90.01216484470082",
    "latitude": "29.972578709656386",
    "geocoded_column": {
      "latitude": "29.972578709656386",
      "longitude": "-90.01216484470082"
    }
  },
  {
    "service_request": "2026-1271067",
    "request_type": "Graffiti Removal",
    "request_reason": "Graffiti Removal",
    "date_created": "2026-04-04T13:03:05.000",
    "date_modified": "2026-04-04T13:03:07.000",
    "request_status": "Pending",
    "responsible_agency": "Department of Code Enforcement",
    "final_address": "2650 Canal St",
    "address_councildis": "B",
    "status": "Pending",
    "rowid": "1271067",
    "final_x": "3675384.02734",
    "final_y": "534913.722694",
    "longitude": "-90.08726584790539",
    "latitude": "29.96501155880365",
    "geocoded_column": {
      "latitude": "29.96501155880365",
      "longitude": "-90.08726584790539"
    }
  },
  {
    "service_request": "2026-1271066",
    "request_type": "Traffic Signals",
    "request_reason": "Traffic Signal Malfunctioning or Damaged",
    "date_created": "2026-04-04T12:38:16.000",
    "date_modified": "2026-04-04T12:38:17.000",
    "request_status": "Pending",
    "responsible_agency": "Department of Public Works",
    "final_address": "3000 Napoleon Ave",
    "address_councildis": "B",
    "status": "Pending",
    "rowid": "1271066",
    "final_x": "3670194.53927",
    "final_y": "526090.099006",
    "longitude": "-90.10395295016367",
    "latitude": "29.94090364951212",
    "geocoded_column": {
      "latitude": "29.94090364951212",
      "longitude": "-90.10395295016367"
    }
  },
  {
    "service_request": "2026-1271065",
    "request_type": "General Services",
    "request_reason": "General Service Request",
    "date_created": "2026-04-04T12:38:04.000",
    "date_modified": "2026-04-04T12:38:06.000",
    "request_status": "Pending",
    "responsible_agency": "Orleans Parish Communication District",
    "final_address": "432 Seventh St",
    "address_councildis": "B",
    "status": "Pending",
    "rowid": "1271065",
    "final_x": "3677426.97557",
    "final_y": "518707.833207",
    "longitude": "-90.08137350323456",
    "latitude": "29.92038947964408",
    "geocoded_column": {
      "latitude": "29.92038947964408",
      "longitude": "-90.08137350323456"
    }
  },
  {
    "service_request": "2026-1271064",
    "request_type": "Trash/Recycling",
    "request_reason": "Missed Trash Pick-Up",
    "date_created": "2026-04-04T12:03:18.000",
    "date_modified": "2026-04-04T12:03:20.000",
    "request_status": "Pending",
    "responsible_agency": "Department of Sanitation",
    "final_address": "8455 Huntington Park Dr",
    "address_councildis": "E",
    "status": "Assigned to Contractor",
    "contractor": "Waste Pro",
    "rowid": "1271064",
    "final_x": "3704903.38391",
    "final_y": "560068.180253",
    "longitude": "-89.99311709436036",
    "latitude": "30.033261144035663",
    "geocoded_column": {
      "latitude": "30.033261144035663",
      "longitude": "-89.99311709436036"
    }
  },
  {
    "service_request": "2026-1271063",
    "request_type": "Streetlights",
    "request_reason": "Streetlight Outage/Malfunction",
    "date_created": "2026-04-04T12:03:01.000",
    "date_modified": "2026-04-04T12:03:03.000",
    "request_status": "Pending",
    "responsible_agency": "Department of Public Works",
    "final_address": "1485 Tchoupitoulas St Apt 11210",
    "address_councildis": "B",
    "status": "Pending",
    "rowid": "1271063",
    "final_x": "3682023.21032",
    "final_y": "523585.188411",
    "longitude": "-90.06669517979994",
    "latitude": "29.933661715971148",
    "geocoded_column": {
      "latitude": "29.933661715971148",
      "longitude": "-90.06669517979994"
    }
  },
  {
    "service_request": "2026-1271062",
    "request_type": "Trash/Recycling",
    "request_reason": "Request a Large Item Pick Up",
    "date_created": "2026-04-04T11:58:31.000",
    "date_modified": "2026-04-04T11:58:33.000",
    "request_status": "Pending",
    "responsible_agency": "Department of Sanitation",
    "final_address": "3023 Iberville St",
    "address_councildis": "B",
    "status": "Assigned to Contractor",
    "contractor": "IV Waste",
    "rowid": "1271062",
    "final_x": "3674492.50593",
    "final_y": "536349.738887",
    "longitude": "-90.09003201817453",
    "latitude": "29.968986746263102",
    "geocoded_column": {
      "latitude": "29.968986746263102",
      "longitude": "-90.09003201817453"
    }
  },
  {
    "service_request": "2026-1271061",
    "request_type": "Trash/Recycling",
    "request_reason": "Request a Large Item Pick Up",
    "date_created": "2026-04-04T11:47:29.000",
    "date_modified": "2026-04-04T11:47:32.000",
    "request_status": "Pending",
    "responsible_agency": "Department of Sanitation",
    "final_address": "521 S Cortez St",
    "address_councildis": "B",
    "status": "Assigned to Contractor",
    "contractor": "IV Waste",
    "rowid": "1271061",
    "final_x": "3670959.60295",
    "final_y": "536200.309639",
    "longitude": "-90.10119426396797",
    "latitude": "29.968680798428245",
    "geocoded_column": {
      "latitude": "29.968680798428245",
      "longitude": "-90.10119426396797"
    }
  },
  {
    "service_request": "2026-1271060",
    "request_type": "Trash/Recycling",
    "request_reason": "Repair Trash Cart",
    "date_created": "2026-04-04T11:40:23.000",
    "date_modified": "2026-04-04T11:40:26.000",
    "request_status": "Pending",
    "responsible_agency": "Department of Sanitation",
    "final_address": "511 Westchester St",
    "address_councildis": "C",
    "status": "Assigned to Contractor",
    "contractor": "Richards Disposal",
    "rowid": "1271060",
    "final_x": "3706121.81975",
    "final_y": "519617.72108",
    "longitude": "-89.99076448220573",
    "latitude": "29.921998083497687",
    "geocoded_column": {
      "latitude": "29.921998083497687",
      "longitude": "-89.99076448220573"
    }
  },
  {
    "service_request": "2026-1271059",
    "request_type": "Trash/Recycling",
    "request_reason": "Missed Trash Pick-Up",
    "date_created": "2026-04-04T11:28:51.000",
    "date_modified": "2026-04-04T12:09:50.000",
    "case_close_date": "2026-04-04T07:09:48.000",
    "request_status": "Closed",
    "responsible_agency": "Department of Sanitation",
    "final_address": "1527 Baronne St",
    "address_councildis": "B",
    "status": "Invalid Request",
    "contractor": "IV Waste",
    "contractor_action": "Invalid",
    "rowid": "1271059",
    "final_x": "3678265.31586",
    "final_y": "525836.314685",
    "longitude": "-90.07848083699317",
    "latitude": "29.939965259827677",
    "geocoded_column": {
      "latitude": "29.939965259827677",
      "longitude": "-90.07848083699317"
    }
  },
  {
    "service_request": "2026-1271058",
    "request_type": "Abandoned Vehicles",
    "request_reason": "Abandoned/Junk Vehicles",
    "date_created": "2026-04-04T11:17:59.000",
    "date_modified": "2026-04-04T11:18:01.000",
    "request_status": "Pending",
    "responsible_agency": "Department of Public Works",
    "final_address": "8843 Dinkins St",
    "address_councildis": "E",
    "status": "Pending",
    "rowid": "1271058",
    "final_x": "3704627.70974",
    "final_y": "563428.415712",
    "longitude": "-89.99386411558706",
    "latitude": "30.04250933238272",
    "geocoded_column": {
      "latitude": "30.04250933238272",
      "longitude": "-89.99386411558706"
    }
  },
  {
    "service_request": "2026-1271057",
    "request_type": "Trash/Recycling",
    "request_reason": "Request a Large Item Pick Up",
    "date_created": "2026-04-04T11:10:05.000",
    "date_modified": "2026-04-04T11:10:07.000",
    "request_status": "Pending",
    "responsible_agency": "Department of Sanitation",
    "final_address": "4239 Tulane Ave",
    "address_councildis": "A",
    "status": "Assigned to Contractor",
    "contractor": "IV Waste",
    "rowid": "1271057",
    "final_x": "3668667.8642",
    "final_y": "536713.003527",
    "longitude": "-90.10841442008591",
    "latitude": "29.970158097385436",
    "geocoded_column": {
      "latitude": "29.970158097385436",
      "longitude": "-90.10841442008591"
    }
  },
  {
    "service_request": "2026-1271056",
    "request_type": "Trash/Recycling",
    "request_reason": "Replace Trash Cart",
    "date_created": "2026-04-04T10:46:47.000",
    "date_modified": "2026-04-04T10:46:48.000",
    "request_status": "Pending",
    "responsible_agency": "Department of Sanitation",
    "final_address": "4711 Cardenas Dr",
    "address_councildis": "E",
    "status": "Assigned to Contractor",
    "contractor": "Waste Pro",
    "rowid": "1271056",
    "final_x": "3713775.31416",
    "final_y": "556144.764122",
    "longitude": "-89.96522922499813",
    "latitude": "30.022184996715154",
    "geocoded_column": {
      "latitude": "30.022184996715154",
      "longitude": "-89.96522922499813"
    }
  },
  {
    "service_request": "2026-1271055",
    "request_type": "Streetlights",
    "request_reason": "Streetlight Outage/Malfunction",
    "date_created": "2026-04-04T10:44:55.000",
    "date_modified": "2026-04-04T10:44:57.000",
    "request_status": "Pending",
    "responsible_agency": "Department of Public Works",
    "final_address": "915 St Ann St",
    "address_councildis": "C",
    "status": "Pending",
    "rowid": "1271055",
    "final_x": "3682128.66671",
    "final_y": "533297.159556",
    "longitude": "-90.06602315510182",
    "latitude": "29.96036316358471",
    "geocoded_column": {
      "latitude": "29.96036316358471",
      "longitude": "-90.06602315510182"
    }
  },
  {
    "service_request": "2026-1271054",
    "request_type": "Safety & Permits",
    "request_reason": "Construction permit",
    "date_created": "2026-04-04T10:32:55.000",
    "date_modified": "2026-04-04T10:32:58.000",
    "request_status": "Pending",
    "responsible_agency": "Safety and Permits",
    "final_address": "915 St Ann St",
    "address_councildis": "C",
    "status": "Pending",
    "rowid": "1271054",
    "final_x": "3682128.66671",
    "final_y": "533297.159556",
    "longitude": "-90.06602315510182",
    "latitude": "29.96036316358471",
    "geocoded_column": {
      "latitude": "29.96036316358471",
      "longitude": "-90.06602315510182"
    }
  },
  {
    "service_request": "2026-1271053",
    "request_type": "Trash/Recycling",
    "request_reason": "Request a Large Item Pick Up",
    "date_created": "2026-04-04T09:52:48.000",
    "date_modified": "2026-04-04T09:52:50.000",
    "request_status": "Pending",
    "responsible_agency": "Department of Sanitation",
    "final_address": "7320 Zimple St Apt C",
    "address_councildis": "A",
    "status": "Assigned to Contractor",
    "contractor": "IV Waste",
    "rowid": "1271053",
    "final_x": "3663485.9849",
    "final_y": "526454.56819",
    "longitude": "-90.12512101767638",
    "latitude": "29.942102030512586",
    "geocoded_column": {
      "latitude": "29.942102030512586",
      "longitude": "-90.12512101767638"
    }
  },
  {
    "service_request": "2026-1271052",
    "request_type": "Abandoned Vehicles",
    "request_reason": "Abandoned/Junk Vehicles",
    "date_created": "2026-04-04T09:35:40.000",
    "date_modified": "2026-04-04T09:35:42.000",
    "request_status": "Pending",
    "responsible_agency": "Department of Public Works",
    "final_address": "2817 Broadway St, New Orleans, Louisiana, 70125",
    "address_councildis": "B",
    "status": "Pending",
    "rowid": "1271052",
    "final_x": "3667401.17165",
    "final_y": "531361.03533",
    "longitude": "-90.11259484991487",
    "latitude": "29.955479125441872",
    "geocoded_column": {
      "latitude": "29.955479125441872",
      "longitude": "-90.11259484991487"
    }
  },
  {
    "service_request": "2026-1271051",
    "request_type": "Parks & Parkways",
    "request_reason": "Request Tree Service (Right of Way/Public Property)",
    "date_created": "2026-04-04T09:29:58.000",
    "date_modified": "2026-04-04T09:30:00.000",
    "request_status": "Pending",
    "responsible_agency": "Department of Parks & Parkway",
    "final_address": "2203 Soniat St",
    "address_councildis": "B",
    "status": "Pending",
    "rowid": "1271051",
    "final_x": "3668538.3938",
    "final_y": "523612.740923",
    "longitude": "-90.10926526780908",
    "latitude": "29.934140466416302",
    "geocoded_column": {
      "latitude": "29.934140466416302",
      "longitude": "-90.10926526780908"
    }
  },
  {
    "service_request": "2026-1271050",
    "request_type": "Trash/Recycling",
    "request_reason": "Missed Trash Pick-Up",
    "date_created": "2026-04-04T09:29:45.000",
    "date_modified": "2026-04-04T09:29:47.000",
    "request_status": "Pending",
    "responsible_agency": "Department of Sanitation",
    "final_address": "7341 W Laverne St",
    "address_councildis": "E",
    "status": "Assigned to Contractor",
    "contractor": "Waste Pro",
    "rowid": "1271050",
    "final_x": "3695454.21366",
    "final_y": "557870.260571",
    "longitude": "-90.02305671454455",
    "latitude": "30.02751821036795",
    "geocoded_column": {
      "latitude": "30.02751821036795",
      "longitude": "-90.02305671454455"
    }
  },
  {
    "service_request": "2026-1271049",
    "request_type": "Trash/Recycling",
    "request_reason": "Illegal Dumping",
    "date_created": "2026-04-04T09:15:41.000",
    "date_modified": "2026-04-04T09:15:43.000",
    "request_status": "Pending",
    "responsible_agency": "Department of Sanitation",
    "final_address": "2227 N Villere St",
    "address_councildis": "C",
    "status": "Pending",
    "rowid": "1271049",
    "final_x": "3685231.95631",
    "final_y": "537467.262856",
    "longitude": "-90.05607683831545",
    "latitude": "29.971734763019423",
    "geocoded_column": {
      "latitude": "29.971734763019423",
      "longitude": "-90.05607683831545"
    }
  },
  {
    "service_request": "2026-1271048",
    "request_type": "Trash/Recycling",
    "request_reason": "Request a Large Item Pick Up",
    "date_created": "2026-04-04T08:43:46.000",
    "date_modified": "2026-04-04T08:43:49.000",
    "request_status": "Pending",
    "responsible_agency": "Department of Sanitation",
    "final_address": "6649 Harbourview Dr",
    "address_councildis": "E",
    "status": "Assigned to Contractor",
    "contractor": "Waste Pro",
    "rowid": "1271048",
    "final_x": "3699210.55159",
    "final_y": "556099.05513",
    "longitude": "-90.01125163630087",
    "latitude": "30.02252943115513",
    "geocoded_column": {
      "latitude": "30.02252943115513",
      "longitude": "-90.01125163630087"
    }
  },
  {
    "service_request": "2026-1271047",
    "request_type": "General Services",
    "request_reason": "General Service Request",
    "date_created": "2026-04-04T08:21:00.000",
    "date_modified": "2026-04-04T08:21:01.000",
    "request_status": "Pending",
    "responsible_agency": "Orleans Parish Communication District",
    "final_address": "3560 Rue Colette",
    "address_councildis": "C",
    "status": "Pending",
    "rowid": "1271047",
    "final_x": "3704587.35927",
    "final_y": "517324.702325",
    "longitude": "-89.9956925881836",
    "latitude": "29.915742421506817",
    "geocoded_column": {
      "latitude": "29.915742421506817",
      "longitude": "-89.9956925881836"
    }
  },
  {
    "service_request": "2026-1271046",
    "request_type": "Trash/Recycling",
    "request_reason": "Request a Large Item Pick Up",
    "date_created": "2026-04-04T08:20:37.000",
    "date_modified": "2026-04-04T08:59:30.000",
    "case_close_date": "2026-04-04T03:59:29.000",
    "request_status": "Closed",
    "responsible_agency": "Department of Sanitation",
    "final_address": "725 Lyons St",
    "address_councildis": "B",
    "status": "Assigned to Contractor",
    "contractor": "IV Waste",
    "contractor_action": "Completed",
    "rowid": "1271046",
    "final_x": "3669338.3803",
    "final_y": "518077.554166",
    "longitude": "-90.10692676207451",
    "latitude": "29.91889694176254",
    "geocoded_column": {
      "latitude": "29.91889694176254",
      "longitude": "-90.10692676207451"
    }
  },
  {
    "service_request": "2026-1271045",
    "request_type": "General Services",
    "request_reason": "General Service Request",
    "date_created": "2026-04-04T08:17:21.000",
    "date_modified": "2026-04-04T08:17:25.000",
    "request_status": "Pending",
    "responsible_agency": "Orleans Parish Communication District",
    "final_address": "Tullis Dr & Behrman Pl, New Orleans, Louisiana, 70114 and Eugenie Ct, New Orleans, Louisiana, 70131",
    "status": "Pending",
    "rowid": "1271045",
    "longitude": "0.0",
    "latitude": "0.0",
    "geocoded_column": {
      "latitude": "0.0",
      "longitude": "0.0"
    }
  },
  {
    "service_request": "2026-1271044",
    "request_type": "General Services",
    "request_reason": "General Service Request",
    "date_created": "2026-04-04T08:04:15.000",
    "date_modified": "2026-04-04T08:04:17.000",
    "request_status": "Pending",
    "responsible_agency": "Orleans Parish Communication District",
    "final_address": "5932 Tullis Dr",
    "address_councildis": "C",
    "status": "Pending",
    "rowid": "1271044",
    "final_x": "3706488.39959",
    "final_y": "513950.90821",
    "longitude": "-89.98981708945729",
    "latitude": "29.9064044907273",
    "geocoded_column": {
      "latitude": "29.9064044907273",
      "longitude": "-89.98981708945729"
    }
  },
  {
    "service_request": "2026-1271043",
    "request_type": "Trash/Recycling",
    "request_reason": "MIssed Recycling Pick-Up",
    "date_created": "2026-04-04T07:05:00.000",
    "date_modified": "2026-04-04T09:00:56.000",
    "case_close_date": "2026-04-04T04:00:55.000",
    "request_status": "Closed",
    "responsible_agency": "Department of Sanitation",
    "final_address": "3137 Royal St",
    "address_councildis": "C",
    "status": "Assigned to Contractor",
    "contractor": "IV Waste",
    "contractor_action": "Completed",
    "rowid": "1271043",
    "final_x": "3688924.54697",
    "final_y": "534465.628485",
    "longitude": "-90.04452172787643",
    "latitude": "29.963367624120956",
    "geocoded_column": {
      "latitude": "29.963367624120956",
      "longitude": "-90.04452172787643"
    }
  },
  {
    "service_request": "2026-1271042",
    "request_type": "Trash/Recycling",
    "request_reason": "Damaged Caused By Contractor",
    "date_created": "2026-04-04T04:16:08.000",
    "date_modified": "2026-04-04T04:16:11.000",
    "request_status": "Pending",
    "responsible_agency": "Department of Sanitation",
    "final_address": "4715 S Robertson St",
    "address_councildis": "B",
    "status": "Assigned to Contractor",
    "contractor": "IV Waste",
    "rowid": "1271042",
    "final_x": "3669244.51694",
    "final_y": "524318.253372",
    "longitude": "-90.10701221842926",
    "latitude": "29.93605963841788",
    "geocoded_column": {
      "latitude": "29.93605963841788",
      "longitude": "-90.10701221842926"
    }
  },
  {
    "service_request": "2026-1271041",
    "request_type": "Health Related Request",
    "request_reason": "Noise Ordinance Complaint",
    "date_created": "2026-04-03T22:06:17.000",
    "date_modified": "2026-04-03T22:06:18.000",
    "request_status": "Pending",
    "responsible_agency": "Health Department",
    "final_address": "801 Bourbon St, New Orleans, Louisiana, 70116",
    "address_councildis": "C",
    "status": "Pending",
    "rowid": "1271041",
    "final_x": "3682490.98735",
    "final_y": "533018.672772",
    "longitude": "-90.06488875731978",
    "latitude": "29.959586396383013",
    "geocoded_column": {
      "latitude": "29.959586396383013",
      "longitude": "-90.06488875731978"
    }
  },
  {
    "service_request": "2026-1271040",
    "request_type": "Health Related Request",
    "request_reason": "Noise Ordinance Complaint",
    "date_created": "2026-04-03T22:05:55.000",
    "date_modified": "2026-04-03T22:05:57.000",
    "request_status": "Pending",
    "responsible_agency": "Health Department",
    "final_address": "800 Bourbon St, New Orleans, Louisiana, 70116",
    "address_councildis": "C",
    "status": "Pending",
    "rowid": "1271040",
    "final_x": "3682553.51528",
    "final_y": "533013.631428",
    "longitude": "-90.06469148499534",
    "latitude": "29.95957063099051",
    "geocoded_column": {
      "latitude": "29.95957063099051",
      "longitude": "-90.06469148499534"
    }
  },
  {
    "service_request": "2026-1271039",
    "request_type": "Trash/Recycling",
    "request_reason": "Request a Large Item Pick Up",
    "date_created": "2026-04-03T21:14:48.000",
    "date_modified": "2026-04-03T21:14:50.000",
    "request_status": "Pending",
    "responsible_agency": "Department of Sanitation",
    "final_address": "3001 Jefferson Ave",
    "address_councildis": "B",
    "status": "Assigned to Contractor",
    "contractor": "IV Waste",
    "rowid": "1271039",
    "final_x": "3668490.04423",
    "final_y": "526363.864446",
    "longitude": "-90.10932512914992",
    "latitude": "29.941706590996738",
    "geocoded_column": {
      "latitude": "29.941706590996738",
      "longitude": "-90.10932512914992"
    }
  },
  {
    "service_request": "2026-1271038",
    "request_type": "Roads and Streets",
    "request_reason": "Street Subsidence (Sinking)",
    "date_created": "2026-04-03T20:45:19.000",
    "date_modified": "2026-04-03T20:45:20.000",
    "request_status": "Pending",
    "responsible_agency": "Sewerage & Water Board",
    "final_address": "2924 Pauger St",
    "address_councildis": "D",
    "status": "Pending",
    "rowid": "1271038",
    "final_x": "3683476.4509",
    "final_y": "540465.050571",
    "longitude": "-90.06151590363741",
    "latitude": "29.9800313234574",
    "geocoded_column": {
      "latitude": "29.9800313234574",
      "longitude": "-90.06151590363741"
    }
  },
  {
    "service_request": "2026-1271037",
    "request_type": "Streetlights",
    "request_reason": "Streetlight Outage/Malfunction",
    "date_created": "2026-04-03T20:42:09.000",
    "date_modified": "2026-04-03T20:42:11.000",
    "request_status": "Pending",
    "responsible_agency": "Department of Public Works",
    "final_address": "1400 Annunciation St",
    "address_councildis": "B",
    "status": "Pending",
    "rowid": "1271037",
    "final_x": "3681332.43445",
    "final_y": "524542.822332",
    "longitude": "-90.0688425602231",
    "latitude": "29.936315870415534",
    "geocoded_column": {
      "latitude": "29.936315870415534",
      "longitude": "-90.0688425602231"
    }
  },
  {
    "service_request": "2026-1271036",
    "request_type": "Streetlights",
    "request_reason": "Streetlight Outage/Malfunction",
    "date_created": "2026-04-03T20:35:51.000",
    "date_modified": "2026-04-03T20:35:53.000",
    "request_status": "Pending",
    "responsible_agency": "Department of Public Works",
    "final_address": "801 Euterpe St",
    "address_councildis": "B",
    "status": "Pending",
    "rowid": "1271036",
    "final_x": "3681760.44194",
    "final_y": "523983.88486",
    "longitude": "-90.06751082098334",
    "latitude": "29.93476598345951",
    "geocoded_column": {
      "latitude": "29.93476598345951",
      "longitude": "-90.06751082098334"
    }
  },
  {
    "service_request": "2026-1271035",
    "request_type": "Traffic Signals",
    "request_reason": "Traffic Signal Malfunctioning or Damaged",
    "date_created": "2026-04-03T20:13:57.000",
    "date_modified": "2026-04-03T20:14:00.000",
    "request_status": "Pending",
    "responsible_agency": "Department of Public Works",
    "final_address": "5600 BLK Chef Menteur Hwy",
    "address_councildis": "D",
    "status": "Pending",
    "rowid": "1271035",
    "final_x": "3695208.79458",
    "final_y": "551277.551104",
    "longitude": "-90.02407025122788",
    "latitude": "30.009398456213727",
    "geocoded_column": {
      "latitude": "30.009398456213727",
      "longitude": "-90.02407025122788"
    }
  },
  {
    "service_request": "2026-1271034",
    "request_type": "Roads and Streets",
    "request_reason": "Pothole",
    "date_created": "2026-04-03T19:41:17.000",
    "date_modified": "2026-04-03T19:41:18.000",
    "request_status": "Pending",
    "responsible_agency": "Department of Public Works",
    "final_address": "4761 Press Dr",
    "address_councildis": "D",
    "status": "Pending",
    "rowid": "1271034",
    "final_x": "3689682.5039",
    "final_y": "551043.423061",
    "longitude": "-90.04153800069814",
    "latitude": "30.008927157400688",
    "geocoded_column": {
      "latitude": "30.008927157400688",
      "longitude": "-90.04153800069814"
    }
  },
  {
    "service_request": "2026-1271033",
    "request_type": "Street and Traffic Signs",
    "request_reason": "Street Name Sign Damaged or Missing",
    "date_created": "2026-04-03T19:36:47.000",
    "date_modified": "2026-04-03T19:36:50.000",
    "request_status": "Pending",
    "responsible_agency": "Department of Public Works",
    "final_address": "4900 BLK Press Dr",
    "address_councildis": "D",
    "status": "Pending",
    "rowid": "1271033",
    "final_x": "3689536.74392",
    "final_y": "551402.966864",
    "longitude": "-90.04198570168715",
    "latitude": "30.00992028821",
    "geocoded_column": {
      "latitude": "30.00992028821",
      "longitude": "-90.04198570168715"
    }
  },
  {
    "service_request": "2026-1271032",
    "request_type": "Trash/Recycling",
    "request_reason": "Request a Large Item Pick Up",
    "date_created": "2026-04-03T19:31:28.000",
    "date_modified": "2026-04-03T19:31:30.000",
    "request_status": "Pending",
    "responsible_agency": "Department of Sanitation",
    "final_address": "4754 Bonita Dr",
    "address_councildis": "E",
    "status": "Assigned to Contractor",
    "contractor": "Waste Pro",
    "rowid": "1271032",
    "final_x": "3704416.27185",
    "final_y": "555377.375001",
    "longitude": "-89.99482956438592",
    "latitude": "30.02037890792999",
    "geocoded_column": {
      "latitude": "30.02037890792999",
      "longitude": "-89.99482956438592"
    }
  },
  {
    "service_request": "2026-1271031",
    "request_type": "Abandoned Vehicles",
    "request_reason": "Abandoned/Junk Vehicles",
    "date_created": "2026-04-03T19:31:09.000",
    "date_modified": "2026-04-03T19:31:10.000",
    "request_status": "Pending",
    "responsible_agency": "Department of Public Works",
    "final_address": "2740 Castiglione St",
    "address_councildis": "D",
    "status": "Pending",
    "rowid": "1271031",
    "final_x": "3679641.03016",
    "final_y": "542015.387468",
    "longitude": "-90.07357592367684",
    "latitude": "29.984410708190396",
    "geocoded_column": {
      "latitude": "29.984410708190396",
      "longitude": "-90.07357592367684"
    }
  },
  {
    "service_request": "2026-1271030",
    "request_type": "Roads and Streets",
    "request_reason": "Sidewalk Damaged or Missing",
    "date_created": "2026-04-03T19:29:57.000",
    "date_modified": "2026-04-03T19:29:58.000",
    "request_status": "Pending",
    "responsible_agency": "Department of Public Works",
    "final_address": "4900 BLK Press Dr",
    "address_councildis": "D",
    "status": "Pending",
    "rowid": "1271030",
    "final_x": "3689536.74392",
    "final_y": "551402.966864",
    "longitude": "-90.04198570168715",
    "latitude": "30.00992028821",
    "geocoded_column": {
      "latitude": "30.00992028821",
      "longitude": "-90.04198570168715"
    }
  },
  {
    "service_request": "2026-1271029",
    "request_type": "Property Maintenance",
    "request_reason": "Property Maintenance",
    "date_created": "2026-04-03T19:26:18.000",
    "date_modified": "2026-04-03T19:26:20.000",
    "request_status": "Pending",
    "responsible_agency": "Department of Code Enforcement",
    "final_address": "4878 Montegut Dr",
    "address_councildis": "D",
    "status": "Pending",
    "rowid": "1271029",
    "final_x": "3689764.13264",
    "final_y": "551187.724373",
    "longitude": "-90.04127496858024",
    "latitude": "30.009321402282232",
    "geocoded_column": {
      "latitude": "30.009321402282232",
      "longitude": "-90.04127496858024"
    }
  },
  {
    "service_request": "2026-1271028",
    "request_type": "Property Maintenance",
    "request_reason": "Property Maintenance",
    "date_created": "2026-04-03T19:09:49.000",
    "date_modified": "2026-04-03T19:09:51.000",
    "request_status": "Pending",
    "responsible_agency": "Department of Code Enforcement",
    "final_address": "8005 Lehigh St",
    "address_councildis": "E",
    "status": "Pending",
    "rowid": "1271028",
    "final_x": "3709858.87217",
    "final_y": "566870.965796",
    "longitude": "-89.97720296796288",
    "latitude": "30.051805779269852",
    "geocoded_column": {
      "latitude": "30.051805779269852",
      "longitude": "-89.97720296796288"
    }
  },
  {
    "service_request": "2026-1271027",
    "request_type": "Trash/Recycling",
    "request_reason": "Replace Recycling Cart",
    "date_created": "2026-04-03T18:50:28.000",
    "date_modified": "2026-04-03T18:50:31.000",
    "request_status": "Pending",
    "responsible_agency": "Department of Sanitation",
    "final_address": "906 Philip St",
    "address_councildis": "B",
    "status": "Pending",
    "rowid": "1271027",
    "final_x": "3678907.17934",
    "final_y": "521311.117433",
    "longitude": "-90.07661107072144",
    "latitude": "29.927503111369177",
    "geocoded_column": {
      "latitude": "29.927503111369177",
      "longitude": "-90.07661107072144"
    }
  },
  {
    "service_request": "2026-1271026",
    "request_type": "Healthy Homes",
    "request_reason": "Healthy Homes",
    "date_created": "2026-04-03T18:31:59.000",
    "date_modified": "2026-04-03T18:32:01.000",
    "request_status": "Pending",
    "responsible_agency": "Department of Code Enforcement",
    "final_address": "1309 Milan St",
    "address_councildis": "B",
    "status": "Pending",
    "rowid": "1271026",
    "final_x": "3671700.4859",
    "final_y": "520248.555512",
    "longitude": "-90.09939700491482",
    "latitude": "29.924796775476484",
    "geocoded_column": {
      "latitude": "29.924796775476484",
      "longitude": "-90.09939700491482"
    }
  },
  {
    "service_request": "2026-1271025",
    "request_type": "Trash/Recycling",
    "request_reason": "Replace Trash Cart",
    "date_created": "2026-04-03T18:28:24.000",
    "date_modified": "2026-04-03T18:28:26.000",
    "request_status": "Pending",
    "responsible_agency": "Department of Sanitation",
    "final_address": "1448 Joseph St",
    "address_councildis": "A",
    "status": "Assigned to Contractor",
    "contractor": "IV Waste",
    "rowid": "1271025",
    "final_x": "3666605.88922",
    "final_y": "521342.286201",
    "longitude": "-90.11544232341234",
    "latitude": "29.92795406123108",
    "geocoded_column": {
      "latitude": "29.92795406123108",
      "longitude": "-90.11544232341234"
    }
  },
  {
    "service_request": "2026-1271024",
    "request_type": "Trash/Recycling",
    "request_reason": "Missed Trash Pick-Up",
    "date_created": "2026-04-03T18:27:54.000",
    "date_modified": "2026-04-03T18:27:56.000",
    "request_status": "Pending",
    "responsible_agency": "Department of Sanitation",
    "final_address": "5831 Abbey Dr",
    "address_councildis": "C",
    "status": "Assigned to Contractor",
    "contractor": "Richards Disposal",
    "rowid": "1271024",
    "final_x": "3705268.67102",
    "final_y": "520859.007097",
    "longitude": "-89.99341167409789",
    "latitude": "29.92543864712634",
    "geocoded_column": {
      "latitude": "29.92543864712634",
      "longitude": "-89.99341167409789"
    }
  },
  {
    "service_request": "2026-1271023",
    "request_type": "General Services",
    "request_reason": "General Service Request",
    "date_created": "2026-04-03T18:13:08.000",
    "date_modified": "2026-04-03T18:13:11.000",
    "request_status": "Pending",
    "responsible_agency": "Orleans Parish Communication District",
    "final_address": "0 BLK Audubon Pl",
    "address_councildis": "A",
    "status": "Pending",
    "rowid": "1271023",
    "final_x": "3664238.39852",
    "final_y": "525138.055155",
    "longitude": "-90.12278938700146",
    "latitude": "29.938460203400084",
    "geocoded_column": {
      "latitude": "29.938460203400084",
      "longitude": "-90.12278938700146"
    }
  },
  {
    "service_request": "2026-1271022",
    "request_type": "General Services",
    "request_reason": "General Service Request",
    "date_created": "2026-04-03T18:02:46.000",
    "date_modified": "2026-04-03T18:02:54.000",
    "request_status": "Pending",
    "responsible_agency": "Orleans Parish Communication District",
    "final_address": "7700 Spruce St, New Orleans, Louisiana, 70118",
    "address_councildis": "A",
    "status": "Pending",
    "rowid": "1271022",
    "final_x": "3664892.81632",
    "final_y": "529450.562689",
    "longitude": "-90.12057921398913",
    "latitude": "29.95029918696203",
    "geocoded_column": {
      "latitude": "29.95029918696203",
      "longitude": "-90.12057921398913"
    }
  },
  {
    "service_request": "2026-1271021",
    "request_type": "General Services",
    "request_reason": "General Service Request",
    "date_created": "2026-04-03T18:01:04.000",
    "date_modified": "2026-04-03T18:01:07.000",
    "request_status": "Pending",
    "responsible_agency": "Orleans Parish Communication District",
    "final_address": "7700 Spruce St, New Orleans, Louisiana, 70118",
    "address_councildis": "A",
    "status": "Pending",
    "rowid": "1271021",
    "final_x": "3664892.81632",
    "final_y": "529450.562689",
    "longitude": "-90.12057921398913",
    "latitude": "29.95029918696203",
    "geocoded_column": {
      "latitude": "29.95029918696203",
      "longitude": "-90.12057921398913"
    }
  },
  {
    "service_request": "2026-1271020",
    "request_type": "Abandoned Vehicles",
    "request_reason": "Abandoned/Junk Vehicles",
    "date_created": "2026-04-03T17:35:14.000",
    "date_modified": "2026-04-03T17:35:17.000",
    "request_status": "Pending",
    "responsible_agency": "Department of Public Works",
    "final_address": "2500 BLK Saint Roch Ave",
    "address_councildis": "D",
    "status": "Pending",
    "rowid": "1271020",
    "final_x": "3686026.69517",
    "final_y": "541759.305377",
    "longitude": "-90.05341552589616",
    "latitude": "29.983511988190358",
    "geocoded_column": {
      "latitude": "29.983511988190358",
      "longitude": "-90.05341552589616"
    }
  },
  {
    "service_request": "2026-1271019",
    "request_type": "Street and Traffic Signs",
    "request_reason": "Stop Sign Missing or Damaged",
    "date_created": "2026-04-03T17:20:36.000",
    "date_modified": "2026-04-03T17:20:39.000",
    "request_status": "Pending",
    "responsible_agency": "Department of Public Works",
    "final_address": "1200 BLK Saint Andrew St",
    "address_councildis": "B",
    "status": "Pending",
    "rowid": "1271019",
    "final_x": "3679153.74205",
    "final_y": "523012.049892",
    "longitude": "-90.07577380335337",
    "latitude": "29.93217268042737",
    "geocoded_column": {
      "latitude": "29.93217268042737",
      "longitude": "-90.07577380335337"
    }
  },
  {
    "service_request": "2026-1271018",
    "request_type": "City-Owned Cemeteries",
    "request_reason": "Property Maintenance",
    "date_created": "2026-04-03T17:09:30.000",
    "date_modified": "2026-04-03T17:09:32.000",
    "request_status": "Pending",
    "responsible_agency": "Department of Property Management",
    "final_address": "1800 BLK Hillary St",
    "address_councildis": "A",
    "status": "Pending",
    "rowid": "1271018",
    "final_x": "3664831.34254",
    "final_y": "528849.49491",
    "longitude": "-90.12079340011199",
    "latitude": "29.94864823368664",
    "geocoded_column": {
      "latitude": "29.94864823368664",
      "longitude": "-90.12079340011199"
    }
  },
  {
    "service_request": "2026-1271017",
    "request_type": "Trash/Recycling",
    "request_reason": "Request a Large Item Pick Up",
    "date_created": "2026-04-03T16:39:25.000",
    "date_modified": "2026-04-03T16:39:28.000",
    "request_status": "Pending",
    "responsible_agency": "Department of Sanitation",
    "final_address": "506 David St",
    "address_councildis": "A",
    "status": "Assigned to Contractor",
    "contractor": "IV Waste",
    "rowid": "1271017",
    "final_x": "3671898.56475",
    "final_y": "539691.96033",
    "longitude": "-90.09811009244325",
    "latitude": "29.978253860929733",
    "geocoded_column": {
      "latitude": "29.978253860929733",
      "longitude": "-90.09811009244325"
    }
  },
  {
    "service_request": "2026-1271016",
    "request_type": "Trash/Recycling",
    "request_reason": "Order Recycling Cart",
    "date_created": "2026-04-03T16:24:24.000",
    "date_modified": "2026-04-03T16:24:26.000",
    "request_status": "Pending",
    "responsible_agency": "Department of Sanitation",
    "final_address": "433 Millaudon St",
    "address_councildis": "A",
    "status": "Pending",
    "rowid": "1271016",
    "final_x": "3662130.29805",
    "final_y": "524798.528892",
    "longitude": "-90.12945616882355",
    "latitude": "29.937587684470795",
    "geocoded_column": {
      "latitude": "29.937587684470795",
      "longitude": "-90.12945616882355"
    }
  },
  {
    "service_request": "2026-1271015",
    "request_type": "Trash/Recycling",
    "request_reason": "Order Trash Cart",
    "date_created": "2026-04-03T16:22:52.000",
    "date_modified": "2026-04-03T16:22:55.000",
    "request_status": "Pending",
    "responsible_agency": "Department of Sanitation",
    "final_address": "433 Millaudon St",
    "address_councildis": "A",
    "status": "Assigned to Contractor",
    "contractor": "IV Waste",
    "rowid": "1271015",
    "final_x": "3662130.29805",
    "final_y": "524798.528892",
    "longitude": "-90.12945616882355",
    "latitude": "29.937587684470795",
    "geocoded_column": {
      "latitude": "29.937587684470795",
      "longitude": "-90.12945616882355"
    }
  },
  {
    "service_request": "2026-1271014",
    "request_type": "Trash/Recycling",
    "request_reason": "Request a Large Item Pick Up",
    "date_created": "2026-04-03T16:21:22.000",
    "date_modified": "2026-04-03T16:21:23.000",
    "request_status": "Pending",
    "responsible_agency": "Department of Sanitation",
    "final_address": "4633 Knight Dr",
    "address_councildis": "E",
    "status": "Assigned to Contractor",
    "contractor": "Waste Pro",
    "rowid": "1271014",
    "final_x": "3708278.07614",
    "final_y": "554855.376984",
    "longitude": "-89.98264699711817",
    "latitude": "30.018819011394683",
    "geocoded_column": {
      "latitude": "30.018819011394683",
      "longitude": "-89.98264699711817"
    }
  },
  {
    "service_request": "2026-1271013",
    "request_type": "Trash/Recycling",
    "request_reason": "Request a Large Item Pick Up",
    "date_created": "2026-04-03T16:17:45.000",
    "date_modified": "2026-04-03T16:17:48.000",
    "request_status": "Pending",
    "responsible_agency": "Department of Sanitation",
    "final_address": "11211 N Idlewood Ct",
    "address_councildis": "E",
    "status": "Assigned to Contractor",
    "contractor": "Waste Pro",
    "rowid": "1271013",
    "final_x": "3716025.86207",
    "final_y": "560277.469149",
    "longitude": "-89.9579613954362",
    "latitude": "30.03347420878148",
    "geocoded_column": {
      "latitude": "30.03347420878148",
      "longitude": "-89.9579613954362"
    }
  },
  {
    "service_request": "2026-1271012",
    "request_type": "Trash/Recycling",
    "request_reason": "Request a Large Item Pick Up",
    "date_created": "2026-04-03T16:06:52.000",
    "date_modified": "2026-04-03T16:06:54.000",
    "request_status": "Pending",
    "responsible_agency": "Department of Sanitation",
    "final_address": "3110 Cleveland Ave",
    "address_councildis": "B",
    "status": "Assigned to Contractor",
    "contractor": "IV Waste",
    "rowid": "1271012",
    "final_x": "3673704.57908",
    "final_y": "535777.075527",
    "longitude": "-90.09253993171296",
    "latitude": "29.967435599880453",
    "geocoded_column": {
      "latitude": "29.967435599880453",
      "longitude": "-90.09253993171296"
    }
  },
  {
    "service_request": "2026-1271011",
    "request_type": "Roads and Streets",
    "request_reason": "Street Subsidence (Sinking)",
    "date_created": "2026-04-03T15:56:23.000",
    "date_modified": "2026-04-03T15:56:25.000",
    "request_status": "Pending",
    "responsible_agency": "Sewerage & Water Board",
    "final_address": "531 Arabella St",
    "address_councildis": "A",
    "status": "Pending",
    "rowid": "1271011",
    "final_x": "3665735.48602",
    "final_y": "518184.451702",
    "longitude": "-90.11829570168344",
    "latitude": "29.919296418616298",
    "geocoded_column": {
      "latitude": "29.919296418616298",
      "longitude": "-90.11829570168344"
    }
  },
  {
    "service_request": "2026-1271010",
    "request_type": "Abandoned Vehicles",
    "request_reason": "Abandoned/Junk Vehicles",
    "date_created": "2026-04-03T15:50:01.000",
    "date_modified": "2026-04-03T15:50:03.000",
    "request_status": "Pending",
    "responsible_agency": "Department of Public Works",
    "final_address": "317 Lamarque St",
    "address_councildis": "C",
    "status": "Pending",
    "rowid": "1271010",
    "final_x": "3686438.27561",
    "final_y": "526711.359678",
    "longitude": "-90.05264676793819",
    "latitude": "29.94212269832863",
    "geocoded_column": {
      "latitude": "29.94212269832863",
      "longitude": "-90.05264676793819"
    }
  },
  {
    "service_request": "2026-1271009",
    "request_type": "Trash/Recycling",
    "request_reason": "Replace Trash Cart",
    "date_created": "2026-04-03T15:47:34.000",
    "date_modified": "2026-04-03T15:47:36.000",
    "request_status": "Pending",
    "responsible_agency": "Department of Sanitation",
    "final_address": "1404 Valmont St",
    "address_councildis": "B",
    "status": "Assigned to Contractor",
    "contractor": "IV Waste",
    "rowid": "1271009",
    "final_x": "3667623.32065",
    "final_y": "520261.316408",
    "longitude": "-90.1122668806524",
    "latitude": "29.924951962438982",
    "geocoded_column": {
      "latitude": "29.924951962438982",
      "longitude": "-90.1122668806524"
    }
  },
  {
    "service_request": "2026-1271008",
    "request_type": "Trash/Recycling",
    "request_reason": "Order Trash Cart",
    "date_created": "2026-04-03T15:44:03.000",
    "date_modified": "2026-04-03T15:44:04.000",
    "request_status": "Pending",
    "responsible_agency": "Department of Sanitation",
    "final_address": "2023 Magazine St",
    "address_councildis": "B",
    "status": "Assigned to Contractor",
    "contractor": "IV Waste",
    "rowid": "1271008",
    "final_x": "3679335.47323",
    "final_y": "522498.917306",
    "longitude": "-90.0752178821878",
    "latitude": "29.930756248813235",
    "geocoded_column": {
      "latitude": "29.930756248813235",
      "longitude": "-90.0752178821878"
    }
  },
  {
    "service_request": "2026-1271007",
    "request_type": "General Services",
    "request_reason": "General Service Request",
    "date_created": "2026-04-03T15:41:42.000",
    "date_modified": "2026-04-03T15:41:44.000",
    "request_status": "Pending",
    "responsible_agency": "Orleans Parish Communication District",
    "final_address": "1549 Foy St",
    "address_councildis": "D",
    "status": "Pending",
    "rowid": "1271007",
    "final_x": "3679260.6493",
    "final_y": "546646.450641",
    "longitude": "-90.07461669340475",
    "latitude": "29.99715599866547",
    "geocoded_column": {
      "latitude": "29.99715599866547",
      "longitude": "-90.07461669340475"
    }
  },
  {
    "service_request": "2026-1271006",
    "request_type": "Parks & Parkways",
    "request_reason": "Tree Stump (removal, grind)",
    "date_created": "2026-04-03T15:41:37.000",
    "date_modified": "2026-04-03T15:41:39.000",
    "request_status": "Pending",
    "responsible_agency": "Department of Parks & Parkway",
    "final_address": "1647 N Galvez St",
    "address_councildis": "D",
    "status": "Pending",
    "rowid": "1271006",
    "final_x": "3681014.86786",
    "final_y": "539224.94273",
    "longitude": "-90.06933381046277",
    "latitude": "29.97669635487794",
    "geocoded_column": {
      "latitude": "29.97669635487794",
      "longitude": "-90.06933381046277"
    }
  },
  {
    "service_request": "2026-1271005",
    "request_type": "Mosquito, Termite & Rodent Control",
    "request_reason": "Mosquito Complaint",
    "date_created": "2026-04-03T15:36:47.000",
    "date_modified": "2026-04-03T15:36:49.000",
    "request_status": "Pending",
    "responsible_agency": "Mosquito, Termite & Rodent Control Board",
    "final_address": "1490 Athis St",
    "address_councildis": "D",
    "status": "Pending",
    "rowid": "1271005",
    "final_x": "3678211.27874",
    "final_y": "553679.752087",
    "longitude": "-90.07768814220746",
    "latitude": "30.01652672036657",
    "geocoded_column": {
      "latitude": "30.01652672036657",
      "longitude": "-90.07768814220746"
    }
  },
  {
    "service_request": "2026-1271004",
    "request_type": "Abandoned Vehicles",
    "request_reason": "Abandoned/Junk Vehicles",
    "date_created": "2026-04-03T15:36:46.000",
    "date_modified": "2026-04-03T15:36:47.000",
    "request_status": "Pending",
    "responsible_agency": "Department of Public Works",
    "final_address": "3908 Perrier St",
    "address_councildis": "B",
    "status": "Pending",
    "rowid": "1271004",
    "final_x": "3672672.07105",
    "final_y": "520211.366904",
    "longitude": "-90.09633129364002",
    "latitude": "29.924665713552923",
    "geocoded_column": {
      "latitude": "29.924665713552923",
      "longitude": "-90.09633129364002"
    }
  },
  {
    "service_request": "2026-1271003",
    "request_type": "Trash/Recycling",
    "request_reason": "Replace Recycling Cart",
    "date_created": "2026-04-03T15:34:45.000",
    "date_modified": "2026-04-03T15:34:47.000",
    "request_status": "Pending",
    "responsible_agency": "Department of Sanitation",
    "final_address": "1424 Toledano St",
    "address_councildis": "B",
    "status": "Pending",
    "rowid": "1271003",
    "final_x": "3674860.4363",
    "final_y": "520922.258809",
    "longitude": "-90.0893989876849",
    "latitude": "29.926555295428162",
    "geocoded_column": {
      "latitude": "29.926555295428162",
      "longitude": "-90.0893989876849"
    }
  },
  {
    "service_request": "2026-1271002",
    "request_type": "Drainage",
    "request_reason": "Ditch and Culvert Maintenance",
    "date_created": "2026-04-03T14:20:19.000",
    "date_modified": "2026-04-03T14:20:21.000",
    "request_status": "Pending",
    "responsible_agency": "Department of Public Works",
    "final_address": "7426 Dominican St",
    "address_councildis": "A",
    "status": "Pending",
    "rowid": "1271002",
    "final_x": "3661933.35239",
    "final_y": "524558.452092",
    "longitude": "-90.13008590304574",
    "latitude": "29.936933237381314",
    "geocoded_column": {
      "latitude": "29.936933237381314",
      "longitude": "-90.13008590304574"
    }
  },
  {
    "service_request": "2026-1271001",
    "request_type": "General Services",
    "request_reason": "General Service Request",
    "date_created": "2026-04-03T14:13:59.000",
    "date_modified": "2026-04-03T14:14:01.000",
    "request_status": "Pending",
    "responsible_agency": "Orleans Parish Communication District",
    "final_address": "1324 Nashville Ave, New Orleans, Louisiana, 70115",
    "address_councildis": "A",
    "status": "Pending",
    "rowid": "1271001",
    "final_x": "3665885.30586",
    "final_y": "520885.663737",
    "longitude": "-90.11773233953126",
    "latitude": "29.92671953359914",
    "geocoded_column": {
      "latitude": "29.92671953359914",
      "longitude": "-90.11773233953126"
    }
  },
  {
    "service_request": "2026-1271000",
    "request_type": "Street and Traffic Signs",
    "request_reason": "Stop Sign Missing or Damaged",
    "date_created": "2026-04-03T14:02:24.000",
    "date_modified": "2026-04-03T14:02:26.000",
    "request_status": "Pending",
    "responsible_agency": "Department of Public Works",
    "final_address": "100 BLK Pacific Ave",
    "address_councildis": "C",
    "status": "Pending",
    "rowid": "1271000",
    "final_x": "3688567.27768",
    "final_y": "531267.791255",
    "longitude": "-90.04576341622618",
    "latitude": "29.954585724026906",
    "geocoded_column": {
      "latitude": "29.954585724026906",
      "longitude": "-90.04576341622618"
    }
  },
  {
    "service_request": "2026-1270999",
    "request_type": "Street and Traffic Signs",
    "request_reason": "Stop Sign Missing or Damaged",
    "date_created": "2026-04-03T13:59:48.000",
    "date_modified": "2026-04-03T13:59:50.000",
    "request_status": "Pending",
    "responsible_agency": "Department of Public Works",
    "final_address": "100 BLK Pacific Ave",
    "address_councildis": "C",
    "status": "Pending",
    "rowid": "1270999",
    "final_x": "3688567.27768",
    "final_y": "531267.791255",
    "longitude": "-90.04576341622618",
    "latitude": "29.954585724026906",
    "geocoded_column": {
      "latitude": "29.954585724026906",
      "longitude": "-90.04576341622618"
    }
  },
  {
    "service_request": "2026-1270998",
    "request_type": "Taxi Issues",
    "request_reason": "Taxi Compliment",
    "date_created": "2026-04-03T13:59:34.000",
    "date_modified": "2026-04-03T13:59:37.000",
    "request_status": "Pending",
    "responsible_agency": "Department of Public Works",
    "final_address": "142 Poydras St",
    "address_councildis": "B",
    "status": "Pending",
    "rowid": "1270998",
    "final_x": "3682846.16149",
    "final_y": "528818.782976",
    "longitude": "-90.0639141266684",
    "latitude": "29.94802730975888",
    "geocoded_column": {
      "latitude": "29.94802730975888",
      "longitude": "-90.0639141266684"
    }
  },
  {
    "service_request": "2026-1270997",
    "request_type": "Property Maintenance",
    "request_reason": "Property Maintenance",
    "date_created": "2026-04-03T13:57:57.000",
    "date_modified": "2026-04-03T13:57:58.000",
    "request_status": "Pending",
    "responsible_agency": "Department of Code Enforcement",
    "final_address": "2553 N Rocheblave St",
    "address_councildis": "D",
    "status": "Pending",
    "rowid": "1270997",
    "final_x": "3686303.8415",
    "final_y": "541263.991628",
    "longitude": "-90.05255764066068",
    "latitude": "29.98214153551677",
    "geocoded_column": {
      "latitude": "29.98214153551677",
      "longitude": "-90.05255764066068"
    }
  },
  {
    "service_request": "2026-1270996",
    "request_type": "Trash/Recycling",
    "request_reason": "Replace Trash Cart",
    "date_created": "2026-04-03T13:55:37.000",
    "date_modified": "2026-04-03T13:55:51.000",
    "request_status": "Pending",
    "responsible_agency": "Department of Sanitation",
    "final_address": "2718 Magazine St",
    "address_councildis": "B",
    "status": "Assigned to Contractor",
    "contractor": "IV Waste",
    "rowid": "1270996",
    "final_x": "3677208.9556",
    "final_y": "520852.071417",
    "longitude": "-90.08198777451852",
    "latitude": "29.926291989030855",
    "geocoded_column": {
      "latitude": "29.926291989030855",
      "longitude": "-90.08198777451852"
    }
  },
  {
    "service_request": "2026-1270995",
    "request_type": "Trash/Recycling",
    "request_reason": "Order Recycling Cart",
    "date_created": "2026-04-03T13:37:12.000",
    "date_modified": "2026-04-03T13:37:14.000",
    "request_status": "Pending",
    "responsible_agency": "Department of Sanitation",
    "final_address": "2147 Carnot St",
    "address_councildis": "D",
    "status": "Pending",
    "rowid": "1270995",
    "final_x": "3683541.35951",
    "final_y": "549940.04866",
    "longitude": "-90.06097859392806",
    "latitude": "30.00608221578773",
    "geocoded_column": {
      "latitude": "30.00608221578773",
      "longitude": "-90.06097859392806"
    }
  },
  {
    "service_request": "2026-1270994",
    "request_type": "Trash/Recycling",
    "request_reason": "Order Trash Cart",
    "date_created": "2026-04-03T13:35:19.000",
    "date_modified": "2026-04-03T13:35:21.000",
    "request_status": "Pending",
    "responsible_agency": "Department of Sanitation",
    "final_address": "2147 Carnot St",
    "address_councildis": "D",
    "status": "Assigned to Contractor",
    "contractor": "IV Waste",
    "rowid": "1270994",
    "final_x": "3683541.35951",
    "final_y": "549940.04866",
    "longitude": "-90.06097859392806",
    "latitude": "30.00608221578773",
    "geocoded_column": {
      "latitude": "30.00608221578773",
      "longitude": "-90.06097859392806"
    }
  },
  {
    "service_request": "2026-1270993",
    "request_type": "Roads and Streets",
    "request_reason": "Street Subsidence (Sinking)",
    "date_created": "2026-04-03T13:33:06.000",
    "date_modified": "2026-04-03T13:33:07.000",
    "request_status": "Pending",
    "responsible_agency": "Sewerage & Water Board",
    "final_address": "334 Spencer Ave",
    "address_councildis": "A",
    "status": "Pending",
    "rowid": "1270993",
    "final_x": "3665150.80032",
    "final_y": "553609.402583",
    "longitude": "-90.11895619568023",
    "latitude": "30.0167203472726",
    "geocoded_column": {
      "latitude": "30.0167203472726",
      "longitude": "-90.11895619568023"
    }
  },
  {
    "service_request": "2026-1270992",
    "request_type": "Trash/Recycling",
    "request_reason": "Request a Large Item Pick Up",
    "date_created": "2026-04-03T13:27:44.000",
    "date_modified": "2026-04-03T13:27:46.000",
    "request_status": "Pending",
    "responsible_agency": "Department of Sanitation",
    "final_address": "100 St John Ct E",
    "address_councildis": "A",
    "status": "Assigned to Contractor",
    "contractor": "IV Waste",
    "rowid": "1270992",
    "final_x": "3674743.84027",
    "final_y": "540152.856843",
    "longitude": "-90.0891078688657",
    "latitude": "29.97943652351472",
    "geocoded_column": {
      "latitude": "29.97943652351472",
      "longitude": "-90.0891078688657"
    }
  },
  {
    "service_request": "2026-1270991",
    "request_type": "Roads and Streets",
    "request_reason": "Abandoned Service Cut",
    "date_created": "2026-04-03T13:22:02.000",
    "date_modified": "2026-04-03T13:22:05.000",
    "request_status": "Pending",
    "responsible_agency": "Department of Public Works",
    "final_address": "818 Pleasant St",
    "address_councildis": "B",
    "status": "Pending",
    "rowid": "1270991",
    "final_x": "3675949.35304",
    "final_y": "519007.376567",
    "longitude": "-90.08602737445828",
    "latitude": "29.921257437505314",
    "geocoded_column": {
      "latitude": "29.921257437505314",
      "longitude": "-90.08602737445828"
    }
  },
  {
    "service_request": "2026-1270990",
    "request_type": "Street and Traffic Signs",
    "request_reason": "Street Name Sign Damaged or Missing",
    "date_created": "2026-04-03T13:12:20.000",
    "date_modified": "2026-04-03T13:12:21.000",
    "request_status": "Pending",
    "responsible_agency": "Department of Public Works",
    "final_address": "TULANE AVE & S DUPRE ST",
    "address_councildis": "B",
    "status": "Pending",
    "rowid": "1270990",
    "final_x": "3673497.2",
    "final_y": "534188.98",
    "longitude": "-90.0932491169814",
    "latitude": "29.963075044268898",
    "geocoded_column": {
      "latitude": "29.963075044268898",
      "longitude": "-90.0932491169814"
    }
  },
  {
    "service_request": "2026-1270989",
    "request_type": "Trash/Recycling",
    "request_reason": "Missed Trash Pick-Up",
    "date_created": "2026-04-03T13:08:59.000",
    "date_modified": "2026-04-03T13:30:55.000",
    "case_close_date": "2026-04-03T08:30:54.000",
    "request_status": "Closed",
    "responsible_agency": "Department of Sanitation",
    "final_address": "2027 Coliseum St",
    "address_councildis": "B",
    "status": "Invalid Request",
    "contractor": "IV Waste",
    "contractor_action": "Invalid Request",
    "rowid": "1270989",
    "final_x": "3678638.5627",
    "final_y": "523267.319611",
    "longitude": "-90.0773913414554",
    "latitude": "29.93289012523724",
    "geocoded_column": {
      "latitude": "29.93289012523724",
      "longitude": "-90.0773913414554"
    }
  },
  {
    "service_request": "2026-1270987",
    "request_type": "Traffic Signals",
    "request_reason": "Traffic Signal Malfunctioning or Damaged",
    "date_created": "2026-04-03T12:55:11.000",
    "date_modified": "2026-04-03T12:55:12.000",
    "request_status": "Pending",
    "responsible_agency": "Department of Public Works",
    "final_address": "3900 Dublin St",
    "address_councildis": "A",
    "status": "Pending",
    "rowid": "1270987",
    "final_x": "3667971.22266",
    "final_y": "535895.698247",
    "longitude": "-90.11064203636731",
    "latitude": "29.967931239067607",
    "geocoded_column": {
      "latitude": "29.967931239067607",
      "longitude": "-90.11064203636731"
    }
  },
  {
    "service_request": "2026-1270988",
    "request_type": "Traffic Signals",
    "request_reason": "Traffic Signal Malfunctioning or Damaged",
    "date_created": "2026-04-03T12:55:11.000",
    "date_modified": "2026-04-03T12:55:12.000",
    "request_status": "Pending",
    "responsible_agency": "Department of Public Works",
    "final_address": "3900 Dublin St",
    "address_councildis": "A",
    "status": "Pending",
    "rowid": "1270988",
    "final_x": "3667971.22266",
    "final_y": "535895.698247",
    "longitude": "-90.11064203636731",
    "latitude": "29.967931239067607",
    "geocoded_column": {
      "latitude": "29.967931239067607",
      "longitude": "-90.11064203636731"
    }
  },
  {
    "service_request": "2026-1270986",
    "request_type": "Trash/Recycling",
    "request_reason": "Missed Trash Pick-Up",
    "date_created": "2026-04-03T12:51:55.000",
    "date_modified": "2026-04-03T16:18:35.000",
    "case_close_date": "2026-04-03T11:18:34.000",
    "request_status": "Closed",
    "responsible_agency": "Department of Sanitation",
    "final_address": "7301 Malvern Dr",
    "address_councildis": "E",
    "status": "Invalid Request",
    "contractor": "Waste Pro",
    "contractor_action": "Invalid",
    "rowid": "1270986",
    "final_x": "3702970.25329",
    "final_y": "560613.585566",
    "longitude": "-89.9992058723215",
    "latitude": "30.034822824715384",
    "geocoded_column": {
      "latitude": "30.034822824715384",
      "longitude": "-89.9992058723215"
    }
  },
  {
    "service_request": "2026-1270985",
    "request_type": "Trash/Recycling",
    "request_reason": "Replace Recycling Cart",
    "date_created": "2026-04-03T12:42:09.000",
    "date_modified": "2026-04-03T12:42:10.000",
    "request_status": "Pending",
    "responsible_agency": "Department of Sanitation",
    "final_address": "431 26Th St",
    "address_councildis": "A",
    "status": "Pending",
    "rowid": "1270985",
    "final_x": "3664515.89492",
    "final_y": "550012.328084",
    "longitude": "-90.12108247740822",
    "latitude": "30.006848130970262",
    "geocoded_column": {
      "latitude": "30.006848130970262",
      "longitude": "-90.12108247740822"
    }
  },
  {
    "service_request": "2026-1270984",
    "request_type": "Trash/Recycling",
    "request_reason": "MIssed Recycling Pick-Up",
    "date_created": "2026-04-03T12:37:52.000",
    "date_modified": "2026-04-03T13:48:43.000",
    "case_close_date": "2026-04-03T08:48:41.000",
    "request_status": "Closed",
    "responsible_agency": "Department of Sanitation",
    "final_address": "3137 Royal St",
    "address_councildis": "C",
    "status": "Invalid Request",
    "contractor": "IV Waste",
    "contractor_action": "Invalid Request",
    "rowid": "1270984",
    "final_x": "3688924.54697",
    "final_y": "534465.628485",
    "longitude": "-90.04452172787643",
    "latitude": "29.963367624120956",
    "geocoded_column": {
      "latitude": "29.963367624120956",
      "longitude": "-90.04452172787643"
    }
  },
  {
    "service_request": "2026-1270983",
    "request_type": "Trash/Recycling",
    "request_reason": "Request a Large Item Pick Up",
    "date_created": "2026-04-03T12:36:37.000",
    "date_modified": "2026-04-03T12:36:38.000",
    "request_status": "Pending",
    "responsible_agency": "Department of Sanitation",
    "final_address": "1630 St Roch Ave Apt A",
    "address_councildis": "D",
    "status": "Assigned to Contractor",
    "contractor": "IV Waste",
    "rowid": "1270983",
    "final_x": "3686244.52834",
    "final_y": "538521.767369",
    "longitude": "-90.05284177062042",
    "latitude": "29.974603207078154",
    "geocoded_column": {
      "latitude": "29.974603207078154",
      "longitude": "-90.05284177062042"
    }
  },
  {
    "service_request": "2026-1270982",
    "request_type": "Trash/Recycling",
    "request_reason": "Request a Large Item Pick Up",
    "date_created": "2026-04-03T12:20:45.000",
    "date_modified": "2026-04-03T12:20:46.000",
    "request_status": "Pending",
    "responsible_agency": "Department of Sanitation",
    "final_address": "3223 Dearmas St",
    "address_councildis": "C",
    "status": "Assigned to Contractor",
    "contractor": "Richards Disposal",
    "rowid": "1270982",
    "final_x": "3696199.47248",
    "final_y": "526971.736062",
    "longitude": "-90.02181930519791",
    "latitude": "29.942535047415042",
    "geocoded_column": {
      "latitude": "29.942535047415042",
      "longitude": "-90.02181930519791"
    }
  },
  {
    "service_request": "2026-1270981",
    "request_type": "Abandoned Vehicles",
    "request_reason": "Abandoned/Junk Vehicles",
    "date_created": "2026-04-03T12:15:59.000",
    "date_modified": "2026-04-03T12:16:01.000",
    "request_status": "Pending",
    "responsible_agency": "Department of Public Works",
    "final_address": "8825 Willow St",
    "address_councildis": "A",
    "status": "Pending",
    "rowid": "1270981",
    "final_x": "3660466.00928",
    "final_y": "530738.062978",
    "longitude": "-90.13451429388725",
    "latitude": "29.95396748823974",
    "geocoded_column": {
      "latitude": "29.95396748823974",
      "longitude": "-90.13451429388725"
    }
  },
  {
    "service_request": "2026-1270980",
    "request_type": "Mosquito, Termite & Rodent Control",
    "request_reason": "Rodent Complaint (Mice & Rats)",
    "date_created": "2026-04-03T12:10:20.000",
    "date_modified": "2026-04-03T12:10:22.000",
    "request_status": "Pending",
    "responsible_agency": "Mosquito, Termite & Rodent Control Board",
    "final_address": "0 BLK Admiralty Ct",
    "address_councildis": "C",
    "status": "Pending",
    "rowid": "1270980",
    "final_x": "3704031.03777",
    "final_y": "523040.620373",
    "longitude": "-89.99723816614093",
    "latitude": "29.931477060413563",
    "geocoded_column": {
      "latitude": "29.931477060413563",
      "longitude": "-89.99723816614093"
    }
  },
  {
    "service_request": "2026-1270979",
    "request_type": "Trash/Recycling",
    "request_reason": "Request a Large Item Pick Up",
    "date_created": "2026-04-03T12:09:09.000",
    "date_modified": "2026-04-03T12:09:12.000",
    "request_status": "Pending",
    "responsible_agency": "Department of Sanitation",
    "final_address": "2505 Dumaine St",
    "address_councildis": "C",
    "status": "Assigned to Contractor",
    "contractor": "IV Waste",
    "rowid": "1270979",
    "final_x": "3677925.12955",
    "final_y": "536971.167176",
    "longitude": "-90.07917007878851",
    "latitude": "29.970592601780492",
    "geocoded_column": {
      "latitude": "29.970592601780492",
      "longitude": "-90.07917007878851"
    }
  },
  {
    "service_request": "2026-1270978",
    "request_type": "Trash/Recycling",
    "request_reason": "Repair Trash Cart",
    "date_created": "2026-04-03T12:02:49.000",
    "date_modified": "2026-04-03T12:02:51.000",
    "request_status": "Pending",
    "responsible_agency": "Department of Sanitation",
    "final_address": "7533 Zimpel St, New Orleans, Louisiana, 70118",
    "status": "Assigned to Contractor",
    "rowid": "1270978",
    "longitude": "0.0",
    "latitude": "0.0",
    "geocoded_column": {
      "latitude": "0.0",
      "longitude": "0.0"
    }
  },
  {
    "service_request": "2026-1270977",
    "request_type": "Trash/Recycling",
    "request_reason": "Request a Large Item Pick Up",
    "date_created": "2026-04-03T12:00:10.000",
    "date_modified": "2026-04-03T12:00:11.000",
    "request_status": "Pending",
    "responsible_agency": "Department of Sanitation",
    "final_address": "13760 PierreS Ct",
    "address_councildis": "E",
    "status": "Assigned to Contractor",
    "contractor": "Waste Pro",
    "rowid": "1270977",
    "final_x": "3725235.77184",
    "final_y": "570221.796327",
    "longitude": "-89.92847221818126",
    "latitude": "30.060509787555265",
    "geocoded_column": {
      "latitude": "30.060509787555265",
      "longitude": "-89.92847221818126"
    }
  },
  {
    "service_request": "2026-1270976",
    "request_type": "General Services",
    "request_reason": "General Service Request",
    "date_created": "2026-04-03T11:59:52.000",
    "date_modified": "2026-04-03T11:59:56.000",
    "request_status": "Pending",
    "responsible_agency": "Orleans Parish Communication District",
    "final_address": "327 S Murat St",
    "address_councildis": "A",
    "status": "Pending",
    "rowid": "1270976",
    "final_x": "3669037.35201",
    "final_y": "538590.201545",
    "longitude": "-90.10718409668232",
    "latitude": "29.97530889607191",
    "geocoded_column": {
      "latitude": "29.97530889607191",
      "longitude": "-90.10718409668232"
    }
  },
  {
    "service_request": "2026-1270975",
    "request_type": "Trash/Recycling",
    "request_reason": "Change Size of Trash Cart",
    "date_created": "2026-04-03T11:52:35.000",
    "date_modified": "2026-04-03T11:52:37.000",
    "request_status": "Pending",
    "responsible_agency": "Department of Sanitation",
    "final_address": "4441 Jeanne Marie Pl",
    "address_councildis": "D",
    "status": "Assigned to Contractor",
    "contractor": "IV Waste",
    "rowid": "1270975",
    "final_x": "3678582.22382",
    "final_y": "548957.763667",
    "longitude": "-90.0766797373329",
    "latitude": "30.0035317641778",
    "geocoded_column": {
      "latitude": "30.0035317641778",
      "longitude": "-90.0766797373329"
    }
  },
  {
    "service_request": "2026-1270974",
    "request_type": "Property Maintenance",
    "request_reason": "Property Maintenance",
    "date_created": "2026-04-03T11:38:32.000",
    "date_modified": "2026-04-03T11:38:34.000",
    "request_status": "Pending",
    "responsible_agency": "Department of Code Enforcement",
    "final_address": "1307 S Gayoso St",
    "address_councildis": "B",
    "status": "Pending",
    "rowid": "1270974",
    "final_x": "3671026.35649",
    "final_y": "531238.836098",
    "longitude": "-90.10115194481833",
    "latitude": "29.955036423923318",
    "geocoded_column": {
      "latitude": "29.955036423923318",
      "longitude": "-90.10115194481833"
    }
  },
  {
    "service_request": "2026-1270973",
    "request_type": "Trash/Recycling",
    "request_reason": "Replace Recycling Cart",
    "date_created": "2026-04-03T11:29:03.000",
    "date_modified": "2026-04-03T11:29:05.000",
    "request_status": "Pending",
    "responsible_agency": "Department of Sanitation",
    "final_address": "5230 Laurel St",
    "address_councildis": "B",
    "status": "Pending",
    "rowid": "1270973",
    "final_x": "3667769.40756",
    "final_y": "517827.236598",
    "longitude": "-90.11188763622705",
    "latitude": "29.9182547289633",
    "geocoded_column": {
      "latitude": "29.9182547289633",
      "longitude": "-90.11188763622705"
    }
  },
  {
    "service_request": "2026-1270972",
    "request_type": "Trash/Recycling",
    "request_reason": "Replace Trash Cart",
    "date_created": "2026-04-03T11:23:31.000",
    "date_modified": "2026-04-03T11:23:33.000",
    "request_status": "Pending",
    "responsible_agency": "Department of Sanitation",
    "final_address": "5230 Laurel St",
    "address_councildis": "B",
    "status": "Assigned to Contractor",
    "contractor": "IV Waste",
    "rowid": "1270972",
    "final_x": "3667769.40756",
    "final_y": "517827.236598",
    "longitude": "-90.11188763622705",
    "latitude": "29.9182547289633",
    "geocoded_column": {
      "latitude": "29.9182547289633",
      "longitude": "-90.11188763622705"
    }
  },
  {
    "service_request": "2026-1270971",
    "request_type": "Trash/Recycling",
    "request_reason": "Request a Large Item Pick Up",
    "date_created": "2026-04-03T11:20:08.000",
    "date_modified": "2026-04-03T11:20:12.000",
    "request_status": "Pending",
    "responsible_agency": "Department of Sanitation",
    "final_address": "5450 N Roman St",
    "address_councildis": "E",
    "status": "Assigned to Contractor",
    "contractor": "Waste Pro",
    "rowid": "1270971",
    "final_x": "3698275.3544",
    "final_y": "536448.552839",
    "longitude": "-90.01492104112295",
    "latitude": "29.968527448113612",
    "geocoded_column": {
      "latitude": "29.968527448113612",
      "longitude": "-90.01492104112295"
    }
  },
  {
    "service_request": "2026-1270970",
    "request_type": "Drainage",
    "request_reason": "Ditch and Culvert Maintenance",
    "date_created": "2026-04-03T10:59:01.000",
    "date_modified": "2026-04-03T10:59:02.000",
    "request_status": "Pending",
    "responsible_agency": "Department of Public Works",
    "final_address": "4733 Dauphine St",
    "address_councildis": "E",
    "status": "Pending",
    "rowid": "1270970",
    "final_x": "3694606.91702",
    "final_y": "533430.776196",
    "longitude": "-90.02661478680982",
    "latitude": "29.960345180794135",
    "geocoded_column": {
      "latitude": "29.960345180794135",
      "longitude": "-90.02661478680982"
    }
  },
  {
    "service_request": "2026-1270968",
    "request_type": "Trash/Recycling",
    "request_reason": "Order Trash Cart",
    "date_created": "2026-04-03T10:51:58.000",
    "date_modified": "2026-04-03T10:52:00.000",
    "request_status": "Pending",
    "responsible_agency": "Department of Sanitation",
    "final_address": "2827 Dryades St Apt 2A",
    "address_councildis": "B",
    "status": "Assigned to Contractor",
    "contractor": "IV Waste",
    "rowid": "1270968",
    "final_x": "3675084.71022",
    "final_y": "523351.223547",
    "longitude": "-90.0886077230318",
    "latitude": "29.933227464292774",
    "geocoded_column": {
      "latitude": "29.933227464292774",
      "longitude": "-90.0886077230318"
    }
  },
  {
    "service_request": "2026-1270967",
    "request_type": "Trash/Recycling",
    "request_reason": "Missed Trash Pick-Up",
    "date_created": "2026-04-03T10:46:55.000",
    "date_modified": "2026-04-03T12:13:32.000",
    "case_close_date": "2026-04-03T07:13:31.000",
    "request_status": "Closed",
    "responsible_agency": "Department of Sanitation",
    "final_address": "7301 Malvern Dr",
    "address_councildis": "E",
    "status": "Invalid Request",
    "contractor": "Waste Pro",
    "contractor_action": "Invalid",
    "rowid": "1270967",
    "final_x": "3702970.25329",
    "final_y": "560613.585566",
    "longitude": "-89.9992058723215",
    "latitude": "30.034822824715384",
    "geocoded_column": {
      "latitude": "30.034822824715384",
      "longitude": "-89.9992058723215"
    }
  },
  {
    "service_request": "2026-1270966",
    "request_type": "Trash/Recycling",
    "request_reason": "Missed Trash Pick-Up",
    "date_created": "2026-04-03T10:39:43.000",
    "date_modified": "2026-04-03T12:12:09.000",
    "case_close_date": "2026-04-03T07:12:08.000",
    "request_status": "Closed",
    "responsible_agency": "Department of Sanitation",
    "final_address": "5319 N Galvez St",
    "address_councildis": "E",
    "status": "Assigned to Contractor",
    "contractor": "Waste Pro",
    "contractor_action": "Completed",
    "rowid": "1270966",
    "final_x": "3698024.27568",
    "final_y": "537783.957256",
    "longitude": "-90.01566545942384",
    "latitude": "29.97220727202459",
    "geocoded_column": {
      "latitude": "29.97220727202459",
      "longitude": "-90.01566545942384"
    }
  },
  {
    "service_request": "2026-1270965",
    "request_type": "Graffiti Removal",
    "request_reason": "Graffiti Removal",
    "date_created": "2026-04-03T10:30:07.000",
    "date_modified": "2026-04-03T10:30:09.000",
    "request_status": "Pending",
    "responsible_agency": "Department of Code Enforcement",
    "final_address": "2509 N Villere St",
    "address_councildis": "C",
    "status": "Pending",
    "rowid": "1270965",
    "final_x": "3687222.37961",
    "final_y": "537639.05108",
    "longitude": "-90.0497847134448",
    "latitude": "29.97214596363119",
    "geocoded_column": {
      "latitude": "29.97214596363119",
      "longitude": "-90.0497847134448"
    }
  },
  {
    "service_request": "2026-1270964",
    "request_type": "Trash/Recycling",
    "request_reason": "Replace Trash Cart",
    "date_created": "2026-04-03T10:24:42.000",
    "date_modified": "2026-04-03T10:24:44.000",
    "request_status": "Pending",
    "responsible_agency": "Department of Sanitation",
    "final_address": "105 Fairfax Pl",
    "address_councildis": "C",
    "status": "Assigned to Contractor",
    "contractor": "Richards Disposal",
    "rowid": "1270964",
    "final_x": "3705729.35211",
    "final_y": "517367.532405",
    "longitude": "-89.9920864693383",
    "latitude": "29.91582348284519",
    "geocoded_column": {
      "latitude": "29.91582348284519",
      "longitude": "-89.9920864693383"
    }
  },