[
  {
    "service_request": "2024-1097098",
    "request_type": "Traffic Signals/Signs/Striping/Streetlights",
    "request_reason": "Street Light Outage/Malfunction",
    "date_created": "2024-05-27T23:51:38.000",
    "date_modified": "2024-05-27T23:51:38.000",
    "request_status": "Pending",
    "responsible_agency": "Department of Public Works",
    "final_address": "4016 N Rampart St",
    "address_councildis": "C",
    "status": "Assigned to Contractor",
    "contractor": "Legacy Professional Services",
    "rowid": "1097098",
    "final_x": "3691822.12355",
    "final_y": "534798.95847",
    "longitude": "-90.0353596144258",
    "latitude": "29.964194231875553",
    "geocoded_column": {
      "latitude": "29.964194231875553",
      "longitude": "-90.0353596144258"
    }
  },
  {
    "service_request": "2024-1097097",
    "request_type": "Roads/Drainage",
    "request_reason": "Street Flooding / Drainage",
    "date_created": "2024-05-27T23:25:26.000",
    "date_modified": "2024-05-27T23:25:26.000",
    "request_status": "Pending",
    "responsible_agency": "Department of Public Works",
    "final_address": "3601 Camp St",
    "address_councildis": "B",
    "status": "Pending",
    "rowid": "1097097",
    "final_x": "3673955.17684",
    "final_y": "519672.449016",
    "longitude": "-90.09229937761704",
    "latitude": "29.92314571189189",
    "geocoded_column": {
      "latitude": "29.92314571189189",
      "longitude": "-90.09229937761704"
    }
  },
  {
    "service_request": "2024-1097096",
    "request_type": "Trash/Recycling",
    "request_reason": "Order Recycling Cart",
    "date_created": "2024-05-27T23:18:00.000",
    "date_modified": "2024-05-27T23:18:00.000",
    "request_status": "Pending",
    "responsible_agency": "Department of Sanitation",
    "final_address": "6029 Vermillion Blvd",
    "address_councildis": "D",
    "status": "Pending",
    "rowid": "1097096",
    "final_x": "3683195.37653",
    "final_y": "555147.324377",
    "longitude": "-90.06188909281052",
    "latitude": "30.02041088743273",
    "geocoded_column": {
      "latitude": "30.02041088743273",
      "longitude": "-90.06188909281052"
    }
  },
  {
    "service_request": "2024-1097095",
    "request_type": "Roads/Drainage",
    "request_reason": "Pothole",
    "date_created": "2024-05-27T23:10:22.000",
    "date_modified": "2024-05-27T23:10:22.000",
    "request_status": "Pending",
    "responsible_agency": "Department of Public Works",
    "final_address": "1112 Constantinople St",
    "address_councildis": "B",
    "status": "Pending",
    "rowid": "1097095",
    "final_x": "3672348.95259",
    "final_y": "519796.384952",
    "longitude": "-90.09736540233975",
    "latitude": "29.923534233550217",
    "geocoded_column": {
      "latitude": "29.923534233550217",
      "longitude": "-90.09736540233975"
    }
  },
  {
    "service_request": "2024-1097094",
    "request_type": "Traffic Signals/Signs/Striping/Streetlights",
    "request_reason": "Street Light Outage/Malfunction",
    "date_created": "2024-05-27T23:10:14.000",
    "date_modified": "2024-05-27T23:10:14.000",
    "request_status": "Pending",
    "responsible_agency": "Department of Public Works",
    "final_address": "610 Jena St",
    "address_councildis": "B",
    "status": "Assigned to Contractor",
    "contractor": "Legacy Professional Services",
    "rowid": "1097094",
    "final_x": "3670718.43566",
    "final_y": "517808.030774",
    "longitude": "-90.10257976860403",
    "latitude": "29.918115150412017",
    "geocoded_column": {
      "latitude": "29.918115150412017",
      "longitude": "-90.10257976860403"
    }
  },
  {
    "service_request": "2024-1097093",
    "request_type": "Roads/Drainage",
    "request_reason": "Pothole",
    "date_created": "2024-05-27T22:44:51.000",
    "date_modified": "2024-05-27T22:44:51.000",
    "request_status": "Pending",
    "responsible_agency": "Department of Public Works",
    "final_address": "4216 Chestnut St",
    "address_councildis": "B",
    "status": "Pending",
    "rowid": "1097093",
    "final_x": "3671574.31393",
    "final_y": "519539.203703",
    "longitude": "-90.09981939416457",
    "latitude": "29.922850019854593",
    "geocoded_column": {
      "latitude": "29.922850019854593",
      "longitude": "-90.09981939416457"
    }
  },
  {
    "service_request": "2024-1097092",
    "request_type": "Trash/Recycling",
    "request_reason": "Replace Trash Cart",
    "date_created": "2024-05-27T22:44:16.000",
    "date_modified": "2024-05-27T22:44:16.000",
    "request_status": "Pending",
    "responsible_agency": "Department of Sanitation",
    "final_address": "6125 Music St",
    "address_councildis": "D",
    "status": "Assigned to Contractor",
    "contractor": "IV Waste",
    "rowid": "1097092",
    "final_x": "3685341.45429",
    "final_y": "555670.940377",
    "longitude": "-90.05508969742978",
    "latitude": "30.02178498574525",
    "geocoded_column": {
      "latitude": "30.02178498574525",
      "longitude": "-90.05508969742978"
    }
  },
  {
    "service_request": "2024-1097091",
    "request_type": "Trash/Recycling",
    "request_reason": "Missed Trash Pick-Up",
    "date_created": "2024-05-27T22:42:33.000",
    "date_modified": "2024-05-27T22:42:34.000",
    "request_status": "Pending",
    "responsible_agency": "Department of Sanitation",
    "final_address": "5445 Grand Bayou Dr",
    "address_councildis": "E",
    "status": "Assigned to Contractor",
    "contractor": "Waste Pro",
    "rowid": "1097091",
    "final_x": "3725782.70931",
    "final_y": "563918.063905",
    "longitude": "-89.9269879519494",
    "latitude": "30.043158715755137",
    "geocoded_column": {
      "latitude": "30.043158715755137",
      "longitude": "-89.9269879519494"
    }
  },
  {
    "service_request": "2024-1097090",
    "request_type": "Roads/Drainage",
    "request_reason": "Pothole",
    "date_created": "2024-05-27T22:39:12.000",
    "date_modified": "2024-05-27T22:39:12.000",
    "request_status": "Pending",
    "responsible_agency": "Department of Public Works",
    "final_address": "1104 Constantinople St",
    "address_councildis": "B",
    "status": "Pending",
    "rowid": "1097090",
    "final_x": "3672372.92731",
    "final_y": "519713.019832",
    "longitude": "-90.09729256157254",
    "latitude": "29.923304295018706",
    "geocoded_column": {
      "latitude": "29.923304295018706",
      "longitude": "-90.09729256157254"
    }
  },
  {
    "service_request": "2024-1097089",
    "request_type": "Trash/Recycling",
    "request_reason": "Replace Trash Cart",
    "date_created": "2024-05-27T22:29:42.000",
    "date_modified": "2024-05-27T22:29:42.000",
    "request_status": "Pending",
    "responsible_agency": "Department of Sanitation",
    "final_address": "2520 Ramsey Dr",
    "address_councildis": "C",
    "status": "Assigned to Contractor",
    "contractor": "Richards Disposal",
    "rowid": "1097089",
    "final_x": "3703199.79844",
    "final_y": "521726.39097",
    "longitude": "-89.99991054995971",
    "latitude": "29.927890012227273",
    "geocoded_column": {
      "latitude": "29.927890012227273",
      "longitude": "-89.99991054995971"
    }
  },
  {
    "service_request": "2024-1097088",
    "request_type": "Property Maintenance",
    "request_reason": "Property Maintenance",
    "date_created": "2024-05-27T22:27:00.000",
    "date_modified": "2024-05-27T22:27:00.000",
    "request_status": "Pending",
    "responsible_agency": "Department of Code Enforcement",
    "final_address": "4900 Frankfort St",
    "address_councildis": "D",
    "status": "Pending",
    "rowid": "1097088",
    "final_x": "3690685.6806",
    "final_y": "557477.254491",
    "longitude": "-90.03813888385034",
    "latitude": "30.026586662680604",
    "geocoded_column": {
      "latitude": "30.026586662680604",
      "longitude": "-90.03813888385034"
    }
  },
  {
    "service_request": "2024-1097087",
    "request_type": "Traffic Signals/Signs/Striping/Streetlights",
    "request_reason": "Street Light Outage/Malfunction",
    "date_created": "2024-05-27T22:25:15.000",
    "date_modified": "2024-05-27T22:25:15.000",
    "request_status": "Pending",
    "responsible_agency": "Department of Public Works",
    "final_address": "1925 N Dorgenois St",
    "address_councildis": "D",
    "status": "Assigned to Contractor",
    "contractor": "Legacy Professional Services",
    "rowid": "1097087",
    "final_x": "3681397.14082",
    "final_y": "541238.04974",
    "longitude": "-90.06805626699622",
    "latitude": "29.982220097116144",
    "geocoded_column": {
      "latitude": "29.982220097116144",
      "longitude": "-90.06805626699622"
    }
  },
  {
    "service_request": "2024-1097086",
    "request_type": "Property Maintenance",
    "request_reason": "Property Maintenance",
    "date_created": "2024-05-27T22:24:08.000",
    "date_modified": "2024-05-27T22:24:08.000",
    "request_status": "Pending",
    "responsible_agency": "Department of Code Enforcement",
    "final_address": "4900 Frankfort St",
    "address_councildis": "D",
    "status": "Pending",
    "rowid": "1097086",
    "final_x": "3690685.6806",
    "final_y": "557477.254491",
    "longitude": "-90.03813888385034",
    "latitude": "30.026586662680604",
    "geocoded_column": {
      "latitude": "30.026586662680604",
      "longitude": "-90.03813888385034"
    }
  },
  {
    "service_request": "2024-1097085",
    "request_type": "Traffic Signals/Signs/Striping/Streetlights",
    "request_reason": "Street Light Outage/Malfunction",
    "date_created": "2024-05-27T22:16:38.000",
    "date_modified": "2024-05-27T22:16:38.000",
    "request_status": "Pending",
    "responsible_agency": "Department of Public Works",
    "final_address": "429 Amethyst St",
    "address_councildis": "D",
    "status": "Assigned to Contractor",
    "contractor": "Legacy Professional Services",
    "rowid": "1097085",
    "final_x": "3667631.67284",
    "final_y": "556678.378138",
    "longitude": "-90.11101421883531",
    "latitude": "30.025086413441702",
    "geocoded_column": {
      "latitude": "30.025086413441702",
      "longitude": "-90.11101421883531"
    }
  },
  {
    "service_request": "2024-1097084",
    "request_type": "Traffic Signals/Signs/Striping/Streetlights",
    "request_reason": "Street Light Outage/Malfunction",
    "date_created": "2024-05-27T22:14:15.000",
    "date_modified": "2024-05-27T22:14:15.000",
    "request_status": "Pending",
    "responsible_agency": "Department of Public Works",
    "final_address": "4010 Royal St",
    "address_councildis": "C",
    "status": "Assigned to Contractor",
    "contractor": "Legacy Professional Services",
    "rowid": "1097084",
    "final_x": "3691531.04169",
    "final_y": "533744.778373",
    "longitude": "-90.03631650495889",
    "latitude": "29.961304669175572",
    "geocoded_column": {
      "latitude": "29.961304669175572",
      "longitude": "-90.03631650495889"
    }
  },
  {
    "service_request": "2024-1097083",
    "request_type": "Trash/Recycling",
    "request_reason": "Request a Large Item Pick Up",
    "date_created": "2024-05-27T22:08:37.000",
    "date_modified": "2024-05-27T22:08:37.000",
    "request_status": "Pending",
    "responsible_agency": "Department of Sanitation",
    "final_address": "432 14Th St",
    "address_councildis": "A",
    "status": "Assigned to Contractor",
    "contractor": "IV Waste",
    "rowid": "1097083",
    "final_x": "3664494.42266",
    "final_y": "548120.031954",
    "longitude": "-90.12121355506527",
    "latitude": "30.001645593735713",
    "geocoded_column": {
      "latitude": "30.001645593735713",
      "longitude": "-90.12121355506527"
    }
  },
  {
    "service_request": "2024-1097082",
    "request_type": "Property Maintenance",
    "request_reason": "Property Maintenance",
    "date_created": "2024-05-27T21:57:25.000",
    "date_modified": "2024-05-27T21:57:25.000",
    "request_status": "Pending",
    "responsible_agency": "Department of Code Enforcement",
    "final_address": "3215 Cherry St",
    "address_councildis": "A",
    "status": "Pending",
    "rowid": "1097082",
    "final_x": "3663758.11635",
    "final_y": "536570.515207",
    "longitude": "-90.12392473466345",
    "latitude": "29.9699097064629",
    "geocoded_column": {
      "latitude": "29.9699097064629",
      "longitude": "-90.12392473466345"
    }
  },
  {
    "service_request": "2024-1097081",
    "request_type": "Trash/Recycling",
    "request_reason": "Illegal Dumping",
    "date_created": "2024-05-27T21:55:10.000",
    "date_modified": "2024-05-27T21:55:10.000",
    "request_status": "Pending",
    "responsible_agency": "Department of Sanitation",
    "final_address": "1615 Pine St",
    "address_councildis": "A",
    "status": "Pending",
    "rowid": "1097081",
    "final_x": "3664842.22592",
    "final_y": "527957.345407",
    "longitude": "-90.12078884533422",
    "latitude": "29.946194793472362",
    "geocoded_column": {
      "latitude": "29.946194793472362",
      "longitude": "-90.12078884533422"
    }
  },
  {
    "service_request": "2024-1097080",
    "request_type": "Trash/Recycling",
    "request_reason": "Request a Large Item Pick Up",
    "date_created": "2024-05-27T21:50:27.000",
    "date_modified": "2024-05-27T21:50:27.000",
    "request_status": "Pending",
    "responsible_agency": "Department of Sanitation",
    "final_address": "11300 S Parkwood Ct",
    "address_councildis": "E",
    "status": "Assigned to Contractor",
    "contractor": "Waste Pro",
    "rowid": "1097080",
    "final_x": "3716924.78373",
    "final_y": "559068.849116",
    "longitude": "-89.95516667639004",
    "latitude": "30.03012129048611",
    "geocoded_column": {
      "latitude": "30.03012129048611",
      "longitude": "-89.95516667639004"
    }
  },
  {
    "service_request": "2024-1097079",
    "request_type": "Trash/Recycling",
    "request_reason": "Request a Large Item Pick Up",
    "date_created": "2024-05-27T21:40:24.000",
    "date_modified": "2024-05-27T21:40:24.000",
    "request_status": "Pending",
    "responsible_agency": "Department of Sanitation",
    "final_address": "4822 Nottingham Dr",
    "address_councildis": "E",
    "status": "Assigned to Contractor",
    "contractor": "Waste Pro",
    "rowid": "1097079",
    "final_x": "3716281.04607",
    "final_y": "557266.235803",
    "longitude": "-89.95726927273842",
    "latitude": "30.025186097226108",
    "geocoded_column": {
      "latitude": "30.025186097226108",
      "longitude": "-89.95726927273842"
    }
  },
  {
    "service_request": "2024-1097078",
    "request_type": "Roads/Drainage",
    "request_reason": "Pothole",
    "date_created": "2024-05-27T21:16:16.000",
    "date_modified": "2024-05-27T21:16:16.000",
    "request_status": "Pending",
    "responsible_agency": "Department of Public Works",
    "final_address": "6026 Benjamin St",
    "address_councildis": "A",
    "status": "Pending",
    "rowid": "1097078",
    "final_x": "3665368.24487",
    "final_y": "522189.506042",
    "longitude": "-90.11932096041569",
    "latitude": "29.93031976110733",
    "geocoded_column": {
      "latitude": "29.93031976110733",
      "longitude": "-90.11932096041569"
    }
  },
  {
    "service_request": "2024-1097076",
    "request_type": "Roads/Drainage",
    "request_reason": "Pothole",
    "date_created": "2024-05-27T21:15:20.000",
    "date_modified": "2024-05-27T21:15:20.000",
    "request_status": "Pending",
    "responsible_agency": "Department of Public Works",
    "final_address": "5823 Perrier St",
    "address_councildis": "A",
    "status": "Pending",
    "rowid": "1097076",
    "final_x": "3665601.07367",
    "final_y": "520421.208184",
    "longitude": "-90.11864512991228",
    "latitude": "29.92545071542357",
    "geocoded_column": {
      "latitude": "29.92545071542357",
      "longitude": "-90.11864512991228"
    }
  },
  {
    "service_request": "2024-1097075",
    "request_type": "Roads/Drainage",
    "request_reason": "Man hole cover issue",
    "date_created": "2024-05-27T21:10:03.000",
    "date_modified": "2024-05-27T21:10:03.000",
    "request_status": "Pending",
    "responsible_agency": "Department of Public Works",
    "final_address": "419 Jewel St",
    "address_councildis": "D",
    "status": "Pending",
    "rowid": "1097075",
    "final_x": "3667946.10253",
    "final_y": "555947.783321",
    "longitude": "-90.11004531296189",
    "latitude": "30.02306831143944",
    "geocoded_column": {
      "latitude": "30.02306831143944",
      "longitude": "-90.11004531296189"
    }
  },
  {
    "service_request": "2024-1097074",
    "request_type": "Traffic Signals/Signs/Striping/Streetlights",
    "request_reason": "Street Light Outage/Malfunction",
    "date_created": "2024-05-27T21:03:22.000",
    "date_modified": "2024-05-27T21:03:23.000",
    "request_status": "Pending",
    "responsible_agency": "Department of Public Works",
    "final_address": "7263 Canal Blvd",
    "address_councildis": "D",
    "status": "Assigned to Contractor",
    "contractor": "Legacy Professional Services",
    "rowid": "1097074",
    "final_x": "3669371.82766",
    "final_y": "555282.053849",
    "longitude": "-90.10556286244523",
    "latitude": "30.021195863670865",
    "geocoded_column": {
      "latitude": "30.021195863670865",
      "longitude": "-90.10556286244523"
    }
  },
  {
    "service_request": "2024-1097073",
    "request_type": "Traffic Signals/Signs/Striping/Streetlights",
    "request_reason": "Street Light Outage/Malfunction",
    "date_created": "2024-05-27T21:00:36.000",
    "date_modified": "2024-05-27T21:00:37.000",
    "request_status": "Pending",
    "responsible_agency": "Department of Public Works",
    "final_address": "LAKESHORE DR & CANAL BLVD",
    "address_councildis": "D",
    "status": "Assigned to Contractor",
    "contractor": "Legacy Professional Services",
    "rowid": "1097073",
    "final_x": "3669476.8",
    "final_y": "557515.08",
    "longitude": "-90.10515555073331",
    "latitude": "30.027332794112038",
    "geocoded_column": {
      "latitude": "30.027332794112038",
      "longitude": "-90.10515555073331"
    }
  },
  {
    "service_request": "2024-1097072",
    "request_type": "Traffic Signals/Signs/Striping/Streetlights",
    "request_reason": "Street Light Outage/Malfunction",
    "date_created": "2024-05-27T21:00:30.000",
    "date_modified": "2024-05-27T21:00:31.000",
    "request_status": "Pending",
    "responsible_agency": "Department of Public Works",
    "final_address": "BEAUREGARD AVE & POINSETTIA LN",
    "address_councildis": "D",
    "status": "Assigned to Contractor",
    "contractor": "Legacy Professional Services",
    "rowid": "1097072",
    "final_x": "3676288.3",
    "final_y": "556242.48",
    "longitude": "-90.08367563008967",
    "latitude": "30.0236310980408",
    "geocoded_column": {
      "latitude": "30.0236310980408",
      "longitude": "-90.08367563008967"
    }
  },
  {
    "service_request": "2024-1097071",
    "request_type": "Traffic Signals/Signs/Striping/Streetlights",
    "request_reason": "Street Light Outage/Malfunction",
    "date_created": "2024-05-27T20:56:35.000",
    "date_modified": "2024-05-27T20:56:35.000",
    "request_status": "Pending",
    "responsible_agency": "Department of Public Works",
    "final_address": "6919 Canal Blvd",
    "address_councildis": "A",
    "status": "Assigned to Contractor",
    "contractor": "Legacy Professional Services",
    "rowid": "1097071",
    "final_x": "3669204.15777",
    "final_y": "553474.849047",
    "longitude": "-90.10615381014124",
    "latitude": "30.016231630648218",
    "geocoded_column": {
      "latitude": "30.016231630648218",
      "longitude": "-90.10615381014124"
    }
  },
  {
    "service_request": "2024-1097070",
    "request_type": "Roads/Drainage",
    "request_reason": "Pothole",
    "date_created": "2024-05-27T20:51:53.000",
    "date_modified": "2024-05-27T20:51:53.000",
    "request_status": "Pending",
    "responsible_agency": "Department of Public Works",
    "final_address": "CRYSTAL ST & CAMEO ST",
    "address_councildis": "D",
    "status": "Pending",
    "rowid": "1097070",
    "final_x": "3667734.3",
    "final_y": "556105.38",
    "longitude": "-90.11070925112473",
    "latitude": "30.023507861990154",
    "geocoded_column": {
      "latitude": "30.023507861990154",
      "longitude": "-90.11070925112473"
    }
  },
  {
    "service_request": "2024-1097069",
    "request_type": "Abandoned Vehicles",
    "request_reason": "Abandoned/Junk Vehicles",
    "date_created": "2024-05-27T20:44:52.000",
    "date_modified": "2024-05-27T20:44:52.000",
    "request_status": "Pending",
    "responsible_agency": "Department of Public Works",
    "final_address": "3325 Lafitte Ave",
    "address_councildis": "A",
    "status": "Pending",
    "rowid": "1097069",
    "final_x": "3674281.43784",
    "final_y": "537809.95412",
    "longitude": "-90.09064857417746",
    "latitude": "29.973008138541505",
    "geocoded_column": {
      "latitude": "29.973008138541505",
      "longitude": "-90.09064857417746"
    }
  },
  {
    "service_request": "2024-1097067",
    "request_type": "Trash/Recycling",
    "request_reason": "Replace Trash Cart",
    "date_created": "2024-05-27T20:38:33.000",
    "date_modified": "2024-05-27T20:38:33.000",
    "request_status": "Pending",
    "responsible_agency": "Department of Sanitation",
    "final_address": "3741 Rue Nadine",
    "address_councildis": "C",
    "status": "Assigned to Contractor",
    "contractor": "Richards Disposal",
    "rowid": "1097067",
    "final_x": "3704684.1754",
    "final_y": "516647.578549",
    "longitude": "-89.9954119571772",
    "latitude": "29.913877456053942",
    "geocoded_column": {
      "latitude": "29.913877456053942",
      "longitude": "-89.9954119571772"
    }
  },
  {
    "service_request": "2024-1097066",
    "request_type": "Traffic Signals/Signs/Striping/Streetlights",
    "request_reason": "Street Light Outage/Malfunction",
    "date_created": "2024-05-27T20:37:22.000",
    "date_modified": "2024-05-27T20:37:23.000",
    "request_status": "Pending",
    "responsible_agency": "Department of Public Works",
    "final_address": "BEAUREGARD AVE & POINSETTIA LN",
    "address_councildis": "D",
    "status": "Assigned to Contractor",
    "contractor": "Legacy Professional Services",
    "rowid": "1097066",
    "final_x": "3676288.3",
    "final_y": "556242.48",
    "longitude": "-90.08367563008967",
    "latitude": "30.0236310980408",
    "geocoded_column": {
      "latitude": "30.0236310980408",
      "longitude": "-90.08367563008967"
    }
  },
  {
    "service_request": "2024-1097065",
    "request_type": "Traffic Signals/Signs/Striping/Streetlights",
    "request_reason": "Street Light Outage/Malfunction",
    "date_created": "2024-05-27T20:33:03.000",
    "date_modified": "2024-05-27T20:33:03.000",
    "request_status": "Pending",
    "responsible_agency": "Department of Public Works",
    "final_address": "BEAUREGARD AVE & POINSETTIA LN",
    "address_councildis": "D",
    "status": "Assigned to Contractor",
    "contractor": "Legacy Professional Services",
    "rowid": "1097065",
    "final_x": "3676288.3",
    "final_y": "556242.48",
    "longitude": "-90.08367563008967",
    "latitude": "30.0236310980408",
    "geocoded_column": {
      "latitude": "30.0236310980408",
      "longitude": "-90.08367563008967"
    }
  },
  {
    "service_request": "2024-1097064",
    "request_type": "Traffic Signals/Signs/Striping/Streetlights",
    "request_reason": "Street Light Outage/Malfunction",
    "date_created": "2024-05-27T20:32:20.000",
    "date_modified": "2024-05-27T20:32:21.000",
    "request_status": "Pending",
    "responsible_agency": "Department of Public Works",
    "final_address": "BEAUREGARD AVE & POINSETTIA LN",
    "address_councildis": "D",
    "status": "Assigned to Contractor",
    "contractor": "Legacy Professional Services",
    "rowid": "1097064",
    "final_x": "3676288.3",
    "final_y": "556242.48",
    "longitude": "-90.08367563008967",
    "latitude": "30.0236310980408",
    "geocoded_column": {
      "latitude": "30.0236310980408",
      "longitude": "-90.08367563008967"
    }
  },
  {
    "service_request": "2024-1097063",
    "request_type": "Trash/Recycling",
    "request_reason": "Request a Large Item Pick Up",
    "date_created": "2024-05-27T20:06:13.000",
    "date_modified": "2024-05-27T20:06:14.000",
    "request_status": "Pending",
    "responsible_agency": "Department of Sanitation",
    "final_address": "901 Governor Nicholls St",
    "address_councildis": "C",
    "status": "Assigned to Contractor",
    "contractor": "Empire Services",
    "rowid": "1097063",
    "final_x": "3683071.46888",
    "final_y": "534391.422213",
    "longitude": "-90.06300767506632",
    "latitude": "29.963343305025084",
    "geocoded_column": {
      "latitude": "29.963343305025084",
      "longitude": "-90.06300767506632"
    }
  },
  {
    "service_request": "2024-1097062",
    "request_type": "Traffic Signals/Signs/Striping/Streetlights",
    "request_reason": "Street Name Sign Damaged or Missing",
    "date_created": "2024-05-27T20:03:26.000",
    "date_modified": "2024-05-27T20:03:26.000",
    "request_status": "Pending",
    "responsible_agency": "Department of Public Works",
    "final_address": "BIENVILLE ST & ROYAL ST",
    "address_councildis": "C",
    "status": "Pending",
    "rowid": "1097062",
    "final_x": "3681664.8",
    "final_y": "531302.78",
    "longitude": "-90.06755751983562",
    "latitude": "29.954893396707345",
    "geocoded_column": {
      "latitude": "29.954893396707345",
      "longitude": "-90.06755751983562"
    }
  },
  {
    "service_request": "2024-1097061",
    "request_type": "Trash/Recycling",
    "request_reason": "Replace Recycling Cart",
    "date_created": "2024-05-27T19:51:23.000",
    "date_modified": "2024-05-27T19:51:23.000",
    "request_status": "Pending",
    "responsible_agency": "Department of Sanitation",
    "final_address": "7410 Devine Ave",
    "address_councildis": "E",
    "status": "Pending",
    "rowid": "1097061",
    "final_x": "3705906.00286",
    "final_y": "562462.677215",
    "longitude": "-89.98986002280172",
    "latitude": "30.039812784382832",
    "geocoded_column": {
      "latitude": "30.039812784382832",
      "longitude": "-89.98986002280172"
    }
  },
  {
    "service_request": "2024-1097060",
    "request_type": "Property Maintenance",
    "request_reason": "Property Maintenance",
    "date_created": "2024-05-27T19:51:15.000",
    "date_modified": "2024-05-27T19:51:15.000",
    "request_status": "Pending",
    "responsible_agency": "Department of Code Enforcement",
    "final_address": "COLAPISSA ST & PINE ST",
    "address_councildis": "B",
    "status": "Pending",
    "rowid": "1097060",
    "final_x": "3667698.6",
    "final_y": "532336.98",
    "longitude": "-90.11162281788707",
    "latitude": "29.95815393673079",
    "geocoded_column": {
      "latitude": "29.95815393673079",
      "longitude": "-90.11162281788707"
    }
  },
  {
    "service_request": "2024-1097059",
    "request_type": "Trash/Recycling",
    "request_reason": "Request a Large Item Pick Up",
    "date_created": "2024-05-27T19:39:13.000",
    "date_modified": "2024-05-27T19:39:14.000",
    "request_status": "Pending",
    "responsible_agency": "Department of Sanitation",
    "final_address": "11283 Winrock Dr",
    "address_councildis": "E",
    "status": "Assigned to Contractor",
    "contractor": "Waste Pro",
    "rowid": "1097059",
    "final_x": "3716712.63884",
    "final_y": "561668.571935",
    "longitude": "-89.95573828024344",
    "latitude": "30.037276496200594",
    "geocoded_column": {
      "latitude": "30.037276496200594",
      "longitude": "-89.95573828024344"
    }
  },
  {
    "service_request": "2024-1097058",
    "request_type": "Property Maintenance",
    "request_reason": "Property Maintenance",
    "date_created": "2024-05-27T19:25:00.000",
    "date_modified": "2024-05-27T19:25:00.000",
    "request_status": "Pending",
    "responsible_agency": "Department of Code Enforcement",
    "final_address": "5312 Constance St",
    "address_councildis": "B",
    "status": "Pending",
    "rowid": "1097058",
    "final_x": "3667304.8793",
    "final_y": "518233.435766",
    "longitude": "-90.11334025594425",
    "latitude": "29.919385256816515",
    "geocoded_column": {
      "latitude": "29.919385256816515",
      "longitude": "-90.11334025594425"
    }
  },
  {
    "service_request": "2024-1097056",
    "request_type": "Parks & Parkways",
    "request_reason": "Request Tree Service (Right of Way/Public Property)",
    "date_created": "2024-05-27T18:46:13.000",
    "date_modified": "2024-05-27T18:46:13.000",
    "request_status": "Pending",
    "responsible_agency": "Department of Parks & Parkway",
    "final_address": "6057 Louisville St",
    "address_councildis": "A",
    "status": "Pending",
    "rowid": "1097056",
    "final_x": "3667882.08653",
    "final_y": "547781.887186",
    "longitude": "-90.11052294707667",
    "latitude": "30.000616840820655",
    "geocoded_column": {
      "latitude": "30.000616840820655",
      "longitude": "-90.11052294707667"
    }
  },
  {
    "service_request": "2024-1097054",
    "request_type": "Trash/Recycling",
    "request_reason": "Missed Trash Pick-Up",
    "date_created": "2024-05-27T18:22:09.000",
    "date_modified": "2024-05-27T18:22:09.000",
    "request_status": "Pending",
    "responsible_agency": "Department of Sanitation",
    "final_address": "3232 Bienville Ave",
    "address_councildis": "B",
    "status": "Assigned to Contractor",
    "contractor": "IV Waste",
    "rowid": "1097054",
    "final_x": "3674077.94798",
    "final_y": "536978.3874",
    "longitude": "-90.09131970242865",
    "latitude": "29.97072767883149",
    "geocoded_column": {
      "latitude": "29.97072767883149",
      "longitude": "-90.09131970242865"
    }
  },
  {
    "service_request": "2024-1097053",
    "request_type": "Property Maintenance",
    "request_reason": "Property Maintenance",
    "date_created": "2024-05-27T18:10:01.000",
    "date_modified": "2024-05-27T18:10:01.000",
    "request_status": "Pending",
    "responsible_agency": "Department of Code Enforcement",
    "final_address": "1212 S Genois St",
    "address_councildis": "B",
    "status": "Pending",
    "rowid": "1097053",
    "final_x": "3669428.87354",
    "final_y": "532677.096452",
    "longitude": "-90.10614757322053",
    "latitude": "29.959038304257668",
    "geocoded_column": {
      "latitude": "29.959038304257668",
      "longitude": "-90.10614757322053"
    }
  },
  {
    "service_request": "2024-1097052",
    "request_type": "Property Maintenance",
    "request_reason": "Property Maintenance",
    "date_created": "2024-05-27T18:08:03.000",
    "date_modified": "2024-05-27T18:08:03.000",
    "request_status": "Pending",
    "responsible_agency": "Department of Code Enforcement",
    "final_address": "1212 S Genois St",
    "address_councildis": "B",
    "status": "Pending",
    "rowid": "1097052",
    "final_x": "3669428.87354",
    "final_y": "532677.096452",
    "longitude": "-90.10614757322053",
    "latitude": "29.959038304257668",
    "geocoded_column": {
      "latitude": "29.959038304257668",
      "longitude": "-90.10614757322053"
    }
  },
  {
    "service_request": "2024-1097051",
    "request_type": "Roads/Drainage",
    "request_reason": "Pothole",
    "date_created": "2024-05-27T18:07:59.000",
    "date_modified": "2024-05-27T18:07:59.000",
    "request_status": "Pending",
    "responsible_agency": "Department of Public Works",
    "final_address": "1400 BLK Valence St",
    "address_councildis": "B",
    "status": "Pending",
    "rowid": "1097051",
    "final_x": "3669784.65285",
    "final_y": "520336.257015",
    "longitude": "-90.1054417057675",
    "latitude": "29.925094517046503",
    "geocoded_column": {
      "latitude": "29.925094517046503",
      "longitude": "-90.1054417057675"
    }
  },
  {
    "service_request": "2024-1097050",
    "request_type": "Property Maintenance",
    "request_reason": "Property Maintenance",
    "date_created": "2024-05-27T18:00:59.000",
    "date_modified": "2024-05-27T18:00:59.000",
    "request_status": "Pending",
    "responsible_agency": "Department of Code Enforcement",
    "final_address": "1212 S Genois St",
    "address_councildis": "B",
    "status": "Pending",
    "rowid": "1097050",
    "final_x": "3669428.87354",
    "final_y": "532677.096452",
    "longitude": "-90.10614757322053",
    "latitude": "29.959038304257668",
    "geocoded_column": {
      "latitude": "29.959038304257668",
      "longitude": "-90.10614757322053"
    }
  },
  {
    "service_request": "2024-1097049",
    "request_type": "Trash/Recycling",
    "request_reason": "Request a Large Item Pick Up",
    "date_created": "2024-05-27T17:57:45.000",
    "date_modified": "2024-05-27T17:57:45.000",
    "request_status": "Pending",
    "responsible_agency": "Department of Sanitation",
    "final_address": "8826 Green St",
    "address_councildis": "A",
    "status": "Assigned to Contractor",
    "contractor": "IV Waste",
    "rowid": "1097049",
    "final_x": "3661182.30701",
    "final_y": "531405.984067",
    "longitude": "-90.13223039876435",
    "latitude": "29.95578343008563",
    "geocoded_column": {
      "latitude": "29.95578343008563",
      "longitude": "-90.13223039876435"
    }
  },
  {
    "service_request": "2024-1097048",
    "request_type": "Trash/Recycling",
    "request_reason": "Request a Large Item Pick Up",
    "date_created": "2024-05-27T17:55:08.000",
    "date_modified": "2024-05-27T17:55:09.000",
    "request_status": "Pending",
    "responsible_agency": "Department of Sanitation",
    "final_address": "1923 Clouet St",
    "address_councildis": "D",
    "status": "Assigned to Contractor",
    "contractor": "IV Waste",
    "rowid": "1097048",
    "final_x": "3689839.10179",
    "final_y": "539177.491082",
    "longitude": "-90.04146591691",
    "latitude": "29.976295272512164",
    "geocoded_column": {
      "latitude": "29.976295272512164",
      "longitude": "-90.04146591691"
    }
  },
  {
    "service_request": "2024-1097047",
    "request_type": "Roads/Drainage",
    "request_reason": "Damaged Sidewalk",
    "date_created": "2024-05-27T17:52:28.000",
    "date_modified": "2024-05-27T17:52:28.000",
    "request_status": "Pending",
    "responsible_agency": "Department of Public Works",
    "final_address": "1725 Dufossat St",
    "address_councildis": "B",
    "status": "Pending",
    "rowid": "1097047",
    "final_x": "3668192.68743",
    "final_y": "522036.060218",
    "longitude": "-90.11040977787289",
    "latitude": "29.92981524824353",
    "geocoded_column": {
      "latitude": "29.92981524824353",
      "longitude": "-90.11040977787289"
    }
  },
  {
    "service_request": "2024-1097046",
    "request_type": "Trash/Recycling",
    "request_reason": "Request a Large Item Pick Up",
    "date_created": "2024-05-27T17:45:20.000",
    "date_modified": "2024-05-27T17:45:21.000",
    "request_status": "Pending",
    "responsible_agency": "Department of Sanitation",
    "final_address": "6951 Boston Dr",
    "address_councildis": "E",
    "status": "Assigned to Contractor",
    "contractor": "Waste Pro",
    "rowid": "1097046",
    "final_x": "3706572.42782",
    "final_y": "560446.603294",
    "longitude": "-89.98782874760303",
    "latitude": "30.034247875518695",
    "geocoded_column": {
      "latitude": "30.034247875518695",
      "longitude": "-89.98782874760303"
    }
  },
  {
    "service_request": "2024-1097045",
    "request_type": "Trash/Recycling",
    "request_reason": "Repair Trash Cart",
    "date_created": "2024-05-27T17:34:45.000",
    "date_modified": "2024-05-27T17:49:04.000",
    "case_close_date": "2024-05-27T12:49:04.000",
    "request_status": "Closed",
    "responsible_agency": "Department of Sanitation",
    "final_address": "7012 Ridgefield Dr",
    "address_councildis": "E",
    "status": "Duplicate Request",
    "contractor": "Waste Pro",
    "contractor_action": "Duplicate",
    "rowid": "1097045",
    "final_x": "3719417.73599",
    "final_y": "569438.516262",
    "longitude": "-89.94689255533889",
    "latitude": "30.058550945544678",
    "geocoded_column": {
      "latitude": "30.058550945544678",
      "longitude": "-89.94689255533889"
    }
  },
  {
    "service_request": "2024-1097044",
    "request_type": "Property Maintenance",
    "request_reason": "Property Maintenance",
    "date_created": "2024-05-27T17:34:24.000",
    "date_modified": "2024-05-27T17:34:24.000",
    "request_status": "Pending",
    "responsible_agency": "Department of Code Enforcement",
    "final_address": "222 S Murat St",
    "address_councildis": "A",
    "status": "Pending",
    "rowid": "1097044",
    "final_x": "3669352.6811",
    "final_y": "538879.784329",
    "longitude": "-90.10617840547233",
    "latitude": "29.97609586921586",
    "geocoded_column": {
      "latitude": "29.97609586921586",
      "longitude": "-90.10617840547233"
    }
  },
  {
    "service_request": "2024-1097043",
    "request_type": "Trash/Recycling",
    "request_reason": "Repair Trash Cart",
    "date_created": "2024-05-27T17:29:07.000",
    "date_modified": "2024-05-27T17:29:07.000",
    "request_status": "Pending",
    "responsible_agency": "Department of Sanitation",
    "final_address": "7012 Ridgefield Dr",
    "address_councildis": "E",
    "status": "Assigned to Contractor",
    "contractor": "Waste Pro",
    "rowid": "1097043",
    "final_x": "3719417.73599",
    "final_y": "569438.516262",
    "longitude": "-89.94689255533889",
    "latitude": "30.058550945544678",
    "geocoded_column": {
      "latitude": "30.058550945544678",
      "longitude": "-89.94689255533889"
    }
  },
  {
    "service_request": "2024-1097041",
    "request_type": "Trash/Recycling",
    "request_reason": "Order Recycling Cart",
    "date_created": "2024-05-27T17:21:42.000",
    "date_modified": "2024-05-27T17:21:42.000",
    "request_status": "Pending",
    "responsible_agency": "Department of Sanitation",
    "final_address": "1025 S Genois St",
    "address_councildis": "B",
    "status": "Pending",
    "rowid": "1097041",
    "final_x": "3669909.18228",
    "final_y": "533570.392261",
    "longitude": "-90.10460062440633",
    "latitude": "29.96148041853711",
    "geocoded_column": {
      "latitude": "29.96148041853711",
      "longitude": "-90.10460062440633"
    }
  },
  {
    "service_request": "2024-1097040",
    "request_type": "Trash/Recycling",
    "request_reason": "Request a Large Item Pick Up",
    "date_created": "2024-05-27T17:04:18.000",
    "date_modified": "2024-05-27T17:04:19.000",
    "request_status": "Pending",
    "responsible_agency": "Department of Sanitation",
    "final_address": "3013 Hyman Pl",
    "address_councildis": "C",
    "status": "Assigned to Contractor",
    "contractor": "Richards Disposal",
    "rowid": "1097040",
    "final_x": "3700952.24349",
    "final_y": "520050.60812",
    "longitude": "-90.00706673886198",
    "latitude": "29.92335391308665",
    "geocoded_column": {
      "latitude": "29.92335391308665",
      "longitude": "-90.00706673886198"
    }
  },
  {
    "service_request": "2024-1097039",
    "request_type": "Trash/Recycling",
    "request_reason": "Missed Trash Pick-Up",
    "date_created": "2024-05-27T16:56:48.000",
    "date_modified": "2024-05-27T16:56:49.000",
    "request_status": "Pending",
    "responsible_agency": "Department of Sanitation",
    "final_address": "725 Hagan St",
    "address_councildis": "A",
    "status": "Assigned to Contractor",
    "contractor": "IV Waste",
    "rowid": "1097039",
    "final_x": "3674762.31803",
    "final_y": "538649.247113",
    "longitude": "-90.08910107657262",
    "latitude": "29.975301559389216",
    "geocoded_column": {
      "latitude": "29.975301559389216",
      "longitude": "-90.08910107657262"
    }
  },
  {
    "service_request": "2024-1097037",
    "request_type": "Graffiti Removal",
    "request_reason": "Graffiti Removal",
    "date_created": "2024-05-27T16:23:28.000",
    "date_modified": "2024-05-27T16:23:28.000",
    "request_status": "Pending",
    "responsible_agency": "Department of Code Enforcement",
    "final_address": "6767 Bundy Rd",
    "address_councildis": "E",
    "status": "Pending",
    "rowid": "1097037",
    "final_x": "3707943.71448",
    "final_y": "559384.518173",
    "longitude": "-89.98353487492832",
    "latitude": "30.031283213315767",
    "geocoded_column": {
      "latitude": "30.031283213315767",
      "longitude": "-89.98353487492832"
    }
  },
  {
    "service_request": "2024-1097036",
    "request_type": "Abandoned Vehicles",
    "request_reason": "Abandoned/Junk Vehicles",
    "date_created": "2024-05-27T16:22:00.000",
    "date_modified": "2024-05-27T16:22:00.000",
    "request_status": "Pending",
    "responsible_agency": "Department of Public Works",
    "final_address": "2ND ST & CARONDELET ST",
    "address_councildis": "B",
    "status": "Pending",
    "rowid": "1097036",
    "final_x": "3676487.5",
    "final_y": "523370.88",
    "longitude": "-90.08417852609955",
    "latitude": "29.933239537718585",
    "geocoded_column": {
      "latitude": "29.933239537718585",
      "longitude": "-90.08417852609955"
    }
  },
  {
    "service_request": "2024-1097035",
    "request_type": "Abandoned Vehicles",
    "request_reason": "Abandoned/Junk Vehicles",
    "date_created": "2024-05-27T16:18:20.000",
    "date_modified": "2024-05-27T16:18:20.000",
    "request_status": "Pending",
    "responsible_agency": "Department of Public Works",
    "final_address": "2ND ST & CARONDELET ST",
    "address_councildis": "B",
    "status": "Pending",
    "rowid": "1097035",
    "final_x": "3676487.5",
    "final_y": "523370.88",
    "longitude": "-90.08417852609955",
    "latitude": "29.933239537718585",
    "geocoded_column": {
      "latitude": "29.933239537718585",
      "longitude": "-90.08417852609955"
    }
  },
  {
    "service_request": "2024-1097034",
    "request_type": "Trash/Recycling",
    "request_reason": "Missed Trash Pick-Up",
    "date_created": "2024-05-27T16:15:30.000",
    "date_modified": "2024-05-27T16:15:31.000",
    "request_status": "Pending",
    "responsible_agency": "Department of Sanitation",
    "final_address": "500 BLK S Cortez St",
    "address_councildis": "B",
    "status": "Assigned to Contractor",
    "contractor": "IV Waste",
    "rowid": "1097034",
    "final_x": "3670987.88207",
    "final_y": "536168.368724",
    "longitude": "-90.10110604143283",
    "latitude": "29.968592135455282",
    "geocoded_column": {
      "latitude": "29.968592135455282",
      "longitude": "-90.10110604143283"
    }
  },
  {
    "service_request": "2024-1097033",
    "request_type": "Trash/Recycling",
    "request_reason": "Request a Large Item Pick Up",
    "date_created": "2024-05-27T16:02:23.000",
    "date_modified": "2024-05-27T16:02:24.000",
    "request_status": "Pending",
    "responsible_agency": "Department of Sanitation",
    "final_address": "4246 Vincennes Pl",
    "address_councildis": "B",
    "status": "Assigned to Contractor",
    "contractor": "IV Waste",
    "rowid": "1097033",
    "final_x": "3668809.15982",
    "final_y": "531665.993347",
    "longitude": "-90.10813862086026",
    "latitude": "29.956276339040272",
    "geocoded_column": {
      "latitude": "29.956276339040272",
      "longitude": "-90.10813862086026"
    }
  },
  {
    "service_request": "2024-1097032",
    "request_type": "Roads/Drainage",
    "request_reason": "Pothole",
    "date_created": "2024-05-27T15:58:29.000",
    "date_modified": "2024-05-27T15:58:29.000",
    "request_status": "Pending",
    "responsible_agency": "Department of Public Works",
    "final_address": "1120 Aline St Apt 2A",
    "address_councildis": "B",
    "status": "Pending",
    "rowid": "1097032",
    "final_x": "3674344.461",
    "final_y": "519521.432503",
    "longitude": "-90.09107572309848",
    "latitude": "29.922718865916426",
    "geocoded_column": {
      "latitude": "29.922718865916426",
      "longitude": "-90.09107572309848"
    }
  },
  {
    "service_request": "2024-1097031",
    "request_type": "Trash/Recycling",
    "request_reason": "Order Recycling Cart",
    "date_created": "2024-05-27T15:52:50.000",
    "date_modified": "2024-05-27T15:52:50.000",
    "request_status": "Pending",
    "responsible_agency": "Department of Sanitation",
    "final_address": "1400 Annunciation St Apt 1120",
    "address_councildis": "B",
    "status": "Pending",
    "rowid": "1097031",
    "final_x": "3681398.01519",
    "final_y": "524609.162364",
    "longitude": "-90.06863320816187",
    "latitude": "29.93649629334871",
    "geocoded_column": {
      "latitude": "29.93649629334871",
      "longitude": "-90.06863320816187"
    }
  },
  {
    "service_request": "2024-1097030",
    "request_type": "Roads/Drainage",
    "request_reason": "Debris in Roadway",
    "date_created": "2024-05-27T15:36:10.000",
    "date_modified": "2024-05-27T15:36:10.000",
    "request_status": "Pending",
    "responsible_agency": "Department of Public Works",
    "final_address": "1210 Peniston St",
    "address_councildis": "B",
    "status": "Pending",
    "rowid": "1097030",
    "final_x": "3673070.73268",
    "final_y": "520149.477688",
    "longitude": "-90.0950749614316",
    "latitude": "29.924483698017024",
    "geocoded_column": {
      "latitude": "29.924483698017024",
      "longitude": "-90.0950749614316"
    }
  },
  {
    "service_request": "2024-1097029",
    "request_type": "Property Maintenance",
    "request_reason": "Property Maintenance",
    "date_created": "2024-05-27T15:35:48.000",
    "date_modified": "2024-05-27T15:35:48.000",
    "request_status": "Pending",
    "responsible_agency": "Department of Code Enforcement",
    "final_address": "2400 Gentilly Blvd",
    "address_councildis": "D",
    "status": "Pending",
    "rowid": "1097029",
    "final_x": "3681434.02914",
    "final_y": "544875.208655",
    "longitude": "-90.06781287790537",
    "latitude": "29.992219885190135",
    "geocoded_column": {
      "latitude": "29.992219885190135",
      "longitude": "-90.06781287790537"
    }
  },
  {
    "service_request": "2024-1097028",
    "request_type": "Roads/Drainage",
    "request_reason": "Pothole",
    "date_created": "2024-05-27T15:35:24.000",
    "date_modified": "2024-05-27T15:35:24.000",
    "request_status": "Pending",
    "responsible_agency": "Department of Public Works",
    "final_address": "1312 Milan St",
    "address_councildis": "B",
    "status": "Pending",
    "rowid": "1097028",
    "final_x": "3671625.82823",
    "final_y": "520286.919608",
    "longitude": "-90.09963137110304",
    "latitude": "29.92490447494246",
    "geocoded_column": {
      "latitude": "29.92490447494246",
      "longitude": "-90.09963137110304"
    }
  },
  {
    "service_request": "2024-1097027",
    "request_type": "Roads/Drainage",
    "request_reason": "Damaged Sidewalk",
    "date_created": "2024-05-27T15:33:54.000",
    "date_modified": "2024-05-27T15:33:54.000",
    "request_status": "Pending",
    "responsible_agency": "Department of Public Works",
    "final_address": "740 Florida Blvd",
    "address_councildis": "A",
    "status": "Pending",
    "rowid": "1097027",
    "final_x": "3668737.03438",
    "final_y": "545216.294799",
    "longitude": "-90.10790877814317",
    "latitude": "29.99353723258327",
    "geocoded_column": {
      "latitude": "29.99353723258327",
      "longitude": "-90.10790877814317"
    }
  },
  {
    "service_request": "2024-1097026",
    "request_type": "Trash/Recycling",
    "request_reason": "Request a Large Item Pick Up",
    "date_created": "2024-05-27T15:33:12.000",
    "date_modified": "2024-05-27T15:33:12.000",
    "request_status": "Pending",
    "responsible_agency": "Department of Sanitation",
    "final_address": "4610 Lancelot Dr",
    "address_councildis": "E",
    "status": "Assigned to Contractor",
    "contractor": "Waste Pro",
    "rowid": "1097026",
    "final_x": "3707474.7436",
    "final_y": "554524.211672",
    "longitude": "-89.98519753103969",
    "latitude": "30.017934448117064",
    "geocoded_column": {
      "latitude": "30.017934448117064",
      "longitude": "-89.98519753103969"
    }
  },
  {
    "service_request": "2024-1097025",
    "request_type": "Property Maintenance",
    "request_reason": "Property Maintenance",
    "date_created": "2024-05-27T15:31:30.000",
    "date_modified": "2024-05-27T15:31:30.000",
    "request_status": "Pending",
    "responsible_agency": "Department of Code Enforcement",
    "final_address": "1944 Benefit St",
    "address_councildis": "D",
    "status": "Pending",
    "rowid": "1097025",
    "final_x": "3682546.738",
    "final_y": "544223.792334",
    "longitude": "-90.06432084299684",
    "latitude": "29.99039488292694",
    "geocoded_column": {
      "latitude": "29.99039488292694",
      "longitude": "-90.06432084299684"
    }
  },
  {
    "service_request": "2024-1097024",
    "request_type": "Property Maintenance",
    "request_reason": "Property Maintenance",
    "date_created": "2024-05-27T15:24:18.000",
    "date_modified": "2024-05-27T15:24:18.000",
    "request_status": "Pending",
    "responsible_agency": "Department of Code Enforcement",
    "final_address": "2800 Upperline St",
    "address_councildis": "B",
    "status": "Pending",
    "rowid": "1097024",
    "final_x": "3669167.51578",
    "final_y": "524989.592701",
    "longitude": "-90.10723263481977",
    "latitude": "29.937907871185672",
    "geocoded_column": {
      "latitude": "29.937907871185672",
      "longitude": "-90.10723263481977"
    }
  },
  {
    "service_request": "2024-1097023",
    "request_type": "Property Maintenance",
    "request_reason": "Property Maintenance",
    "date_created": "2024-05-27T15:19:13.000",
    "date_modified": "2024-05-27T15:19:13.000",
    "request_status": "Pending",
    "responsible_agency": "Department of Code Enforcement",
    "final_address": "4645 Francis Dr",
    "address_councildis": "D",
    "status": "Pending",
    "rowid": "1097023",
    "final_x": "3698333.42704",
    "final_y": "553869.777687",
    "longitude": "-90.01410422369199",
    "latitude": "30.016427562756732",
    "geocoded_column": {
      "latitude": "30.016427562756732",
      "longitude": "-90.01410422369199"
    }
  },
  {
    "service_request": "2024-1097022",
    "request_type": "Property Maintenance",
    "request_reason": "Property Maintenance",
    "date_created": "2024-05-27T15:17:47.000",
    "date_modified": "2024-05-27T15:17:47.000",
    "request_status": "Pending",
    "responsible_agency": "Department of Code Enforcement",
    "final_address": "4308 Perlita St",
    "address_councildis": "D",
    "status": "Pending",
    "rowid": "1097022",
    "final_x": "3678747.16443",
    "final_y": "548177.430162",
    "longitude": "-90.07618571007973",
    "latitude": "30.001381149697163",
    "geocoded_column": {
      "latitude": "30.001381149697163",
      "longitude": "-90.07618571007973"
    }
  },
  {
    "service_request": "2024-1097021",
    "request_type": "Property Maintenance",
    "request_reason": "Property Maintenance",
    "date_created": "2024-05-27T15:04:28.000",
    "date_modified": "2024-05-27T15:04:28.000",
    "request_status": "Pending",
    "responsible_agency": "Department of Code Enforcement",
    "final_address": "4727 Francis Dr",
    "address_councildis": "D",
    "status": "Pending",
    "rowid": "1097021",
    "final_x": "3698291.8712",
    "final_y": "554280.110424",
    "longitude": "-90.01422059623319",
    "latitude": "30.017557137900454",
    "geocoded_column": {
      "latitude": "30.017557137900454",
      "longitude": "-90.01422059623319"
    }
  },
  {
    "service_request": "2024-1097020",
    "request_type": "Abandoned Vehicles",
    "request_reason": "Abandoned/Junk Vehicles",
    "date_created": "2024-05-27T14:59:45.000",
    "date_modified": "2024-05-27T14:59:45.000",
    "request_status": "Pending",
    "responsible_agency": "Department of Public Works",
    "final_address": "5700 BLK Hempstead Rd",
    "address_councildis": "E",
    "status": "Pending",
    "rowid": "1097020",
    "final_x": "3708303.11256",
    "final_y": "558061.779661",
    "longitude": "-89.98244845180913",
    "latitude": "30.027634556175478",
    "geocoded_column": {
      "latitude": "30.027634556175478",
      "longitude": "-89.98244845180913"
    }
  },
  {
    "service_request": "2024-1097019",
    "request_type": "Property Maintenance",
    "request_reason": "Property Maintenance",
    "date_created": "2024-05-27T14:59:29.000",
    "date_modified": "2024-05-27T14:59:29.000",
    "request_status": "Pending",
    "responsible_agency": "Department of Code Enforcement",
    "final_address": "4737 Francis Dr",
    "address_councildis": "D",
    "status": "Pending",
    "rowid": "1097019",
    "final_x": "3698289.91895",
    "final_y": "554373.615448",
    "longitude": "-90.01422336340133",
    "latitude": "30.01781430308392",
    "geocoded_column": {
      "latitude": "30.01781430308392",
      "longitude": "-90.01422336340133"
    }
  },
  {
    "service_request": "2024-1097018",
    "request_type": "Trash/Recycling",
    "request_reason": "Missed Trash Pick-Up",
    "date_created": "2024-05-27T14:58:04.000",
    "date_modified": "2024-05-27T16:04:30.000",
    "case_close_date": "2024-05-27T11:04:30.000",
    "request_status": "Closed",
    "responsible_agency": "Department of Sanitation",
    "final_address": "500 BLK S Cortez St",
    "address_councildis": "B",
    "status": "Invalid Request",
    "contractor": "IV Waste",
    "contractor_action": "Invalid",
    "rowid": "1097018",
    "final_x": "3670987.88207",
    "final_y": "536168.368724",
    "longitude": "-90.10110604143283",
    "latitude": "29.968592135455282",
    "geocoded_column": {
      "latitude": "29.968592135455282",
      "longitude": "-90.10110604143283"
    }
  },
  {
    "service_request": "2024-1097017",
    "request_type": "Trash/Recycling",
    "request_reason": "Missed Trash Pick-Up",
    "date_created": "2024-05-27T14:56:29.000",
    "date_modified": "2024-05-27T16:07:06.000",
    "case_close_date": "2024-05-27T11:07:06.000",
    "request_status": "Closed",
    "responsible_agency": "Department of Sanitation",
    "final_address": "500 BLK S Cortez St",
    "address_councildis": "B",
    "status": "Duplicate Request",
    "contractor": "IV Waste",
    "contractor_action": "Duplicate",
    "rowid": "1097017",
    "final_x": "3670987.88207",
    "final_y": "536168.368724",
    "longitude": "-90.10110604143283",
    "latitude": "29.968592135455282",
    "geocoded_column": {
      "latitude": "29.968592135455282",
      "longitude": "-90.10110604143283"
    }
  },
  {
    "service_request": "2024-1097016",
    "request_type": "Abandoned Vehicles",
    "request_reason": "Abandoned/Junk Vehicles",
    "date_created": "2024-05-27T14:54:54.000",
    "date_modified": "2024-05-27T14:54:54.000",
    "request_status": "Pending",
    "responsible_agency": "Department of Public Works",
    "final_address": "2217 Lapeyrouse St",
    "address_councildis": "D",
    "status": "Pending",
    "rowid": "1097016",
    "final_x": "3680409.9741",
    "final_y": "539176.524106",
    "longitude": "-90.07124593664615",
    "latitude": "29.976581554199818",
    "geocoded_column": {
      "latitude": "29.976581554199818",
      "longitude": "-90.07124593664615"
    }
  },
  {
    "service_request": "2024-1097015",
    "request_type": "Property Maintenance",
    "request_reason": "Property Maintenance",
    "date_created": "2024-05-27T14:54:16.000",
    "date_modified": "2024-05-27T14:54:16.000",
    "request_status": "Pending",
    "responsible_agency": "Department of Code Enforcement",
    "final_address": "5501 Edenboro Rd",
    "address_councildis": "E",
    "status": "Pending",
    "rowid": "1097015",
    "final_x": "3708222.78052",
    "final_y": "558086.456859",
    "longitude": "-89.98270137350146",
    "latitude": "30.027705012642564",
    "geocoded_column": {
      "latitude": "30.027705012642564",
      "longitude": "-89.98270137350146"
    }
  },
  {
    "service_request": "2024-1097014",
    "request_type": "Property Maintenance",
    "request_reason": "Property Maintenance",
    "date_created": "2024-05-27T14:50:51.000",
    "date_modified": "2024-05-27T14:50:51.000",
    "request_status": "Pending",
    "responsible_agency": "Department of Code Enforcement",
    "final_address": "4803 Francis Dr",
    "address_councildis": "D",
    "status": "Pending",
    "rowid": "1097014",
    "final_x": "3698262.79587",
    "final_y": "554627.096024",
    "longitude": "-90.01429984178684",
    "latitude": "30.01851213710787",
    "geocoded_column": {
      "latitude": "30.01851213710787",
      "longitude": "-90.01429984178684"
    }
  },
  {
    "service_request": "2024-1097013",
    "request_type": "Trash/Recycling",
    "request_reason": "Request a Large Item Pick Up",
    "date_created": "2024-05-27T14:41:02.000",
    "date_modified": "2024-05-27T14:41:02.000",
    "request_status": "Pending",
    "responsible_agency": "Department of Sanitation",
    "final_address": "923 Hidalgo St",
    "address_councildis": "A",
    "status": "Assigned to Contractor",
    "contractor": "IV Waste",
    "rowid": "1097013",
    "final_x": "3669770.86804",
    "final_y": "544066.326158",
    "longitude": "-90.10468200065988",
    "latitude": "29.990344772623004",
    "geocoded_column": {
      "latitude": "29.990344772623004",
      "longitude": "-90.10468200065988"
    }
  },
  {
    "service_request": "2024-1097012",
    "request_type": "Parks & Parkways",
    "request_reason": "Request Tree Service (Right of Way/Public Property)",
    "date_created": "2024-05-27T14:34:38.000",
    "date_modified": "2024-05-27T14:34:38.000",
    "request_status": "Pending",
    "responsible_agency": "Department of Parks & Parkway",
    "final_address": "2102 Dublin St",
    "address_councildis": "A",
    "status": "Pending",
    "rowid": "1097012",
    "final_x": "3663838.35571",
    "final_y": "531015.046082",
    "longitude": "-90.12385652100544",
    "latitude": "29.95463165544035",
    "geocoded_column": {
      "latitude": "29.95463165544035",
      "longitude": "-90.12385652100544"
    }
  },
  {
    "service_request": "2024-1097011",
    "request_type": "Trash/Recycling",
    "request_reason": "Request a Large Item Pick Up",
    "date_created": "2024-05-27T14:30:08.000",
    "date_modified": "2024-05-27T14:30:09.000",
    "request_status": "Pending",
    "responsible_agency": "Department of Sanitation",
    "final_address": "1524 Hillary St",
    "address_councildis": "A",
    "status": "Assigned to Contractor",
    "contractor": "IV Waste",
    "rowid": "1097011",
    "final_x": "3664042.71924",
    "final_y": "528124.974783",
    "longitude": "-90.12330758650158",
    "latitude": "29.94667895973529",
    "geocoded_column": {
      "latitude": "29.94667895973529",
      "longitude": "-90.12330758650158"
    }
  },
  {
    "service_request": "2024-1097010",
    "request_type": "Property Maintenance",
    "request_reason": "Property Maintenance",
    "date_created": "2024-05-27T14:30:00.000",
    "date_modified": "2024-05-27T14:30:00.000",
    "request_status": "Pending",
    "responsible_agency": "Department of Code Enforcement",
    "final_address": "2347 Filmore Ave",
    "address_councildis": "D",
    "status": "Pending",
    "rowid": "1097010",
    "final_x": "3684982.76713",
    "final_y": "552578.339158",
    "longitude": "-90.05633195673104",
    "latitude": "30.013292465998287",
    "geocoded_column": {
      "latitude": "30.013292465998287",
      "longitude": "-90.05633195673104"
    }
  },
  {
    "service_request": "2024-1097009",
    "request_type": "Traffic Signals/Signs/Striping/Streetlights",
    "request_reason": "Street Light Outage/Malfunction",
    "date_created": "2024-05-27T14:29:56.000",
    "date_modified": "2024-05-27T14:29:56.000",
    "request_status": "Pending",
    "responsible_agency": "Department of Public Works",
    "final_address": "521 Baronne St",
    "address_councildis": "B",
    "status": "Assigned to Contractor",
    "contractor": "Legacy Professional Services",
    "rowid": "1097009",
    "final_x": "3679846.69474",
    "final_y": "529353.524673",
    "longitude": "-90.07336608636082",
    "latitude": "29.949588699596685",
    "geocoded_column": {
      "latitude": "29.949588699596685",
      "longitude": "-90.07336608636082"
    }
  },
  {
    "service_request": "2024-1097007",
    "request_type": "Roads/Drainage",
    "request_reason": "Street Subsidence (Sinking)",
    "date_created": "2024-05-27T14:23:04.000",
    "date_modified": "2024-05-27T14:23:04.000",
    "request_status": "Pending",
    "responsible_agency": "Department of Public Works",
    "final_address": "2620 Constance St",
    "address_councildis": "B",
    "status": "Pending",
    "rowid": "1097007",
    "final_x": "3677635.74114",
    "final_y": "520718.010873",
    "longitude": "-90.08064515960905",
    "latitude": "29.92591054345066",
    "geocoded_column": {
      "latitude": "29.92591054345066",
      "longitude": "-90.08064515960905"
    }
  },
  {
    "service_request": "2024-1097005",
    "request_type": "Trash/Recycling",
    "request_reason": "Request a Large Item Pick Up",
    "date_created": "2024-05-27T14:07:35.000",
    "date_modified": "2024-05-27T14:07:37.000",
    "request_status": "Pending",
    "responsible_agency": "Department of Sanitation",
    "final_address": "5825 S Robertson St",
    "address_councildis": "A",
    "status": "Assigned to Contractor",
    "contractor": "IV Waste",
    "rowid": "1097005",
    "final_x": "3666780.60321",
    "final_y": "524780.603324",
    "longitude": "-90.11477536170202",
    "latitude": "29.937403231002165",
    "geocoded_column": {
      "latitude": "29.937403231002165",
      "longitude": "-90.11477536170202"
    }
  },
  {
    "service_request": "2024-1097004",
    "request_type": "Trash/Recycling",
    "request_reason": "Request a Large Item Pick Up",
    "date_created": "2024-05-27T14:00:50.000",
    "date_modified": "2024-05-27T14:00:51.000",
    "request_status": "Pending",
    "responsible_agency": "Department of Sanitation",
    "final_address": "7009 Ridgefield Dr",
    "address_councildis": "E",
    "status": "Assigned to Contractor",
    "contractor": "Waste Pro",
    "rowid": "1097004",
    "final_x": "3719559.62303",
    "final_y": "569481.289702",
    "longitude": "-89.94644243333428",
    "latitude": "30.05866383339809",
    "geocoded_column": {
      "latitude": "30.05866383339809",
      "longitude": "-89.94644243333428"
    }
  },
  {
    "service_request": "2024-1097003",
    "request_type": "Trash/Recycling",
    "request_reason": "Request a Large Item Pick Up",
    "date_created": "2024-05-27T13:54:54.000",
    "date_modified": "2024-05-27T13:54:55.000",
    "request_status": "Pending",
    "responsible_agency": "Department of Sanitation",
    "final_address": "4624 Charlene Dr",
    "address_councildis": "E",
    "status": "Assigned to Contractor",
    "contractor": "Waste Pro",
    "rowid": "1097003",
    "final_x": "3707930.75934",
    "final_y": "554674.717464",
    "longitude": "-89.98375110809992",
    "latitude": "30.018333520397995",
    "geocoded_column": {
      "latitude": "30.018333520397995",
      "longitude": "-89.98375110809992"
    }
  },
  {
    "service_request": "2024-1097002",
    "request_type": "Trash/Recycling",
    "request_reason": "Repair Recycling Cart",
    "date_created": "2024-05-27T13:50:35.000",
    "date_modified": "2024-05-27T13:50:35.000",
    "request_status": "Pending",
    "responsible_agency": "Department of Sanitation",
    "final_address": "5900 BLK Paris Ave",
    "address_councildis": "D",
    "status": "Pending",
    "rowid": "1097002",
    "final_x": "3679018.56351",
    "final_y": "554227.237462",
    "longitude": "-90.07511847290735",
    "latitude": "30.01800775753185",
    "geocoded_column": {
      "latitude": "30.01800775753185",
      "longitude": "-90.07511847290735"
    }
  },
  {
    "service_request": "2024-1097001",
    "request_type": "Trash/Recycling",
    "request_reason": "Replace Trash Cart",
    "date_created": "2024-05-27T13:48:49.000",
    "date_modified": "2024-05-27T13:48:50.000",
    "request_status": "Pending",
    "responsible_agency": "Department of Sanitation",
    "final_address": "445 Belleville St",
    "address_councildis": "C",
    "status": "Assigned to Contractor",
    "contractor": "Richards Disposal",
    "rowid": "1097001",
    "final_x": "3687824.47651",
    "final_y": "529979.231233",
    "longitude": "-90.04815452272759",
    "latitude": "29.951065556380545",
    "geocoded_column": {
      "latitude": "29.951065556380545",
      "longitude": "-90.04815452272759"
    }
  },
  {
    "service_request": "2024-1097000",
    "request_type": "Property Maintenance",
    "request_reason": "Property Maintenance",
    "date_created": "2024-05-27T13:47:29.000",
    "date_modified": "2024-05-27T13:47:29.000",
    "request_status": "Pending",
    "responsible_agency": "Department of Code Enforcement",
    "final_address": "2325 Pleasure St",
    "address_councildis": "D",
    "status": "Pending",
    "rowid": "1097000",
    "final_x": "3685261.11036",
    "final_y": "545260.134863",
    "longitude": "-90.05571034971372",
    "latitude": "29.993161517358907",
    "geocoded_column": {
      "latitude": "29.993161517358907",
      "longitude": "-90.05571034971372"
    }
  },
  {
    "service_request": "2024-1096999",
    "request_type": "Traffic Signals/Signs/Striping/Streetlights",
    "request_reason": "Street Name Sign Damaged or Missing",
    "date_created": "2024-05-27T13:45:41.000",
    "date_modified": "2024-05-27T13:45:41.000",
    "request_status": "Pending",
    "responsible_agency": "Department of Public Works",
    "final_address": "SONIAT ST & ATLANTA ST",
    "address_councildis": "B",
    "status": "Pending",
    "rowid": "1096999",
    "final_x": "3668404.6",
    "final_y": "520709.58",
    "longitude": "-90.10978551882647",
    "latitude": "29.926161628979543",
    "geocoded_column": {
      "latitude": "29.926161628979543",
      "longitude": "-90.10978551882647"
    }
  },
  {
    "service_request": "2024-1096998",
    "request_type": "Trash/Recycling",
    "request_reason": "Request a Large Item Pick Up",
    "date_created": "2024-05-27T13:37:26.000",
    "date_modified": "2024-05-27T13:37:27.000",
    "request_status": "Pending",
    "responsible_agency": "Department of Sanitation",
    "final_address": "5040 Basinview Dr",
    "address_councildis": "E",
    "status": "Assigned to Contractor",
    "contractor": "Waste Pro",
    "rowid": "1096998",
    "final_x": "3698553.63421",
    "final_y": "555738.838681",
    "longitude": "-90.0133404385182",
    "latitude": "30.02155979784635",
    "geocoded_column": {
      "latitude": "30.02155979784635",
      "longitude": "-90.0133404385182"
    }
  },
  {
    "service_request": "2024-1096997",
    "request_type": "Trash/Recycling",
    "request_reason": "Repair Trash Cart",
    "date_created": "2024-05-27T13:35:43.000",
    "date_modified": "2024-05-27T13:35:44.000",
    "request_status": "Pending",
    "responsible_agency": "Department of Sanitation",
    "final_address": "5852 Catina St",
    "address_councildis": "A",
    "status": "Assigned to Contractor",
    "contractor": "IV Waste",
    "rowid": "1096997",
    "final_x": "3666688.75335",
    "final_y": "546875.106705",
    "longitude": "-90.1143232571773",
    "latitude": "29.99815846953292",
    "geocoded_column": {
      "latitude": "29.99815846953292",
      "longitude": "-90.1143232571773"
    }
  },
  {
    "service_request": "2024-1096996",
    "request_type": "Property Maintenance",
    "request_reason": "Property Maintenance",
    "date_created": "2024-05-27T13:30:43.000",
    "date_modified": "2024-05-27T13:30:43.000",
    "request_status": "Pending",
    "responsible_agency": "Department of Code Enforcement",
    "final_address": "PLEASURE ST & W ST ROCH AVE",
    "address_councildis": "D",
    "status": "Pending",
    "rowid": "1096996",
    "final_x": "3685608.3",
    "final_y": "545250.48",
    "longitude": "-90.05461397841063",
    "latitude": "29.993124320946315",
    "geocoded_column": {
      "latitude": "29.993124320946315",
      "longitude": "-90.05461397841063"
    }
  },
  {
    "service_request": "2024-1096994",
    "request_type": "Trash/Recycling",
    "request_reason": "Missed Trash Pick-Up",
    "date_created": "2024-05-27T13:27:05.000",
    "date_modified": "2024-05-27T16:14:28.000",
    "case_close_date": "2024-05-27T11:14:28.000",
    "request_status": "Closed",
    "responsible_agency": "Department of Sanitation",
    "final_address": "7 Honeysuckle Ln, New Orleans, Louisiana, 70128",
    "address_councildis": "E",
    "status": "Invalid Request",
    "contractor": "Waste Pro",
    "contractor_action": "Invalid Request",
    "rowid": "1096994",
    "final_x": "3713104.45221",
    "final_y": "568109.006117",
    "longitude": "-89.96689814099983",
    "latitude": "30.055103866557758",
    "geocoded_column": {
      "latitude": "30.055103866557758",
      "longitude": "-89.96689814099983"
    }
  },
  {
    "service_request": "2024-1096993",
    "request_type": "Trash/Recycling",
    "request_reason": "Request a Large Item Pick Up",
    "date_created": "2024-05-27T13:25:14.000",
    "date_modified": "2024-05-27T13:25:15.000",
    "request_status": "Pending",
    "responsible_agency": "Department of Sanitation",
    "final_address": "7607 Plum St",
    "address_councildis": "A",
    "status": "Assigned to Contractor",
    "contractor": "IV Waste",
    "rowid": "1096993",
    "final_x": "3663498.80423",
    "final_y": "527512.237311",
    "longitude": "-90.12504533124681",
    "latitude": "29.945009910622566",
    "geocoded_column": {
      "latitude": "29.945009910622566",
      "longitude": "-90.12504533124681"
    }
  },
  {
    "service_request": "2024-1096992",
    "request_type": "Abandoned Vehicles",
    "request_reason": "Abandoned/Junk Vehicles",
    "date_created": "2024-05-27T13:21:48.000",
    "date_modified": "2024-05-27T13:21:48.000",
    "request_status": "Pending",
    "responsible_agency": "Department of Public Works",
    "final_address": "1900 BLK Onzaga St",
    "address_councildis": "D",
    "status": "Pending",
    "rowid": "1096992",
    "final_x": "3681409.94554",
    "final_y": "538828.588141",
    "longitude": "-90.06809985562494",
    "latitude": "29.97559452792731",
    "geocoded_column": {
      "latitude": "29.97559452792731",
      "longitude": "-90.06809985562494"
    }
  },
  {
    "service_request": "2024-1096991",
    "request_type": "Trash/Recycling",
    "request_reason": "Request a Large Item Pick Up",
    "date_created": "2024-05-27T13:19:21.000",
    "date_modified": "2024-05-27T13:19:21.000",
    "request_status": "Pending",
    "responsible_agency": "Department of Sanitation",
    "final_address": "1812 St Philip St",
    "address_councildis": "D",
    "status": "Assigned to Contractor",
    "contractor": "IV Waste",
    "rowid": "1096991",
    "final_x": "3680026.48175",
    "final_y": "535761.917447",
    "longitude": "-90.07257578250035",
    "latitude": "29.967204170290568",
    "geocoded_column": {
      "latitude": "29.967204170290568",
      "longitude": "-90.07257578250035"
    }
  },
  {
    "service_request": "2024-1096990",
    "request_type": "Abandoned Vehicles",
    "request_reason": "Abandoned/Junk Vehicles",
    "date_created": "2024-05-27T13:09:31.000",
    "date_modified": "2024-05-27T13:09:32.000",
    "request_status": "Pending",
    "responsible_agency": "Department of Public Works",
    "final_address": "300 BLK N Robertson St",
    "address_councildis": "B",
    "status": "Pending",
    "rowid": "1096990",
    "final_x": "3679289.10037",
    "final_y": "533334.753656",
    "longitude": "-90.07498861650525",
    "latitude": "29.960552584580697",
    "geocoded_column": {
      "latitude": "29.960552584580697",
      "longitude": "-90.07498861650525"
    }
  },
  {
    "service_request": "2024-1096989",
    "request_type": "Roads/Drainage",
    "request_reason": "Pothole",
    "date_created": "2024-05-27T12:53:49.000",
    "date_modified": "2024-05-27T12:53:49.000",
    "request_status": "Pending",
    "responsible_agency": "Department of Public Works",
    "final_address": "936 Arabella St",
    "address_councildis": "A",
    "status": "Pending",
    "rowid": "1096989",
    "final_x": "3665920.35764",
    "final_y": "519569.128439",
    "longitude": "-90.11766578223516",
    "latitude": "29.923098453673333",
    "geocoded_column": {
      "latitude": "29.923098453673333",
      "longitude": "-90.11766578223516"
    }
  },
  {
    "service_request": "2024-1096988",
    "request_type": "Abandoned Vehicles",
    "request_reason": "Abandoned/Junk Vehicles",
    "date_created": "2024-05-27T12:52:10.000",
    "date_modified": "2024-05-27T12:52:10.000",
    "request_status": "Pending",
    "responsible_agency": "Department of Public Works",
    "final_address": "300 BLK N Robertson St",
    "address_councildis": "B",
    "status": "Pending",
    "rowid": "1096988",
    "final_x": "3679289.10037",
    "final_y": "533334.753656",
    "longitude": "-90.07498861650525",
    "latitude": "29.960552584580697",
    "geocoded_column": {
      "latitude": "29.960552584580697",
      "longitude": "-90.07498861650525"
    }
  },
  {
    "service_request": "2024-1096987",
    "request_type": "Trash/Recycling",
    "request_reason": "Request a Large Item Pick Up",
    "date_created": "2024-05-27T12:24:44.000",
    "date_modified": "2024-05-27T12:24:44.000",
    "request_status": "Pending",
    "responsible_agency": "Department of Sanitation",
    "final_address": "523 S Cortez St",
    "address_councildis": "B",
    "status": "Assigned to Contractor",
    "contractor": "IV Waste",
    "rowid": "1096987",
    "final_x": "3670952.10299",
    "final_y": "536192.809671",
    "longitude": "-90.10121820401588",
    "latitude": "29.96866039778532",
    "geocoded_column": {
      "latitude": "29.96866039778532",
      "longitude": "-90.10121820401588"
    }
  },
  {
    "service_request": "2024-1096986",
    "request_type": "Trash/Recycling",
    "request_reason": "Order Trash Cart",
    "date_created": "2024-05-27T12:23:18.000",
    "date_modified": "2024-05-27T12:23:19.000",
    "request_status": "Pending",
    "responsible_agency": "Department of Sanitation",
    "final_address": "1868 Filmore Ave",
    "address_councildis": "D",
    "status": "Assigned to Contractor",
    "contractor": "IV Waste",
    "rowid": "1096986",
    "final_x": "3681431.74652",
    "final_y": "551936.795222",
    "longitude": "-90.06757368198488",
    "latitude": "30.01163679135966",
    "geocoded_column": {
      "latitude": "30.01163679135966",
      "longitude": "-90.06757368198488"
    }
  },
  {
    "service_request": "2024-1096985",
    "request_type": "Trash/Recycling",
    "request_reason": "Replace Recycling Cart",
    "date_created": "2024-05-27T12:21:58.000",
    "date_modified": "2024-05-27T12:21:58.000",
    "request_status": "Pending",
    "responsible_agency": "Department of Sanitation",
    "final_address": "2625 Lepage St",
    "address_councildis": "A",
    "status": "Pending",
    "rowid": "1096985",
    "final_x": "3678276.92136",
    "final_y": "539608.641162",
    "longitude": "-90.07796782231942",
    "latitude": "29.977834156494783",
    "geocoded_column": {
      "latitude": "29.977834156494783",
      "longitude": "-90.07796782231942"
    }
  },
  {
    "service_request": "2024-1096984",
    "request_type": "Trash/Recycling",
    "request_reason": "Request a Large Item Pick Up",
    "date_created": "2024-05-27T12:17:24.000",
    "date_modified": "2024-05-27T12:17:24.000",
    "request_status": "Pending",
    "responsible_agency": "Department of Sanitation",
    "final_address": "936 Florida Blvd",
    "address_councildis": "A",
    "status": "Assigned to Contractor",
    "contractor": "IV Waste",
    "rowid": "1096984",
    "final_x": "3670053.60858",
    "final_y": "545125.725711",
    "longitude": "-90.10375298420362",
    "latitude": "29.993249417585318",
    "geocoded_column": {
      "latitude": "29.993249417585318",
      "longitude": "-90.10375298420362"
    }
  },
  {
    "service_request": "2024-1096983",
    "request_type": "Roads/Drainage",
    "request_reason": "Damaged Sidewalk",
    "date_created": "2024-05-27T11:59:13.000",
    "date_modified": "2024-05-27T11:59:13.000",
    "request_status": "Pending",
    "responsible_agency": "Department of Public Works",
    "final_address": "5221 Conti St",
    "address_councildis": "A",
    "status": "Pending",
    "rowid": "1096983",
    "final_x": "3668497.81486",
    "final_y": "541829.971596",
    "longitude": "-90.1087787547864",
    "latitude": "29.98423303306553",
    "geocoded_column": {
      "latitude": "29.98423303306553",
      "longitude": "-90.1087787547864"
    }
  },
  {
    "service_request": "2024-1096982",
    "request_type": "Trash/Recycling",
    "request_reason": "Order Trash Cart",
    "date_created": "2024-05-27T11:58:19.000",
    "date_modified": "2024-05-27T11:58:19.000",
    "request_status": "Pending",
    "responsible_agency": "Department of Sanitation",
    "final_address": "6322 Baccich St",
    "address_councildis": "D",
    "status": "Assigned to Contractor",
    "contractor": "IV Waste",
    "rowid": "1096982",
    "final_x": "3687331.23266",
    "final_y": "556661.421082",
    "longitude": "-90.04876744760462",
    "latitude": "30.02444725568782",
    "geocoded_column": {
      "latitude": "30.02444725568782",
      "longitude": "-90.04876744760462"
    }
  },
  {
    "service_request": "2024-1096981",
    "request_type": "Trash/Recycling",
    "request_reason": "Missed Trash Pick-Up",
    "date_created": "2024-05-27T11:56:42.000",
    "date_modified": "2024-05-27T12:45:11.000",
    "case_close_date": "2024-05-27T07:45:11.000",
    "request_status": "Closed",
    "responsible_agency": "Department of Sanitation",
    "final_address": "2020 Barracks St",
    "address_councildis": "D",
    "status": "Invalid Request",
    "contractor": "IV Waste",
    "contractor_action": "Invalid",
    "rowid": "1096981",
    "final_x": "3680078.49512",
    "final_y": "537091.329928",
    "longitude": "-90.07236532258773",
    "latitude": "29.970858024687544",
    "geocoded_column": {
      "latitude": "29.970858024687544",
      "longitude": "-90.07236532258773"
    }
  },
  {
    "service_request": "2024-1096980",
    "request_type": "Trash/Recycling",
    "request_reason": "Request a Large Item Pick Up",
    "date_created": "2024-05-27T11:51:57.000",
    "date_modified": "2024-05-27T11:51:58.000",
    "request_status": "Pending",
    "responsible_agency": "Department of Sanitation",
    "final_address": "5611 Painters St",
    "address_councildis": "D",
    "status": "Assigned to Contractor",
    "contractor": "IV Waste",
    "rowid": "1096980",
    "final_x": "3686223.08335",
    "final_y": "553710.706647",
    "longitude": "-90.05237322795638",
    "latitude": "30.016367994379024",
    "geocoded_column": {
      "latitude": "30.016367994379024",
      "longitude": "-90.05237322795638"
    }
  },
  {
    "service_request": "2024-1096979",
    "request_type": "Property Maintenance",
    "request_reason": "Property Maintenance",
    "date_created": "2024-05-27T11:51:17.000",
    "date_modified": "2024-05-27T11:51:17.000",
    "request_status": "Pending",
    "responsible_agency": "Department of Code Enforcement",
    "final_address": "5617 Arts St",
    "address_councildis": "D",
    "status": "Pending",
    "rowid": "1096979",
    "final_x": "3685861.23234",
    "final_y": "553721.155607",
    "longitude": "-90.05351614945394",
    "latitude": "30.016407843073594",
    "geocoded_column": {
      "latitude": "30.016407843073594",
      "longitude": "-90.05351614945394"
    }
  },
  {
    "service_request": "2024-1096978",
    "request_type": "Abandoned Vehicles",
    "request_reason": "Abandoned/Junk Vehicles",
    "date_created": "2024-05-27T11:42:40.000",
    "date_modified": "2024-05-27T11:42:40.000",
    "request_status": "Pending",
    "responsible_agency": "Department of Public Works",
    "final_address": "2311 Soniat St",
    "address_councildis": "B",
    "status": "Pending",
    "rowid": "1096978",
    "final_x": "3668558.39431",
    "final_y": "524029.253628",
    "longitude": "-90.10918807894842",
    "latitude": "29.93528515529159",
    "geocoded_column": {
      "latitude": "29.93528515529159",
      "longitude": "-90.10918807894842"
    }
  },
  {
    "service_request": "2024-1096977",
    "request_type": "Abandoned Vehicles",
    "request_reason": "Abandoned/Junk Vehicles",
    "date_created": "2024-05-27T11:40:00.000",
    "date_modified": "2024-05-27T11:40:00.000",
    "request_status": "Pending",
    "responsible_agency": "Department of Public Works",
    "final_address": "2539 Soniat St",
    "address_councildis": "B",
    "status": "Pending",
    "rowid": "1096977",
    "final_x": "3668604.32206",
    "final_y": "524921.743676",
    "longitude": "-90.10901297881158",
    "latitude": "29.937737866882127",
    "geocoded_column": {
      "latitude": "29.937737866882127",
      "longitude": "-90.10901297881158"
    }
  },
  {
    "service_request": "2024-1096975",
    "request_type": "Trash/Recycling",
    "request_reason": "Request a Large Item Pick Up",
    "date_created": "2024-05-27T11:26:09.000",
    "date_modified": "2024-05-27T11:26:10.000",
    "request_status": "Pending",
    "responsible_agency": "Department of Sanitation",
    "final_address": "4824 Constance St",
    "address_councildis": "B",
    "status": "Assigned to Contractor",
    "contractor": "IV Waste",
    "rowid": "1096975",
    "final_x": "3669412.66938",
    "final_y": "518209.222134",
    "longitude": "-90.10668782005432",
    "latitude": "29.919256800556497",
    "geocoded_column": {
      "latitude": "29.919256800556497",
      "longitude": "-90.10668782005432"
    }
  },
  {
    "service_request": "2024-1096974",
    "request_type": "Trash/Recycling",
    "request_reason": "Missed Trash Pick-Up",
    "date_created": "2024-05-27T11:23:20.000",
    "date_modified": "2024-05-27T13:21:43.000",
    "case_close_date": "2024-05-27T08:21:43.000",
    "request_status": "Closed",
    "responsible_agency": "Department of Sanitation",
    "final_address": "7561 Anne Marie Ct",
    "address_councildis": "E",
    "status": "Duplicate Request",
    "contractor": "Waste Pro",
    "contractor_action": "Duplicate",
    "rowid": "1096974",
    "final_x": "3718245.51724",
    "final_y": "570963.932327",
    "longitude": "-89.95053959264729",
    "latitude": "30.06278415188911",
    "geocoded_column": {
      "latitude": "30.06278415188911",
      "longitude": "-89.95053959264729"
    }
  },
  {
    "service_request": "2024-1096973",
    "request_type": "Trash/Recycling",
    "request_reason": "Missed Trash Pick-Up",
    "date_created": "2024-05-27T11:22:41.000",
    "date_modified": "2024-05-27T16:02:28.000",
    "case_close_date": "2024-05-27T11:02:28.000",
    "request_status": "Closed",
    "responsible_agency": "Department of Sanitation",
    "final_address": "7561 Anne Marie Ct",
    "address_councildis": "E",
    "status": "Invalid Request",
    "contractor": "Waste Pro",
    "contractor_action": "Invalid",
    "rowid": "1096973",
    "final_x": "3718245.51724",
    "final_y": "570963.932327",
    "longitude": "-89.95053959264729",
    "latitude": "30.06278415188911",
    "geocoded_column": {
      "latitude": "30.06278415188911",
      "longitude": "-89.95053959264729"
    }
  },
  {
    "service_request": "2024-1096972",
    "request_type": "Trash/Recycling",
    "request_reason": "Replace Trash Cart",
    "date_created": "2024-05-27T11:20:43.000",
    "date_modified": "2024-05-27T11:20:43.000",
    "request_status": "Pending",
    "responsible_agency": "Department of Sanitation",
    "final_address": "2401 Palmer Ave",
    "address_councildis": "A",
    "status": "Assigned to Contractor",
    "contractor": "IV Waste",
    "rowid": "1096972",
    "final_x": "3666416.44436",
    "final_y": "525581.897533",
    "longitude": "-90.11589816208809",
    "latitude": "29.93961717702206",
    "geocoded_column": {
      "latitude": "29.93961717702206",
      "longitude": "-90.11589816208809"
    }
  },
  {
    "service_request": "2024-1096971",
    "request_type": "Trash/Recycling",
    "request_reason": "Request a Large Item Pick Up",
    "date_created": "2024-05-27T11:16:44.000",
    "date_modified": "2024-05-27T11:16:45.000",
    "request_status": "Pending",
    "responsible_agency": "Department of Sanitation",
    "final_address": "2517 N Rampart St",
    "address_councildis": "C",
    "status": "Assigned to Contractor",
    "contractor": "IV Waste",
    "rowid": "1096971",
    "final_x": "3686664.951",
    "final_y": "536103.264455",
    "longitude": "-90.05159941693151",
    "latitude": "29.967940244197255",
    "geocoded_column": {
      "latitude": "29.967940244197255",
      "longitude": "-90.05159941693151"
    }
  },
  {
    "service_request": "2024-1096970",
    "request_type": "Trash/Recycling",
    "request_reason": "Repair Trash Cart",
    "date_created": "2024-05-27T11:15:35.000",
    "date_modified": "2024-05-27T11:15:35.000",
    "request_status": "Pending",
    "responsible_agency": "Department of Sanitation",
    "final_address": "1215 Ursulines Ave",
    "address_councildis": "C",
    "status": "Assigned to Contractor",
    "contractor": "IV Waste",
    "rowid": "1096970",
    "final_x": "3681850.69416",
    "final_y": "534906.35239",
    "longitude": "-90.0668447690184",
    "latitude": "29.964796343985576",
    "geocoded_column": {
      "latitude": "29.964796343985576",
      "longitude": "-90.0668447690184"
    }
  },
  {
    "service_request": "2024-1096969",
    "request_type": "Trash/Recycling",
    "request_reason": "Repair Trash Cart",
    "date_created": "2024-05-27T11:09:15.000",
    "date_modified": "2024-05-27T11:09:15.000",
    "request_status": "Pending",
    "responsible_agency": "Department of Sanitation",
    "final_address": "2330 Jefferson Ave",
    "address_councildis": "A",
    "status": "Assigned to Contractor",
    "contractor": "IV Waste",
    "rowid": "1096969",
    "final_x": "3667908.67002",
    "final_y": "524251.40038",
    "longitude": "-90.11123178585328",
    "latitude": "29.935915057861504",
    "geocoded_column": {
      "latitude": "29.935915057861504",
      "longitude": "-90.11123178585328"
    }
  },
  {
    "service_request": "2024-1096968",
    "request_type": "Trash/Recycling",
    "request_reason": "Replace Trash Cart",
    "date_created": "2024-05-27T11:08:17.000",
    "date_modified": "2024-05-27T11:08:18.000",
    "request_status": "Pending",
    "responsible_agency": "Department of Sanitation",
    "final_address": "13504 Trappers Ct",
    "address_councildis": "E",
    "status": "Assigned to Contractor",
    "contractor": "Waste Pro",
    "rowid": "1096968",
    "final_x": "3724442.47417",
    "final_y": "568918.233893",
    "longitude": "-89.93103019645295",
    "latitude": "30.056952259234286",
    "geocoded_column": {
      "latitude": "30.056952259234286",
      "longitude": "-89.93103019645295"
    }
  },
  {
    "service_request": "2024-1096967",
    "request_type": "Traffic Signals/Signs/Striping/Streetlights",
    "request_reason": "Additional signage",
    "date_created": "2024-05-27T10:57:04.000",
    "date_modified": "2024-05-27T10:57:04.000",
    "request_status": "Pending",
    "responsible_agency": "Department of Public Works",
    "final_address": "5909 General Meyer Ave",
    "address_councildis": "C",
    "status": "Pending",
    "rowid": "1096967",
    "final_x": "3705922.29137",
    "final_y": "521199.712249",
    "longitude": "-89.99133581893898",
    "latitude": "29.926354434636036",
    "geocoded_column": {
      "latitude": "29.926354434636036",
      "longitude": "-89.99133581893898"
    }
  },
  {
    "service_request": "2024-1096966",
    "request_type": "Abandoned Vehicles",
    "request_reason": "Abandoned/Junk Vehicles",
    "date_created": "2024-05-27T10:55:29.000",
    "date_modified": "2024-05-27T10:55:29.000",
    "request_status": "Pending",
    "responsible_agency": "Department of Public Works",
    "final_address": "101 N Prieur St",
    "address_councildis": "B",
    "status": "Pending",
    "rowid": "1096966",
    "final_x": "3677617.64757",
    "final_y": "533679.316549",
    "longitude": "-90.08025483362853",
    "latitude": "29.961550382018398",
    "geocoded_column": {
      "latitude": "29.961550382018398",
      "longitude": "-90.08025483362853"
    }
  },
  {
    "service_request": "2024-1096965",
    "request_type": "Trash/Recycling",
    "request_reason": "Request a Large Item Pick Up",
    "date_created": "2024-05-27T10:55:19.000",
    "date_modified": "2024-05-27T10:55:19.000",
    "request_status": "Pending",
    "responsible_agency": "Department of Sanitation",
    "final_address": "7800 BLK Saint Charles Ave",
    "address_councildis": "A",
    "status": "Assigned to Contractor",
    "contractor": "IV Waste",
    "rowid": "1096965",
    "final_x": "3661244.25097",
    "final_y": "526172.317194",
    "longitude": "-90.13220803512634",
    "latitude": "29.94139073510997",
    "geocoded_column": {
      "latitude": "29.94139073510997",
      "longitude": "-90.13220803512634"
    }
  },
  {
    "service_request": "2024-1096964",
    "request_type": "Property Maintenance",
    "request_reason": "Property Maintenance",
    "date_created": "2024-05-27T10:54:21.000",
    "date_modified": "2024-05-27T10:54:21.000",
    "request_status": "Pending",
    "responsible_agency": "Department of Code Enforcement",
    "final_address": "200 Woodland Dr",
    "address_councildis": "C",
    "status": "Pending",
    "rowid": "1096964",
    "final_x": "3705688.11614",
    "final_y": "521014.181113",
    "longitude": "-89.99208189348553",
    "latitude": "29.92585182802791",
    "geocoded_column": {
      "latitude": "29.92585182802791",
      "longitude": "-89.99208189348553"
    }
  },
  {
    "service_request": "2024-1096963",
    "request_type": "Trash/Recycling",
    "request_reason": "Request a Large Item Pick Up",
    "date_created": "2024-05-27T10:53:31.000",
    "date_modified": "2024-05-27T10:53:32.000",
    "request_status": "Pending",
    "responsible_agency": "Department of Sanitation",
    "final_address": "416 16Th St",
    "address_councildis": "A",
    "status": "Assigned to Contractor",
    "contractor": "IV Waste",
    "rowid": "1096963",
    "final_x": "3664667.79872",
    "final_y": "548367.42197",
    "longitude": "-90.12065756907766",
    "latitude": "30.00232078705233",
    "geocoded_column": {
      "latitude": "30.00232078705233",
      "longitude": "-90.12065756907766"
    }
  },
  {
    "service_request": "2024-1096962",
    "request_type": "Roads/Drainage",
    "request_reason": "Pothole",
    "date_created": "2024-05-27T10:34:30.000",
    "date_modified": "2024-05-27T10:34:30.000",
    "request_status": "Pending",
    "responsible_agency": "Department of Public Works",
    "final_address": "2015 Chartres St",
    "address_councildis": "C",
    "status": "Pending",
    "rowid": "1096962",
    "final_x": "3684650.51797",
    "final_y": "534499.563013",
    "longitude": "-90.05801742196488",
    "latitude": "29.963592424983997",
    "geocoded_column": {
      "latitude": "29.963592424983997",
      "longitude": "-90.05801742196488"
    }
  },
  {
    "service_request": "2024-1096960",
    "request_type": "Trash/Recycling",
    "request_reason": "Request a Large Item Pick Up",
    "date_created": "2024-05-27T10:06:29.000",
    "date_modified": "2024-05-27T10:06:30.000",
    "request_status": "Pending",
    "responsible_agency": "Department of Sanitation",
    "final_address": "2905 Amelia St",
    "address_councildis": "B",
    "status": "Assigned to Contractor",
    "contractor": "IV Waste",
    "rowid": "1096960",
    "final_x": "3672022.81479",
    "final_y": "525688.424573",
    "longitude": "-90.09819441589619",
    "latitude": "29.93974511224542",
    "geocoded_column": {
      "latitude": "29.93974511224542",
      "longitude": "-90.09819441589619"
    }
  },
  {
    "service_request": "2024-1096959",
    "request_type": "Trash/Recycling",
    "request_reason": "Request a Large Item Pick Up",
    "date_created": "2024-05-27T10:02:16.000",
    "date_modified": "2024-05-27T10:02:17.000",
    "request_status": "Pending",
    "responsible_agency": "Department of Sanitation",
    "final_address": "705 Patterson St",
    "address_councildis": "C",
    "status": "Assigned to Contractor",
    "contractor": "Richards Disposal",
    "rowid": "1096959",
    "final_x": "3687673.99535",
    "final_y": "531408.048899",
    "longitude": "-90.04857908142694",
    "latitude": "29.954998954409437",
    "geocoded_column": {
      "latitude": "29.954998954409437",
      "longitude": "-90.04857908142694"
    }
  },
  {
    "service_request": "2024-1096958",
    "request_type": "Roads/Drainage",
    "request_reason": "Street Subsidence (Sinking)",
    "date_created": "2024-05-27T10:00:07.000",
    "date_modified": "2024-05-27T10:00:07.000",
    "request_status": "Pending",
    "responsible_agency": "Department of Public Works",
    "final_address": "1312 Milan St",
    "address_councildis": "B",
    "status": "Pending",
    "rowid": "1096958",
    "final_x": "3671625.82823",
    "final_y": "520286.919608",
    "longitude": "-90.09963137110304",
    "latitude": "29.92490447494246",
    "geocoded_column": {
      "latitude": "29.92490447494246",
      "longitude": "-90.09963137110304"
    }
  },
  {
    "service_request": "2024-1096957",
    "request_type": "Trash/Recycling",
    "request_reason": "Replace Recycling Cart",
    "date_created": "2024-05-27T09:27:18.000",
    "date_modified": "2024-05-27T09:27:18.000",
    "request_status": "Pending",
    "responsible_agency": "Department of Sanitation",
    "final_address": "417 Henry Clay Ave",
    "address_councildis": "A",
    "status": "Pending",
    "rowid": "1096957",
    "final_x": "3663375.75616",
    "final_y": "518379.00959",
    "longitude": "-90.12573773977351",
    "latitude": "29.919899984815505",
    "geocoded_column": {
      "latitude": "29.919899984815505",
      "longitude": "-90.12573773977351"
    }
  },
  {
    "service_request": "2024-1096956",
    "request_type": "Trash/Recycling",
    "request_reason": "Request a Large Item Pick Up",
    "date_created": "2024-05-27T09:24:28.000",
    "date_modified": "2024-05-27T11:55:45.000",
    "request_status": "Pending",
    "responsible_agency": "Department of Sanitation",
    "final_address": "4519 Dhemecourt St, New Orleans, Louisiana, 70119",
    "address_councildis": "A",
    "status": "Assigned to Contractor",
    "contractor": "IV Waste",
    "rowid": "1096956",
    "final_x": "3668419.70343",
    "final_y": "537978.668105",
    "longitude": "-90.10915543636577",
    "latitude": "29.97364554350241",
    "geocoded_column": {
      "latitude": "29.97364554350241",
      "longitude": "-90.10915543636577"
    }
  },
  {
    "service_request": "2024-1096955",
    "request_type": "Trash/Recycling",
    "request_reason": "Replace Recycling Cart",
    "date_created": "2024-05-27T09:19:50.000",
    "date_modified": "2024-05-27T09:19:50.000",
    "request_status": "Pending",
    "responsible_agency": "Department of Sanitation",
    "final_address": "4206 Orleans Ave",
    "address_councildis": "A",
    "status": "Pending",
    "rowid": "1096955",
    "final_x": "3671891.23041",
    "final_y": "540600.977163",
    "longitude": "-90.0981023071748",
    "latitude": "29.980753565028625",
    "geocoded_column": {
      "latitude": "29.980753565028625",
      "longitude": "-90.0981023071748"
    }
  },
  {
    "service_request": "2024-1096952",
    "request_type": "Roads/Drainage",
    "request_reason": "Pothole",
    "date_created": "2024-05-27T09:12:08.000",
    "date_modified": "2024-05-27T09:12:08.000",
    "request_status": "Pending",
    "responsible_agency": "Department of Public Works",
    "final_address": "PRYTANIA ST & VALENCE ST",
    "address_councildis": "B",
    "status": "Pending",
    "rowid": "1096952",
    "final_x": "3669801.5",
    "final_y": "520207.98",
    "longitude": "-90.10539286401604",
    "latitude": "29.92474129963754",
    "geocoded_column": {
      "latitude": "29.92474129963754",
      "longitude": "-90.10539286401604"
    }
  },
  {
    "service_request": "2024-1096951",
    "request_type": "Trash/Recycling",
    "request_reason": "Replace Trash Cart",
    "date_created": "2024-05-27T09:11:02.000",
    "date_modified": "2024-05-27T09:11:03.000",
    "request_status": "Pending",
    "responsible_agency": "Department of Sanitation",
    "final_address": "4526 S Carrollton Ave",
    "address_councildis": "A",
    "status": "Assigned to Contractor",
    "contractor": "IV Waste",
    "rowid": "1096951",
    "final_x": "3670549.00411",
    "final_y": "537558.504456",
    "longitude": "-90.10244488569091",
    "latitude": "29.972427511936377",
    "geocoded_column": {
      "latitude": "29.972427511936377",
      "longitude": "-90.10244488569091"
    }
  },
  {
    "service_request": "2024-1096950",
    "request_type": "Trash/Recycling",
    "request_reason": "Request a Large Item Pick Up",
    "date_created": "2024-05-27T09:04:50.000",
    "date_modified": "2024-05-27T09:04:51.000",
    "request_status": "Pending",
    "responsible_agency": "Department of Sanitation",
    "final_address": "7730 Sycamore St",
    "address_councildis": "A",
    "status": "Assigned to Contractor",
    "contractor": "IV Waste",
    "rowid": "1096950",
    "final_x": "3665212.8112",
    "final_y": "530083.172161",
    "longitude": "-90.1195476748489",
    "latitude": "29.952029341494097",
    "geocoded_column": {
      "latitude": "29.952029341494097",
      "longitude": "-90.1195476748489"
    }
  },
  {
    "service_request": "2024-1096949",
    "request_type": "Trash/Recycling",
    "request_reason": "Replace Trash Cart",
    "date_created": "2024-05-27T09:02:31.000",
    "date_modified": "2024-05-27T09:02:32.000",
    "request_status": "Pending",
    "responsible_agency": "Department of Sanitation",
    "final_address": "2821 Danbury Dr",
    "address_councildis": "C",
    "status": "Assigned to Contractor",
    "contractor": "Richards Disposal",
    "rowid": "1096949",
    "final_x": "3703553.53258",
    "final_y": "520254.144888",
    "longitude": "-89.99884802896757",
    "latitude": "29.92383052288735",
    "geocoded_column": {
      "latitude": "29.92383052288735",
      "longitude": "-89.99884802896757"
    }
  },