[
  {
    "service_request": "2024-1153306",
    "request_type": "Safety & Permits",
    "request_reason": "Construction permit",
    "date_created": "2024-12-05T22:41:18.000",
    "date_modified": "2024-12-05T22:41:18.000",
    "request_status": "Pending",
    "responsible_agency": "Safety and Permits",
    "final_address": "521 Newton St",
    "address_councildis": "C",
    "status": "Pending",
    "rowid": "1153306",
    "final_x": "3687189.05046",
    "final_y": "527913.071935",
    "longitude": "-90.05023392924824",
    "latitude": "29.945403904557548",
    "geocoded_column": {
      "latitude": "29.945403904557548",
      "longitude": "-90.05023392924824"
    }
  },
  {
    "service_request": "2024-1153305",
    "request_type": "General Services",
    "request_reason": "General Service Request",
    "date_created": "2024-12-05T22:36:14.000",
    "date_modified": "2024-12-05T22:36:14.000",
    "request_status": "Pending",
    "responsible_agency": "Orleans Parish Communication District",
    "final_address": "3601 Conti St",
    "address_councildis": "B",
    "status": "Pending",
    "rowid": "1153305",
    "final_x": "3673355.81339",
    "final_y": "538436.863433",
    "longitude": "-90.09355045873869",
    "latitude": "29.974759496447952",
    "geocoded_column": {
      "latitude": "29.974759496447952",
      "longitude": "-90.09355045873869"
    }
  },
  {
    "service_request": "2024-1153304",
    "request_type": "Safety & Permits",
    "request_reason": "Construction permit",
    "date_created": "2024-12-05T22:36:01.000",
    "date_modified": "2024-12-05T22:36:01.000",
    "request_status": "Pending",
    "responsible_agency": "Safety and Permits",
    "final_address": "521 Newton St",
    "address_councildis": "C",
    "status": "Pending",
    "rowid": "1153304",
    "final_x": "3687189.05046",
    "final_y": "527913.071935",
    "longitude": "-90.05023392924824",
    "latitude": "29.945403904557548",
    "geocoded_column": {
      "latitude": "29.945403904557548",
      "longitude": "-90.05023392924824"
    }
  },
  {
    "service_request": "2024-1153303",
    "request_type": "Trash/Recycling",
    "request_reason": "Request a Large Item Pick Up",
    "date_created": "2024-12-05T22:24:34.000",
    "date_modified": "2024-12-05T22:24:36.000",
    "request_status": "Pending",
    "responsible_agency": "Department of Sanitation",
    "final_address": "7311 Malvern Dr",
    "address_councildis": "E",
    "status": "Assigned to Contractor",
    "contractor": "Waste Pro",
    "rowid": "1153303",
    "final_x": "3702913.17751",
    "final_y": "560718.447198",
    "longitude": "-89.99938238132644",
    "latitude": "30.03511298036947",
    "geocoded_column": {
      "latitude": "30.03511298036947",
      "longitude": "-89.99938238132644"
    }
  },
  {
    "service_request": "2024-1153302",
    "request_type": "Property Maintenance",
    "request_reason": "Property Maintenance",
    "date_created": "2024-12-05T21:01:36.000",
    "date_modified": "2024-12-05T21:01:36.000",
    "request_status": "Pending",
    "responsible_agency": "Department of Code Enforcement",
    "final_address": "3561 Rue Denise",
    "address_councildis": "C",
    "status": "Pending",
    "rowid": "1153302",
    "final_x": "3704214.48554",
    "final_y": "517431.326966",
    "longitude": "-89.99686558577795",
    "latitude": "29.9160475663106",
    "geocoded_column": {
      "latitude": "29.9160475663106",
      "longitude": "-89.99686558577795"
    }
  },
  {
    "service_request": "2024-1153301",
    "request_type": "Trash/Recycling",
    "request_reason": "Illegal Dumping",
    "date_created": "2024-12-05T20:38:04.000",
    "date_modified": "2024-12-05T20:38:04.000",
    "request_status": "Pending",
    "responsible_agency": "Department of Sanitation",
    "final_address": "2700 BLK N Robertson St",
    "address_councildis": "C",
    "status": "Pending",
    "rowid": "1153301",
    "final_x": "3687948.04369",
    "final_y": "537845.03499",
    "longitude": "-90.0474856511787",
    "latitude": "29.972689975852433",
    "geocoded_column": {
      "latitude": "29.972689975852433",
      "longitude": "-90.0474856511787"
    }
  },
  {
    "service_request": "2024-1153300",
    "request_type": "Trash/Recycling",
    "request_reason": "Illegal Dumping",
    "date_created": "2024-12-05T20:35:53.000",
    "date_modified": "2024-12-05T20:35:53.000",
    "request_status": "Pending",
    "responsible_agency": "Department of Sanitation",
    "final_address": "2800 BLK N Robertson St",
    "address_councildis": "C",
    "status": "Pending",
    "rowid": "1153300",
    "final_x": "3688238.07788",
    "final_y": "537772.939662",
    "longitude": "-90.04657222928527",
    "latitude": "29.972482786478018",
    "geocoded_column": {
      "latitude": "29.972482786478018",
      "longitude": "-90.04657222928527"
    }
  },
  {
    "service_request": "2024-1153299",
    "request_type": "Abandoned Vehicles",
    "request_reason": "Abandoned/Junk Vehicles",
    "date_created": "2024-12-05T20:27:42.000",
    "date_modified": "2024-12-05T20:27:42.000",
    "request_status": "Pending",
    "responsible_agency": "Department of Public Works",
    "final_address": "800 Tchoupitoulas St",
    "address_councildis": "B",
    "status": "Pending",
    "rowid": "1153299",
    "final_x": "3681778.39247",
    "final_y": "527634.649919",
    "longitude": "-90.06732681058045",
    "latitude": "29.944803824928933",
    "geocoded_column": {
      "latitude": "29.944803824928933",
      "longitude": "-90.06732681058045"
    }
  },
  {
    "service_request": "2024-1153298",
    "request_type": "Street and Traffic Signs",
    "request_reason": "Stop Sign Missing or Damaged",
    "date_created": "2024-12-05T20:23:52.000",
    "date_modified": "2024-12-05T20:23:52.000",
    "request_status": "Pending",
    "responsible_agency": "Department of Public Works",
    "final_address": "GERMAIN ST & LOUISVILLE ST",
    "address_councildis": "A",
    "status": "Pending",
    "rowid": "1153298",
    "final_x": "3667803.0",
    "final_y": "548000.78",
    "longitude": "-90.11076540965115",
    "latitude": "30.0012210407434",
    "geocoded_column": {
      "latitude": "30.0012210407434",
      "longitude": "-90.11076540965115"
    }
  },
  {
    "service_request": "2024-1153297",
    "request_type": "Health Related Request",
    "request_reason": "Request Health Records (Immunization, Lead and Health)",
    "date_created": "2024-12-05T20:03:24.000",
    "date_modified": "2024-12-05T20:03:24.000",
    "request_status": "Pending",
    "responsible_agency": "Health Department",
    "final_address": " & BALDWIN ST",
    "address_councildis": "D",
    "status": "Pending",
    "rowid": "1153297",
    "final_x": "3687893.7",
    "final_y": "559892.69",
    "longitude": "-90.04687552277309",
    "latitude": "30.033314683701462",
    "geocoded_column": {
      "latitude": "30.033314683701462",
      "longitude": "-90.04687552277309"
    }
  },
  {
    "service_request": "2024-1153296",
    "request_type": "Trash/Recycling",
    "request_reason": "Start Trash Service",
    "date_created": "2024-12-05T19:59:58.000",
    "date_modified": "2024-12-05T19:59:59.000",
    "request_status": "Pending",
    "responsible_agency": "Department of Sanitation",
    "final_address": "8609 Nelson St",
    "address_councildis": "A",
    "status": "Assigned to Contractor",
    "contractor": "IV Waste",
    "rowid": "1153296",
    "final_x": "3663762.57088",
    "final_y": "533127.419268",
    "longitude": "-90.12402542605797",
    "latitude": "29.96044219377808",
    "geocoded_column": {
      "latitude": "29.96044219377808",
      "longitude": "-90.12402542605797"
    }
  },
  {
    "service_request": "2024-1153295",
    "request_type": "Property Maintenance",
    "request_reason": "Property Maintenance",
    "date_created": "2024-12-05T19:46:10.000",
    "date_modified": "2024-12-05T19:46:10.000",
    "request_status": "Pending",
    "responsible_agency": "Department of Code Enforcement",
    "final_address": "2707 Lepage St",
    "address_councildis": "A",
    "status": "Pending",
    "rowid": "1153295",
    "final_x": "3677881.12533",
    "final_y": "539747.418378",
    "longitude": "-90.07921308671543",
    "latitude": "29.978227663311234",
    "geocoded_column": {
      "latitude": "29.978227663311234",
      "longitude": "-90.07921308671543"
    }
  },
  {
    "service_request": "2024-1153294",
    "request_type": "Trash/Recycling",
    "request_reason": "Replace Recycling Cart",
    "date_created": "2024-12-05T19:45:28.000",
    "date_modified": "2024-12-05T19:45:28.000",
    "request_status": "Pending",
    "responsible_agency": "Department of Sanitation",
    "final_address": "2103 Baronne St",
    "address_councildis": "B",
    "status": "Pending",
    "rowid": "1153294",
    "final_x": "3677259.61998",
    "final_y": "524722.60198",
    "longitude": "-90.08169437831921",
    "latitude": "29.93693316231773",
    "geocoded_column": {
      "latitude": "29.93693316231773",
      "longitude": "-90.08169437831921"
    }
  },
  {
    "service_request": "2024-1153293",
    "request_type": "Trash/Recycling",
    "request_reason": "MIssed Recycling Pick-Up",
    "date_created": "2024-12-05T19:23:51.000",
    "date_modified": "2024-12-05T19:23:52.000",
    "request_status": "Pending",
    "responsible_agency": "Department of Sanitation",
    "final_address": "6030 N Rampart St",
    "address_councildis": "E",
    "status": "Assigned to Contractor",
    "contractor": "Waste Pro",
    "rowid": "1153293",
    "final_x": "3699203.29975",
    "final_y": "532895.9097",
    "longitude": "-90.01211992492985",
    "latitude": "29.958729558397867",
    "geocoded_column": {
      "latitude": "29.958729558397867",
      "longitude": "-90.01211992492985"
    }
  },
  {
    "service_request": "2024-1153292",
    "request_type": "Trash/Recycling",
    "request_reason": "Order Trash Cart",
    "date_created": "2024-12-05T19:15:27.000",
    "date_modified": "2024-12-05T19:15:28.000",
    "request_status": "Pending",
    "responsible_agency": "Department of Sanitation",
    "final_address": "7933 Danube Rd",
    "address_councildis": "E",
    "status": "Assigned to Contractor",
    "contractor": "Waste Pro",
    "rowid": "1153292",
    "final_x": "3699102.29354",
    "final_y": "561240.531486",
    "longitude": "-90.01140628009885",
    "latitude": "30.036669946404373",
    "geocoded_column": {
      "latitude": "30.036669946404373",
      "longitude": "-90.01140628009885"
    }
  },
  {
    "service_request": "2024-1153291",
    "request_type": "Trash/Recycling",
    "request_reason": "Request a Large Item Pick Up",
    "date_created": "2024-12-05T18:51:45.000",
    "date_modified": "2024-12-05T18:51:46.000",
    "request_status": "Pending",
    "responsible_agency": "Department of Sanitation",
    "final_address": "4700 Evangeline Dr",
    "address_councildis": "E",
    "status": "Assigned to Contractor",
    "contractor": "Waste Pro",
    "rowid": "1153291",
    "final_x": "3709066.42635",
    "final_y": "555485.540953",
    "longitude": "-89.98013259974815",
    "latitude": "30.020526141507084",
    "geocoded_column": {
      "latitude": "30.020526141507084",
      "longitude": "-89.98013259974815"
    }
  },
  {
    "service_request": "2024-1153290",
    "request_type": "Roads and Streets",
    "request_reason": "Street Subsidence (Sinking)",
    "date_created": "2024-12-05T17:12:29.000",
    "date_modified": "2024-12-05T17:12:29.000",
    "request_status": "Pending",
    "responsible_agency": "Department of Public Works",
    "final_address": "724 N Salcedo St",
    "address_councildis": "A",
    "status": "Pending",
    "rowid": "1153290",
    "final_x": "3675608.28725",
    "final_y": "538044.193801",
    "longitude": "-90.08645007154601",
    "latitude": "29.97361258368972",
    "geocoded_column": {
      "latitude": "29.97361258368972",
      "longitude": "-90.08645007154601"
    }
  },
  {
    "service_request": "2024-1153289",
    "request_type": "Trash/Recycling",
    "request_reason": "Return Trash Cart",
    "date_created": "2024-12-05T17:01:16.000",
    "date_modified": "2024-12-05T17:01:17.000",
    "request_status": "Pending",
    "responsible_agency": "Department of Sanitation",
    "final_address": "2620 Magazine St Unit A",
    "address_councildis": "B",
    "status": "Assigned to Contractor",
    "contractor": "IV Waste",
    "rowid": "1153289",
    "final_x": "3677426.80853",
    "final_y": "521010.887673",
    "longitude": "-90.08129459626359",
    "latitude": "29.926722138525253",
    "geocoded_column": {
      "latitude": "29.926722138525253",
      "longitude": "-90.08129459626359"
    }
  },
  {
    "service_request": "2024-1153288",
    "request_type": "Trash/Recycling",
    "request_reason": "Request a Large Item Pick Up",
    "date_created": "2024-12-05T16:50:35.000",
    "date_modified": "2024-12-05T16:50:36.000",
    "request_status": "Pending",
    "responsible_agency": "Department of Sanitation",
    "final_address": "7922 Colapissa St",
    "address_councildis": "B",
    "status": "Assigned to Contractor",
    "contractor": "IV Waste",
    "rowid": "1153288",
    "final_x": "3666907.9218",
    "final_y": "532966.092868",
    "longitude": "-90.11409843244193",
    "latitude": "29.959906947343622",
    "geocoded_column": {
      "latitude": "29.959906947343622",
      "longitude": "-90.11409843244193"
    }
  },
  {
    "service_request": "2024-1153287",
    "request_type": "Trash/Recycling",
    "request_reason": "Request a Large Item Pick Up",
    "date_created": "2024-12-05T16:43:48.000",
    "date_modified": "2024-12-05T16:43:49.000",
    "request_status": "Pending",
    "responsible_agency": "Department of Sanitation",
    "final_address": "4821 Stephen Girard Ave",
    "address_councildis": "D",
    "status": "Assigned to Contractor",
    "contractor": "IV Waste",
    "rowid": "1153287",
    "final_x": "3691982.28605",
    "final_y": "550894.050005",
    "longitude": "-90.03427760540303",
    "latitude": "30.00844494568863",
    "geocoded_column": {
      "latitude": "30.00844494568863",
      "longitude": "-90.03427760540303"
    }
  },
  {
    "service_request": "2024-1153286",
    "request_type": "Trash/Recycling",
    "request_reason": "Request a Large Item Pick Up",
    "date_created": "2024-12-05T16:43:13.000",
    "date_modified": "2024-12-05T16:43:14.000",
    "request_status": "Pending",
    "responsible_agency": "Department of Sanitation",
    "final_address": "13616 N Cavelier Dr",
    "address_councildis": "E",
    "status": "Assigned to Contractor",
    "contractor": "Waste Pro",
    "rowid": "1153286",
    "final_x": "3724101.32409",
    "final_y": "569699.523366",
    "longitude": "-89.93207830630612",
    "latitude": "30.059111952183287",
    "geocoded_column": {
      "latitude": "30.059111952183287",
      "longitude": "-89.93207830630612"
    }
  },
  {
    "service_request": "2024-1153285",
    "request_type": "Property Maintenance",
    "request_reason": "Property Maintenance",
    "date_created": "2024-12-05T16:36:04.000",
    "date_modified": "2024-12-05T16:36:05.000",
    "request_status": "Pending",
    "responsible_agency": "Department of Code Enforcement",
    "final_address": "1221 Hillary St",
    "address_councildis": "A",
    "status": "Pending",
    "rowid": "1153285",
    "final_x": "3663451.60083",
    "final_y": "527273.816703",
    "longitude": "-90.12520230453033",
    "latitude": "29.944355698890035",
    "geocoded_column": {
      "latitude": "29.944355698890035",
      "longitude": "-90.12520230453033"
    }
  },
  {
    "service_request": "2024-1153284",
    "request_type": "Trash/Recycling",
    "request_reason": "Request a Large Item Pick Up",
    "date_created": "2024-12-05T16:32:45.000",
    "date_modified": "2024-12-05T16:32:46.000",
    "request_status": "Pending",
    "responsible_agency": "Department of Sanitation",
    "final_address": "32 Marywood Ct",
    "address_councildis": "E",
    "status": "Assigned to Contractor",
    "contractor": "Waste Pro",
    "rowid": "1153284",
    "final_x": "3712386.95301",
    "final_y": "566925.27274",
    "longitude": "-89.96921052782896",
    "latitude": "30.051872589223922",
    "geocoded_column": {
      "latitude": "30.051872589223922",
      "longitude": "-89.96921052782896"
    }
  },
  {
    "service_request": "2024-1153283",
    "request_type": "Drainage",
    "request_reason": "Catch Basin Clogged",
    "date_created": "2024-12-05T16:30:30.000",
    "date_modified": "2024-12-05T16:30:30.000",
    "request_status": "Pending",
    "responsible_agency": "Department of Public Works",
    "final_address": "2620 State St",
    "address_councildis": "A",
    "status": "Pending",
    "rowid": "1153283",
    "final_x": "3666919.83661",
    "final_y": "526305.717758",
    "longitude": "-90.11428456563799",
    "latitude": "29.941592733846804",
    "geocoded_column": {
      "latitude": "29.941592733846804",
      "longitude": "-90.11428456563799"
    }
  },
  {
    "service_request": "2024-1153282",
    "request_type": "Trash/Recycling",
    "request_reason": "Request a Large Item Pick Up",
    "date_created": "2024-12-05T16:30:17.000",
    "date_modified": "2024-12-05T16:30:18.000",
    "request_status": "Pending",
    "responsible_agency": "Department of Sanitation",
    "final_address": "2821 Bacchus Dr",
    "address_councildis": "C",
    "status": "Assigned to Contractor",
    "contractor": "Richards Disposal",
    "rowid": "1153282",
    "final_x": "3710192.94065",
    "final_y": "518991.981623",
    "longitude": "-89.97793715118071",
    "latitude": "29.92014573050673",
    "geocoded_column": {
      "latitude": "29.92014573050673",
      "longitude": "-89.97793715118071"
    }
  },
  {
    "service_request": "2024-1153281",
    "request_type": "Property Maintenance",
    "request_reason": "Property Maintenance",
    "date_created": "2024-12-05T16:30:07.000",
    "date_modified": "2024-12-05T16:30:07.000",
    "request_status": "Pending",
    "responsible_agency": "Department of Code Enforcement",
    "final_address": "1412 Melpomene St",
    "address_councildis": "B",
    "status": "Pending",
    "rowid": "1153281",
    "final_x": "3679886.67099",
    "final_y": "525052.104829",
    "longitude": "-90.07338920314538",
    "latitude": "29.937760019792663",
    "geocoded_column": {
      "latitude": "29.937760019792663",
      "longitude": "-90.07338920314538"
    }
  },
  {
    "service_request": "2024-1153280",
    "request_type": "Mosquito, Termite & Rodent Control",
    "request_reason": "Non-Rodent Complaint (Mice, Possums, Snakes)",
    "date_created": "2024-12-05T16:26:47.000",
    "date_modified": "2024-12-05T16:26:48.000",
    "request_status": "Pending",
    "responsible_agency": "Mosquito, Termite & Rodent Control Board",
    "final_address": "6821 Louis Xiv St",
    "address_councildis": "A",
    "status": "Pending",
    "rowid": "1153280",
    "final_x": "3668685.48103",
    "final_y": "552911.373271",
    "longitude": "-90.10781164847829",
    "latitude": "30.014697535119637",
    "geocoded_column": {
      "latitude": "30.014697535119637",
      "longitude": "-90.10781164847829"
    }
  },
  {
    "service_request": "2024-1153279",
    "request_type": "Trash/Recycling",
    "request_reason": "Request a Large Item Pick Up",
    "date_created": "2024-12-05T16:19:36.000",
    "date_modified": "2024-12-05T16:19:37.000",
    "request_status": "Pending",
    "responsible_agency": "Department of Sanitation",
    "final_address": "7540 Ligustrum Dr",
    "address_councildis": "E",
    "status": "Assigned to Contractor",
    "contractor": "Waste Pro",
    "rowid": "1153279",
    "final_x": "3701508.27255",
    "final_y": "560958.916638",
    "longitude": "-90.00381325912241",
    "latitude": "30.03581907414187",
    "geocoded_column": {
      "latitude": "30.03581907414187",
      "longitude": "-90.00381325912241"
    }
  },
  {
    "service_request": "2024-1153278",
    "request_type": "Trash/Recycling",
    "request_reason": "Replace Trash Cart",
    "date_created": "2024-12-05T16:18:44.000",
    "date_modified": "2024-12-05T16:18:45.000",
    "request_status": "Pending",
    "responsible_agency": "Department of Sanitation",
    "final_address": "1513 N Roman St",
    "address_councildis": "D",
    "status": "Assigned to Contractor",
    "contractor": "IV Waste",
    "rowid": "1153278",
    "final_x": "3681209.74383",
    "final_y": "537753.942792",
    "longitude": "-90.06876960438521",
    "latitude": "29.97264570210272",
    "geocoded_column": {
      "latitude": "29.97264570210272",
      "longitude": "-90.06876960438521"
    }
  },
  {
    "service_request": "2024-1153277",
    "request_type": "Trash/Recycling",
    "request_reason": "Request a Large Item Pick Up",
    "date_created": "2024-12-05T16:18:11.000",
    "date_modified": "2024-12-05T16:18:11.000",
    "request_status": "Pending",
    "responsible_agency": "Department of Sanitation",
    "final_address": "4304 Bienville Ave",
    "address_councildis": "A",
    "status": "Assigned to Contractor",
    "contractor": "IV Waste",
    "rowid": "1153277",
    "final_x": "3670674.95771",
    "final_y": "539566.366922",
    "longitude": "-90.10197895677501",
    "latitude": "29.977944734406112",
    "geocoded_column": {
      "latitude": "29.977944734406112",
      "longitude": "-90.10197895677501"
    }
  },
  {
    "service_request": "2024-1153276",
    "request_type": "Abandoned Vehicles",
    "request_reason": "Abandoned/Junk Vehicles",
    "date_created": "2024-12-05T16:17:44.000",
    "date_modified": "2024-12-05T16:17:44.000",
    "request_status": "Pending",
    "responsible_agency": "Department of Public Works",
    "final_address": "711 Washington Ave",
    "address_councildis": "B",
    "status": "Pending",
    "rowid": "1153276",
    "final_x": "3677864.68802",
    "final_y": "519677.24396",
    "longitude": "-90.07995837896654",
    "latitude": "29.923041887938666",
    "geocoded_column": {
      "latitude": "29.923041887938666",
      "longitude": "-90.07995837896654"
    }
  },
  {
    "service_request": "2024-1153275",
    "request_type": "Trash/Recycling",
    "request_reason": "Request a Large Item Pick Up",
    "date_created": "2024-12-05T16:12:59.000",
    "date_modified": "2024-12-05T16:13:00.000",
    "request_status": "Pending",
    "responsible_agency": "Department of Sanitation",
    "final_address": "5062 Stephen Girard Ave",
    "address_councildis": "D",
    "status": "Assigned to Contractor",
    "contractor": "IV Waste",
    "rowid": "1153275",
    "final_x": "3693075.81936",
    "final_y": "551205.015573",
    "longitude": "-90.03081163495635",
    "latitude": "30.0092658516872",
    "geocoded_column": {
      "latitude": "30.0092658516872",
      "longitude": "-90.03081163495635"
    }
  },
  {
    "service_request": "2024-1153274",
    "request_type": "Trash/Recycling",
    "request_reason": "Request a Large Item Pick Up",
    "date_created": "2024-12-05T16:11:40.000",
    "date_modified": "2024-12-05T16:11:41.000",
    "request_status": "Pending",
    "responsible_agency": "Department of Sanitation",
    "final_address": "822 Sumner St",
    "address_councildis": "C",
    "status": "Assigned to Contractor",
    "contractor": "Richards Disposal",
    "rowid": "1153274",
    "final_x": "3691202.25027",
    "final_y": "528308.629696",
    "longitude": "-90.03754889409457",
    "latitude": "29.946367374195635",
    "geocoded_column": {
      "latitude": "29.946367374195635",
      "longitude": "-90.03754889409457"
    }
  },
  {
    "service_request": "2024-1153273",
    "request_type": "Trash/Recycling",
    "request_reason": "Dead Animal Pick Up",
    "date_created": "2024-12-05T16:10:57.000",
    "date_modified": "2024-12-05T16:10:58.000",
    "request_status": "Pending",
    "responsible_agency": "Department of Sanitation",
    "final_address": "7230 Sardonyx St",
    "address_councildis": "D",
    "status": "Assigned to Contractor",
    "contractor": "IV Waste",
    "rowid": "1153273",
    "final_x": "3669493.15822",
    "final_y": "555335.654873",
    "longitude": "-90.10517767540836",
    "latitude": "30.021339672142325",
    "geocoded_column": {
      "latitude": "30.021339672142325",
      "longitude": "-90.10517767540836"
    }
  },
  {
    "service_request": "2024-1153272",
    "request_type": "Trash/Recycling",
    "request_reason": "Request a Large Item Pick Up",
    "date_created": "2024-12-05T16:10:08.000",
    "date_modified": "2024-12-05T16:10:21.000",
    "request_status": "Pending",
    "responsible_agency": "Department of Sanitation",
    "final_address": "6031 Brighton Pl",
    "address_councildis": "C",
    "status": "Assigned to Contractor",
    "contractor": "Richards Disposal",
    "rowid": "1153272",
    "final_x": "3706296.24702",
    "final_y": "520050.310776",
    "longitude": "-89.99019788700552",
    "latitude": "29.923181933717387",
    "geocoded_column": {
      "latitude": "29.923181933717387",
      "longitude": "-89.99019788700552"
    }
  },
  {
    "service_request": "2024-1153271",
    "request_type": "Roads and Streets",
    "request_reason": "Pothole",
    "date_created": "2024-12-05T15:54:20.000",
    "date_modified": "2024-12-05T15:54:20.000",
    "request_status": "Pending",
    "responsible_agency": "Department of Public Works",
    "final_address": "1534 General Collins Ave",
    "address_councildis": "C",
    "status": "Pending",
    "rowid": "1153271",
    "final_x": "3698619.38442",
    "final_y": "525432.733181",
    "longitude": "-90.01423506967855",
    "latitude": "29.938226943086566",
    "geocoded_column": {
      "latitude": "29.938226943086566",
      "longitude": "-90.01423506967855"
    }
  },
  {
    "service_request": "2024-1153270",
    "request_type": "Trash/Recycling",
    "request_reason": "Request a Large Item Pick Up",
    "date_created": "2024-12-05T15:49:27.000",
    "date_modified": "2024-12-05T15:49:28.000",
    "request_status": "Pending",
    "responsible_agency": "Department of Sanitation",
    "final_address": "1509 Shirley Dr",
    "address_councildis": "C",
    "status": "Assigned to Contractor",
    "contractor": "Richards Disposal",
    "rowid": "1153270",
    "final_x": "3692974.26486",
    "final_y": "525286.752509",
    "longitude": "-90.03206239895377",
    "latitude": "29.938003031376386",
    "geocoded_column": {
      "latitude": "29.938003031376386",
      "longitude": "-90.03206239895377"
    }
  },
  {
    "service_request": "2024-1153269",
    "request_type": "Trash/Recycling",
    "request_reason": "Request a Large Item Pick Up",
    "date_created": "2024-12-05T15:44:35.000",
    "date_modified": "2024-12-05T15:44:37.000",
    "request_status": "Pending",
    "responsible_agency": "Department of Sanitation",
    "final_address": "9967 E Wheaton Cir",
    "address_councildis": "E",
    "status": "Assigned to Contractor",
    "contractor": "Waste Pro",
    "rowid": "1153269",
    "final_x": "3708662.45534",
    "final_y": "562247.601503",
    "longitude": "-89.98115687993953",
    "latitude": "30.03913225917764",
    "geocoded_column": {
      "latitude": "30.03913225917764",
      "longitude": "-89.98115687993953"
    }
  },
  {
    "service_request": "2024-1153268",
    "request_type": "Trash/Recycling",
    "request_reason": "Illegal Dumping",
    "date_created": "2024-12-05T15:34:57.000",
    "date_modified": "2024-12-05T15:34:57.000",
    "request_status": "Pending",
    "responsible_agency": "Department of Sanitation",
    "final_address": "317 Homer St",
    "address_councildis": "C",
    "status": "Pending",
    "rowid": "1153268",
    "final_x": "3686314.83881",
    "final_y": "528240.193152",
    "longitude": "-90.05298254903028",
    "latitude": "29.9463302652577",
    "geocoded_column": {
      "latitude": "29.9463302652577",
      "longitude": "-90.05298254903028"
    }
  },
  {
    "service_request": "2024-1153267",
    "request_type": "Trash/Recycling",
    "request_reason": "Request a Large Item Pick Up",
    "date_created": "2024-12-05T15:31:29.000",
    "date_modified": "2024-12-05T15:31:30.000",
    "request_status": "Pending",
    "responsible_agency": "Department of Sanitation",
    "final_address": "2400 Laurel St",
    "address_councildis": "B",
    "status": "Assigned to Contractor",
    "contractor": "IV Waste",
    "rowid": "1153267",
    "final_x": "3678478.25179",
    "final_y": "520835.763641",
    "longitude": "-90.07798152986324",
    "latitude": "29.92620897181711",
    "geocoded_column": {
      "latitude": "29.92620897181711",
      "longitude": "-90.07798152986324"
    }
  },
  {
    "service_request": "2024-1153266",
    "request_type": "Trash/Recycling",
    "request_reason": "Repair Trash Cart",
    "date_created": "2024-12-05T15:29:46.000",
    "date_modified": "2024-12-05T15:29:47.000",
    "request_status": "Pending",
    "responsible_agency": "Department of Sanitation",
    "final_address": "822 Sumner St",
    "address_councildis": "C",
    "status": "Assigned to Contractor",
    "contractor": "Richards Disposal",
    "rowid": "1153266",
    "final_x": "3691202.25027",
    "final_y": "528308.629696",
    "longitude": "-90.03754889409457",
    "latitude": "29.946367374195635",
    "geocoded_column": {
      "latitude": "29.946367374195635",
      "longitude": "-90.03754889409457"
    }
  },
  {
    "service_request": "2024-1153265",
    "request_type": "Abandoned Vehicles",
    "request_reason": "Abandoned/Junk Vehicles",
    "date_created": "2024-12-05T15:27:14.000",
    "date_modified": "2024-12-05T15:27:15.000",
    "request_status": "Pending",
    "responsible_agency": "Department of Public Works",
    "final_address": "822 Sumner St",
    "address_councildis": "C",
    "status": "Pending",
    "rowid": "1153265",
    "final_x": "3691202.25027",
    "final_y": "528308.629696",
    "longitude": "-90.03754889409457",
    "latitude": "29.946367374195635",
    "geocoded_column": {
      "latitude": "29.946367374195635",
      "longitude": "-90.03754889409457"
    }
  },
  {
    "service_request": "2024-1153264",
    "request_type": "Trash/Recycling",
    "request_reason": "Replace Trash Cart",
    "date_created": "2024-12-05T15:26:25.000",
    "date_modified": "2024-12-05T15:26:26.000",
    "request_status": "Pending",
    "responsible_agency": "Department of Sanitation",
    "final_address": "25 Killdeer St",
    "address_councildis": "D",
    "status": "Assigned to Contractor",
    "contractor": "IV Waste",
    "rowid": "1153264",
    "final_x": "3675765.20603",
    "final_y": "555952.800921",
    "longitude": "-90.08533847201402",
    "latitude": "30.022850261470158",
    "geocoded_column": {
      "latitude": "30.022850261470158",
      "longitude": "-90.08533847201402"
    }
  },
  {
    "service_request": "2024-1153263",
    "request_type": "Trash/Recycling",
    "request_reason": "Request a Large Item Pick Up",
    "date_created": "2024-12-05T15:25:55.000",
    "date_modified": "2024-12-05T15:25:56.000",
    "request_status": "Pending",
    "responsible_agency": "Department of Sanitation",
    "final_address": "5668 General Diaz St",
    "address_councildis": "A",
    "status": "Assigned to Contractor",
    "contractor": "IV Waste",
    "rowid": "1153263",
    "final_x": "3669106.75802",
    "final_y": "545004.936527",
    "longitude": "-90.10674802226166",
    "latitude": "29.992945192653305",
    "geocoded_column": {
      "latitude": "29.992945192653305",
      "longitude": "-90.10674802226166"
    }
  },
  {
    "service_request": "2024-1153262",
    "request_type": "Abandoned Vehicles",
    "request_reason": "Abandoned/Junk Vehicles",
    "date_created": "2024-12-05T15:23:14.000",
    "date_modified": "2024-12-05T15:23:14.000",
    "request_status": "Pending",
    "responsible_agency": "Department of Public Works",
    "final_address": "920 Poeyfarre St",
    "address_councildis": "B",
    "status": "Pending",
    "rowid": "1153262",
    "final_x": "3681386.82191",
    "final_y": "526445.697534",
    "longitude": "-90.0686045498335",
    "latitude": "29.941546493588717",
    "geocoded_column": {
      "latitude": "29.941546493588717",
      "longitude": "-90.0686045498335"
    }
  },
  {
    "service_request": "2024-1153261",
    "request_type": "Property Maintenance",
    "request_reason": "Property Maintenance",
    "date_created": "2024-12-05T15:17:05.000",
    "date_modified": "2024-12-05T15:20:46.000",
    "request_status": "Pending",
    "responsible_agency": "Department of Code Enforcement",
    "final_address": "1653 N Broad St",
    "address_councildis": "D",
    "status": "Pending",
    "rowid": "1153261",
    "final_x": "3679332.66651",
    "final_y": "540588.565323",
    "longitude": "-90.07459941438194",
    "latitude": "29.980496761977133",
    "geocoded_column": {
      "latitude": "29.980496761977133",
      "longitude": "-90.07459941438194"
    }
  },
  {
    "service_request": "2024-1153260",
    "request_type": "Street and Traffic Signs",
    "request_reason": "Stop Sign Missing or Damaged",
    "date_created": "2024-12-05T15:16:59.000",
    "date_modified": "2024-12-05T15:16:59.000",
    "request_status": "Pending",
    "responsible_agency": "Department of Public Works",
    "final_address": "2700 BLK Jefferson Ave",
    "address_councildis": "B",
    "status": "Pending",
    "rowid": "1153260",
    "final_x": "3668260.36882",
    "final_y": "525453.317319",
    "longitude": "-90.11008095360133",
    "latitude": "29.939209624212033",
    "geocoded_column": {
      "latitude": "29.939209624212033",
      "longitude": "-90.11008095360133"
    }
  },
  {
    "service_request": "2024-1153259",
    "request_type": "Trash/Recycling",
    "request_reason": "Request a Large Item Pick Up",
    "date_created": "2024-12-05T15:14:05.000",
    "date_modified": "2024-12-05T15:14:06.000",
    "request_status": "Pending",
    "responsible_agency": "Department of Sanitation",
    "final_address": "614 N Carrollton Ave",
    "address_councildis": "A",
    "status": "Assigned to Contractor",
    "contractor": "IV Waste",
    "rowid": "1153259",
    "final_x": "3672507.13275",
    "final_y": "539708.86881",
    "longitude": "-90.09618743506746",
    "latitude": "29.978282300610196",
    "geocoded_column": {
      "latitude": "29.978282300610196",
      "longitude": "-90.09618743506746"
    }
  },
  {
    "service_request": "2024-1153258",
    "request_type": "Safety & Permits",
    "request_reason": "Zoning Enforcement",
    "date_created": "2024-12-05T15:02:23.000",
    "date_modified": "2024-12-05T15:24:08.000",
    "case_close_date": "2024-12-05T09:24:08.000",
    "request_status": "Closed",
    "responsible_agency": "Safety and Permits",
    "final_address": "7518 Lafourche St",
    "address_councildis": "E",
    "status": "Pending",
    "contractor_action": "Completed",
    "rowid": "1153258",
    "final_x": "3710488.51198",
    "final_y": "564994.56733",
    "longitude": "-89.97528318177193",
    "latitude": "30.046625936322616",
    "geocoded_column": {
      "latitude": "30.046625936322616",
      "longitude": "-89.97528318177193"
    }
  },
  {
    "service_request": "2024-1153257",
    "request_type": "Trash/Recycling",
    "request_reason": "Repair Trash Cart",
    "date_created": "2024-12-05T14:44:39.000",
    "date_modified": "2024-12-05T14:44:40.000",
    "request_status": "Pending",
    "responsible_agency": "Department of Sanitation",
    "final_address": "5011 Laurel St",
    "address_councildis": "B",
    "status": "Assigned to Contractor",
    "contractor": "IV Waste",
    "rowid": "1153257",
    "final_x": "3668518.18145",
    "final_y": "517888.565174",
    "longitude": "-90.10952208482236",
    "latitude": "29.91840139462672",
    "geocoded_column": {
      "latitude": "29.91840139462672",
      "longitude": "-90.10952208482236"
    }
  },
  {
    "service_request": "2024-1153256",
    "request_type": "Roads and Streets",
    "request_reason": "Street Subsidence (Sinking)",
    "date_created": "2024-12-05T14:43:59.000",
    "date_modified": "2024-12-05T14:43:59.000",
    "request_status": "Pending",
    "responsible_agency": "Department of Public Works",
    "final_address": "2500 BLK S dOrgenois St",
    "address_councildis": "B",
    "status": "Pending",
    "rowid": "1153256",
    "final_x": "3672137.88797",
    "final_y": "529660.894534",
    "longitude": "-90.09769586759508",
    "latitude": "29.950664692649365",
    "geocoded_column": {
      "latitude": "29.950664692649365",
      "longitude": "-90.09769586759508"
    }
  },
  {
    "service_request": "2024-1153255",
    "request_type": "Healthy Homes",
    "request_reason": "Healthy Homes",
    "date_created": "2024-12-05T14:43:27.000",
    "date_modified": "2024-12-05T15:24:08.000",
    "case_close_date": "2024-12-05T09:24:08.000",
    "request_status": "Closed",
    "responsible_agency": "Department of Code Enforcement",
    "final_address": "3021 Rue Parc Fontaine Apt 104",
    "address_councildis": "C",
    "status": "Referred to Code Enforcement",
    "rowid": "1153255",
    "final_x": "3699974.85309",
    "final_y": "520117.04172",
    "longitude": "-90.01014955060286",
    "latitude": "29.923567653298353",
    "geocoded_column": {
      "latitude": "29.923567653298353",
      "longitude": "-90.01014955060286"
    }
  },
  {
    "service_request": "2024-1153254",
    "request_type": "Trash/Recycling",
    "request_reason": "Illegal Dumping",
    "date_created": "2024-12-05T14:36:56.000",
    "date_modified": "2024-12-05T14:36:57.000",
    "request_status": "Pending",
    "responsible_agency": "Department of Sanitation",
    "final_address": "LAW ST & SPAIN ST",
    "address_councildis": "D",
    "status": "Pending",
    "rowid": "1153254",
    "final_x": "3685695.1",
    "final_y": "541915.68",
    "longitude": "-90.05445736341345",
    "latitude": "29.983952143505352",
    "geocoded_column": {
      "latitude": "29.983952143505352",
      "longitude": "-90.05445736341345"
    }
  },
  {
    "service_request": "2024-1153253",
    "request_type": "Street and Traffic Signs",
    "request_reason": "Additional Signage Request",
    "date_created": "2024-12-05T14:36:39.000",
    "date_modified": "2024-12-05T14:36:41.000",
    "request_status": "Pending",
    "responsible_agency": "Department of Public Works",
    "final_address": "2458 Madrid St",
    "address_councildis": "D",
    "status": "Pending",
    "rowid": "1153253",
    "final_x": "3685497.80847",
    "final_y": "555445.899033",
    "longitude": "-90.05460359539599",
    "latitude": "30.021161408348224",
    "geocoded_column": {
      "latitude": "30.021161408348224",
      "longitude": "-90.05460359539599"
    }
  },
  {
    "service_request": "2024-1153252",
    "request_type": "Healthy Homes",
    "request_reason": "Healthy Homes",
    "date_created": "2024-12-05T14:36:16.000",
    "date_modified": "2024-12-05T16:05:14.000",
    "case_close_date": "2024-12-05T10:05:14.000",
    "request_status": "Closed",
    "responsible_agency": "Department of Code Enforcement",
    "final_address": "5761 Wickfield Dr",
    "address_councildis": "D",
    "status": "Referred to Code Enforcement",
    "rowid": "1153252",
    "final_x": "3681050.99784",
    "final_y": "554381.203544",
    "longitude": "-90.06869138905337",
    "latitude": "30.018369586299677",
    "geocoded_column": {
      "latitude": "30.018369586299677",
      "longitude": "-90.06869138905337"
    }
  },
  {
    "service_request": "2024-1153251",
    "request_type": "Drainage",
    "request_reason": "Catch Basin Clogged",
    "date_created": "2024-12-05T14:35:24.000",
    "date_modified": "2024-12-05T14:35:25.000",
    "request_status": "Pending",
    "responsible_agency": "Department of Public Works",
    "final_address": "338 36Th St",
    "address_councildis": "A",
    "status": "Pending",
    "rowid": "1153251",
    "final_x": "3665085.3552",
    "final_y": "551877.471382",
    "longitude": "-90.11922095778962",
    "latitude": "30.01196004896911",
    "geocoded_column": {
      "latitude": "30.01196004896911",
      "longitude": "-90.11922095778962"
    }
  },
  {
    "service_request": "2024-1153250",
    "request_type": "Trash/Recycling",
    "request_reason": "Illegal Dumping",
    "date_created": "2024-12-05T14:33:50.000",
    "date_modified": "2024-12-05T14:33:51.000",
    "request_status": "Pending",
    "responsible_agency": "Department of Sanitation",
    "final_address": "10800 Morrison Rd",
    "address_councildis": "E",
    "status": "Pending",
    "rowid": "1153250",
    "final_x": "3710453.27448",
    "final_y": "564427.559521",
    "longitude": "-89.97541578686274",
    "latitude": "30.045068041238757",
    "geocoded_column": {
      "latitude": "30.045068041238757",
      "longitude": "-89.97541578686274"
    }
  },
  {
    "service_request": "2024-1153249",
    "request_type": "Street and Traffic Signs",
    "request_reason": "Stop Sign Missing or Damaged",
    "date_created": "2024-12-05T14:32:10.000",
    "date_modified": "2024-12-05T14:32:11.000",
    "request_status": "Pending",
    "responsible_agency": "Department of Public Works",
    "final_address": "N ROBERTSON ST & CONGRESS ST",
    "address_councildis": "D",
    "status": "Pending",
    "rowid": "1153249",
    "final_x": "3691088.7",
    "final_y": "537067.68",
    "longitude": "-90.03759467863037",
    "latitude": "29.97045524171115",
    "geocoded_column": {
      "latitude": "29.97045524171115",
      "longitude": "-90.03759467863037"
    }
  },
  {
    "service_request": "2024-1153248",
    "request_type": "Trash/Recycling",
    "request_reason": "Request a Large Item Pick Up",
    "date_created": "2024-12-05T14:31:13.000",
    "date_modified": "2024-12-05T14:31:14.000",
    "request_status": "Pending",
    "responsible_agency": "Department of Sanitation",
    "final_address": "4000 BLK Palmyra St",
    "address_councildis": "A",
    "status": "Assigned to Contractor",
    "contractor": "IV Waste",
    "rowid": "1153248",
    "final_x": "3670801.69773",
    "final_y": "537563.662849",
    "longitude": "-90.10164665770687",
    "latitude": "29.972434229429286",
    "geocoded_column": {
      "latitude": "29.972434229429286",
      "longitude": "-90.10164665770687"
    }
  },
  {
    "service_request": "2024-1153247",
    "request_type": "Safety & Permits",
    "request_reason": "Construction permit",
    "date_created": "2024-12-05T14:31:01.000",
    "date_modified": "2024-12-05T14:31:01.000",
    "request_status": "Pending",
    "responsible_agency": "Safety and Permits",
    "final_address": "8202 Hickory St",
    "address_councildis": "A",
    "status": "Pending",
    "rowid": "1153247",
    "final_x": "3663057.52557",
    "final_y": "530172.541249",
    "longitude": "-90.12635011451106",
    "latitude": "29.952337679002483",
    "geocoded_column": {
      "latitude": "29.952337679002483",
      "longitude": "-90.12635011451106"
    }
  },
  {
    "service_request": "2024-1153246",
    "request_type": "Roads and Streets",
    "request_reason": "Pothole",
    "date_created": "2024-12-05T14:28:21.000",
    "date_modified": "2024-12-05T14:28:50.000",
    "case_close_date": "2024-12-05T08:28:50.000",
    "request_status": "Closed",
    "responsible_agency": "Department of Public Works",
    "final_address": "939 Pacific Ave",
    "address_councildis": "C",
    "status": "Resolved",
    "rowid": "1153246",
    "final_x": "3688369.57999",
    "final_y": "527983.887487",
    "longitude": "-90.0465041184922",
    "latitude": "29.945562221359943",
    "geocoded_column": {
      "latitude": "29.945562221359943",
      "longitude": "-90.0465041184922"
    }
  },
  {
    "service_request": "2024-1153245",
    "request_type": "Trash/Recycling",
    "request_reason": "Illegal Dumping",
    "date_created": "2024-12-05T14:27:10.000",
    "date_modified": "2024-12-05T14:27:11.000",
    "request_status": "Pending",
    "responsible_agency": "Department of Sanitation",
    "final_address": "2000 BLK N Johnson St",
    "address_councildis": "D",
    "status": "Pending",
    "rowid": "1153245",
    "final_x": "3683788.04315",
    "final_y": "539542.005677",
    "longitude": "-90.06056414995854",
    "latitude": "29.977483759857353",
    "geocoded_column": {
      "latitude": "29.977483759857353",
      "longitude": "-90.06056414995854"
    }
  },
  {
    "service_request": "2024-1153244",
    "request_type": "Property Maintenance",
    "request_reason": "Property Maintenance",
    "date_created": "2024-12-05T14:25:52.000",
    "date_modified": "2024-12-05T14:54:45.000",
    "case_close_date": "2024-12-05T08:54:45.000",
    "request_status": "Closed",
    "responsible_agency": "Department of Code Enforcement",
    "final_address": "3209 Constance St",
    "address_councildis": "B",
    "status": "Referred to Code Enforcement",
    "rowid": "1153244",
    "final_x": "3675872.86126",
    "final_y": "519672.333368",
    "longitude": "-90.08624598095085",
    "latitude": "29.923088143823875",
    "geocoded_column": {
      "latitude": "29.923088143823875",
      "longitude": "-90.08624598095085"
    }
  },
  {
    "service_request": "2024-1153243",
    "request_type": "Streetlights",
    "request_reason": "Streetlight Outage/Malfunction",
    "date_created": "2024-12-05T14:22:35.000",
    "date_modified": "2024-12-05T14:22:36.000",
    "request_status": "Pending",
    "responsible_agency": "Department of Public Works",
    "final_address": "4256 Joycelyn Dr",
    "address_councildis": "C",
    "status": "Pending",
    "contractor": "Legacy Professional Services",
    "rowid": "1153243",
    "final_x": "3708253.58347",
    "final_y": "515005.993971",
    "longitude": "-89.98420685859895",
    "latitude": "29.909248584565965",
    "geocoded_column": {
      "latitude": "29.909248584565965",
      "longitude": "-89.98420685859895"
    }
  },
  {
    "service_request": "2024-1153242",
    "request_type": "Trash/Recycling",
    "request_reason": "Repair Recycling Cart",
    "date_created": "2024-12-05T14:21:06.000",
    "date_modified": "2024-12-05T14:21:07.000",
    "request_status": "Pending",
    "responsible_agency": "Department of Sanitation",
    "final_address": "4336 Paris Ave",
    "address_councildis": "D",
    "status": "Pending",
    "rowid": "1153242",
    "final_x": "3679309.40373",
    "final_y": "548408.930706",
    "longitude": "-90.07440150909329",
    "latitude": "30.002000720503034",
    "geocoded_column": {
      "latitude": "30.002000720503034",
      "longitude": "-90.07440150909329"
    }
  },
  {
    "service_request": "2024-1153241",
    "request_type": "Trash/Recycling",
    "request_reason": "Order Recycling Cart",
    "date_created": "2024-12-05T14:19:24.000",
    "date_modified": "2024-12-05T14:19:24.000",
    "request_status": "Closed",
    "responsible_agency": "Department of Sanitation",
    "final_address": "4336 Paris Ave",
    "address_councildis": "D",
    "status": "Resolved",
    "rowid": "1153241",
    "final_x": "3679309.40373",
    "final_y": "548408.930706",
    "longitude": "-90.07440150909329",
    "latitude": "30.002000720503034",
    "geocoded_column": {
      "latitude": "30.002000720503034",
      "longitude": "-90.07440150909329"
    }
  },
  {
    "service_request": "2024-1153240",
    "request_type": "Roads and Streets",
    "request_reason": "Pothole",
    "date_created": "2024-12-05T14:16:13.000",
    "date_modified": "2024-12-05T14:16:49.000",
    "case_close_date": "2024-12-05T08:16:49.000",
    "request_status": "Closed",
    "responsible_agency": "Department of Public Works",
    "final_address": "7400 BLK Ransom St",
    "address_councildis": "E",
    "status": "Resolved",
    "rowid": "1153240",
    "final_x": "3702507.63727",
    "final_y": "553472.817711",
    "longitude": "-90.00093019833939",
    "latitude": "30.015203270590387",
    "geocoded_column": {
      "latitude": "30.015203270590387",
      "longitude": "-90.00093019833939"
    }
  },
  {
    "service_request": "2024-1153239",
    "request_type": "Trash/Recycling",
    "request_reason": "Repair Trash Cart",
    "date_created": "2024-12-05T14:15:53.000",
    "date_modified": "2024-12-05T14:15:54.000",
    "request_status": "Pending",
    "responsible_agency": "Department of Sanitation",
    "final_address": "2720 First St",
    "address_councildis": "B",
    "status": "Assigned to Contractor",
    "contractor": "IV Waste",
    "rowid": "1153239",
    "final_x": "3674640.57294",
    "final_y": "526655.617022",
    "longitude": "-90.08989663487225",
    "latitude": "29.942326725434505",
    "geocoded_column": {
      "latitude": "29.942326725434505",
      "longitude": "-90.08989663487225"
    }
  },
  {
    "service_request": "2024-1153238",
    "request_type": "Abandoned Vehicles",
    "request_reason": "Abandoned/Junk Vehicles",
    "date_created": "2024-12-05T14:09:28.000",
    "date_modified": "2024-12-05T14:09:28.000",
    "request_status": "Pending",
    "responsible_agency": "Department of Public Works",
    "final_address": "5609 N Rampart St",
    "address_councildis": "E",
    "status": "Pending",
    "rowid": "1153238",
    "final_x": "3698017.85469",
    "final_y": "533342.379844",
    "longitude": "-90.01584702276811",
    "latitude": "29.959994724181623",
    "geocoded_column": {
      "latitude": "29.959994724181623",
      "longitude": "-90.01584702276811"
    }
  },
  {
    "service_request": "2024-1153237",
    "request_type": "Streetlights",
    "request_reason": "Streetlight Outage/Malfunction",
    "date_created": "2024-12-05T14:03:08.000",
    "date_modified": "2024-12-05T14:03:09.000",
    "request_status": "Pending",
    "responsible_agency": "Department of Public Works",
    "final_address": "208 N Carrollton Ave",
    "address_councildis": "A",
    "status": "Pending",
    "contractor": "Legacy Professional Services",
    "rowid": "1153237",
    "final_x": "3671560.41127",
    "final_y": "538660.928969",
    "longitude": "-90.09921317790906",
    "latitude": "29.975428893483564",
    "geocoded_column": {
      "latitude": "29.975428893483564",
      "longitude": "-90.09921317790906"
    }
  },
  {
    "service_request": "2024-1153236",
    "request_type": "Trash/Recycling",
    "request_reason": "Replace Recycling Cart",
    "date_created": "2024-12-05T14:00:14.000",
    "date_modified": "2024-12-05T14:00:14.000",
    "request_status": "Pending",
    "responsible_agency": "Department of Sanitation",
    "final_address": "916 Valence St",
    "address_councildis": "B",
    "status": "Pending",
    "rowid": "1153236",
    "final_x": "3669879.40532",
    "final_y": "518831.791159",
    "longitude": "-90.10519350408768",
    "latitude": "29.920954921324075",
    "geocoded_column": {
      "latitude": "29.920954921324075",
      "longitude": "-90.10519350408768"
    }
  },
  {
    "service_request": "2024-1153235",
    "request_type": "Trash/Recycling",
    "request_reason": "Replace Trash Cart",
    "date_created": "2024-12-05T13:59:21.000",
    "date_modified": "2024-12-05T13:59:22.000",
    "request_status": "Pending",
    "responsible_agency": "Department of Sanitation",
    "final_address": "6228 Wainwright Dr",
    "address_councildis": "D",
    "status": "Assigned to Contractor",
    "contractor": "IV Waste",
    "rowid": "1153235",
    "final_x": "3681292.83688",
    "final_y": "555962.448537",
    "longitude": "-90.06787209026446",
    "latitude": "30.02271009054685",
    "geocoded_column": {
      "latitude": "30.02271009054685",
      "longitude": "-90.06787209026446"
    }
  },
  {
    "service_request": "2024-1153234",
    "request_type": "Trash/Recycling",
    "request_reason": "Repair Trash Cart",
    "date_created": "2024-12-05T13:57:13.000",
    "date_modified": "2024-12-05T13:57:14.000",
    "request_status": "Pending",
    "responsible_agency": "Department of Sanitation",
    "final_address": "6233 Wainwright Dr",
    "address_councildis": "D",
    "status": "Assigned to Contractor",
    "contractor": "IV Waste",
    "rowid": "1153234",
    "final_x": "3681400.76751",
    "final_y": "556020.945241",
    "longitude": "-90.06752901285803",
    "latitude": "30.022867657077995",
    "geocoded_column": {
      "latitude": "30.022867657077995",
      "longitude": "-90.06752901285803"
    }
  },
  {
    "service_request": "2024-1153233",
    "request_type": "Trash/Recycling",
    "request_reason": "Request a Large Item Pick Up",
    "date_created": "2024-12-05T13:54:44.000",
    "date_modified": "2024-12-05T13:54:44.000",
    "request_status": "Pending",
    "responsible_agency": "Department of Sanitation",
    "final_address": "12345 N Interstate 10 Service Rd",
    "address_councildis": "E",
    "status": "Assigned to Contractor",
    "contractor": "Waste Pro",
    "rowid": "1153233",
    "final_x": "3716593.31205",
    "final_y": "566491.532899",
    "longitude": "-89.95593215830806",
    "latitude": "30.050541620166843",
    "geocoded_column": {
      "latitude": "30.050541620166843",
      "longitude": "-89.95593215830806"
    }
  },
  {
    "service_request": "2024-1153232",
    "request_type": "Trash/Recycling",
    "request_reason": "Illegal Dumping",
    "date_created": "2024-12-05T13:53:04.000",
    "date_modified": "2024-12-05T13:53:05.000",
    "request_status": "Pending",
    "responsible_agency": "Department of Sanitation",
    "final_address": "3400 Jackson Ave",
    "address_councildis": "B",
    "status": "Pending",
    "rowid": "1153232",
    "final_x": "3673663.21588",
    "final_y": "528752.212288",
    "longitude": "-90.0929107162878",
    "latitude": "29.948120800140604",
    "geocoded_column": {
      "latitude": "29.948120800140604",
      "longitude": "-90.0929107162878"
    }
  },
  {
    "service_request": "2024-1153231",
    "request_type": "Trash/Recycling",
    "request_reason": "Repair Trash Cart",
    "date_created": "2024-12-05T13:50:58.000",
    "date_modified": "2024-12-05T13:50:59.000",
    "request_status": "Pending",
    "responsible_agency": "Department of Sanitation",
    "final_address": "2021 Milan St",
    "address_councildis": "B",
    "status": "Assigned to Contractor",
    "contractor": "IV Waste",
    "rowid": "1153231",
    "final_x": "3671485.72046",
    "final_y": "522539.617082",
    "longitude": "-90.09999710615797",
    "latitude": "29.931102817964458",
    "geocoded_column": {
      "latitude": "29.931102817964458",
      "longitude": "-90.09999710615797"
    }
  },
  {
    "service_request": "2024-1153230",
    "request_type": "Trash/Recycling",
    "request_reason": "Return Trash Cart",
    "date_created": "2024-12-05T13:47:08.000",
    "date_modified": "2024-12-05T13:47:09.000",
    "request_status": "Pending",
    "responsible_agency": "Department of Sanitation",
    "final_address": "311 Diana St",
    "address_councildis": "C",
    "status": "Assigned to Contractor",
    "contractor": "Richards Disposal",
    "rowid": "1153230",
    "final_x": "3686332.20713",
    "final_y": "527476.340095",
    "longitude": "-90.05295466052385",
    "latitude": "29.94422939486491",
    "geocoded_column": {
      "latitude": "29.94422939486491",
      "longitude": "-90.05295466052385"
    }
  },
  {
    "service_request": "2024-1153228",
    "request_type": "Trash/Recycling",
    "request_reason": "Replace Trash Cart",
    "date_created": "2024-12-05T13:42:13.000",
    "date_modified": "2024-12-05T13:42:14.000",
    "request_status": "Pending",
    "responsible_agency": "Department of Sanitation",
    "final_address": "3053 Dumaine St",
    "address_councildis": "A",
    "status": "Assigned to Contractor",
    "contractor": "IV Waste",
    "rowid": "1153228",
    "final_x": "3675807.93051",
    "final_y": "538601.360521",
    "longitude": "-90.08580039671648",
    "latitude": "29.975138626674884",
    "geocoded_column": {
      "latitude": "29.975138626674884",
      "longitude": "-90.08580039671648"
    }
  },
  {
    "service_request": "2024-1153229",
    "request_type": "Roads and Streets",
    "request_reason": "Pothole",
    "date_created": "2024-12-05T13:42:13.000",
    "date_modified": "2024-12-05T13:42:51.000",
    "case_close_date": "2024-12-05T07:42:51.000",
    "request_status": "Closed",
    "responsible_agency": "Department of Public Works",
    "final_address": "2300 BLK Dublin St",
    "address_councildis": "A",
    "status": "Resolved",
    "rowid": "1153229",
    "final_x": "3664427.50543",
    "final_y": "531599.786982",
    "longitude": "-90.1219766866921",
    "latitude": "29.956222390348525",
    "geocoded_column": {
      "latitude": "29.956222390348525",
      "longitude": "-90.1219766866921"
    }
  },
  {
    "service_request": "2024-1153227",
    "request_type": "Roads and Streets",
    "request_reason": "Pothole",
    "date_created": "2024-12-05T13:29:27.000",
    "date_modified": "2024-12-05T13:29:53.000",
    "case_close_date": "2024-12-05T07:29:53.000",
    "request_status": "Closed",
    "responsible_agency": "Department of Public Works",
    "final_address": "602 Bouny St",
    "address_councildis": "C",
    "status": "Resolved",
    "rowid": "1153227",
    "final_x": "3686403.06127",
    "final_y": "529407.959681",
    "longitude": "-90.05266279150354",
    "latitude": "29.9495385148973",
    "geocoded_column": {
      "latitude": "29.9495385148973",
      "longitude": "-90.05266279150354"
    }
  },
  {
    "service_request": "2024-1153226",
    "request_type": "Streetlights",
    "request_reason": "Streetlight Outage/Malfunction",
    "date_created": "2024-12-05T13:27:54.000",
    "date_modified": "2024-12-05T13:27:55.000",
    "request_status": "Pending",
    "responsible_agency": "Department of Public Works",
    "final_address": "4320 Alba Rd",
    "address_councildis": "E",
    "status": "Pending",
    "contractor": "Legacy Professional Services",
    "rowid": "1153226",
    "final_x": "3761550.25629",
    "final_y": "572578.190505",
    "longitude": "-89.81358771528222",
    "latitude": "30.06571456012658",
    "geocoded_column": {
      "latitude": "30.06571456012658",
      "longitude": "-89.81358771528222"
    }
  },
  {
    "service_request": "2024-1153225",
    "request_type": "Trash/Recycling",
    "request_reason": "Illegal Dumping",
    "date_created": "2024-12-05T13:26:38.000",
    "date_modified": "2024-12-05T13:41:05.000",
    "request_status": "Pending",
    "responsible_agency": "Department of Sanitation",
    "final_address": "2900 BLK Louisiana Ave",
    "address_councildis": "B",
    "status": "Pending",
    "rowid": "1153225",
    "final_x": "3672277.8644",
    "final_y": "525924.514868",
    "longitude": "-90.0973811465985",
    "latitude": "29.94038672164354",
    "geocoded_column": {
      "latitude": "29.94038672164354",
      "longitude": "-90.0973811465985"
    }
  },
  {
    "service_request": "2024-1153224",
    "request_type": "Roads and Streets",
    "request_reason": "Pothole",
    "date_created": "2024-12-05T13:14:54.000",
    "date_modified": "2024-12-05T13:23:16.000",
    "case_close_date": "2024-12-05T07:23:16.000",
    "request_status": "Closed",
    "responsible_agency": "Department of Public Works",
    "final_address": "600 BLK Eliza St",
    "address_councildis": "C",
    "status": "Resolved",
    "rowid": "1153224",
    "final_x": "3687397.33974",
    "final_y": "529922.942566",
    "longitude": "-90.04950519493381",
    "latitude": "29.950923947934495",
    "geocoded_column": {
      "latitude": "29.950923947934495",
      "longitude": "-90.04950519493381"
    }
  },
  {
    "service_request": "2024-1153223",
    "request_type": "Abandoned Vehicles",
    "request_reason": "Abandoned/Junk Vehicles",
    "date_created": "2024-12-05T13:07:04.000",
    "date_modified": "2024-12-05T13:07:04.000",
    "request_status": "Pending",
    "responsible_agency": "Department of Public Works",
    "final_address": "1414 Japonica St",
    "address_councildis": "D",
    "status": "Pending",
    "rowid": "1153223",
    "final_x": "3693941.15517",
    "final_y": "536098.031367",
    "longitude": "-90.02862121126931",
    "latitude": "29.9677000506715",
    "geocoded_column": {
      "latitude": "29.9677000506715",
      "longitude": "-90.02862121126931"
    }
  },
  {
    "service_request": "2024-1153222",
    "request_type": "Trash/Recycling",
    "request_reason": "Request a Large Item Pick Up",
    "date_created": "2024-12-05T13:06:16.000",
    "date_modified": "2024-12-05T13:06:17.000",
    "request_status": "Pending",
    "responsible_agency": "Department of Sanitation",
    "final_address": "201 Ringold St",
    "address_councildis": "A",
    "status": "Assigned to Contractor",
    "contractor": "IV Waste",
    "rowid": "1153222",
    "final_x": "3666896.30317",
    "final_y": "548572.760723",
    "longitude": "-90.11361052017838",
    "latitude": "30.002820359158296",
    "geocoded_column": {
      "latitude": "30.002820359158296",
      "longitude": "-90.11361052017838"
    }
  },
  {
    "service_request": "2024-1153221",
    "request_type": "Trash/Recycling",
    "request_reason": "Order Second Trash Cart",
    "date_created": "2024-12-05T13:05:24.000",
    "date_modified": "2024-12-05T13:05:25.000",
    "request_status": "Pending",
    "responsible_agency": "Department of Sanitation",
    "final_address": "2328 Coliseum St",
    "address_councildis": "B",
    "status": "Assigned to Contractor",
    "contractor": "IV Waste",
    "rowid": "1153221",
    "final_x": "3677730.84187",
    "final_y": "522487.63449",
    "longitude": "-90.080283866196",
    "latitude": "29.930773572625625",
    "geocoded_column": {
      "latitude": "29.930773572625625",
      "longitude": "-90.080283866196"
    }
  },
  {
    "service_request": "2024-1153220",
    "request_type": "Abandoned Vehicles",
    "request_reason": "Abandoned/Junk Vehicles",
    "date_created": "2024-12-05T13:04:28.000",
    "date_modified": "2024-12-05T13:04:28.000",
    "request_status": "Pending",
    "responsible_agency": "Department of Public Works",
    "final_address": "1422 Japonica St",
    "address_councildis": "D",
    "status": "Pending",
    "rowid": "1153220",
    "final_x": "3693993.44112",
    "final_y": "536116.170183",
    "longitude": "-90.0284554392933",
    "latitude": "29.96774828886409",
    "geocoded_column": {
      "latitude": "29.96774828886409",
      "longitude": "-90.0284554392933"
    }
  },
  {
    "service_request": "2024-1153219",
    "request_type": "Trash/Recycling",
    "request_reason": "Request a Large Item Pick Up",
    "date_created": "2024-12-05T12:52:43.000",
    "date_modified": "2024-12-05T12:52:44.000",
    "request_status": "Pending",
    "responsible_agency": "Department of Sanitation",
    "final_address": "4117 Royal St",
    "address_councildis": "C",
    "status": "Assigned to Contractor",
    "contractor": "IV Waste",
    "rowid": "1153219",
    "final_x": "3691885.21865",
    "final_y": "533723.187717",
    "longitude": "-90.03519885332648",
    "latitude": "29.961234274157846",
    "geocoded_column": {
      "latitude": "29.961234274157846",
      "longitude": "-90.03519885332648"
    }
  },
  {
    "service_request": "2024-1153218",
    "request_type": "Trash/Recycling",
    "request_reason": "Repair Trash Cart",
    "date_created": "2024-12-05T12:49:09.000",
    "date_modified": "2024-12-05T12:49:10.000",
    "request_status": "Pending",
    "responsible_agency": "Department of Sanitation",
    "final_address": "831 Dauphine St",
    "address_councildis": "C",
    "status": "Assigned to Contractor",
    "contractor": "Empire Services",
    "rowid": "1153218",
    "final_x": "3682338.67234",
    "final_y": "533409.321092",
    "longitude": "-90.06535608187377",
    "latitude": "29.960665181224943",
    "geocoded_column": {
      "latitude": "29.960665181224943",
      "longitude": "-90.06535608187377"
    }
  },
  {
    "service_request": "2024-1153217",
    "request_type": "Trash/Recycling",
    "request_reason": "Request a Large Item Pick Up",
    "date_created": "2024-12-05T12:47:57.000",
    "date_modified": "2024-12-05T12:47:58.000",
    "request_status": "Pending",
    "responsible_agency": "Department of Sanitation",
    "final_address": "13972 Wales St",
    "address_councildis": "E",
    "status": "Assigned to Contractor",
    "contractor": "Waste Pro",
    "rowid": "1153217",
    "final_x": "3718185.85017",
    "final_y": "572544.485609",
    "longitude": "-89.95066791231142",
    "latitude": "30.067131992091458",
    "geocoded_column": {
      "latitude": "30.067131992091458",
      "longitude": "-89.95066791231142"
    }
  },
  {
    "service_request": "2024-1153216",
    "request_type": "New Orleans Recreation Development Commission (NORDC)",
    "request_reason": "Facilities and Parks Maintenance/Clean Up",
    "date_created": "2024-12-05T12:47:05.000",
    "date_modified": "2024-12-05T12:47:05.000",
    "request_status": "Pending",
    "responsible_agency": "New Orleans Recreation Development Commission",
    "final_address": "5500 BLK Wildair Dr",
    "address_councildis": "D",
    "status": "Pending",
    "rowid": "1153216",
    "final_x": "3681607.33688",
    "final_y": "553246.59441",
    "longitude": "-90.06697318459523",
    "latitude": "30.015232929386375",
    "geocoded_column": {
      "latitude": "30.015232929386375",
      "longitude": "-90.06697318459523"
    }
  },
  {
    "service_request": "2024-1153215",
    "request_type": "Abandoned Vehicles",
    "request_reason": "Abandoned/Junk Vehicles",
    "date_created": "2024-12-05T12:45:50.000",
    "date_modified": "2024-12-05T12:45:50.000",
    "request_status": "Pending",
    "responsible_agency": "Department of Public Works",
    "final_address": "1036 Clouet St",
    "address_councildis": "C",
    "status": "Pending",
    "rowid": "1153215",
    "final_x": "3688933.3199",
    "final_y": "535849.203911",
    "longitude": "-90.04444487776303",
    "latitude": "29.967171702144547",
    "geocoded_column": {
      "latitude": "29.967171702144547",
      "longitude": "-90.04444487776303"
    }
  },
  {
    "service_request": "2024-1153214",
    "request_type": "Trash/Recycling",
    "request_reason": "Illegal Dumping",
    "date_created": "2024-12-05T12:42:03.000",
    "date_modified": "2024-12-05T12:42:03.000",
    "request_status": "Pending",
    "responsible_agency": "Department of Sanitation",
    "final_address": "9548 Palmetto St",
    "address_councildis": "A",
    "status": "Pending",
    "rowid": "1153214",
    "final_x": "3664117.4201",
    "final_y": "538631.138185",
    "longitude": "-90.12272125866446",
    "latitude": "29.975565303770072",
    "geocoded_column": {
      "latitude": "29.975565303770072",
      "longitude": "-90.12272125866446"
    }
  },
  {
    "service_request": "2024-1153213",
    "request_type": "Streetlights",
    "request_reason": "Streetlight Outage/Malfunction",
    "date_created": "2024-12-05T12:38:15.000",
    "date_modified": "2024-12-05T12:38:16.000",
    "request_status": "Pending",
    "responsible_agency": "Department of Public Works",
    "final_address": "5500 BLK Wildair Dr",
    "address_councildis": "D",
    "status": "Pending",
    "contractor": "Legacy Professional Services",
    "rowid": "1153213",
    "final_x": "3681607.33688",
    "final_y": "553246.59441",
    "longitude": "-90.06697318459523",
    "latitude": "30.015232929386375",
    "geocoded_column": {
      "latitude": "30.015232929386375",
      "longitude": "-90.06697318459523"
    }
  },
  {
    "service_request": "2024-1153212",
    "request_type": "Roads and Streets",
    "request_reason": "Pothole",
    "date_created": "2024-12-05T12:37:50.000",
    "date_modified": "2024-12-05T12:38:41.000",
    "case_close_date": "2024-12-05T06:38:41.000",
    "request_status": "Closed",
    "responsible_agency": "Department of Public Works",
    "final_address": "7400 BLK Dreux Ave",
    "address_councildis": "E",
    "status": "Resolved",
    "rowid": "1153212",
    "final_x": "3702405.79791",
    "final_y": "554547.71812",
    "longitude": "-90.00121247763656",
    "latitude": "30.018162091754856",
    "geocoded_column": {
      "latitude": "30.018162091754856",
      "longitude": "-90.00121247763656"
    }
  },
  {
    "service_request": "2024-1153211",
    "request_type": "Drainage",
    "request_reason": "Street Flooding",
    "date_created": "2024-12-05T12:37:34.000",
    "date_modified": "2024-12-05T12:37:34.000",
    "request_status": "Pending",
    "responsible_agency": "Department of Public Works",
    "final_address": "8100 BLK Zimpel St",
    "address_councildis": "A",
    "status": "Pending",
    "rowid": "1153211",
    "final_x": "3661610.34538",
    "final_y": "528220.698596",
    "longitude": "-90.13098433733195",
    "latitude": "29.947012574230968",
    "geocoded_column": {
      "latitude": "29.947012574230968",
      "longitude": "-90.13098433733195"
    }
  },
  {
    "service_request": "2024-1153210",
    "request_type": "Trash/Recycling",
    "request_reason": "Request a Large Item Pick Up",
    "date_created": "2024-12-05T12:36:27.000",
    "date_modified": "2024-12-05T12:36:28.000",
    "request_status": "Pending",
    "responsible_agency": "Department of Sanitation",
    "final_address": "624 Soraparu St",
    "address_councildis": "B",
    "status": "Assigned to Contractor",
    "contractor": "IV Waste",
    "rowid": "1153210",
    "final_x": "3679214.50402",
    "final_y": "520309.283",
    "longitude": "-90.07567563380692",
    "latitude": "29.924739121815964",
    "geocoded_column": {
      "latitude": "29.924739121815964",
      "longitude": "-90.07567563380692"
    }
  },
  {
    "service_request": "2024-1153209",
    "request_type": "Trash/Recycling",
    "request_reason": "Replace Trash Cart",
    "date_created": "2024-12-05T12:34:25.000",
    "date_modified": "2024-12-05T12:34:26.000",
    "request_status": "Pending",
    "responsible_agency": "Department of Sanitation",
    "final_address": "3224 Hyman Pl",
    "address_councildis": "C",
    "status": "Assigned to Contractor",
    "contractor": "Richards Disposal",
    "rowid": "1153209",
    "final_x": "3701023.49501",
    "final_y": "519334.551927",
    "longitude": "-90.00686799237995",
    "latitude": "29.92138273670299",
    "geocoded_column": {
      "latitude": "29.92138273670299",
      "longitude": "-90.00686799237995"
    }
  },
  {
    "service_request": "2024-1153208",
    "request_type": "Trash/Recycling",
    "request_reason": "Request a Large Item Pick Up",
    "date_created": "2024-12-05T12:31:12.000",
    "date_modified": "2024-12-05T12:31:13.000",
    "request_status": "Pending",
    "responsible_agency": "Department of Sanitation",
    "final_address": "411 Vallette St",
    "address_councildis": "C",
    "status": "Assigned to Contractor",
    "contractor": "Richards Disposal",
    "rowid": "1153208",
    "final_x": "3687514.13103",
    "final_y": "530254.861825",
    "longitude": "-90.0491246820292",
    "latitude": "29.951833013576888",
    "geocoded_column": {
      "latitude": "29.951833013576888",
      "longitude": "-90.0491246820292"
    }
  },
  {
    "service_request": "2024-1153207",
    "request_type": "Roads and Streets",
    "request_reason": "Sidewalk Damaged or Missing",
    "date_created": "2024-12-05T12:28:56.000",
    "date_modified": "2024-12-05T15:16:28.000",
    "case_close_date": "2024-12-05T09:16:28.000",
    "request_status": "Closed",
    "responsible_agency": "Department of Public Works",
    "final_address": "6531 Coveview Ct",
    "address_councildis": "E",
    "status": "Referred to External Agency",
    "rowid": "1153207",
    "final_x": "3698689.55114",
    "final_y": "555783.919193",
    "longitude": "-90.01290933864246",
    "latitude": "30.021679446160032",
    "geocoded_column": {
      "latitude": "30.021679446160032",
      "longitude": "-90.01290933864246"
    }
  },
  {
    "service_request": "2024-1153206",
    "request_type": "Streetlights",
    "request_reason": "Streetlight Outage/Malfunction",
    "date_created": "2024-12-05T12:27:54.000",
    "date_modified": "2024-12-05T12:27:55.000",
    "request_status": "Pending",
    "responsible_agency": "Department of Public Works",
    "final_address": "6414 Canal Blvd",
    "address_councildis": "A",
    "status": "Pending",
    "contractor": "Legacy Professional Services",
    "rowid": "1153206",
    "final_x": "3668584.50145",
    "final_y": "550220.056468",
    "longitude": "-90.10822161125233",
    "latitude": "30.007300327853002",
    "geocoded_column": {
      "latitude": "30.007300327853002",
      "longitude": "-90.10822161125233"
    }
  },
  {
    "service_request": "2024-1153205",
    "request_type": "Trash/Recycling",
    "request_reason": "Request a Large Item Pick Up",
    "date_created": "2024-12-05T12:27:07.000",
    "date_modified": "2024-12-05T12:27:08.000",
    "request_status": "Pending",
    "responsible_agency": "Department of Sanitation",
    "final_address": "411 Vallette St",
    "address_councildis": "C",
    "status": "Assigned to Contractor",
    "contractor": "Richards Disposal",
    "rowid": "1153205",
    "final_x": "3687514.13103",
    "final_y": "530254.861825",
    "longitude": "-90.0491246820292",
    "latitude": "29.951833013576888",
    "geocoded_column": {
      "latitude": "29.951833013576888",
      "longitude": "-90.0491246820292"
    }
  },
  {
    "service_request": "2024-1153204",
    "request_type": "Streetlights",
    "request_reason": "Streetlight Outage/Malfunction",
    "date_created": "2024-12-05T12:22:06.000",
    "date_modified": "2024-12-05T12:22:08.000",
    "request_status": "Pending",
    "responsible_agency": "Department of Public Works",
    "final_address": "6414 Canal Blvd",
    "address_councildis": "A",
    "status": "Pending",
    "contractor": "Legacy Professional Services",
    "rowid": "1153204",
    "final_x": "3668584.50145",
    "final_y": "550220.056468",
    "longitude": "-90.10822161125233",
    "latitude": "30.007300327853002",
    "geocoded_column": {
      "latitude": "30.007300327853002",
      "longitude": "-90.10822161125233"
    }
  },
  {
    "service_request": "2024-1153203",
    "request_type": "Trash/Recycling",
    "request_reason": "Repair Trash Cart",
    "date_created": "2024-12-05T12:20:22.000",
    "date_modified": "2024-12-05T12:20:23.000",
    "request_status": "Pending",
    "responsible_agency": "Department of Sanitation",
    "final_address": "3817 Carondelet St",
    "address_councildis": "B",
    "status": "Assigned to Contractor",
    "contractor": "IV Waste",
    "rowid": "1153203",
    "final_x": "3672596.69364",
    "final_y": "521470.864889",
    "longitude": "-90.09652632082735",
    "latitude": "29.928131166123904",
    "geocoded_column": {
      "latitude": "29.928131166123904",
      "longitude": "-90.09652632082735"
    }
  },
  {
    "service_request": "2024-1153202",
    "request_type": "Streetlights",
    "request_reason": "Streetlight Outage/Malfunction",
    "date_created": "2024-12-05T12:17:49.000",
    "date_modified": "2024-12-05T12:17:51.000",
    "request_status": "Pending",
    "responsible_agency": "Department of Public Works",
    "final_address": "8130 Zimple St",
    "address_councildis": "A",
    "status": "Pending",
    "contractor": "Legacy Professional Services",
    "rowid": "1153202",
    "final_x": "3661530.64749",
    "final_y": "528243.660992",
    "longitude": "-90.13123521388941",
    "latitude": "29.947078012743596",
    "geocoded_column": {
      "latitude": "29.947078012743596",
      "longitude": "-90.13123521388941"
    }
  },
  {
    "service_request": "2024-1153201",
    "request_type": "Parks & Parkways",
    "request_reason": "Park Maintenance/Clean Up",
    "date_created": "2024-12-05T12:07:27.000",
    "date_modified": "2024-12-05T12:07:27.000",
    "request_status": "Pending",
    "responsible_agency": "Department of Parks & Parkway",
    "final_address": "2500 BLK Annunciation St",
    "address_councildis": "B",
    "status": "Pending",
    "rowid": "1153201",
    "final_x": "3678304.20996",
    "final_y": "520333.854133",
    "longitude": "-90.07854828046241",
    "latitude": "29.924834125754426",
    "geocoded_column": {
      "latitude": "29.924834125754426",
      "longitude": "-90.07854828046241"
    }
  },
  {
    "service_request": "2024-1153200",
    "request_type": "Parks & Parkways",
    "request_reason": "Park Maintenance/Clean Up",
    "date_created": "2024-12-05T12:01:53.000",
    "date_modified": "2024-12-05T12:01:53.000",
    "request_status": "Pending",
    "responsible_agency": "Department of Parks & Parkway",
    "final_address": "2500 BLK Annunciation St",
    "address_councildis": "B",
    "status": "Pending",
    "rowid": "1153200",
    "final_x": "3678304.20996",
    "final_y": "520333.854133",
    "longitude": "-90.07854828046241",
    "latitude": "29.924834125754426",
    "geocoded_column": {
      "latitude": "29.924834125754426",
      "longitude": "-90.07854828046241"
    }
  },
  {
    "service_request": "2024-1153199",
    "request_type": "Trash/Recycling",
    "request_reason": "Missed Trash Pick-Up",
    "date_created": "2024-12-05T12:01:22.000",
    "date_modified": "2024-12-05T12:01:23.000",
    "request_status": "Pending",
    "responsible_agency": "Department of Sanitation",
    "final_address": "3611 Forest Park Ln",
    "address_councildis": "C",
    "status": "Assigned to Contractor",
    "contractor": "Richards Disposal",
    "rowid": "1153199",
    "final_x": "3702935.26366",
    "final_y": "511322.57112",
    "longitude": "-90.00112745839577",
    "latitude": "29.89929152968961",
    "geocoded_column": {
      "latitude": "29.89929152968961",
      "longitude": "-90.00112745839577"
    }
  },
  {
    "service_request": "2024-1153198",
    "request_type": "Trash/Recycling",
    "request_reason": "Order Trash Cart",
    "date_created": "2024-12-05T11:59:28.000",
    "date_modified": "2024-12-05T11:59:29.000",
    "request_status": "Pending",
    "responsible_agency": "Department of Sanitation",
    "final_address": "2317 Beck St",
    "address_councildis": "C",
    "status": "Assigned to Contractor",
    "contractor": "Richards Disposal",
    "rowid": "1153198",
    "final_x": "3700387.94717",
    "final_y": "522226.02457",
    "longitude": "-90.00876861761897",
    "latitude": "29.929353506456803",
    "geocoded_column": {
      "latitude": "29.929353506456803",
      "longitude": "-90.00876861761897"
    }
  },
  {
    "service_request": "2024-1153197",
    "request_type": "Trash/Recycling",
    "request_reason": "Order Trash Cart",
    "date_created": "2024-12-05T11:52:32.000",
    "date_modified": "2024-12-05T11:52:33.000",
    "request_status": "Pending",
    "responsible_agency": "Department of Sanitation",
    "final_address": "3527 Camp St",
    "address_councildis": "B",
    "status": "Assigned to Contractor",
    "contractor": "IV Waste",
    "rowid": "1153197",
    "final_x": "3674088.25185",
    "final_y": "519723.452152",
    "longitude": "-90.09187756586013",
    "latitude": "29.92328199034976",
    "geocoded_column": {
      "latitude": "29.92328199034976",
      "longitude": "-90.09187756586013"
    }
  },
  {
    "service_request": "2024-1153196",
    "request_type": "Roads and Streets",
    "request_reason": "Debris in Driving Lanes",
    "date_created": "2024-12-05T11:51:03.000",
    "date_modified": "2024-12-05T11:51:04.000",
    "request_status": "Pending",
    "responsible_agency": "Department of Public Works",
    "final_address": "ROYAL ST & ANDRY ST",
    "address_councildis": "E",
    "status": "Pending",
    "rowid": "1153196",
    "final_x": "3696754.5",
    "final_y": "532484.98",
    "longitude": "-90.01986743570971",
    "latitude": "29.957677058742345",
    "geocoded_column": {
      "latitude": "29.957677058742345",
      "longitude": "-90.01986743570971"
    }
  },
  {
    "service_request": "2024-1153195",
    "request_type": "Trash/Recycling",
    "request_reason": "Request a Large Item Pick Up",
    "date_created": "2024-12-05T11:45:51.000",
    "date_modified": "2024-12-05T16:52:43.000",
    "case_close_date": "2024-12-05T10:52:43.000",
    "request_status": "Closed",
    "responsible_agency": "Department of Sanitation",
    "final_address": "4751 Sherwood Dr",
    "address_councildis": "E",
    "status": "Invalid Request",
    "contractor": "Waste Pro",
    "contractor_action": "Invalid Request",
    "rowid": "1153195",
    "final_x": "3718072.66162",
    "final_y": "556936.26313",
    "longitude": "-89.9516206853722",
    "latitude": "30.024219521964472",
    "geocoded_column": {
      "latitude": "30.024219521964472",
      "longitude": "-89.9516206853722"
    }
  },
  {
    "service_request": "2024-1153194",
    "request_type": "Streetlights",
    "request_reason": "New Streetlight Request",
    "date_created": "2024-12-05T11:43:19.000",
    "date_modified": "2024-12-05T11:43:20.000",
    "request_status": "Pending",
    "responsible_agency": "Department of Public Works",
    "final_address": "2135 S Lopez St",
    "address_councildis": "A",
    "status": "Pending",
    "contractor": "Legacy Professional Services",
    "rowid": "1153194",
    "final_x": "3669082.92327",
    "final_y": "529279.550273",
    "longitude": "-90.1073547912911",
    "latitude": "29.949706351355903",
    "geocoded_column": {
      "latitude": "29.949706351355903",
      "longitude": "-90.1073547912911"
    }
  },
  {
    "service_request": "2024-1153193",
    "request_type": "Abandoned Vehicles",
    "request_reason": "Abandoned/Junk Vehicles",
    "date_created": "2024-12-05T11:42:00.000",
    "date_modified": "2024-12-05T11:42:00.000",
    "request_status": "Pending",
    "responsible_agency": "Department of Public Works",
    "final_address": "2522 Prentiss Ave",
    "address_councildis": "D",
    "status": "Pending",
    "rowid": "1153193",
    "final_x": "3685993.41993",
    "final_y": "553918.268184",
    "longitude": "-90.05309153618173",
    "latitude": "30.01694576982214",
    "geocoded_column": {
      "latitude": "30.01694576982214",
      "longitude": "-90.05309153618173"
    }
  },
  {
    "service_request": "2024-1153192",
    "request_type": "Roads and Streets",
    "request_reason": "Pothole",
    "date_created": "2024-12-05T11:41:54.000",
    "date_modified": "2024-12-05T11:41:55.000",
    "request_status": "Pending",
    "responsible_agency": "Department of Public Works",
    "final_address": "2135 S Lopez St",
    "address_councildis": "A",
    "status": "Pending",
    "rowid": "1153192",
    "final_x": "3669082.92327",
    "final_y": "529279.550273",
    "longitude": "-90.1073547912911",
    "latitude": "29.949706351355903",
    "geocoded_column": {
      "latitude": "29.949706351355903",
      "longitude": "-90.1073547912911"
    }
  },
  {
    "service_request": "2024-1153191",
    "request_type": "Trash/Recycling",
    "request_reason": "Replace Trash Cart",
    "date_created": "2024-12-05T11:41:39.000",
    "date_modified": "2024-12-05T11:41:40.000",
    "request_status": "Pending",
    "responsible_agency": "Department of Sanitation",
    "final_address": "4389 Woodland Dr Apt 102",
    "address_councildis": "C",
    "status": "Assigned to Contractor",
    "contractor": "Richards Disposal",
    "rowid": "1153191",
    "final_x": "3705261.57239",
    "final_y": "514134.843186",
    "longitude": "-89.99368224476312",
    "latitude": "29.906949745383262",
    "geocoded_column": {
      "latitude": "29.906949745383262",
      "longitude": "-89.99368224476312"
    }
  },
  {
    "service_request": "2024-1153190",
    "request_type": "Drainage",
    "request_reason": "Street Flooding",
    "date_created": "2024-12-05T11:41:22.000",
    "date_modified": "2024-12-05T14:09:41.000",
    "case_close_date": "2024-12-05T08:09:41.000",
    "request_status": "Closed",
    "responsible_agency": "Department of Public Works",
    "final_address": "2621 Philip St",
    "address_councildis": "B",
    "status": "Referred to External Agency",
    "rowid": "1153190",
    "final_x": "3675077.04059",
    "final_y": "526530.841662",
    "longitude": "-90.08852288703629",
    "latitude": "29.941970603364123",
    "geocoded_column": {
      "latitude": "29.941970603364123",
      "longitude": "-90.08852288703629"
    }
  },
  {
    "service_request": "2024-1153189",
    "request_type": "Roads and Streets",
    "request_reason": "Pothole",
    "date_created": "2024-12-05T11:40:59.000",
    "date_modified": "2024-12-05T11:41:00.000",
    "request_status": "Pending",
    "responsible_agency": "Department of Public Works",
    "final_address": "2102 S Lopez St",
    "address_councildis": "A",
    "status": "Pending",
    "rowid": "1153189",
    "final_x": "3669239.95495",
    "final_y": "529386.444161",
    "longitude": "-90.10685535642662",
    "latitude": "29.949995653845303",
    "geocoded_column": {
      "latitude": "29.949995653845303",
      "longitude": "-90.10685535642662"
    }
  },
  {
    "service_request": "2024-1153188",
    "request_type": "Trash/Recycling",
    "request_reason": "Replace Trash Cart",
    "date_created": "2024-12-05T11:33:51.000",
    "date_modified": "2024-12-05T11:33:51.000",
    "request_status": "Pending",
    "responsible_agency": "Department of Sanitation",
    "final_address": "3140 Blair St",
    "address_councildis": "C",
    "status": "Assigned to Contractor",
    "contractor": "Richards Disposal",
    "rowid": "1153188",
    "final_x": "3709540.2787",
    "final_y": "519159.022007",
    "longitude": "-89.9799910457488",
    "latitude": "29.92062624496531",
    "geocoded_column": {
      "latitude": "29.92062624496531",
      "longitude": "-89.9799910457488"
    }
  },
  {
    "service_request": "2024-1153187",
    "request_type": "Trash/Recycling",
    "request_reason": "Request a Large Item Pick Up",
    "date_created": "2024-12-05T11:33:42.000",
    "date_modified": "2024-12-05T11:33:43.000",
    "request_status": "Pending",
    "responsible_agency": "Department of Sanitation",
    "final_address": "1009 N Dorgenois St",
    "address_councildis": "D",
    "status": "Assigned to Contractor",
    "contractor": "IV Waste",
    "rowid": "1153187",
    "final_x": "3677856.61013",
    "final_y": "537603.51636",
    "longitude": "-90.07936461641404",
    "latitude": "29.972333407581882",
    "geocoded_column": {
      "latitude": "29.972333407581882",
      "longitude": "-90.07936461641404"
    }
  },
  {
    "service_request": "2024-1153186",
    "request_type": "Abandoned Vehicles",
    "request_reason": "Abandoned/Junk Vehicles",
    "date_created": "2024-12-05T11:32:49.000",
    "date_modified": "2024-12-05T11:32:49.000",
    "request_status": "Pending",
    "responsible_agency": "Department of Public Works",
    "final_address": "7634 St Charles Ave",
    "address_councildis": "A",
    "status": "Pending",
    "rowid": "1153186",
    "final_x": "3661639.96198",
    "final_y": "525772.142397",
    "longitude": "-90.13097194986607",
    "latitude": "29.940278969745183",
    "geocoded_column": {
      "latitude": "29.940278969745183",
      "longitude": "-90.13097194986607"
    }
  },
  {
    "service_request": "2024-1153185",
    "request_type": "Trash/Recycling",
    "request_reason": "Request a Large Item Pick Up",
    "date_created": "2024-12-05T11:32:37.000",
    "date_modified": "2024-12-05T11:32:38.000",
    "request_status": "Pending",
    "responsible_agency": "Department of Sanitation",
    "final_address": "4732 St Claude Ave",
    "address_councildis": "E",
    "status": "Assigned to Contractor",
    "contractor": "Waste Pro",
    "rowid": "1153185",
    "final_x": "3694923.81027",
    "final_y": "534435.078213",
    "longitude": "-90.02557791317464",
    "latitude": "29.963096716249932",
    "geocoded_column": {
      "latitude": "29.963096716249932",
      "longitude": "-90.02557791317464"
    }
  },
  {
    "service_request": "2024-1153184",
    "request_type": "Trash/Recycling",
    "request_reason": "Return Trash Cart",
    "date_created": "2024-12-05T11:32:01.000",
    "date_modified": "2024-12-05T11:32:02.000",
    "request_status": "Pending",
    "responsible_agency": "Department of Sanitation",
    "final_address": "1230 N Broad St",
    "address_councildis": "D",
    "status": "Assigned to Contractor",
    "contractor": "IV Waste",
    "rowid": "1153184",
    "final_x": "3678024.13275",
    "final_y": "538599.677385",
    "longitude": "-90.07880110609337",
    "latitude": "29.975067466381123",
    "geocoded_column": {
      "latitude": "29.975067466381123",
      "longitude": "-90.07880110609337"
    }
  },
  {
    "service_request": "2024-1153183",
    "request_type": "Abandoned Vehicles",
    "request_reason": "Abandoned/Junk Vehicles",
    "date_created": "2024-12-05T11:31:23.000",
    "date_modified": "2024-12-05T11:31:23.000",
    "request_status": "Pending",
    "responsible_agency": "Department of Public Works",
    "final_address": "7634 St Charles Ave",
    "address_councildis": "A",
    "status": "Pending",
    "rowid": "1153183",
    "final_x": "3661639.96198",
    "final_y": "525772.142397",
    "longitude": "-90.13097194986607",
    "latitude": "29.940278969745183",
    "geocoded_column": {
      "latitude": "29.940278969745183",
      "longitude": "-90.13097194986607"
    }
  },
  {
    "service_request": "2024-1153182",
    "request_type": "Trash/Recycling",
    "request_reason": "Missed Trash Pick-Up",
    "date_created": "2024-12-05T11:30:45.000",
    "date_modified": "2024-12-05T15:04:54.000",
    "case_close_date": "2024-12-05T09:04:54.000",
    "request_status": "Closed",
    "responsible_agency": "Department of Sanitation",
    "final_address": "4732 St Claude Ave",
    "address_councildis": "E",
    "status": "Invalid Request",
    "contractor": "Waste Pro",
    "contractor_action": "Invalid Request",
    "rowid": "1153182",
    "final_x": "3694923.81027",
    "final_y": "534435.078213",
    "longitude": "-90.02557791317464",
    "latitude": "29.963096716249932",
    "geocoded_column": {
      "latitude": "29.963096716249932",
      "longitude": "-90.02557791317464"
    }
  },
  {
    "service_request": "2024-1153181",
    "request_type": "Trash/Recycling",
    "request_reason": "Order Trash Cart",
    "date_created": "2024-12-05T11:24:05.000",
    "date_modified": "2024-12-05T11:24:05.000",
    "request_status": "Pending",
    "responsible_agency": "Department of Sanitation",
    "final_address": "2401 Charbonnet St",
    "address_councildis": "E",
    "status": "Assigned to Contractor",
    "contractor": "Waste Pro",
    "rowid": "1153181",
    "final_x": "3700029.6129",
    "final_y": "538502.474569",
    "longitude": "-90.00930608632234",
    "latitude": "29.974119373872863",
    "geocoded_column": {
      "latitude": "29.974119373872863",
      "longitude": "-90.00930608632234"
    }
  },
  {
    "service_request": "2024-1153180",
    "request_type": "Trash/Recycling",
    "request_reason": "Order Recycling Cart",
    "date_created": "2024-12-05T11:21:03.000",
    "date_modified": "2024-12-05T11:21:03.000",
    "request_status": "Pending",
    "responsible_agency": "Department of Sanitation",
    "final_address": "4725 Laurel St",
    "address_councildis": "B",
    "status": "Pending",
    "rowid": "1153180",
    "final_x": "3669784.22964",
    "final_y": "517999.447542",
    "longitude": "-90.10552208435574",
    "latitude": "29.918669044286503",
    "geocoded_column": {
      "latitude": "29.918669044286503",
      "longitude": "-90.10552208435574"
    }
  },
  {
    "service_request": "2024-1153179",
    "request_type": "Trash/Recycling",
    "request_reason": "Order Trash Cart",
    "date_created": "2024-12-05T11:18:53.000",
    "date_modified": "2024-12-05T11:18:54.000",
    "request_status": "Pending",
    "responsible_agency": "Department of Sanitation",
    "final_address": "2056 Sumpter St",
    "address_councildis": "D",
    "status": "Assigned to Contractor",
    "contractor": "IV Waste",
    "rowid": "1153179",
    "final_x": "3682988.17922",
    "final_y": "549380.811539",
    "longitude": "-90.0627458130677",
    "latitude": "30.00456139358523",
    "geocoded_column": {
      "latitude": "30.00456139358523",
      "longitude": "-90.0627458130677"
    }
  },
  {
    "service_request": "2024-1153178",
    "request_type": "Trash/Recycling",
    "request_reason": "Return Trash Cart",
    "date_created": "2024-12-05T11:18:09.000",
    "date_modified": "2024-12-05T11:18:10.000",
    "request_status": "Pending",
    "responsible_agency": "Department of Sanitation",
    "final_address": "730 Valence St",
    "address_councildis": "B",
    "status": "Assigned to Contractor",
    "contractor": "IV Waste",
    "rowid": "1153178",
    "final_x": "3669885.90426",
    "final_y": "518186.202038",
    "longitude": "-90.10519483180308",
    "latitude": "29.919179564008594",
    "geocoded_column": {
      "latitude": "29.919179564008594",
      "longitude": "-90.10519483180308"
    }
  },
  {
    "service_request": "2024-1153177",
    "request_type": "Abandoned Vehicles",
    "request_reason": "Abandoned/Junk Vehicles",
    "date_created": "2024-12-05T11:16:04.000",
    "date_modified": "2024-12-05T11:16:05.000",
    "request_status": "Pending",
    "responsible_agency": "Department of Public Works",
    "final_address": "9233 Fig St",
    "address_councildis": "A",
    "status": "Pending",
    "rowid": "1153177",
    "final_x": "3663231.90599",
    "final_y": "535988.094343",
    "longitude": "-90.12560595226573",
    "latitude": "29.968323502172705",
    "geocoded_column": {
      "latitude": "29.968323502172705",
      "longitude": "-90.12560595226573"
    }
  },
  {
    "service_request": "2024-1153176",
    "request_type": "Property Maintenance",
    "request_reason": "Property Maintenance",
    "date_created": "2024-12-05T11:12:01.000",
    "date_modified": "2024-12-05T14:03:02.000",
    "case_close_date": "2024-12-05T08:03:02.000",
    "request_status": "Closed",
    "responsible_agency": "Department of Code Enforcement",
    "final_address": "1809 Louisiana Ave",
    "address_councildis": "B",
    "status": "Referred to Code Enforcement",
    "rowid": "1153176",
    "final_x": "3673937.22843",
    "final_y": "522349.259322",
    "longitude": "-90.09226451493589",
    "latitude": "29.93050661233896",
    "geocoded_column": {
      "latitude": "29.93050661233896",
      "longitude": "-90.09226451493589"
    }
  },
  {
    "service_request": "2024-1153175",
    "request_type": "Trash/Recycling",
    "request_reason": "Return Trash Cart",
    "date_created": "2024-12-05T11:11:48.000",
    "date_modified": "2024-12-05T11:11:49.000",
    "request_status": "Pending",
    "responsible_agency": "Department of Sanitation",
    "final_address": "4732 Laurel St",
    "address_councildis": "B",
    "status": "Assigned to Contractor",
    "contractor": "IV Waste",
    "rowid": "1153175",
    "final_x": "3669742.61217",
    "final_y": "517866.29279",
    "longitude": "-90.10565795240986",
    "latitude": "29.918304136912237",
    "geocoded_column": {
      "latitude": "29.918304136912237",
      "longitude": "-90.10565795240986"
    }
  },
  {
    "service_request": "2024-1153174",
    "request_type": "Trash/Recycling",
    "request_reason": "Request a Large Item Pick Up",
    "date_created": "2024-12-05T11:10:22.000",
    "date_modified": "2024-12-05T11:10:23.000",
    "request_status": "Pending",
    "responsible_agency": "Department of Sanitation",
    "final_address": "224 30Th St",
    "address_councildis": "A",
    "status": "Assigned to Contractor",
    "contractor": "IV Waste",
    "rowid": "1153174",
    "final_x": "3665612.56628",
    "final_y": "550452.373076",
    "longitude": "-90.11760303713147",
    "latitude": "30.008026154108254",
    "geocoded_column": {
      "latitude": "30.008026154108254",
      "longitude": "-90.11760303713147"
    }
  },
  {
    "service_request": "2024-1153173",
    "request_type": "Trash/Recycling",
    "request_reason": "Repair Trash Cart",
    "date_created": "2024-12-05T11:03:59.000",
    "date_modified": "2024-12-05T11:04:00.000",
    "request_status": "Pending",
    "responsible_agency": "Department of Sanitation",
    "final_address": "211 S Olympia St",
    "address_councildis": "A",
    "status": "Assigned to Contractor",
    "contractor": "IV Waste",
    "rowid": "1153173",
    "final_x": "3669063.57914",
    "final_y": "539230.937674",
    "longitude": "-90.1070796078331",
    "latitude": "29.97706993280887",
    "geocoded_column": {
      "latitude": "29.97706993280887",
      "longitude": "-90.1070796078331"
    }
  },
  {
    "service_request": "2024-1153172",
    "request_type": "Trash/Recycling",
    "request_reason": "Request a Large Item Pick Up",
    "date_created": "2024-12-05T11:03:56.000",
    "date_modified": "2024-12-05T11:03:57.000",
    "request_status": "Pending",
    "responsible_agency": "Department of Sanitation",
    "final_address": "13640 Explorers Ave",
    "address_councildis": "E",
    "status": "Assigned to Contractor",
    "contractor": "Waste Pro",
    "rowid": "1153172",
    "final_x": "3726150.23072",
    "final_y": "569030.044326",
    "longitude": "-89.92562796790553",
    "latitude": "30.057202113722532",
    "geocoded_column": {
      "latitude": "30.057202113722532",
      "longitude": "-89.92562796790553"
    }
  },
  {
    "service_request": "2024-1153171",
    "request_type": "Roads and Streets",
    "request_reason": "Street Subsidence (Sinking)",
    "date_created": "2024-12-05T11:01:01.000",
    "date_modified": "2024-12-05T11:01:01.000",
    "request_status": "Pending",
    "responsible_agency": "Department of Public Works",
    "final_address": "S LOPEZ ST & CADIZ ST",
    "address_councildis": "A",
    "status": "Inspected",
    "rowid": "1153171",
    "final_x": "3668890.2",
    "final_y": "528898.18",
    "longitude": "-90.10797618580513",
    "latitude": "29.948663376007744",
    "geocoded_column": {
      "latitude": "29.948663376007744",
      "longitude": "-90.10797618580513"
    }
  },
  {
    "service_request": "2024-1153170",
    "request_type": "Trash/Recycling",
    "request_reason": "Missed Trash Pick-Up",
    "date_created": "2024-12-05T10:57:14.000",
    "date_modified": "2024-12-05T12:49:30.000",
    "case_close_date": "2024-12-05T06:49:30.000",
    "request_status": "Closed",
    "responsible_agency": "Department of Sanitation",
    "final_address": "2551 N Tonti St",
    "address_councildis": "D",
    "status": "Invalid Request",
    "contractor": "IV Waste",
    "contractor_action": "Invalid",
    "rowid": "1153170",
    "final_x": "3686941.91785",
    "final_y": "540943.050955",
    "longitude": "-90.05055364027486",
    "latitude": "29.981239435879072",
    "geocoded_column": {
      "latitude": "29.981239435879072",
      "longitude": "-90.05055364027486"
    }
  },
  {
    "service_request": "2024-1153169",
    "request_type": "Trash/Recycling",
    "request_reason": "Repair Trash Cart",
    "date_created": "2024-12-05T10:56:46.000",
    "date_modified": "2024-12-05T10:56:47.000",
    "request_status": "Pending",
    "responsible_agency": "Department of Sanitation",
    "final_address": "3920 Magazine St",
    "address_councildis": "B",
    "status": "Assigned to Contractor",
    "contractor": "IV Waste",
    "rowid": "1153169",
    "final_x": "3672932.33377",
    "final_y": "518933.865399",
    "longitude": "-90.095553292112",
    "latitude": "29.921145264850697",
    "geocoded_column": {
      "latitude": "29.921145264850697",
      "longitude": "-90.095553292112"
    }
  },