[
  {
    "service_request": "2026-1289978",
    "request_type": "Trash/Recycling",
    "request_reason": "Replace Trash Cart",
    "date_created": "2026-06-11T23:47:51.000",
    "date_modified": "2026-06-11T23:47:52.000",
    "request_status": "Pending",
    "responsible_agency": "Department of Sanitation",
    "final_address": "1140 Esplanade Ave",
    "address_councildis": "C",
    "status": "Assigned to Contractor",
    "contractor": "IV Waste",
    "rowid": "1289978",
    "final_x": "3682566.87356",
    "final_y": "535491.837254",
    "longitude": "-90.06456265108791",
    "latitude": "29.966384440636013",
    "geocoded_column": {
      "latitude": "29.966384440636013",
      "longitude": "-90.06456265108791"
    }
  },
  {
    "service_request": "2026-1289977",
    "request_type": "Health Related Request",
    "request_reason": "Noise Ordinance Complaint",
    "date_created": "2026-06-11T23:47:33.000",
    "date_modified": "2026-06-11T23:47:36.000",
    "request_status": "Pending",
    "responsible_agency": "Health Department",
    "final_address": "801 Bourbon St, New Orleans, Louisiana, 70116",
    "address_councildis": "C",
    "status": "Pending",
    "rowid": "1289977",
    "final_x": "3682490.98735",
    "final_y": "533018.672772",
    "longitude": "-90.06488875731978",
    "latitude": "29.959586396383013",
    "geocoded_column": {
      "latitude": "29.959586396383013",
      "longitude": "-90.06488875731978"
    }
  },
  {
    "service_request": "2026-1289976",
    "request_type": "Trash/Recycling",
    "request_reason": "Start Trash Service",
    "date_created": "2026-06-11T23:41:45.000",
    "date_modified": "2026-06-11T23:41:47.000",
    "request_status": "Pending",
    "responsible_agency": "Department of Sanitation",
    "final_address": "7318 Birch St",
    "address_councildis": "A",
    "status": "Assigned to Contractor",
    "contractor": "IV Waste",
    "rowid": "1289976",
    "final_x": "3664561.797",
    "final_y": "527894.023295",
    "longitude": "-90.12167637435167",
    "latitude": "29.946028834804604",
    "geocoded_column": {
      "latitude": "29.946028834804604",
      "longitude": "-90.12167637435167"
    }
  },
  {
    "service_request": "2026-1289975",
    "request_type": "Roads and Streets",
    "request_reason": "Debris in Driving Lanes",
    "date_created": "2026-06-11T23:38:11.000",
    "date_modified": "2026-06-11T23:38:12.000",
    "request_status": "Pending",
    "responsible_agency": "Department of Public Works",
    "final_address": "4036 Vincennes Pl",
    "address_councildis": "B",
    "status": "Pending",
    "rowid": "1289975",
    "final_x": "3668489.82196",
    "final_y": "530433.051714",
    "longitude": "-90.10918857869278",
    "latitude": "29.952895538946752",
    "geocoded_column": {
      "latitude": "29.952895538946752",
      "longitude": "-90.10918857869278"
    }
  },
  {
    "service_request": "2026-1289974",
    "request_type": "Trash/Recycling",
    "request_reason": "Missed Trash Pick-Up",
    "date_created": "2026-06-11T23:37:15.000",
    "date_modified": "2026-06-11T23:37:17.000",
    "request_status": "Pending",
    "responsible_agency": "Department of Sanitation",
    "final_address": "2447 N Tonti St",
    "address_councildis": "D",
    "status": "Assigned to Contractor",
    "contractor": "IV Waste",
    "rowid": "1289974",
    "final_x": "3686292.96738",
    "final_y": "540889.536331",
    "longitude": "-90.05260520569067",
    "latitude": "29.981112249996357",
    "geocoded_column": {
      "latitude": "29.981112249996357",
      "longitude": "-90.05260520569067"
    }
  },
  {
    "service_request": "2026-1289973",
    "request_type": "Property Maintenance",
    "request_reason": "Property Maintenance",
    "date_created": "2026-06-11T23:35:53.000",
    "date_modified": "2026-06-11T23:35:56.000",
    "request_status": "Pending",
    "responsible_agency": "Department of Code Enforcement",
    "final_address": "4933 Feliciana Dr",
    "address_councildis": "D",
    "status": "Pending",
    "rowid": "1289973",
    "final_x": "3690093.90153",
    "final_y": "551651.393429",
    "longitude": "-90.04021658699979",
    "latitude": "30.010586092687767",
    "geocoded_column": {
      "latitude": "30.010586092687767",
      "longitude": "-90.04021658699979"
    }
  },
  {
    "service_request": "2026-1289972",
    "request_type": "Trash/Recycling",
    "request_reason": "Replace Trash Cart",
    "date_created": "2026-06-11T23:22:33.000",
    "date_modified": "2026-06-11T23:22:35.000",
    "request_status": "Pending",
    "responsible_agency": "Department of Sanitation",
    "final_address": "9114 Fig St",
    "address_councildis": "A",
    "status": "Assigned to Contractor",
    "contractor": "IV Waste",
    "rowid": "1289972",
    "final_x": "3663578.06752",
    "final_y": "535575.614854",
    "longitude": "-90.12452649535052",
    "latitude": "29.967179282460148",
    "geocoded_column": {
      "latitude": "29.967179282460148",
      "longitude": "-90.12452649535052"
    }
  },
  {
    "service_request": "2026-1289971",
    "request_type": "Utility Poles",
    "request_reason": "Wires Sagging/Hanging Low",
    "date_created": "2026-06-11T23:10:43.000",
    "date_modified": "2026-06-11T23:10:47.000",
    "request_status": "Pending",
    "responsible_agency": "Utility Company Collective",
    "final_address": "5934 Colbert St",
    "address_councildis": "A",
    "status": "Pending",
    "rowid": "1289971",
    "final_x": "3667329.23969",
    "final_y": "547008.273809",
    "longitude": "-90.11229547700822",
    "latitude": "29.998505881913893",
    "geocoded_column": {
      "latitude": "29.998505881913893",
      "longitude": "-90.11229547700822"
    }
  },
  {
    "service_request": "2026-1289970",
    "request_type": "Trash/Recycling",
    "request_reason": "Request a Large Item Pick Up",
    "date_created": "2026-06-11T23:07:58.000",
    "date_modified": "2026-06-11T23:07:59.000",
    "request_status": "Pending",
    "responsible_agency": "Department of Sanitation",
    "final_address": "1014 Odeon St",
    "address_councildis": "C",
    "status": "Assigned to Contractor",
    "contractor": "Richards Disposal",
    "rowid": "1289970",
    "final_x": "3696092.28067",
    "final_y": "527661.295871",
    "longitude": "-90.0221328198273",
    "latitude": "29.94443447076915",
    "geocoded_column": {
      "latitude": "29.94443447076915",
      "longitude": "-90.0221328198273"
    }
  },
  {
    "service_request": "2026-1289969",
    "request_type": "Trash/Recycling",
    "request_reason": "Request a Large Item Pick Up",
    "date_created": "2026-06-11T23:03:52.000",
    "date_modified": "2026-06-11T23:03:54.000",
    "request_status": "Pending",
    "responsible_agency": "Department of Sanitation",
    "final_address": "4646 Bonita Dr",
    "address_councildis": "E",
    "status": "Assigned to Contractor",
    "contractor": "Waste Pro",
    "rowid": "1289969",
    "final_x": "3704488.65585",
    "final_y": "554696.094936",
    "longitude": "-89.99462600448722",
    "latitude": "30.01850332498633",
    "geocoded_column": {
      "latitude": "30.01850332498633",
      "longitude": "-89.99462600448722"
    }
  },
  {
    "service_request": "2026-1289968",
    "request_type": "Drainage",
    "request_reason": "Catch Basin Not Draining",
    "date_created": "2026-06-11T22:40:30.000",
    "date_modified": "2026-06-11T22:40:32.000",
    "request_status": "Pending",
    "responsible_agency": "Sewerage & Water Board",
    "final_address": "1900 BLK S Salcedo St",
    "address_councildis": "B",
    "status": "Pending",
    "rowid": "1289968",
    "final_x": "3669748.44492",
    "final_y": "529773.735516",
    "longitude": "-90.10523670570136",
    "latitude": "29.951045602700855",
    "geocoded_column": {
      "latitude": "29.951045602700855",
      "longitude": "-90.10523670570136"
    }
  },
  {
    "service_request": "2026-1289967",
    "request_type": "Health Related Request",
    "request_reason": "Noise Ordinance Complaint",
    "date_created": "2026-06-11T22:37:49.000",
    "date_modified": "2026-06-11T22:37:50.000",
    "request_status": "Pending",
    "responsible_agency": "Health Department",
    "final_address": "801 Bourbon St, New Orleans, Louisiana, 70116",
    "address_councildis": "C",
    "status": "Pending",
    "rowid": "1289967",
    "final_x": "3682490.98735",
    "final_y": "533018.672772",
    "longitude": "-90.06488875731978",
    "latitude": "29.959586396383013",
    "geocoded_column": {
      "latitude": "29.959586396383013",
      "longitude": "-90.06488875731978"
    }
  },
  {
    "service_request": "2026-1289966",
    "request_type": "Health Related Request",
    "request_reason": "Noise Ordinance Complaint",
    "date_created": "2026-06-11T22:27:16.000",
    "date_modified": "2026-06-11T22:27:17.000",
    "request_status": "Pending",
    "responsible_agency": "Health Department",
    "final_address": "801 Bourbon St, New Orleans, Louisiana, 70116",
    "address_councildis": "C",
    "status": "Pending",
    "rowid": "1289966",
    "final_x": "3682490.98735",
    "final_y": "533018.672772",
    "longitude": "-90.06488875731978",
    "latitude": "29.959586396383013",
    "geocoded_column": {
      "latitude": "29.959586396383013",
      "longitude": "-90.06488875731978"
    }
  },
  {
    "service_request": "2026-1289965",
    "request_type": "Streetlights",
    "request_reason": "Streetlight Outage/Malfunction",
    "date_created": "2026-06-11T22:25:37.000",
    "date_modified": "2026-06-11T22:25:39.000",
    "request_status": "Pending",
    "responsible_agency": "Department of Public Works",
    "final_address": "4835 Savoie Ct",
    "address_councildis": "E",
    "status": "Pending",
    "rowid": "1289965",
    "final_x": "3725401.04588",
    "final_y": "561060.855006",
    "longitude": "-89.9283048742019",
    "latitude": "30.035315445745375",
    "geocoded_column": {
      "latitude": "30.035315445745375",
      "longitude": "-89.9283048742019"
    }
  },
  {
    "service_request": "2026-1289964",
    "request_type": "Trash/Recycling",
    "request_reason": "Replace Trash Cart",
    "date_created": "2026-06-11T22:01:10.000",
    "date_modified": "2026-06-11T22:01:11.000",
    "request_status": "Pending",
    "responsible_agency": "Department of Sanitation",
    "final_address": "7903 Birch St",
    "address_councildis": "A",
    "status": "Assigned to Contractor",
    "contractor": "IV Waste",
    "rowid": "1289964",
    "final_x": "3663478.80346",
    "final_y": "528951.967872",
    "longitude": "-90.12506054657334",
    "latitude": "29.94896928725943",
    "geocoded_column": {
      "latitude": "29.94896928725943",
      "longitude": "-90.12506054657334"
    }
  },
  {
    "service_request": "2026-1289963",
    "request_type": "Trash/Recycling",
    "request_reason": "Repair Trash Cart",
    "date_created": "2026-06-11T21:57:49.000",
    "date_modified": "2026-06-11T21:57:51.000",
    "request_status": "Pending",
    "responsible_agency": "Department of Sanitation",
    "final_address": "2518 Cambronne St",
    "address_councildis": "A",
    "status": "Assigned to Contractor",
    "contractor": "IV Waste",
    "rowid": "1289963",
    "final_x": "3664403.81344",
    "final_y": "532709.31706",
    "longitude": "-90.1220144609969",
    "latitude": "29.959273925093775",
    "geocoded_column": {
      "latitude": "29.959273925093775",
      "longitude": "-90.1220144609969"
    }
  },
  {
    "service_request": "2026-1289962",
    "request_type": "Road Striping",
    "request_reason": "School Zone",
    "date_created": "2026-06-11T21:55:41.000",
    "date_modified": "2026-06-11T21:55:43.000",
    "request_status": "Pending",
    "responsible_agency": "Department of Public Works",
    "final_address": "4900 Press Dr",
    "address_councildis": "D",
    "status": "Pending",
    "rowid": "1289962",
    "final_x": "3689418.15734",
    "final_y": "551342.994325",
    "longitude": "-90.04236249328909",
    "latitude": "30.009759060024834",
    "geocoded_column": {
      "latitude": "30.009759060024834",
      "longitude": "-90.04236249328909"
    }
  },
  {
    "service_request": "2026-1289961",
    "request_type": "General Services",
    "request_reason": "General Service Request",
    "date_created": "2026-06-11T21:41:02.000",
    "date_modified": "2026-06-11T21:41:04.000",
    "request_status": "Pending",
    "responsible_agency": "Orleans Parish Communication District",
    "final_address": "2400 Upperline St",
    "address_councildis": "B",
    "status": "Pending",
    "rowid": "1289961",
    "final_x": "3669124.30516",
    "final_y": "523646.448251",
    "longitude": "-90.10741442247132",
    "latitude": "29.93421592720864",
    "geocoded_column": {
      "latitude": "29.93421592720864",
      "longitude": "-90.10741442247132"
    }
  },
  {
    "service_request": "2026-1289960",
    "request_type": "Roads and Streets",
    "request_reason": "Curb Damage",
    "date_created": "2026-06-11T21:28:21.000",
    "date_modified": "2026-06-11T21:28:22.000",
    "request_status": "Pending",
    "responsible_agency": "Department of Public Works",
    "final_address": "6382 Marshal Foch St",
    "address_councildis": "A",
    "status": "Pending",
    "rowid": "1289960",
    "final_x": "3669988.11252",
    "final_y": "549889.824212",
    "longitude": "-90.10379839376348",
    "latitude": "30.00635096582553",
    "geocoded_column": {
      "latitude": "30.00635096582553",
      "longitude": "-90.10379839376348"
    }
  },
  {
    "service_request": "2026-1289959",
    "request_type": "Trash/Recycling",
    "request_reason": "Repair Recycling Cart",
    "date_created": "2026-06-11T21:26:59.000",
    "date_modified": "2026-06-11T21:27:00.000",
    "request_status": "Pending",
    "responsible_agency": "Department of Sanitation",
    "final_address": "6382 Marshal Foch St",
    "address_councildis": "A",
    "status": "Pending",
    "rowid": "1289959",
    "final_x": "3669988.11252",
    "final_y": "549889.824212",
    "longitude": "-90.10379839376348",
    "latitude": "30.00635096582553",
    "geocoded_column": {
      "latitude": "30.00635096582553",
      "longitude": "-90.10379839376348"
    }
  },
  {
    "service_request": "2026-1289958",
    "request_type": "Trash/Recycling",
    "request_reason": "Repair Trash Cart",
    "date_created": "2026-06-11T21:25:54.000",
    "date_modified": "2026-06-11T21:25:59.000",
    "request_status": "Pending",
    "responsible_agency": "Department of Sanitation",
    "final_address": "5132 Bayouview Ct, New Orleans, Louisiana, 70126",
    "address_councildis": "E",
    "status": "Assigned to Contractor",
    "contractor": "Waste Pro",
    "rowid": "1289958",
    "final_x": "3699087.31133",
    "final_y": "556286.274714",
    "longitude": "-90.01163422023562",
    "latitude": "30.023048122805662",
    "geocoded_column": {
      "latitude": "30.023048122805662",
      "longitude": "-90.01163422023562"
    }
  },
  {
    "service_request": "2026-1289957",
    "request_type": "Trash/Recycling",
    "request_reason": "Request a Large Item Pick Up",
    "date_created": "2026-06-11T21:11:20.000",
    "date_modified": "2026-06-11T21:11:22.000",
    "request_status": "Pending",
    "responsible_agency": "Department of Sanitation",
    "final_address": "4711 Congress Dr",
    "address_councildis": "D",
    "status": "Assigned to Contractor",
    "contractor": "IV Waste",
    "rowid": "1289957",
    "final_x": "3692446.18518",
    "final_y": "551557.824917",
    "longitude": "-90.03278820529499",
    "latitude": "30.01025561164304",
    "geocoded_column": {
      "latitude": "30.01025561164304",
      "longitude": "-90.03278820529499"
    }
  },
  {
    "service_request": "2026-1289956",
    "request_type": "Trash/Recycling",
    "request_reason": "Replace Trash Cart",
    "date_created": "2026-06-11T21:03:45.000",
    "date_modified": "2026-06-11T21:03:46.000",
    "request_status": "Pending",
    "responsible_agency": "Department of Sanitation",
    "final_address": "1722 N Gayoso St",
    "address_councildis": "D",
    "status": "Assigned to Contractor",
    "contractor": "IV Waste",
    "rowid": "1289956",
    "final_x": "3678808.1787",
    "final_y": "541523.150988",
    "longitude": "-90.07622358854084",
    "latitude": "29.98308238011368",
    "geocoded_column": {
      "latitude": "29.98308238011368",
      "longitude": "-90.07622358854084"
    }
  },
  {
    "service_request": "2026-1289955",
    "request_type": "Trash/Recycling",
    "request_reason": "Order Recycling Cart",
    "date_created": "2026-06-11T20:47:52.000",
    "date_modified": "2026-06-11T20:47:54.000",
    "request_status": "Pending",
    "responsible_agency": "Department of Sanitation",
    "final_address": "1124 Kentucky St",
    "address_councildis": "D",
    "status": "Pending",
    "rowid": "1289955",
    "final_x": "3693366.79235",
    "final_y": "535247.764422",
    "longitude": "-90.03046558753273",
    "latitude": "29.965380087298602",
    "geocoded_column": {
      "latitude": "29.965380087298602",
      "longitude": "-90.03046558753273"
    }
  },
  {
    "service_request": "2026-1289954",
    "request_type": "Trash/Recycling",
    "request_reason": "Missed Trash Pick-Up",
    "date_created": "2026-06-11T20:36:59.000",
    "date_modified": "2026-06-11T20:37:00.000",
    "request_status": "Pending",
    "responsible_agency": "Department of Sanitation",
    "final_address": "1607 Pauline St, New Orleans, Louisiana, 70117",
    "address_councildis": "D",
    "status": "Assigned to Contractor",
    "contractor": "IV Waste",
    "rowid": "1289954",
    "final_x": "3691729.08118",
    "final_y": "537387.940424",
    "longitude": "-90.03556083483402",
    "latitude": "29.971315917279924",
    "geocoded_column": {
      "latitude": "29.971315917279924",
      "longitude": "-90.03556083483402"
    }
  },
  {
    "service_request": "2026-1289953",
    "request_type": "Trash/Recycling",
    "request_reason": "Order Recycling Cart",
    "date_created": "2026-06-11T20:27:03.000",
    "date_modified": "2026-06-11T20:27:06.000",
    "request_status": "Pending",
    "responsible_agency": "Department of Sanitation",
    "final_address": "6059 Argonne Blvd",
    "address_councildis": "A",
    "status": "Pending",
    "rowid": "1289953",
    "final_x": "3670241.41383",
    "final_y": "547550.52661",
    "longitude": "-90.10307749842531",
    "latitude": "29.999911237774473",
    "geocoded_column": {
      "latitude": "29.999911237774473",
      "longitude": "-90.10307749842531"
    }
  },
  {
    "service_request": "2026-1289952",
    "request_type": "Tree Service",
    "request_reason": "Dead or Dying Tree",
    "date_created": "2026-06-11T20:08:46.000",
    "date_modified": "2026-06-11T20:08:47.000",
    "request_status": "Pending",
    "responsible_agency": "Department of Parks & Parkways",
    "final_address": "1477 Westbrook Dr",
    "address_councildis": "D",
    "status": "Pending",
    "rowid": "1289952",
    "final_x": "3678465.55861",
    "final_y": "549545.453523",
    "longitude": "-90.07702794561139",
    "latitude": "30.00515121949572",
    "geocoded_column": {
      "latitude": "30.00515121949572",
      "longitude": "-90.07702794561139"
    }
  },
  {
    "service_request": "2026-1289951",
    "request_type": "Trash/Recycling",
    "request_reason": "Repair Trash Cart",
    "date_created": "2026-06-11T20:06:19.000",
    "date_modified": "2026-06-11T20:06:38.000",
    "request_status": "Pending",
    "responsible_agency": "Department of Sanitation",
    "final_address": "2428 Valmont St",
    "address_councildis": "B",
    "status": "Assigned to Contractor",
    "contractor": "IV Waste",
    "rowid": "1289951",
    "final_x": "3668220.16698",
    "final_y": "524545.053308",
    "longitude": "-90.11023848461471",
    "latitude": "29.93671337028804",
    "geocoded_column": {
      "latitude": "29.93671337028804",
      "longitude": "-90.11023848461471"
    }
  },
  {
    "service_request": "2026-1289950",
    "request_type": "General Services",
    "request_reason": "General Service Request",
    "date_created": "2026-06-11T19:09:07.000",
    "date_modified": "2026-06-11T19:09:10.000",
    "request_status": "Pending",
    "responsible_agency": "Orleans Parish Communication District",
    "final_address": "4800 America St",
    "address_councildis": "E",
    "status": "Pending",
    "rowid": "1289950",
    "final_x": "3699703.06512",
    "final_y": "554780.431576",
    "longitude": "-90.00974354913437",
    "latitude": "30.018888084952803",
    "geocoded_column": {
      "latitude": "30.018888084952803",
      "longitude": "-90.00974354913437"
    }
  },
  {
    "service_request": "2026-1289949",
    "request_type": "Trash/Recycling",
    "request_reason": "Replace Trash Cart",
    "date_created": "2026-06-11T19:04:37.000",
    "date_modified": "2026-06-11T19:04:39.000",
    "request_status": "Pending",
    "responsible_agency": "Department of Sanitation",
    "final_address": "2371 Annunciation St",
    "address_councildis": "B",
    "status": "Assigned to Contractor",
    "contractor": "IV Waste",
    "rowid": "1289949",
    "final_x": "3678742.49832",
    "final_y": "520661.781049",
    "longitude": "-90.07715340015527",
    "latitude": "29.925722613390786",
    "geocoded_column": {
      "latitude": "29.925722613390786",
      "longitude": "-90.07715340015527"
    }
  },
  {
    "service_request": "2026-1289948",
    "request_type": "Trash/Recycling",
    "request_reason": "Replace Recycling Cart",
    "date_created": "2026-06-11T19:03:10.000",
    "date_modified": "2026-06-11T19:03:12.000",
    "request_status": "Pending",
    "responsible_agency": "Department of Sanitation",
    "final_address": "2371 Annunciation St",
    "address_councildis": "B",
    "status": "Pending",
    "rowid": "1289948",
    "final_x": "3678742.49832",
    "final_y": "520661.781049",
    "longitude": "-90.07715340015527",
    "latitude": "29.925722613390786",
    "geocoded_column": {
      "latitude": "29.925722613390786",
      "longitude": "-90.07715340015527"
    }
  },
  {
    "service_request": "2026-1289947",
    "request_type": "Roads and Streets",
    "request_reason": "Push-up/Pavement Expansion",
    "date_created": "2026-06-11T19:01:36.000",
    "date_modified": "2026-06-11T19:01:38.000",
    "request_status": "Pending",
    "responsible_agency": "Department of Public Works",
    "final_address": "500 Opelousas Ave",
    "address_councildis": "C",
    "status": "Pending",
    "rowid": "1289947",
    "final_x": "3687112.10754",
    "final_y": "529177.148288",
    "longitude": "-90.05043217723966",
    "latitude": "29.948882052816852",
    "geocoded_column": {
      "latitude": "29.948882052816852",
      "longitude": "-90.05043217723966"
    }
  },
  {
    "service_request": "2026-1289946",
    "request_type": "Roads and Streets",
    "request_reason": "Sidewalk Damaged or Missing",
    "date_created": "2026-06-11T18:55:51.000",
    "date_modified": "2026-06-11T18:55:52.000",
    "request_status": "Pending",
    "responsible_agency": "Department of Public Works",
    "final_address": "41 Fontainebleau Dr",
    "address_councildis": "A",
    "status": "Pending",
    "rowid": "1289946",
    "final_x": "3666195.85434",
    "final_y": "531424.407235",
    "longitude": "-90.11639869683647",
    "latitude": "29.955688630991432",
    "geocoded_column": {
      "latitude": "29.955688630991432",
      "longitude": "-90.11639869683647"
    }
  },
  {
    "service_request": "2026-1289945",
    "request_type": "Streetlights",
    "request_reason": "Streetlight Outage/Malfunction",
    "date_created": "2026-06-11T18:55:05.000",
    "date_modified": "2026-06-11T18:55:07.000",
    "request_status": "Pending",
    "responsible_agency": "Department of Public Works",
    "final_address": "4423 Baccich St",
    "address_councildis": "D",
    "status": "Pending",
    "rowid": "1289945",
    "final_x": "3687887.95497",
    "final_y": "549100.819091",
    "longitude": "-90.0472764440152",
    "latitude": "30.00364121243085",
    "geocoded_column": {
      "latitude": "30.00364121243085",
      "longitude": "-90.0472764440152"
    }
  },
  {
    "service_request": "2026-1289944",
    "request_type": "Trash/Recycling",
    "request_reason": "Replace Trash Cart",
    "date_created": "2026-06-11T18:29:05.000",
    "date_modified": "2026-06-11T18:29:06.000",
    "request_status": "Pending",
    "responsible_agency": "Department of Sanitation",
    "final_address": "4117 Danneel St",
    "address_councildis": "B",
    "status": "Assigned to Contractor",
    "contractor": "IV Waste",
    "rowid": "1289944",
    "final_x": "3671609.51182",
    "final_y": "522428.228474",
    "longitude": "-90.09961009834358",
    "latitude": "29.930792870776393",
    "geocoded_column": {
      "latitude": "29.930792870776393",
      "longitude": "-90.09961009834358"
    }
  },
  {
    "service_request": "2026-1289943",
    "request_type": "Tree Service",
    "request_reason": "Tree Trim",
    "date_created": "2026-06-11T18:26:43.000",
    "date_modified": "2026-06-11T18:26:46.000",
    "request_status": "Pending",
    "responsible_agency": "Department of Parks & Parkways",
    "final_address": "1911 Horace St",
    "address_councildis": "C",
    "status": "Pending",
    "rowid": "1289943",
    "final_x": "3696206.67472",
    "final_y": "524144.387708",
    "longitude": "-90.02189873238983",
    "latitude": "29.93476058897826",
    "geocoded_column": {
      "latitude": "29.93476058897826",
      "longitude": "-90.02189873238983"
    }
  },
  {
    "service_request": "2026-1289942",
    "request_type": "Abandoned Vehicles",
    "request_reason": "Abandoned/Junk Vehicles",
    "date_created": "2026-06-11T18:11:58.000",
    "date_modified": "2026-06-11T18:12:00.000",
    "request_status": "Pending",
    "responsible_agency": "Department of Public Works",
    "final_address": "1437 St Mary St",
    "address_councildis": "B",
    "status": "Pending",
    "rowid": "1289942",
    "final_x": "3678886.61461",
    "final_y": "523808.468923",
    "longitude": "-90.07658952298718",
    "latitude": "29.93437062963516",
    "geocoded_column": {
      "latitude": "29.93437062963516",
      "longitude": "-90.07658952298718"
    }
  },
  {
    "service_request": "2026-1289941",
    "request_type": "Drainage",
    "request_reason": "Ditch and Culvert Maintenance",
    "date_created": "2026-06-11T18:09:03.000",
    "date_modified": "2026-06-11T18:09:04.000",
    "request_status": "Pending",
    "responsible_agency": "Department of Public Works",
    "final_address": "2230 S Lopez St",
    "address_councildis": "B",
    "status": "Pending",
    "rowid": "1289941",
    "final_x": "3669015.02798",
    "final_y": "528947.394816",
    "longitude": "-90.1075803874844",
    "latitude": "29.948795029559555",
    "geocoded_column": {
      "latitude": "29.948795029559555",
      "longitude": "-90.1075803874844"
    }
  },
  {
    "service_request": "2026-1289940",
    "request_type": "Trash/Recycling",
    "request_reason": "Order Trash Cart",
    "date_created": "2026-06-11T18:06:13.000",
    "date_modified": "2026-06-11T18:06:21.000",
    "request_status": "Pending",
    "responsible_agency": "Department of Sanitation",
    "final_address": "4835 Savoie Ct",
    "address_councildis": "E",
    "status": "Assigned to Contractor",
    "contractor": "Waste Pro",
    "rowid": "1289940",
    "final_x": "3725401.04588",
    "final_y": "561060.855006",
    "longitude": "-89.9283048742019",
    "latitude": "30.035315445745375",
    "geocoded_column": {
      "latitude": "30.035315445745375",
      "longitude": "-89.9283048742019"
    }
  },
  {
    "service_request": "2026-1289939",
    "request_type": "Trash/Recycling",
    "request_reason": "Damaged Caused By Contractor",
    "date_created": "2026-06-11T18:03:19.000",
    "date_modified": "2026-06-11T18:03:22.000",
    "request_status": "Pending",
    "responsible_agency": "Department of Sanitation",
    "final_address": "117 12Th St",
    "address_councildis": "A",
    "status": "Assigned to Contractor",
    "contractor": "IV Waste",
    "rowid": "1289939",
    "final_x": "3665927.10317",
    "final_y": "547842.678738",
    "longitude": "-90.1166968582282",
    "latitude": "30.000841217855484",
    "geocoded_column": {
      "latitude": "30.000841217855484",
      "longitude": "-90.1166968582282"
    }
  },
  {
    "service_request": "2026-1289938",
    "request_type": "Trash/Recycling",
    "request_reason": "Request a Large Item Pick Up",
    "date_created": "2026-06-11T18:00:53.000",
    "date_modified": "2026-06-11T18:00:55.000",
    "request_status": "Pending",
    "responsible_agency": "Department of Sanitation",
    "final_address": "7101 Parkside Ct",
    "address_councildis": "E",
    "status": "Assigned to Contractor",
    "contractor": "Waste Pro",
    "rowid": "1289938",
    "final_x": "3704693.77105",
    "final_y": "559940.548893",
    "longitude": "-89.99378420229756",
    "latitude": "30.03291694735075",
    "geocoded_column": {
      "latitude": "30.03291694735075",
      "longitude": "-89.99378420229756"
    }
  },
  {
    "service_request": "2026-1289937",
    "request_type": "Property Maintenance",
    "request_reason": "Property Maintenance",
    "date_created": "2026-06-11T17:53:18.000",
    "date_modified": "2026-06-11T17:53:20.000",
    "request_status": "Pending",
    "responsible_agency": "Department of Code Enforcement",
    "final_address": "207 N Murat St",
    "address_councildis": "A",
    "status": "Pending",
    "rowid": "1289937",
    "final_x": "3669936.22446",
    "final_y": "539859.729034",
    "longitude": "-90.1043022035783",
    "latitude": "29.97877318877787",
    "geocoded_column": {
      "latitude": "29.97877318877787",
      "longitude": "-90.1043022035783"
    }
  },
  {
    "service_request": "2026-1289936",
    "request_type": "Mosquito, Termite & Rodent Control",
    "request_reason": "Mosquito Complaint",
    "date_created": "2026-06-11T17:49:32.000",
    "date_modified": "2026-06-11T17:49:35.000",
    "request_status": "Pending",
    "responsible_agency": "Mosquito, Termite & Rodent Control Board",
    "final_address": "5533 Charlotte Dr",
    "address_councildis": "D",
    "status": "Pending",
    "rowid": "1289936",
    "final_x": "3680121.53467",
    "final_y": "552893.970967",
    "longitude": "-90.07167988904986",
    "latitude": "30.014308410159437",
    "geocoded_column": {
      "latitude": "30.014308410159437",
      "longitude": "-90.07167988904986"
    }
  },
  {
    "service_request": "2026-1289935",
    "request_type": "Trash/Recycling",
    "request_reason": "Replace Trash Cart",
    "date_created": "2026-06-11T17:41:48.000",
    "date_modified": "2026-06-11T17:41:50.000",
    "request_status": "Pending",
    "responsible_agency": "Department of Sanitation",
    "final_address": "5613 Franklin Ave",
    "address_councildis": "D",
    "status": "Assigned to Contractor",
    "contractor": "IV Waste",
    "rowid": "1289935",
    "final_x": "3686625.6422",
    "final_y": "553769.773399",
    "longitude": "-90.05109923072348",
    "latitude": "30.01651802587917",
    "geocoded_column": {
      "latitude": "30.01651802587917",
      "longitude": "-90.05109923072348"
    }
  },
  {
    "service_request": "2026-1289934",
    "request_type": "Trash/Recycling",
    "request_reason": "Replace Recycling Cart",
    "date_created": "2026-06-11T17:29:51.000",
    "date_modified": "2026-06-11T17:29:53.000",
    "request_status": "Pending",
    "responsible_agency": "Department of Sanitation",
    "final_address": "1300 BLK Seventh St",
    "address_councildis": "B",
    "status": "Pending",
    "rowid": "1289934",
    "final_x": "3675881.75712",
    "final_y": "521115.104867",
    "longitude": "-90.08616833010578",
    "latitude": "29.927055032996314",
    "geocoded_column": {
      "latitude": "29.927055032996314",
      "longitude": "-90.08616833010578"
    }
  },
  {
    "service_request": "2026-1289933",
    "request_type": "Graffiti Removal",
    "request_reason": "Graffiti Removal",
    "date_created": "2026-06-11T17:27:29.000",
    "date_modified": "2026-06-11T17:27:31.000",
    "request_status": "Pending",
    "responsible_agency": "Department of Code Enforcement",
    "final_address": "5800 BLK Saint Charles Ave",
    "address_councildis": "A",
    "status": "Pending",
    "rowid": "1289933",
    "final_x": "3666151.89207",
    "final_y": "522251.030089",
    "longitude": "-90.11684503726346",
    "latitude": "29.930466079720876",
    "geocoded_column": {
      "latitude": "29.930466079720876",
      "longitude": "-90.11684503726346"
    }
  },
  {
    "service_request": "2026-1289932",
    "request_type": "Graffiti Removal",
    "request_reason": "Graffiti Removal",
    "date_created": "2026-06-11T17:24:12.000",
    "date_modified": "2026-06-11T17:24:14.000",
    "request_status": "Pending",
    "responsible_agency": "Department of Code Enforcement",
    "final_address": "4317 Magazine St",
    "address_councildis": "B",
    "status": "Pending",
    "rowid": "1289932",
    "final_x": "3671305.51841",
    "final_y": "518875.527223",
    "longitude": "-90.10069041477877",
    "latitude": "29.921033074561752",
    "geocoded_column": {
      "latitude": "29.921033074561752",
      "longitude": "-90.10069041477877"
    }
  },
  {
    "service_request": "2026-1289931",
    "request_type": "Trash/Recycling",
    "request_reason": "Replace Recycling Cart",
    "date_created": "2026-06-11T17:16:27.000",
    "date_modified": "2026-06-11T17:16:28.000",
    "request_status": "Pending",
    "responsible_agency": "Department of Sanitation",
    "final_address": "3530 Octavia St",
    "address_councildis": "B",
    "status": "Pending",
    "rowid": "1289931",
    "final_x": "3668536.54983",
    "final_y": "528598.653696",
    "longitude": "-90.10910291712733",
    "latitude": "29.947850170504555",
    "geocoded_column": {
      "latitude": "29.947850170504555",
      "longitude": "-90.10910291712733"
    }
  },
  {
    "service_request": "2026-1289930",
    "request_type": "Trash/Recycling",
    "request_reason": "Replace Trash Cart",
    "date_created": "2026-06-11T17:14:39.000",
    "date_modified": "2026-06-11T17:14:41.000",
    "request_status": "Pending",
    "responsible_agency": "Department of Sanitation",
    "final_address": "2228 Fourth St",
    "address_councildis": "B",
    "status": "Assigned to Contractor",
    "contractor": "IV Waste",
    "rowid": "1289930",
    "final_x": "3674840.80744",
    "final_y": "524679.62406",
    "longitude": "-90.08933218001617",
    "latitude": "29.936887415816496",
    "geocoded_column": {
      "latitude": "29.936887415816496",
      "longitude": "-90.08933218001617"
    }
  },
  {
    "service_request": "2026-1289929",
    "request_type": "Trash/Recycling",
    "request_reason": "Replace Trash Cart",
    "date_created": "2026-06-11T17:10:54.000",
    "date_modified": "2026-06-11T17:10:56.000",
    "request_status": "Pending",
    "responsible_agency": "Department of Sanitation",
    "final_address": "3152 Toulouse St",
    "address_councildis": "A",
    "status": "Assigned to Contractor",
    "contractor": "IV Waste",
    "rowid": "1289929",
    "final_x": "3674843.28725",
    "final_y": "537732.60852",
    "longitude": "-90.08887679530498",
    "latitude": "29.972778697855553",
    "geocoded_column": {
      "latitude": "29.972778697855553",
      "longitude": "-90.08887679530498"
    }
  },
  {
    "service_request": "2026-1289928",
    "request_type": "Trash/Recycling",
    "request_reason": "Request a Large Item Pick Up",
    "date_created": "2026-06-11T16:57:32.000",
    "date_modified": "2026-06-11T16:57:34.000",
    "request_status": "Pending",
    "responsible_agency": "Department of Sanitation",
    "final_address": "3438 St Ferdinand St",
    "address_councildis": "D",
    "status": "Assigned to Contractor",
    "contractor": "IV Waste",
    "rowid": "1289928",
    "final_x": "3689966.4584",
    "final_y": "545737.439248",
    "longitude": "-90.04082998709492",
    "latitude": "29.994328832377935",
    "geocoded_column": {
      "latitude": "29.994328832377935",
      "longitude": "-90.04082998709492"
    }
  },
  {
    "service_request": "2026-1289927",
    "request_type": "Trash/Recycling",
    "request_reason": "Request a Large Item Pick Up",
    "date_created": "2026-06-11T16:54:21.000",
    "date_modified": "2026-06-11T16:54:23.000",
    "request_status": "Pending",
    "responsible_agency": "Department of Sanitation",
    "final_address": "8722 Hickory St",
    "address_councildis": "A",
    "status": "Assigned to Contractor",
    "contractor": "IV Waste",
    "rowid": "1289927",
    "final_x": "3661634.41203",
    "final_y": "531466.736899",
    "longitude": "-90.13080078909681",
    "latitude": "29.95593744207061",
    "geocoded_column": {
      "latitude": "29.95593744207061",
      "longitude": "-90.13080078909681"
    }
  },
  {
    "service_request": "2026-1289926",
    "request_type": "Trash/Recycling",
    "request_reason": "Request a Large Item Pick Up",
    "date_created": "2026-06-11T16:52:30.000",
    "date_modified": "2026-06-11T16:52:32.000",
    "request_status": "Pending",
    "responsible_agency": "Department of Sanitation",
    "final_address": "3708 Preston Pl",
    "address_councildis": "C",
    "status": "Assigned to Contractor",
    "contractor": "Richards Disposal",
    "rowid": "1289926",
    "final_x": "3708492.66558",
    "final_y": "517395.232437",
    "longitude": "-89.98336343777682",
    "latitude": "29.915810419512944",
    "geocoded_column": {
      "latitude": "29.915810419512944",
      "longitude": "-89.98336343777682"
    }
  },
  {
    "service_request": "2026-1289925",
    "request_type": "Trash/Recycling",
    "request_reason": "Request a Large Item Pick Up",
    "date_created": "2026-06-11T16:49:14.000",
    "date_modified": "2026-06-11T16:49:16.000",
    "request_status": "Pending",
    "responsible_agency": "Department of Sanitation",
    "final_address": "3630 Huntlee Dr",
    "address_councildis": "C",
    "status": "Assigned to Contractor",
    "contractor": "Richards Disposal",
    "rowid": "1289925",
    "final_x": "3701767.10487",
    "final_y": "517651.793206",
    "longitude": "-90.00458235529516",
    "latitude": "29.91673203659517",
    "geocoded_column": {
      "latitude": "29.91673203659517",
      "longitude": "-90.00458235529516"
    }
  },
  {
    "service_request": "2026-1289924",
    "request_type": "Trash/Recycling",
    "request_reason": "Request a Large Item Pick Up",
    "date_created": "2026-06-11T16:46:47.000",
    "date_modified": "2026-06-11T16:46:49.000",
    "request_status": "Pending",
    "responsible_agency": "Department of Sanitation",
    "final_address": "4600 Kendall Dr",
    "address_councildis": "D",
    "status": "Assigned to Contractor",
    "contractor": "IV Waste",
    "rowid": "1289924",
    "final_x": "3690678.45744",
    "final_y": "550418.432468",
    "longitude": "-90.03841377892871",
    "latitude": "30.00717775238279",
    "geocoded_column": {
      "latitude": "30.00717775238279",
      "longitude": "-90.03841377892871"
    }
  },
  {
    "service_request": "2026-1289923",
    "request_type": "Trash/Recycling",
    "request_reason": "Request a Large Item Pick Up",
    "date_created": "2026-06-11T16:46:27.000",
    "date_modified": "2026-06-11T16:46:29.000",
    "request_status": "Pending",
    "responsible_agency": "Department of Sanitation",
    "final_address": "14060 Linden St",
    "address_councildis": "E",
    "status": "Assigned to Contractor",
    "contractor": "Waste Pro",
    "rowid": "1289923",
    "final_x": "3718618.01753",
    "final_y": "572598.259881",
    "longitude": "-89.94929971902208",
    "latitude": "30.06726550281375",
    "geocoded_column": {
      "latitude": "30.06726550281375",
      "longitude": "-89.94929971902208"
    }
  },
  {
    "service_request": "2026-1289922",
    "request_type": "Trash/Recycling",
    "request_reason": "Request a Large Item Pick Up",
    "date_created": "2026-06-11T16:43:35.000",
    "date_modified": "2026-06-11T16:43:36.000",
    "request_status": "Pending",
    "responsible_agency": "Department of Sanitation",
    "final_address": "84 Egret St",
    "address_councildis": "D",
    "status": "Assigned to Contractor",
    "contractor": "IV Waste",
    "rowid": "1289922",
    "final_x": "3673826.00667",
    "final_y": "555585.244889",
    "longitude": "-90.09147849791945",
    "latitude": "30.021897546842013",
    "geocoded_column": {
      "latitude": "30.021897546842013",
      "longitude": "-90.09147849791945"
    }
  },
  {
    "service_request": "2026-1289921",
    "request_type": "Trash/Recycling",
    "request_reason": "Repair Trash Cart",
    "date_created": "2026-06-11T16:41:51.000",
    "date_modified": "2026-06-11T16:41:53.000",
    "request_status": "Pending",
    "responsible_agency": "Department of Sanitation",
    "final_address": "6634 Pontchartrain Blvd",
    "address_councildis": "A",
    "status": "Assigned to Contractor",
    "contractor": "IV Waste",
    "rowid": "1289921",
    "final_x": "3666285.35873",
    "final_y": "552314.145302",
    "longitude": "-90.11541495476169",
    "latitude": "30.013125733120635",
    "geocoded_column": {
      "latitude": "30.013125733120635",
      "longitude": "-90.11541495476169"
    }
  },
  {
    "service_request": "2026-1289920",
    "request_type": "Abandoned Vehicles",
    "request_reason": "Abandoned/Junk Vehicles",
    "date_created": "2026-06-11T16:37:25.000",
    "date_modified": "2026-06-11T16:37:27.000",
    "request_status": "Pending",
    "responsible_agency": "Department of Public Works",
    "final_address": "1301 Amelia St",
    "address_councildis": "B",
    "status": "Pending",
    "rowid": "1289920",
    "final_x": "3673505.03758",
    "final_y": "519903.41388",
    "longitude": "-90.09371240974926",
    "latitude": "29.923794189193448",
    "geocoded_column": {
      "latitude": "29.923794189193448",
      "longitude": "-90.09371240974926"
    }
  },
  {
    "service_request": "2026-1289919",
    "request_type": "Trash/Recycling",
    "request_reason": "Request a Large Item Pick Up",
    "date_created": "2026-06-11T16:35:14.000",
    "date_modified": "2026-06-11T16:35:16.000",
    "request_status": "Pending",
    "responsible_agency": "Department of Sanitation",
    "final_address": "4237 Tulane Ave",
    "address_councildis": "A",
    "status": "Assigned to Contractor",
    "contractor": "IV Waste",
    "rowid": "1289919",
    "final_x": "3668675.30516",
    "final_y": "536706.842375",
    "longitude": "-90.10839112869526",
    "latitude": "29.97014093755322",
    "geocoded_column": {
      "latitude": "29.97014093755322",
      "longitude": "-90.10839112869526"
    }
  },
  {
    "service_request": "2026-1289918",
    "request_type": "Trash/Recycling",
    "request_reason": "Repair Trash Cart",
    "date_created": "2026-06-11T16:32:31.000",
    "date_modified": "2026-06-11T16:32:32.000",
    "request_status": "Pending",
    "responsible_agency": "Department of Sanitation",
    "final_address": "3205 Chestnut St",
    "address_councildis": "B",
    "status": "Assigned to Contractor",
    "contractor": "IV Waste",
    "rowid": "1289918",
    "final_x": "3675376.71886",
    "final_y": "520667.105017",
    "longitude": "-90.08777797945417",
    "latitude": "29.925838283453107",
    "geocoded_column": {
      "latitude": "29.925838283453107",
      "longitude": "-90.08777797945417"
    }
  },
  {
    "service_request": "2026-1289917",
    "request_type": "Trash/Recycling",
    "request_reason": "Repair Recycling Cart",
    "date_created": "2026-06-11T16:29:48.000",
    "date_modified": "2026-06-11T16:29:50.000",
    "request_status": "Pending",
    "responsible_agency": "Department of Sanitation",
    "final_address": "3205 Chestnut St",
    "address_councildis": "B",
    "status": "Pending",
    "rowid": "1289917",
    "final_x": "3675376.71886",
    "final_y": "520667.105017",
    "longitude": "-90.08777797945417",
    "latitude": "29.925838283453107",
    "geocoded_column": {
      "latitude": "29.925838283453107",
      "longitude": "-90.08777797945417"
    }
  },
  {
    "service_request": "2026-1289916",
    "request_type": "Trash/Recycling",
    "request_reason": "Request a Large Item Pick Up",
    "date_created": "2026-06-11T16:28:50.000",
    "date_modified": "2026-06-11T16:28:52.000",
    "request_status": "Pending",
    "responsible_agency": "Department of Sanitation",
    "final_address": "4572 Eastview Dr",
    "address_councildis": "E",
    "status": "Assigned to Contractor",
    "contractor": "Waste Pro",
    "rowid": "1289916",
    "final_x": "3705160.3171",
    "final_y": "554306.179736",
    "longitude": "-89.99251823364916",
    "latitude": "30.017409614477693",
    "geocoded_column": {
      "latitude": "30.017409614477693",
      "longitude": "-89.99251823364916"
    }
  },
  {
    "service_request": "2026-1289915",
    "request_type": "Trash/Recycling",
    "request_reason": "Request a Large Item Pick Up",
    "date_created": "2026-06-11T16:22:42.000",
    "date_modified": "2026-06-11T16:22:44.000",
    "request_status": "Pending",
    "responsible_agency": "Department of Sanitation",
    "final_address": "2918 Conti St",
    "address_councildis": "B",
    "status": "Assigned to Contractor",
    "contractor": "IV Waste",
    "rowid": "1289915",
    "final_x": "3675164.21441",
    "final_y": "536659.484103",
    "longitude": "-90.0879000831419",
    "latitude": "29.969818382783124",
    "geocoded_column": {
      "latitude": "29.969818382783124",
      "longitude": "-90.0879000831419"
    }
  },
  {
    "service_request": "2026-1289914",
    "request_type": "Trash/Recycling",
    "request_reason": "Request a Large Item Pick Up",
    "date_created": "2026-06-11T16:20:52.000",
    "date_modified": "2026-06-11T16:20:54.000",
    "request_status": "Pending",
    "responsible_agency": "Department of Sanitation",
    "final_address": "7821 W Laverne St",
    "address_councildis": "E",
    "status": "Assigned to Contractor",
    "contractor": "Waste Pro",
    "rowid": "1289914",
    "final_x": "3695017.39024",
    "final_y": "559261.101788",
    "longitude": "-90.02438682960536",
    "latitude": "30.0313562209209",
    "geocoded_column": {
      "latitude": "30.0313562209209",
      "longitude": "-90.02438682960536"
    }
  },
  {
    "service_request": "2026-1289913",
    "request_type": "Trash/Recycling",
    "request_reason": "Request a Large Item Pick Up",
    "date_created": "2026-06-11T16:20:20.000",
    "date_modified": "2026-06-11T16:27:05.000",
    "request_status": "Pending",
    "responsible_agency": "Department of Sanitation",
    "final_address": "5062 Stephen Girard Ave",
    "address_councildis": "D",
    "status": "Assigned to Contractor",
    "contractor": "IV Waste",
    "rowid": "1289913",
    "final_x": "3693075.81936",
    "final_y": "551205.015573",
    "longitude": "-90.03081163495635",
    "latitude": "30.0092658516872",
    "geocoded_column": {
      "latitude": "30.0092658516872",
      "longitude": "-90.03081163495635"
    }
  },
  {
    "service_request": "2026-1289912",
    "request_type": "Trash/Recycling",
    "request_reason": "Request a Large Item Pick Up",
    "date_created": "2026-06-11T16:19:36.000",
    "date_modified": "2026-06-11T16:19:37.000",
    "request_status": "Pending",
    "responsible_agency": "Department of Sanitation",
    "final_address": "7331 Heather Ct",
    "address_councildis": "E",
    "status": "Assigned to Contractor",
    "contractor": "Waste Pro",
    "rowid": "1289912",
    "final_x": "3705631.13054",
    "final_y": "562229.357855",
    "longitude": "-89.99073733710884",
    "latitude": "30.039180106985402",
    "geocoded_column": {
      "latitude": "30.039180106985402",
      "longitude": "-89.99073733710884"
    }
  },
  {
    "service_request": "2026-1289911",
    "request_type": "Street and Traffic Signs",
    "request_reason": "Traffic or Parking Sign Damaged or Missing",
    "date_created": "2026-06-11T16:18:49.000",
    "date_modified": "2026-06-11T16:18:50.000",
    "request_status": "Pending",
    "responsible_agency": "Department of Public Works",
    "final_address": "500 BLK Canal St",
    "address_councildis": "C",
    "status": "Pending",
    "rowid": "1289911",
    "final_x": "3681571.92127",
    "final_y": "530437.72697",
    "longitude": "-90.06788096189312",
    "latitude": "29.952517614495374",
    "geocoded_column": {
      "latitude": "29.952517614495374",
      "longitude": "-90.06788096189312"
    }
  },
  {
    "service_request": "2026-1289910",
    "request_type": "Trash/Recycling",
    "request_reason": "Repair Trash Cart",
    "date_created": "2026-06-11T16:17:22.000",
    "date_modified": "2026-06-11T16:17:24.000",
    "request_status": "Pending",
    "responsible_agency": "Department of Sanitation",
    "final_address": "1904 Bayou Rd",
    "address_councildis": "C",
    "status": "Assigned to Contractor",
    "contractor": "IV Waste",
    "rowid": "1289910",
    "final_x": "3680429.15023",
    "final_y": "536787.025672",
    "longitude": "-90.07126849505669",
    "latitude": "29.970010677440154",
    "geocoded_column": {
      "latitude": "29.970010677440154",
      "longitude": "-90.07126849505669"
    }
  },
  {
    "service_request": "2026-1289909",
    "request_type": "Abandoned Vehicles",
    "request_reason": "Abandoned/Junk Vehicles",
    "date_created": "2026-06-11T16:14:29.000",
    "date_modified": "2026-06-11T16:14:30.000",
    "request_status": "Pending",
    "responsible_agency": "Department of Public Works",
    "final_address": "850 Turquoise St",
    "address_councildis": "D",
    "status": "Pending",
    "rowid": "1289909",
    "final_x": "3670631.30555",
    "final_y": "555063.757849",
    "longitude": "-90.10159066925007",
    "latitude": "30.020558460167482",
    "geocoded_column": {
      "latitude": "30.020558460167482",
      "longitude": "-90.10159066925007"
    }
  },
  {
    "service_request": "2026-1289908",
    "request_type": "Trash/Recycling",
    "request_reason": "Request a Large Item Pick Up",
    "date_created": "2026-06-11T16:13:42.000",
    "date_modified": "2026-06-11T16:13:44.000",
    "request_status": "Pending",
    "responsible_agency": "Department of Sanitation",
    "final_address": "4708 Bonita Dr",
    "address_councildis": "E",
    "status": "Assigned to Contractor",
    "contractor": "Waste Pro",
    "rowid": "1289908",
    "final_x": "3704470.64369",
    "final_y": "555042.767897",
    "longitude": "-89.99467011904031",
    "latitude": "30.019457120811442",
    "geocoded_column": {
      "latitude": "30.019457120811442",
      "longitude": "-89.99467011904031"
    }
  },
  {
    "service_request": "2026-1289907",
    "request_type": "Trash/Recycling",
    "request_reason": "Request a Large Item Pick Up",
    "date_created": "2026-06-11T16:11:45.000",
    "date_modified": "2026-06-11T16:11:46.000",
    "request_status": "Pending",
    "responsible_agency": "Department of Sanitation",
    "final_address": "6318 Orleans Ave",
    "address_councildis": "A",
    "status": "Assigned to Contractor",
    "contractor": "IV Waste",
    "rowid": "1289907",
    "final_x": "3671021.88014",
    "final_y": "549264.561363",
    "longitude": "-90.10055370796458",
    "latitude": "30.004601170559337",
    "geocoded_column": {
      "latitude": "30.004601170559337",
      "longitude": "-90.10055370796458"
    }
  },
  {
    "service_request": "2026-1289906",
    "request_type": "Mosquito, Termite & Rodent Control",
    "request_reason": "Rodent Complaint (Mice & Rats)",
    "date_created": "2026-06-11T16:11:17.000",
    "date_modified": "2026-06-11T16:14:14.000",
    "request_status": "Pending",
    "responsible_agency": "Mosquito, Termite & Rodent Control Board",
    "final_address": "1300 Elysian Fields Ave",
    "address_councildis": "C",
    "status": "Pending",
    "rowid": "1289906",
    "final_x": "3684855.47484",
    "final_y": "537062.585032",
    "longitude": "-90.05728005535073",
    "latitude": "29.97063357367015",
    "geocoded_column": {
      "latitude": "29.97063357367015",
      "longitude": "-90.05728005535073"
    }
  },
  {
    "service_request": "2026-1289905",
    "request_type": "Trash/Recycling",
    "request_reason": "Order Trash Cart",
    "date_created": "2026-06-11T16:06:18.000",
    "date_modified": "2026-06-11T16:06:19.000",
    "request_status": "Pending",
    "responsible_agency": "Department of Sanitation",
    "final_address": "5323 Wilton Dr",
    "address_councildis": "D",
    "status": "Assigned to Contractor",
    "contractor": "IV Waste",
    "rowid": "1289905",
    "final_x": "3681936.53052",
    "final_y": "552792.244566",
    "longitude": "-90.06594896593086",
    "latitude": "30.013973624709145",
    "geocoded_column": {
      "latitude": "30.013973624709145",
      "longitude": "-90.06594896593086"
    }
  },
  {
    "service_request": "2026-1289904",
    "request_type": "Property Maintenance",
    "request_reason": "Property Maintenance",
    "date_created": "2026-06-11T16:06:11.000",
    "date_modified": "2026-06-11T16:06:14.000",
    "request_status": "Pending",
    "responsible_agency": "Department of Code Enforcement",
    "final_address": "4220 Magnolia St",
    "address_councildis": "B",
    "status": "Pending",
    "rowid": "1289904",
    "final_x": "3671035.57595",
    "final_y": "524744.541116",
    "longitude": "-90.10134331659886",
    "latitude": "29.937178963041557",
    "geocoded_column": {
      "latitude": "29.937178963041557",
      "longitude": "-90.10134331659886"
    }
  },
  {
    "service_request": "2026-1289903",
    "request_type": "Trash/Recycling",
    "request_reason": "Request a Large Item Pick Up",
    "date_created": "2026-06-11T16:04:06.000",
    "date_modified": "2026-06-11T16:04:09.000",
    "request_status": "Pending",
    "responsible_agency": "Department of Sanitation",
    "final_address": "4654 Laine Ave",
    "address_councildis": "E",
    "status": "Assigned to Contractor",
    "contractor": "Waste Pro",
    "rowid": "1289903",
    "final_x": "3705714.58014",
    "final_y": "554875.490648",
    "longitude": "-89.9907459220816",
    "latitude": "30.018957154849225",
    "geocoded_column": {
      "latitude": "30.018957154849225",
      "longitude": "-89.9907459220816"
    }
  },
  {
    "service_request": "2026-1289902",
    "request_type": "Property Maintenance",
    "request_reason": "Property Maintenance",
    "date_created": "2026-06-11T15:57:22.000",
    "date_modified": "2026-06-11T15:57:24.000",
    "request_status": "Pending",
    "responsible_agency": "Department of Code Enforcement",
    "final_address": "5495 Crowder Blvd",
    "address_councildis": "E",
    "status": "Pending",
    "rowid": "1289902",
    "final_x": "3705940.75095",
    "final_y": "557586.750235",
    "longitude": "-89.98993087134517",
    "latitude": "30.026404778588024",
    "geocoded_column": {
      "latitude": "30.026404778588024",
      "longitude": "-89.98993087134517"
    }
  },
  {
    "service_request": "2026-1289901",
    "request_type": "Trash/Recycling",
    "request_reason": "Replace Recycling Cart",
    "date_created": "2026-06-11T15:56:00.000",
    "date_modified": "2026-06-11T15:56:01.000",
    "request_status": "Pending",
    "responsible_agency": "Department of Sanitation",
    "final_address": "1703 Cambronne St",
    "address_councildis": "A",
    "status": "Pending",
    "rowid": "1289901",
    "final_x": "3662404.17875",
    "final_y": "530407.98573",
    "longitude": "-90.12840527585227",
    "latitude": "29.95300398273215",
    "geocoded_column": {
      "latitude": "29.95300398273215",
      "longitude": "-90.12840527585227"
    }
  },
  {
    "service_request": "2026-1289900",
    "request_type": "Trash/Recycling",
    "request_reason": "Return Trash Cart",
    "date_created": "2026-06-11T15:44:08.000",
    "date_modified": "2026-06-11T15:44:09.000",
    "request_status": "Pending",
    "responsible_agency": "Department of Sanitation",
    "final_address": "6930 Colbert St",
    "address_councildis": "A",
    "status": "Assigned to Contractor",
    "contractor": "IV Waste",
    "rowid": "1289900",
    "final_x": "3667894.58567",
    "final_y": "553690.526487",
    "longitude": "-90.11028422580743",
    "latitude": "30.016863167138865",
    "geocoded_column": {
      "latitude": "30.016863167138865",
      "longitude": "-90.11028422580743"
    }
  },
  {
    "service_request": "2026-1289899",
    "request_type": "Health Related Request",
    "request_reason": "Noise Ordinance Complaint",
    "date_created": "2026-06-11T15:42:09.000",
    "date_modified": "2026-06-11T15:43:29.000",
    "request_status": "Pending",
    "responsible_agency": "Health Department",
    "final_address": "336 Decatur St",
    "address_councildis": "C",
    "status": "Pending",
    "rowid": "1289899",
    "final_x": "3682487.1668",
    "final_y": "531072.09325",
    "longitude": "-90.06496886297963",
    "latitude": "29.954234081707234",
    "geocoded_column": {
      "latitude": "29.954234081707234",
      "longitude": "-90.06496886297963"
    }
  },
  {
    "service_request": "2026-1289898",
    "request_type": "Trash/Recycling",
    "request_reason": "Repair Trash Cart",
    "date_created": "2026-06-11T15:37:44.000",
    "date_modified": "2026-06-11T15:37:46.000",
    "request_status": "Pending",
    "responsible_agency": "Department of Sanitation",
    "final_address": "1616 Annette St",
    "address_councildis": "C",
    "status": "Assigned to Contractor",
    "contractor": "IV Waste",
    "rowid": "1289898",
    "final_x": "3682907.01916",
    "final_y": "538124.254729",
    "longitude": "-90.06339634321411",
    "latitude": "29.97361231748722",
    "geocoded_column": {
      "latitude": "29.97361231748722",
      "longitude": "-90.06339634321411"
    }
  },
  {
    "service_request": "2026-1289897",
    "request_type": "Property Maintenance",
    "request_reason": "Property Maintenance",
    "date_created": "2026-06-11T15:32:59.000",
    "date_modified": "2026-06-11T15:37:35.000",
    "request_status": "Pending",
    "responsible_agency": "Department of Code Enforcement",
    "final_address": "10218 Lakewood St",
    "address_councildis": "E",
    "status": "Pending",
    "rowid": "1289897",
    "final_x": "3713243.76952",
    "final_y": "556867.895898",
    "longitude": "-89.96688150760309",
    "latitude": "30.02419076355096",
    "geocoded_column": {
      "latitude": "30.02419076355096",
      "longitude": "-89.96688150760309"
    }
  },
  {
    "service_request": "2026-1289896",
    "request_type": "Traffic Signals",
    "request_reason": "Traffic Signal Malfunctioning or Damaged",
    "date_created": "2026-06-11T15:20:51.000",
    "date_modified": "2026-06-11T15:20:52.000",
    "request_status": "Pending",
    "responsible_agency": "Department of Public Works",
    "final_address": "CHEF MENTEUR HWY & DOWNMAN RD & CHEF MENTEUR BRIDGE",
    "address_councildis": "D",
    "status": "Pending",
    "rowid": "1289896",
    "final_x": "3696211.9",
    "final_y": "551507.88",
    "longitude": "-90.02089277553281",
    "latitude": "30.010000220946775",
    "geocoded_column": {
      "latitude": "30.010000220946775",
      "longitude": "-90.02089277553281"
    }
  },
  {
    "service_request": "2026-1289895",
    "request_type": "Trash/Recycling",
    "request_reason": "Request a Large Item Pick Up",
    "date_created": "2026-06-11T15:16:49.000",
    "date_modified": "2026-06-11T15:17:58.000",
    "request_status": "Pending",
    "responsible_agency": "Department of Sanitation",
    "final_address": "11300 Pressburg St",
    "address_councildis": "E",
    "status": "Assigned to Contractor",
    "contractor": "Waste Pro",
    "rowid": "1289895",
    "final_x": "3716975.63666",
    "final_y": "557475.320475",
    "longitude": "-89.95506655251869",
    "latitude": "30.0257380424168",
    "geocoded_column": {
      "latitude": "30.0257380424168",
      "longitude": "-89.95506655251869"
    }
  },
  {
    "service_request": "2026-1289894",
    "request_type": "Trash/Recycling",
    "request_reason": "Replace Trash Cart",
    "date_created": "2026-06-11T15:15:44.000",
    "date_modified": "2026-06-11T15:15:46.000",
    "request_status": "Pending",
    "responsible_agency": "Department of Sanitation",
    "final_address": "4742 Gabriel Dr",
    "address_councildis": "E",
    "status": "Assigned to Contractor",
    "contractor": "Waste Pro",
    "rowid": "1289894",
    "final_x": "3708810.74481",
    "final_y": "555766.518937",
    "longitude": "-89.9809299904185",
    "latitude": "30.02130702155726",
    "geocoded_column": {
      "latitude": "30.02130702155726",
      "longitude": "-89.9809299904185"
    }
  },
  {
    "service_request": "2026-1289893",
    "request_type": "Trash/Recycling",
    "request_reason": "Request a Large Item Pick Up",
    "date_created": "2026-06-11T15:15:43.000",
    "date_modified": "2026-06-11T15:15:46.000",
    "request_status": "Pending",
    "responsible_agency": "Department of Sanitation",
    "final_address": "7411 Spring Lake Dr",
    "address_councildis": "E",
    "status": "Assigned to Contractor",
    "contractor": "Waste Pro",
    "rowid": "1289893",
    "final_x": "3700782.20445",
    "final_y": "559197.249436",
    "longitude": "-90.00617223358309",
    "latitude": "30.030998317375992",
    "geocoded_column": {
      "latitude": "30.030998317375992",
      "longitude": "-90.00617223358309"
    }
  },
  {
    "service_request": "2026-1289892",
    "request_type": "Trash/Recycling",
    "request_reason": "Illegal Dumping",
    "date_created": "2026-06-11T15:15:21.000",
    "date_modified": "2026-06-11T15:16:38.000",
    "request_status": "Pending",
    "responsible_agency": "Department of Sanitation",
    "final_address": "5379 Pasteur Blvd",
    "address_councildis": "D",
    "status": "Pending",
    "rowid": "1289892",
    "final_x": "3683024.6022",
    "final_y": "552840.97647",
    "longitude": "-90.06250950929783",
    "latitude": "30.014074483255047",
    "geocoded_column": {
      "latitude": "30.014074483255047",
      "longitude": "-90.06250950929783"
    }
  },
  {
    "service_request": "2026-1289891",
    "request_type": "Trash/Recycling",
    "request_reason": "Order Second Trash Cart",
    "date_created": "2026-06-11T15:10:56.000",
    "date_modified": "2026-06-11T15:10:57.000",
    "request_status": "Pending",
    "responsible_agency": "Department of Sanitation",
    "final_address": "3707 Frenchmen St",
    "address_councildis": "D",
    "status": "Assigned to Contractor",
    "contractor": "IV Waste",
    "rowid": "1289891",
    "final_x": "3683827.6998",
    "final_y": "546321.858768",
    "longitude": "-90.06020098285755",
    "latitude": "29.99612474818728",
    "geocoded_column": {
      "latitude": "29.99612474818728",
      "longitude": "-90.06020098285755"
    }
  },
  {
    "service_request": "2026-1289890",
    "request_type": "Parks & Grass Service",
    "request_reason": "Request Grass Cutting Service (City Owned Property)",
    "date_created": "2026-06-11T15:09:39.000",
    "date_modified": "2026-06-11T15:09:40.000",
    "request_status": "Pending",
    "responsible_agency": "Department of Parks & Parkways",
    "final_address": "2817 Annette St",
    "address_councildis": "D",
    "status": "Pending",
    "rowid": "1289890",
    "final_x": "3682655.63893",
    "final_y": "542621.721037",
    "longitude": "-90.0640329109924",
    "latitude": "29.98598643571604",
    "geocoded_column": {
      "latitude": "29.98598643571604",
      "longitude": "-90.0640329109924"
    }
  },
  {
    "service_request": "2026-1289889",
    "request_type": "Trash/Recycling",
    "request_reason": "Missed Trash Pick-Up",
    "date_created": "2026-06-11T15:07:09.000",
    "date_modified": "2026-06-11T15:07:10.000",
    "request_status": "Pending",
    "responsible_agency": "Department of Sanitation",
    "final_address": "6215 S Laverne St",
    "address_councildis": "D",
    "status": "Assigned to Contractor",
    "contractor": "Waste Pro",
    "rowid": "1289889",
    "final_x": "3697083.7928",
    "final_y": "555575.000665",
    "longitude": "-90.01799065983876",
    "latitude": "30.02115578134827",
    "geocoded_column": {
      "latitude": "30.02115578134827",
      "longitude": "-90.01799065983876"
    }
  },
  {
    "service_request": "2026-1289888",
    "request_type": "Trash/Recycling",
    "request_reason": "Order Trash Cart",
    "date_created": "2026-06-11T15:07:00.000",
    "date_modified": "2026-06-11T15:07:02.000",
    "request_status": "Pending",
    "responsible_agency": "Department of Sanitation",
    "final_address": "2817 Annette St",
    "address_councildis": "D",
    "status": "Assigned to Contractor",
    "contractor": "IV Waste",
    "rowid": "1289888",
    "final_x": "3682655.63893",
    "final_y": "542621.721037",
    "longitude": "-90.0640329109924",
    "latitude": "29.98598643571604",
    "geocoded_column": {
      "latitude": "29.98598643571604",
      "longitude": "-90.0640329109924"
    }
  },
  {
    "service_request": "2026-1289887",
    "request_type": "Trash/Recycling",
    "request_reason": "Request a Large Item Pick Up",
    "date_created": "2026-06-11T15:04:16.000",
    "date_modified": "2026-06-11T15:13:16.000",
    "request_status": "Pending",
    "responsible_agency": "Department of Sanitation",
    "final_address": "1110 Aline St",
    "address_councildis": "B",
    "status": "Assigned to Contractor",
    "contractor": "IV Waste",
    "rowid": "1289887",
    "final_x": "3674400.79316",
    "final_y": "519453.150775",
    "longitude": "-90.09090024164782",
    "latitude": "29.92252943367725",
    "geocoded_column": {
      "latitude": "29.92252943367725",
      "longitude": "-90.09090024164782"
    }
  },
  {
    "service_request": "2026-1289886",
    "request_type": "Trash/Recycling",
    "request_reason": "Repair Trash Cart",
    "date_created": "2026-06-11T15:02:40.000",
    "date_modified": "2026-06-11T15:02:42.000",
    "request_status": "Pending",
    "responsible_agency": "Department of Sanitation",
    "final_address": "2219 Pressburg St",
    "address_councildis": "D",
    "status": "Assigned to Contractor",
    "contractor": "IV Waste",
    "rowid": "1289886",
    "final_x": "3683771.49621",
    "final_y": "554714.98556",
    "longitude": "-90.06008391227029",
    "latitude": "30.019204524277516",
    "geocoded_column": {
      "latitude": "30.019204524277516",
      "longitude": "-90.06008391227029"
    }
  },
  {
    "service_request": "2026-1289885",
    "request_type": "Street and Traffic Signs",
    "request_reason": "Additional Signage Request",
    "date_created": "2026-06-11T14:56:57.000",
    "date_modified": "2026-06-11T15:04:40.000",
    "request_status": "Pending",
    "responsible_agency": "Department of Public Works",
    "final_address": "N PARKWOOD CT & E PARKWOOD CT",
    "address_councildis": "E",
    "status": "Pending",
    "rowid": "1289885",
    "final_x": "3716952.7",
    "final_y": "559518.98",
    "longitude": "-89.95506135252967",
    "latitude": "30.03135804651297",
    "geocoded_column": {
      "latitude": "30.03135804651297",
      "longitude": "-89.95506135252967"
    }
  },
  {
    "service_request": "2026-1289884",
    "request_type": "Trash/Recycling",
    "request_reason": "Request a Large Item Pick Up",
    "date_created": "2026-06-11T14:55:42.000",
    "date_modified": "2026-06-11T14:55:45.000",
    "request_status": "Pending",
    "responsible_agency": "Department of Sanitation",
    "final_address": "4853 Cardenas Dr",
    "address_councildis": "E",
    "status": "Assigned to Contractor",
    "contractor": "Waste Pro",
    "rowid": "1289884",
    "final_x": "3713697.44312",
    "final_y": "556918.154586",
    "longitude": "-89.96544610276675",
    "latitude": "30.02431407123155",
    "geocoded_column": {
      "latitude": "30.02431407123155",
      "longitude": "-89.96544610276675"
    }
  },
  {
    "service_request": "2026-1289883",
    "request_type": "Trash/Recycling",
    "request_reason": "Order Recycling Cart",
    "date_created": "2026-06-11T14:55:10.000",
    "date_modified": "2026-06-11T14:55:11.000",
    "request_status": "Pending",
    "responsible_agency": "Department of Sanitation",
    "final_address": "1031 Chartres St",
    "address_councildis": "C",
    "status": "Pending",
    "rowid": "1289883",
    "final_x": "3683638.24271",
    "final_y": "533339.823748",
    "longitude": "-90.06125473594055",
    "latitude": "29.960434480686853",
    "geocoded_column": {
      "latitude": "29.960434480686853",
      "longitude": "-90.06125473594055"
    }
  },
  {
    "service_request": "2026-1289882",
    "request_type": "Streetlights",
    "request_reason": "Streetlight Outage/Malfunction",
    "date_created": "2026-06-11T14:54:20.000",
    "date_modified": "2026-06-11T14:54:22.000",
    "request_status": "Pending",
    "responsible_agency": "Department of Public Works",
    "final_address": "5010 Sierra Madre Dr",
    "address_councildis": "E",
    "status": "Pending",
    "rowid": "1289882",
    "final_x": "3713704.70693",
    "final_y": "557745.794395",
    "longitude": "-89.96539192979809",
    "latitude": "30.02658951450945",
    "geocoded_column": {
      "latitude": "30.02658951450945",
      "longitude": "-89.96539192979809"
    }
  },
  {
    "service_request": "2026-1289881",
    "request_type": "Street and Traffic Signs",
    "request_reason": "Additional Signage Request",
    "date_created": "2026-06-11T14:53:00.000",
    "date_modified": "2026-06-11T15:04:12.000",
    "request_status": "Pending",
    "responsible_agency": "Department of Public Works",
    "final_address": "N IDLEWOOD CT & E IDLEWOOD CT",
    "address_councildis": "E",
    "status": "Pending",
    "rowid": "1289881",
    "final_x": "3716316.7",
    "final_y": "560391.48",
    "longitude": "-89.9570379991743",
    "latitude": "30.033778090716993",
    "geocoded_column": {
      "latitude": "30.033778090716993",
      "longitude": "-89.9570379991743"
    }
  },
  {
    "service_request": "2026-1289880",
    "request_type": "Property Maintenance",
    "request_reason": "Property Maintenance",
    "date_created": "2026-06-11T14:44:52.000",
    "date_modified": "2026-06-11T14:59:34.000",
    "request_status": "Pending",
    "responsible_agency": "Department of Code Enforcement",
    "final_address": "2535 Mendez St",
    "address_councildis": "D",
    "status": "Pending",
    "rowid": "1289880",
    "final_x": "3686322.54914",
    "final_y": "553663.273687",
    "longitude": "-90.05206063560767",
    "latitude": "30.016234513362157",
    "geocoded_column": {
      "latitude": "30.016234513362157",
      "longitude": "-90.05206063560767"
    }
  },
  {
    "service_request": "2026-1289879",
    "request_type": "Streetlights",
    "request_reason": "Streetlight Outage/Malfunction",
    "date_created": "2026-06-11T14:38:19.000",
    "date_modified": "2026-06-11T14:41:49.000",
    "request_status": "Pending",
    "responsible_agency": "Department of Public Works",
    "final_address": "4400 Perlita St",
    "address_councildis": "D",
    "status": "Pending",
    "rowid": "1289879",
    "final_x": "3678715.88994",
    "final_y": "548568.425555",
    "longitude": "-90.07627095824468",
    "latitude": "30.002457191480893",
    "geocoded_column": {
      "latitude": "30.002457191480893",
      "longitude": "-90.07627095824468"
    }
  },
  {
    "service_request": "2026-1289878",
    "request_type": "Parks & Grass Service",
    "request_reason": "Request Grass Cutting Service (City Owned Property)",
    "date_created": "2026-06-11T14:35:13.000",
    "date_modified": "2026-06-11T14:35:16.000",
    "request_status": "Pending",
    "responsible_agency": "Department of Parks & Parkways",
    "final_address": "6000 Laurel St",
    "address_councildis": "A",
    "status": "Pending",
    "rowid": "1289878",
    "final_x": "3664226.68058",
    "final_y": "518192.04479",
    "longitude": "-90.1230580064223",
    "latitude": "29.919361203757745",
    "geocoded_column": {
      "latitude": "29.919361203757745",
      "longitude": "-90.1230580064223"
    }
  },
  {
    "service_request": "2026-1289877",
    "request_type": "Parks & Grass Service",
    "request_reason": "Request Grass Cutting Service (City Owned Property)",
    "date_created": "2026-06-11T14:35:13.000",
    "date_modified": "2026-06-11T14:35:14.000",
    "request_status": "Pending",
    "responsible_agency": "Department of Parks & Parkways",
    "final_address": "6000 Laurel St",
    "address_councildis": "A",
    "status": "Pending",
    "rowid": "1289877",
    "final_x": "3664226.68058",
    "final_y": "518192.04479",
    "longitude": "-90.1230580064223",
    "latitude": "29.919361203757745",
    "geocoded_column": {
      "latitude": "29.919361203757745",
      "longitude": "-90.1230580064223"
    }
  },
  {
    "service_request": "2026-1289876",
    "request_type": "Trash/Recycling",
    "request_reason": "Request a Large Item Pick Up",
    "date_created": "2026-06-11T14:34:06.000",
    "date_modified": "2026-06-11T14:34:09.000",
    "request_status": "Pending",
    "responsible_agency": "Department of Sanitation",
    "final_address": "7122 Tudor Ct",
    "address_councildis": "E",
    "status": "Assigned to Contractor",
    "contractor": "Waste Pro",
    "rowid": "1289876",
    "final_x": "3703682.5953",
    "final_y": "559676.621981",
    "longitude": "-89.9969893127179",
    "latitude": "30.032223716386827",
    "geocoded_column": {
      "latitude": "30.032223716386827",
      "longitude": "-89.9969893127179"
    }
  },
  {
    "service_request": "2026-1289875",
    "request_type": "Trash/Recycling",
    "request_reason": "Repair Recycling Cart",
    "date_created": "2026-06-11T14:32:09.000",
    "date_modified": "2026-06-11T14:32:11.000",
    "request_status": "Pending",
    "responsible_agency": "Department of Sanitation",
    "final_address": "2305 Carondelet St",
    "address_councildis": "B",
    "status": "Pending",
    "rowid": "1289875",
    "final_x": "3676862.84078",
    "final_y": "523657.371771",
    "longitude": "-90.08298372922299",
    "latitude": "29.934016039860413",
    "geocoded_column": {
      "latitude": "29.934016039860413",
      "longitude": "-90.08298372922299"
    }
  },
  {
    "service_request": "2026-1289874",
    "request_type": "Trash/Recycling",
    "request_reason": "Start Trash Service",
    "date_created": "2026-06-11T14:29:30.000",
    "date_modified": "2026-06-11T14:29:31.000",
    "request_status": "Pending",
    "responsible_agency": "Department of Sanitation",
    "final_address": "1824 Wilton Dr",
    "address_councildis": "D",
    "status": "Assigned to Contractor",
    "contractor": "IV Waste",
    "rowid": "1289874",
    "final_x": "3681379.2918",
    "final_y": "550823.059093",
    "longitude": "-90.06777827210036",
    "latitude": "30.008576012405953",
    "geocoded_column": {
      "latitude": "30.008576012405953",
      "longitude": "-90.06777827210036"
    }
  },
  {
    "service_request": "2026-1289873",
    "request_type": "Trash/Recycling",
    "request_reason": "Replace Trash Cart",
    "date_created": "2026-06-11T14:29:17.000",
    "date_modified": "2026-06-11T14:29:19.000",
    "request_status": "Pending",
    "responsible_agency": "Department of Sanitation",
    "final_address": "824 Arabella St",
    "address_councildis": "A",
    "status": "Assigned to Contractor",
    "contractor": "IV Waste",
    "rowid": "1289873",
    "final_x": "3665826.46695",
    "final_y": "519148.810039",
    "longitude": "-90.11797623298366",
    "latitude": "29.92194544876067",
    "geocoded_column": {
      "latitude": "29.92194544876067",
      "longitude": "-90.11797623298366"
    }
  },
  {
    "service_request": "2026-1289872",
    "request_type": "Property Maintenance",
    "request_reason": "Property Maintenance",
    "date_created": "2026-06-11T14:27:47.000",
    "date_modified": "2026-06-11T14:27:48.000",
    "request_status": "Pending",
    "responsible_agency": "Department of Code Enforcement",
    "final_address": "7416 Woodbine Dr",
    "address_councildis": "E",
    "status": "Pending",
    "rowid": "1289872",
    "final_x": "3702207.96202",
    "final_y": "560665.667998",
    "longitude": "-90.00161289837999",
    "latitude": "30.034990413413258",
    "geocoded_column": {
      "latitude": "30.034990413413258",
      "longitude": "-90.00161289837999"
    }
  },
  {
    "service_request": "2026-1289871",
    "request_type": "Trash/Recycling",
    "request_reason": "Order Trash Cart",
    "date_created": "2026-06-11T14:25:23.000",
    "date_modified": "2026-06-11T14:25:25.000",
    "request_status": "Pending",
    "responsible_agency": "Department of Sanitation",
    "final_address": "1301 Lamanche St",
    "address_councildis": "E",
    "status": "Assigned to Contractor",
    "contractor": "Waste Pro",
    "rowid": "1289871",
    "final_x": "3698605.6312",
    "final_y": "534434.940293",
    "longitude": "-90.01395123784798",
    "latitude": "29.96298028050647",
    "geocoded_column": {
      "latitude": "29.96298028050647",
      "longitude": "-90.01395123784798"
    }
  },
  {
    "service_request": "2026-1289870",
    "request_type": "Trash/Recycling",
    "request_reason": "Request a Large Item Pick Up",
    "date_created": "2026-06-11T14:24:36.000",
    "date_modified": "2026-06-11T14:24:37.000",
    "request_status": "Pending",
    "responsible_agency": "Department of Sanitation",
    "final_address": "1323 St Maurice Ave",
    "address_councildis": "E",
    "status": "Assigned to Contractor",
    "contractor": "Waste Pro",
    "rowid": "1289870",
    "final_x": "3700240.93853",
    "final_y": "534012.077189",
    "longitude": "-90.00880260849753",
    "latitude": "29.96176568148533",
    "geocoded_column": {
      "latitude": "29.96176568148533",
      "longitude": "-90.00880260849753"
    }
  },
  {
    "service_request": "2026-1289869",
    "request_type": "Property Maintenance",
    "request_reason": "Property Maintenance",
    "date_created": "2026-06-11T14:21:04.000",
    "date_modified": "2026-06-11T14:21:05.000",
    "request_status": "Pending",
    "responsible_agency": "Department of Code Enforcement",
    "final_address": "3106 Upperline St",
    "address_councildis": "B",
    "status": "Pending",
    "rowid": "1289869",
    "final_x": "3669206.58785",
    "final_y": "526414.701822",
    "longitude": "-90.10706113054808",
    "latitude": "29.94182531119544",
    "geocoded_column": {
      "latitude": "29.94182531119544",
      "longitude": "-90.10706113054808"
    }
  },
  {
    "service_request": "2026-1289868",
    "request_type": "Trash/Recycling",
    "request_reason": "Request a Large Item Pick Up",
    "date_created": "2026-06-11T14:21:03.000",
    "date_modified": "2026-06-11T14:21:05.000",
    "request_status": "Pending",
    "responsible_agency": "Department of Sanitation",
    "final_address": "4801 Sierra Madre Dr",
    "address_councildis": "E",
    "status": "Assigned to Contractor",
    "contractor": "Waste Pro",
    "rowid": "1289868",
    "final_x": "3713958.19519",
    "final_y": "556561.809754",
    "longitude": "-89.96463563225764",
    "latitude": "30.02332570222577",
    "geocoded_column": {
      "latitude": "30.02332570222577",
      "longitude": "-89.96463563225764"
    }
  },
  {
    "service_request": "2026-1289867",
    "request_type": "Drainage",
    "request_reason": "Catch Basin Frame and Cover Missing or Damaged",
    "date_created": "2026-06-11T14:17:26.000",
    "date_modified": "2026-06-11T14:17:29.000",
    "request_status": "Pending",
    "responsible_agency": "Sewerage & Water Board",
    "final_address": "3007 Dumaine St",
    "address_councildis": "A",
    "status": "Pending",
    "rowid": "1289867",
    "final_x": "3676137.84635",
    "final_y": "538351.687433",
    "longitude": "-90.08476702750015",
    "latitude": "29.97444223034526",
    "geocoded_column": {
      "latitude": "29.97444223034526",
      "longitude": "-90.08476702750015"
    }
  },
  {
    "service_request": "2026-1289866",
    "request_type": "Trash/Recycling",
    "request_reason": "Request a Large Item Pick Up",
    "date_created": "2026-06-11T14:16:57.000",
    "date_modified": "2026-06-11T14:45:17.000",
    "request_status": "Pending",
    "responsible_agency": "Department of Sanitation",
    "final_address": "827 Poland Ave",
    "address_councildis": "C",
    "status": "Assigned to Contractor",
    "contractor": "IV Waste",
    "rowid": "1289866",
    "final_x": "3692863.02985",
    "final_y": "534058.086277",
    "longitude": "-90.03209910340858",
    "latitude": "29.962124631446876",
    "geocoded_column": {
      "latitude": "29.962124631446876",
      "longitude": "-90.03209910340858"
    }
  },
  {
    "service_request": "2026-1289865",
    "request_type": "Trash/Recycling",
    "request_reason": "Request a Large Item Pick Up",
    "date_created": "2026-06-11T14:16:51.000",
    "date_modified": "2026-06-11T14:16:52.000",
    "request_status": "Pending",
    "responsible_agency": "Department of Sanitation",
    "final_address": "7100 W Laverne St",
    "address_councildis": "D",
    "status": "Assigned to Contractor",
    "contractor": "Waste Pro",
    "rowid": "1289865",
    "final_x": "3695847.95318",
    "final_y": "556666.910618",
    "longitude": "-90.02185605690346",
    "latitude": "30.02419706979826",
    "geocoded_column": {
      "latitude": "30.02419706979826",
      "longitude": "-90.02185605690346"
    }
  },
  {
    "service_request": "2026-1289864",
    "request_type": "Trash/Recycling",
    "request_reason": "Repair Trash Cart",
    "date_created": "2026-06-11T14:14:00.000",
    "date_modified": "2026-06-11T14:14:02.000",
    "request_status": "Pending",
    "responsible_agency": "Department of Sanitation",
    "final_address": "2305 Carondelet St",
    "address_councildis": "B",
    "status": "Assigned to Contractor",
    "contractor": "IV Waste",
    "rowid": "1289864",
    "final_x": "3676862.84078",
    "final_y": "523657.371771",
    "longitude": "-90.08298372922299",
    "latitude": "29.934016039860413",
    "geocoded_column": {
      "latitude": "29.934016039860413",
      "longitude": "-90.08298372922299"
    }
  },
  {
    "service_request": "2026-1289863",
    "request_type": "Roads and Streets",
    "request_reason": "Pothole",
    "date_created": "2026-06-11T14:13:38.000",
    "date_modified": "2026-06-11T14:13:39.000",
    "request_status": "Pending",
    "responsible_agency": "Department of Public Works",
    "final_address": "HAYNE BLVD & LEHIGH ST",
    "address_councildis": "E",
    "status": "Pending",
    "rowid": "1289863",
    "final_x": "3709662.2",
    "final_y": "567137.18",
    "longitude": "-89.97781462791109",
    "latitude": "30.052544159352706",
    "geocoded_column": {
      "latitude": "30.052544159352706",
      "longitude": "-89.97781462791109"
    }
  },
  {
    "service_request": "2026-1289862",
    "request_type": "Trash/Recycling",
    "request_reason": "Illegal Dumping",
    "date_created": "2026-06-11T14:12:44.000",
    "date_modified": "2026-06-11T14:12:48.000",
    "request_status": "Pending",
    "responsible_agency": "Department of Sanitation",
    "final_address": "3337 Pauger St",
    "address_councildis": "D",
    "status": "Pending",
    "rowid": "1289862",
    "final_x": "3683436.25026",
    "final_y": "542069.692748",
    "longitude": "-90.06158662365978",
    "latitude": "29.984444752647295",
    "geocoded_column": {
      "latitude": "29.984444752647295",
      "longitude": "-90.06158662365978"
    }
  },
  {
    "service_request": "2026-1289861",
    "request_type": "Property Maintenance",
    "request_reason": "Property Maintenance",
    "date_created": "2026-06-11T14:09:13.000",
    "date_modified": "2026-06-11T14:09:14.000",
    "request_status": "Pending",
    "responsible_agency": "Department of Code Enforcement",
    "final_address": "5467 St Claude Ave",
    "address_councildis": "E",
    "status": "Pending",
    "rowid": "1289861",
    "final_x": "3697685.46979",
    "final_y": "533964.925445",
    "longitude": "-90.01687403008464",
    "latitude": "29.961717007934926",
    "geocoded_column": {
      "latitude": "29.961717007934926",
      "longitude": "-90.01687403008464"
    }
  },
  {
    "service_request": "2026-1289860",
    "request_type": "Abandoned Vehicles",
    "request_reason": "Abandoned/Junk Vehicles",
    "date_created": "2026-06-11T14:07:49.000",
    "date_modified": "2026-06-11T14:07:51.000",
    "request_status": "Pending",
    "responsible_agency": "Department of Public Works",
    "final_address": "2621 Cambronne St",
    "address_councildis": "A",
    "status": "Pending",
    "rowid": "1289860",
    "final_x": "3664707.7618",
    "final_y": "532921.873412",
    "longitude": "-90.12104755980954",
    "latitude": "29.95984954692861",
    "geocoded_column": {
      "latitude": "29.95984954692861",
      "longitude": "-90.12104755980954"
    }
  },
  {
    "service_request": "2026-1289859",
    "request_type": "Trash/Recycling",
    "request_reason": "Illegal Dumping",
    "date_created": "2026-06-11T14:03:29.000",
    "date_modified": "2026-06-11T14:03:31.000",
    "request_status": "Pending",
    "responsible_agency": "Department of Code Enforcement",
    "final_address": "9TH ST & LAUREL ST",
    "address_councildis": "B",
    "status": "Pending",
    "rowid": "1289859",
    "final_x": "3676271.3",
    "final_y": "519429.68",
    "longitude": "-90.08499660699837",
    "latitude": "29.92240899550905",
    "geocoded_column": {
      "latitude": "29.92240899550905",
      "longitude": "-90.08499660699837"
    }
  },
  {
    "service_request": "2026-1289858",
    "request_type": "Trash/Recycling",
    "request_reason": "Illegal Dumping",
    "date_created": "2026-06-11T14:02:30.000",
    "date_modified": "2026-06-11T14:02:33.000",
    "request_status": "Pending",
    "responsible_agency": "Department of Sanitation",
    "final_address": "MARAIS ST & KENTUCKY ST",
    "address_councildis": "D",
    "status": "Pending",
    "rowid": "1289858",
    "final_x": "3693398.8",
    "final_y": "535277.68",
    "longitude": "-90.03036343506243",
    "latitude": "29.96546134382825",
    "geocoded_column": {
      "latitude": "29.96546134382825",
      "longitude": "-90.03036343506243"
    }
  },
  {
    "service_request": "2026-1289857",
    "request_type": "Streetlights",
    "request_reason": "Streetlight Outage/Malfunction",
    "date_created": "2026-06-11T13:58:58.000",
    "date_modified": "2026-06-11T13:58:59.000",
    "request_status": "Pending",
    "responsible_agency": "Department of Public Works",
    "final_address": "8421 Apricot St",
    "address_councildis": "A",
    "status": "Pending",
    "rowid": "1289857",
    "final_x": "3664906.2329",
    "final_y": "533515.472132",
    "longitude": "-90.12040098744437",
    "latitude": "29.961475973779407",
    "geocoded_column": {
      "latitude": "29.961475973779407",
      "longitude": "-90.12040098744437"
    }
  },
  {
    "service_request": "2026-1289856",
    "request_type": "Trash/Recycling",
    "request_reason": "Request a Large Item Pick Up",
    "date_created": "2026-06-11T13:56:58.000",
    "date_modified": "2026-06-11T13:57:00.000",
    "request_status": "Pending",
    "responsible_agency": "Department of Sanitation",
    "final_address": "7816 Beach Dr",
    "address_councildis": "E",
    "status": "Assigned to Contractor",
    "contractor": "Waste Pro",
    "rowid": "1289856",
    "final_x": "3702188.16081",
    "final_y": "562072.008991",
    "longitude": "-90.00162382128218",
    "latitude": "30.03885793421911",
    "geocoded_column": {
      "latitude": "30.03885793421911",
      "longitude": "-90.00162382128218"
    }
  },
  {
    "service_request": "2026-1289855",
    "request_type": "Street and Traffic Signs",
    "request_reason": "Additional Signage Request",
    "date_created": "2026-06-11T13:52:47.000",
    "date_modified": "2026-06-11T13:52:48.000",
    "request_status": "Pending",
    "responsible_agency": "Department of Public Works",
    "final_address": "2700 BLK Marengo St",
    "address_councildis": "B",
    "status": "Pending",
    "rowid": "1289855",
    "final_x": "3671552.74774",
    "final_y": "525022.776514",
    "longitude": "-90.099701113173",
    "latitude": "29.937928720381",
    "geocoded_column": {
      "latitude": "29.937928720381",
      "longitude": "-90.099701113173"
    }
  },
  {
    "service_request": "2026-1289854",
    "request_type": "Abandoned Vehicles",
    "request_reason": "Abandoned/Junk Vehicles",
    "date_created": "2026-06-11T13:52:33.000",
    "date_modified": "2026-06-11T13:52:34.000",
    "request_status": "Pending",
    "responsible_agency": "Department of Public Works",
    "final_address": "2400 BLK Terpsichore St",
    "address_councildis": "B",
    "status": "Pending",
    "rowid": "1289854",
    "final_x": "3676105.32918",
    "final_y": "527119.029867",
    "longitude": "-90.08525613164264",
    "latitude": "29.943557170203555",
    "geocoded_column": {
      "latitude": "29.943557170203555",
      "longitude": "-90.08525613164264"
    }
  },
  {
    "service_request": "2026-1289853",
    "request_type": "Street and Traffic Signs",
    "request_reason": "Stop Sign Missing or Damaged",
    "date_created": "2026-06-11T13:51:00.000",
    "date_modified": "2026-06-11T13:51:01.000",
    "request_status": "Pending",
    "responsible_agency": "Department of Public Works",
    "final_address": "MARENGO ST & MAGNOLIA ST",
    "address_councildis": "B",
    "status": "Pending",
    "rowid": "1289853",
    "final_x": "3671573.1",
    "final_y": "524852.28",
    "longitude": "-90.09964265463768",
    "latitude": "29.937459307728194",
    "geocoded_column": {
      "latitude": "29.937459307728194",
      "longitude": "-90.09964265463768"
    }
  },
  {
    "service_request": "2026-1289852",
    "request_type": "Trash/Recycling",
    "request_reason": "Request a Large Item Pick Up",
    "date_created": "2026-06-11T13:50:52.000",
    "date_modified": "2026-06-11T13:50:54.000",
    "request_status": "Pending",
    "responsible_agency": "Department of Sanitation",
    "final_address": "1500 BLK Chef Menteur Hwy",
    "address_councildis": "E",
    "status": "Assigned to Contractor",
    "contractor": "Waste Pro",
    "rowid": "1289852",
    "final_x": "3698758.339",
    "final_y": "551860.679859",
    "longitude": "-90.0128348477878",
    "latitude": "30.01088984397841",
    "geocoded_column": {
      "latitude": "30.01088984397841",
      "longitude": "-90.0128348477878"
    }
  },
  {
    "service_request": "2026-1289851",
    "request_type": "Streetlights",
    "request_reason": "Streetlight Outage/Malfunction",
    "date_created": "2026-06-11T13:49:00.000",
    "date_modified": "2026-06-11T13:49:01.000",
    "request_status": "Pending",
    "responsible_agency": "Department of Public Works",
    "final_address": "1816 Pauline St",
    "address_councildis": "D",
    "status": "Pending",
    "rowid": "1289851",
    "final_x": "3691872.15292",
    "final_y": "538264.066505",
    "longitude": "-90.03507764621767",
    "latitude": "29.973720497022246",
    "geocoded_column": {
      "latitude": "29.973720497022246",
      "longitude": "-90.03507764621767"
    }
  },
  {
    "service_request": "2026-1289850",
    "request_type": "Trash/Recycling",
    "request_reason": "Illegal Dumping",
    "date_created": "2026-06-11T13:47:15.000",
    "date_modified": "2026-06-11T13:47:17.000",
    "request_status": "Pending",
    "responsible_agency": "Department of Sanitation",
    "final_address": "2339 N Claiborne Ave",
    "address_councildis": "D",
    "status": "Pending",
    "rowid": "1289850",
    "final_x": "3685937.22511",
    "final_y": "538266.679433",
    "longitude": "-90.05382130352159",
    "latitude": "29.973911243728107",
    "geocoded_column": {
      "latitude": "29.973911243728107",
      "longitude": "-90.05382130352159"
    }
  },
  {
    "service_request": "2026-1289849",
    "request_type": "Trash/Recycling",
    "request_reason": "Request a Large Item Pick Up",
    "date_created": "2026-06-11T13:45:38.000",
    "date_modified": "2026-06-11T13:45:39.000",
    "request_status": "Pending",
    "responsible_agency": "Department of Sanitation",
    "final_address": "7200 Thornley Dr",
    "address_councildis": "E",
    "status": "Assigned to Contractor",
    "contractor": "Waste Pro",
    "rowid": "1289849",
    "final_x": "3702890.17514",
    "final_y": "559749.937757",
    "longitude": "-89.99949070006933",
    "latitude": "30.0324506934833",
    "geocoded_column": {
      "latitude": "30.0324506934833",
      "longitude": "-89.99949070006933"
    }
  },
  {
    "service_request": "2026-1289848",
    "request_type": "Abandoned Vehicles",
    "request_reason": "Abandoned/Junk Vehicles",
    "date_created": "2026-06-11T13:40:42.000",
    "date_modified": "2026-06-11T13:43:10.000",
    "request_status": "Pending",
    "responsible_agency": "Department of Public Works",
    "final_address": "WRIGHT RD & IVY LN",
    "address_councildis": "E",
    "status": "Inspected",
    "rowid": "1289848",
    "final_x": "3715896.9",
    "final_y": "559783.78",
    "longitude": "-89.95838764532883",
    "latitude": "30.03212101738671",
    "geocoded_column": {
      "latitude": "30.03212101738671",
      "longitude": "-89.95838764532883"
    }
  },
  {
    "service_request": "2026-1289847",
    "request_type": "Abandoned Vehicles",
    "request_reason": "Abandoned/Junk Vehicles",
    "date_created": "2026-06-11T13:38:45.000",
    "date_modified": "2026-06-11T13:38:47.000",
    "request_status": "Pending",
    "responsible_agency": "Department of Public Works",
    "final_address": "7800 BLK Zimpel St",
    "address_councildis": "A",
    "status": "Pending",
    "rowid": "1289847",
    "final_x": "3662429.08882",
    "final_y": "527471.902193",
    "longitude": "-90.12842410837047",
    "latitude": "29.944929975267662",
    "geocoded_column": {
      "latitude": "29.944929975267662",
      "longitude": "-90.12842410837047"
    }
  },
  {
    "service_request": "2026-1289846",
    "request_type": "Trash/Recycling",
    "request_reason": "Request a Large Item Pick Up",
    "date_created": "2026-06-11T13:37:32.000",
    "date_modified": "2026-06-11T14:59:45.000",
    "request_status": "Pending",
    "responsible_agency": "Department of Sanitation",
    "final_address": "2139 Iberville St",
    "address_councildis": "B",
    "status": "Assigned to Contractor",
    "contractor": "IV Waste",
    "rowid": "1289846",
    "final_x": "3677329.96398",
    "final_y": "534191.982149",
    "longitude": "-90.08114559878452",
    "latitude": "29.962968686529877",
    "geocoded_column": {
      "latitude": "29.962968686529877",
      "longitude": "-90.08114559878452"
    }
  },
  {
    "service_request": "2026-1289845",
    "request_type": "Tree Service",
    "request_reason": "Tree Trim",
    "date_created": "2026-06-11T13:33:24.000",
    "date_modified": "2026-06-11T13:36:03.000",
    "request_status": "Pending",
    "responsible_agency": "Department of Parks & Parkways",
    "final_address": "FIG ST & PINE ST",
    "address_councildis": "B",
    "status": "Pending",
    "rowid": "1289845",
    "final_x": "3667497.8",
    "final_y": "532060.28",
    "longitude": "-90.11226620214482",
    "latitude": "29.957398987997593",
    "geocoded_column": {
      "latitude": "29.957398987997593",
      "longitude": "-90.11226620214482"
    }
  },
  {
    "service_request": "2026-1289844",
    "request_type": "Trash/Recycling",
    "request_reason": "Request a Large Item Pick Up",
    "date_created": "2026-06-11T13:30:12.000",
    "date_modified": "2026-06-11T13:30:22.000",
    "request_status": "Pending",
    "responsible_agency": "Department of Sanitation",
    "final_address": "5819 St Bernard Ave",
    "address_councildis": "D",
    "status": "Assigned to Contractor",
    "contractor": "IV Waste",
    "rowid": "1289844",
    "final_x": "3676978.85602",
    "final_y": "553884.988887",
    "longitude": "-90.08157498934337",
    "latitude": "30.01712812455908",
    "geocoded_column": {
      "latitude": "30.01712812455908",
      "longitude": "-90.08157498934337"
    }
  },
  {
    "service_request": "2026-1289843",
    "request_type": "Tree Service",
    "request_reason": "Dead or Dying Tree",
    "date_created": "2026-06-11T13:29:49.000",
    "date_modified": "2026-06-11T13:29:50.000",
    "request_status": "Pending",
    "responsible_agency": "Department of Parks & Parkways",
    "final_address": "1008 N Lopez St",
    "address_councildis": "A",
    "status": "Pending",
    "rowid": "1289843",
    "final_x": "3676048.58638",
    "final_y": "539011.57825",
    "longitude": "-90.08502622749369",
    "latitude": "29.97625937826997",
    "geocoded_column": {
      "latitude": "29.97625937826997",
      "longitude": "-90.08502622749369"
    }
  },
  {
    "service_request": "2026-1289842",
    "request_type": "Property Maintenance",
    "request_reason": "Property Maintenance",
    "date_created": "2026-06-11T13:29:42.000",
    "date_modified": "2026-06-11T13:29:44.000",
    "request_status": "Pending",
    "responsible_agency": "Department of Code Enforcement",
    "final_address": "4778 Donna Dr",
    "address_councildis": "E",
    "status": "Pending",
    "rowid": "1289842",
    "final_x": "3710925.95633",
    "final_y": "556079.702746",
    "longitude": "-89.97423483594117",
    "latitude": "30.022099339572133",
    "geocoded_column": {
      "latitude": "30.022099339572133",
      "longitude": "-89.97423483594117"
    }
  },
  {
    "service_request": "2026-1289841",
    "request_type": "Property Maintenance",
    "request_reason": "Property Maintenance",
    "date_created": "2026-06-11T13:28:51.000",
    "date_modified": "2026-06-11T13:28:52.000",
    "request_status": "Pending",
    "responsible_agency": "Department of Code Enforcement",
    "final_address": "4788 Donna Dr",
    "address_councildis": "E",
    "status": "Pending",
    "rowid": "1289841",
    "final_x": "3710904.33195",
    "final_y": "556155.86153",
    "longitude": "-89.97430030871489",
    "latitude": "30.022309451603167",
    "geocoded_column": {
      "latitude": "30.022309451603167",
      "longitude": "-89.97430030871489"
    }
  },
  {
    "service_request": "2026-1289840",
    "request_type": "Trash/Recycling",
    "request_reason": "Order Recycling Cart",
    "date_created": "2026-06-11T13:23:46.000",
    "date_modified": "2026-06-11T13:23:49.000",
    "request_status": "Pending",
    "responsible_agency": "Department of Sanitation",
    "final_address": "4818 Good Dr",
    "address_councildis": "E",
    "status": "Pending",
    "rowid": "1289840",
    "final_x": "3714690.20363",
    "final_y": "557077.002266",
    "longitude": "-89.96230318886074",
    "latitude": "30.024718215031623",
    "geocoded_column": {
      "latitude": "30.024718215031623",
      "longitude": "-89.96230318886074"
    }
  },