[
  {
    "service_request": "2023-982604",
    "request_type": "Traffic Signals/Signs/Striping/Streetlights",
    "request_reason": "Street Light Outage/Malfunction",
    "date_created": "2023-03-14T01:41:02.000",
    "date_modified": "2023-03-14T01:41:03.000",
    "request_status": "Pending",
    "responsible_agency": "Department of Public Works",
    "final_address": "1028 Octavia St",
    "address_councildis": "A",
    "status": "Assigned to Contractor",
    "contractor": "Legacy Professional Services",
    "rowid": "982604",
    "final_x": "3666617.20641",
    "final_y": "519855.030264",
    "longitude": "-90.1154564984088",
    "latitude": "29.923864246464614",
    "geocoded_column": {
      "latitude": "29.923864246464614",
      "longitude": "-90.1154564984088"
    }
  },
  {
    "service_request": "2023-982603",
    "request_type": "Safety & Permits",
    "request_reason": "Licenses & Permits",
    "date_created": "2023-03-14T01:39:42.000",
    "date_modified": "2023-03-14T01:39:42.000",
    "request_status": "Pending",
    "responsible_agency": "Safety and Permits",
    "final_address": "1328 St Bernard Ave",
    "address_councildis": "C",
    "status": "Pending",
    "rowid": "982603",
    "final_x": "3682712.52284",
    "final_y": "536735.540615",
    "longitude": "-90.06405918653729",
    "latitude": "29.96979976049472",
    "geocoded_column": {
      "latitude": "29.96979976049472",
      "longitude": "-90.06405918653729"
    }
  },
  {
    "service_request": "2023-982602",
    "request_type": "Health Related Request",
    "request_reason": "Noise Ordinance Complaint",
    "date_created": "2023-03-14T01:38:27.000",
    "date_modified": "2023-03-14T01:38:27.000",
    "request_status": "Pending",
    "responsible_agency": "Health Department",
    "final_address": "1328 St Bernard Ave",
    "address_councildis": "C",
    "status": "Pending",
    "rowid": "982602",
    "final_x": "3682712.52284",
    "final_y": "536735.540615",
    "longitude": "-90.06405918653729",
    "latitude": "29.96979976049472",
    "geocoded_column": {
      "latitude": "29.96979976049472",
      "longitude": "-90.06405918653729"
    }
  },
  {
    "service_request": "2023-982601",
    "request_type": "Safety & Permits",
    "request_reason": "Licenses & Permits",
    "date_created": "2023-03-14T01:17:47.000",
    "date_modified": "2023-03-14T01:17:47.000",
    "request_status": "Pending",
    "responsible_agency": "Safety and Permits",
    "final_address": "1328 St Bernard Ave",
    "address_councildis": "C",
    "status": "Pending",
    "rowid": "982601",
    "final_x": "3682712.52284",
    "final_y": "536735.540615",
    "longitude": "-90.06405918653729",
    "latitude": "29.96979976049472",
    "geocoded_column": {
      "latitude": "29.96979976049472",
      "longitude": "-90.06405918653729"
    }
  },
  {
    "service_request": "2023-982600",
    "request_type": "Health Related Request",
    "request_reason": "Noise Ordinance Complaint",
    "date_created": "2023-03-14T01:16:32.000",
    "date_modified": "2023-03-14T01:16:32.000",
    "request_status": "Pending",
    "responsible_agency": "Health Department",
    "final_address": "1328 St Bernard Ave",
    "address_councildis": "C",
    "status": "Pending",
    "rowid": "982600",
    "final_x": "3682712.52284",
    "final_y": "536735.540615",
    "longitude": "-90.06405918653729",
    "latitude": "29.96979976049472",
    "geocoded_column": {
      "latitude": "29.96979976049472",
      "longitude": "-90.06405918653729"
    }
  },
  {
    "service_request": "2023-982599",
    "request_type": "Property Maintenance",
    "request_reason": "Property Maintenance",
    "date_created": "2023-03-14T00:44:11.000",
    "date_modified": "2023-03-14T00:44:11.000",
    "request_status": "Pending",
    "responsible_agency": "Department of Code Enforcement",
    "final_address": "1938 Toledano St",
    "address_councildis": "B",
    "status": "Pending",
    "rowid": "982599",
    "final_x": "3673980.67585",
    "final_y": "522974.949819",
    "longitude": "-90.09210596135229",
    "latitude": "29.932225764557092",
    "geocoded_column": {
      "latitude": "29.932225764557092",
      "longitude": "-90.09210596135229"
    }
  },
  {
    "service_request": "2023-982598",
    "request_type": "Trash/Recycling",
    "request_reason": "MIssed Recycling Pick-Up",
    "date_created": "2023-03-14T00:32:44.000",
    "date_modified": "2023-03-14T00:32:45.000",
    "request_status": "Pending",
    "responsible_agency": "Department of Sanitation",
    "final_address": "6517 Maumus Ave",
    "address_councildis": "C",
    "status": "Assigned to Contractor",
    "contractor": "Richards Disposal",
    "rowid": "982598",
    "final_x": "3707956.78001",
    "final_y": "516625.427957",
    "longitude": "-89.98508347364522",
    "latitude": "29.913711073563572",
    "geocoded_column": {
      "latitude": "29.913711073563572",
      "longitude": "-89.98508347364522"
    }
  },
  {
    "service_request": "2023-982597",
    "request_type": "Trash/Recycling",
    "request_reason": "Missed Trash Pick-Up",
    "date_created": "2023-03-13T23:07:24.000",
    "date_modified": "2023-03-13T23:07:25.000",
    "request_status": "Pending",
    "responsible_agency": "Department of Sanitation",
    "final_address": "2624 Clara St",
    "address_councildis": "B",
    "status": "Assigned to Contractor",
    "contractor": "Richards Disposal",
    "rowid": "982597",
    "final_x": "3673942.29748",
    "final_y": "526238.740862",
    "longitude": "-90.0921155071691",
    "latitude": "29.94120126974368",
    "geocoded_column": {
      "latitude": "29.94120126974368",
      "longitude": "-90.0921155071691"
    }
  },
  {
    "service_request": "2023-982596",
    "request_type": "Traffic Signals/Signs/Striping/Streetlights",
    "request_reason": "Street Light Outage/Malfunction",
    "date_created": "2023-03-13T22:37:39.000",
    "date_modified": "2023-03-13T22:37:40.000",
    "request_status": "Pending",
    "responsible_agency": "Department of Public Works",
    "final_address": "3727 Gentilly Blvd",
    "address_councildis": "D",
    "status": "Assigned to Contractor",
    "contractor": "Legacy Professional Services",
    "rowid": "982596",
    "final_x": "3687190.07983",
    "final_y": "548984.651731",
    "longitude": "-90.04948525259114",
    "latitude": "30.003343313154225",
    "geocoded_column": {
      "latitude": "30.003343313154225",
      "longitude": "-90.04948525259114"
    }
  },
  {
    "service_request": "2023-982595",
    "request_type": "Trash/Recycling",
    "request_reason": "Missed Trash Pick-Up",
    "date_created": "2023-03-13T22:06:44.000",
    "date_modified": "2023-03-13T22:06:44.000",
    "request_status": "Pending",
    "responsible_agency": "Department of Sanitation",
    "final_address": "7017 Queensway Dr",
    "address_councildis": "E",
    "status": "Assigned to Contractor",
    "contractor": "Waste Pro",
    "rowid": "982595",
    "final_x": "3719329.78098",
    "final_y": "569386.184934",
    "longitude": "-89.947172570199",
    "latitude": "30.05840998211107",
    "geocoded_column": {
      "latitude": "30.05840998211107",
      "longitude": "-89.947172570199"
    }
  },
  {
    "service_request": "2023-982594",
    "request_type": "Traffic Signals/Signs/Striping/Streetlights",
    "request_reason": "Traffic Signal Malfunctioning/Damaged",
    "date_created": "2023-03-13T21:55:47.000",
    "date_modified": "2023-03-13T21:55:48.000",
    "request_status": "Pending",
    "responsible_agency": "Department of Public Works",
    "final_address": "GENERAL DE GAULLE DR & WESTBEND PKWY",
    "address_councildis": "C",
    "status": "Pending",
    "rowid": "982594",
    "final_x": "3696463.6",
    "final_y": "520687.78",
    "longitude": "-90.02121258781013",
    "latitude": "29.92524801305741",
    "geocoded_column": {
      "latitude": "29.92524801305741",
      "longitude": "-90.02121258781013"
    }
  },
  {
    "service_request": "2023-982593",
    "request_type": "Trash/Recycling",
    "request_reason": "MIssed Recycling Pick-Up",
    "date_created": "2023-03-13T21:29:01.000",
    "date_modified": "2023-03-13T21:29:01.000",
    "request_status": "Pending",
    "responsible_agency": "Department of Sanitation",
    "final_address": "311 Eliza St",
    "address_councildis": "C",
    "status": "Assigned to Contractor",
    "contractor": "Richards Disposal",
    "rowid": "982593",
    "final_x": "3686447.65129",
    "final_y": "529467.897729",
    "longitude": "-90.05251988555302",
    "latitude": "29.94970195366802",
    "geocoded_column": {
      "latitude": "29.94970195366802",
      "longitude": "-90.05251988555302"
    }
  },
  {
    "service_request": "2023-982592",
    "request_type": "Trash/Recycling",
    "request_reason": "Repair Trash Cart",
    "date_created": "2023-03-13T21:16:10.000",
    "date_modified": "2023-03-13T21:16:11.000",
    "request_status": "Pending",
    "responsible_agency": "Department of Sanitation",
    "final_address": "7518 Plum St",
    "address_councildis": "A",
    "status": "Assigned to Contractor",
    "contractor": "Richards Disposal",
    "rowid": "982592",
    "final_x": "3663745.60698",
    "final_y": "527183.541311",
    "longitude": "-90.12427704584896",
    "latitude": "29.944098943523088",
    "geocoded_column": {
      "latitude": "29.944098943523088",
      "longitude": "-90.12427704584896"
    }
  },
  {
    "service_request": "2023-982591",
    "request_type": "Trash/Recycling",
    "request_reason": "Request a Large Item Pick Up",
    "date_created": "2023-03-13T21:13:58.000",
    "date_modified": "2023-03-13T21:13:58.000",
    "request_status": "Pending",
    "responsible_agency": "Department of Sanitation",
    "final_address": "614 Esplanade Ave, New Orleans, Louisiana, 70116",
    "address_councildis": "C",
    "status": "Assigned to Contractor",
    "contractor": "Empire Services",
    "rowid": "982591",
    "final_x": "3684193.25231",
    "final_y": "534226.798277",
    "longitude": "-90.05947099322388",
    "latitude": "29.962856401929088",
    "geocoded_column": {
      "latitude": "29.962856401929088",
      "longitude": "-90.05947099322388"
    }
  },
  {
    "service_request": "2023-982590",
    "request_type": "Traffic Signals/Signs/Striping/Streetlights",
    "request_reason": "Street Light Outage/Malfunction",
    "date_created": "2023-03-13T21:06:37.000",
    "date_modified": "2023-03-13T21:06:37.000",
    "request_status": "Pending",
    "responsible_agency": "Department of Public Works",
    "final_address": "7809 Bass St",
    "address_councildis": "E",
    "status": "Assigned to Contractor",
    "contractor": "Legacy Professional Services",
    "rowid": "982590",
    "final_x": "3720040.40242",
    "final_y": "573790.885674",
    "longitude": "-89.94475767485572",
    "latitude": "30.070497403970194",
    "geocoded_column": {
      "latitude": "30.070497403970194",
      "longitude": "-89.94475767485572"
    }
  },
  {
    "service_request": "2023-982589",
    "request_type": "Trash/Recycling",
    "request_reason": "Dead Animal Pick Up",
    "date_created": "2023-03-13T21:00:30.000",
    "date_modified": "2023-03-13T21:00:31.000",
    "request_status": "Pending",
    "responsible_agency": "Department of Sanitation",
    "final_address": "6700 Pontchartrain Blvd",
    "address_councildis": "A",
    "status": "Assigned to Contractor",
    "contractor": "IV Waste",
    "rowid": "982589",
    "final_x": "3666306.24154",
    "final_y": "552675.175126",
    "longitude": "-90.11533685108907",
    "latitude": "30.014117828331788",
    "geocoded_column": {
      "latitude": "30.014117828331788",
      "longitude": "-90.11533685108907"
    }
  },
  {
    "service_request": "2023-982587",
    "request_type": "Traffic Signals/Signs/Striping/Streetlights",
    "request_reason": "Street Light Outage/Malfunction",
    "date_created": "2023-03-13T20:45:33.000",
    "date_modified": "2023-03-13T20:45:33.000",
    "request_status": "Pending",
    "responsible_agency": "Department of Public Works",
    "final_address": "7931 Wave Dr",
    "address_councildis": "E",
    "status": "Assigned to Contractor",
    "contractor": "Legacy Professional Services",
    "rowid": "982587",
    "final_x": "3714286.42738",
    "final_y": "569822.703078",
    "longitude": "-89.96309742766941",
    "latitude": "30.059777019172074",
    "geocoded_column": {
      "latitude": "30.059777019172074",
      "longitude": "-89.96309742766941"
    }
  },
  {
    "service_request": "2023-982586",
    "request_type": "Traffic Signals/Signs/Striping/Streetlights",
    "request_reason": "Street Light Outage/Malfunction",
    "date_created": "2023-03-13T20:44:17.000",
    "date_modified": "2023-03-13T20:44:18.000",
    "request_status": "Pending",
    "responsible_agency": "Department of Public Works",
    "final_address": "BELLAIRE DR & ETHEL LN",
    "address_councildis": "A",
    "status": "Assigned to Contractor",
    "contractor": "Legacy Professional Services",
    "rowid": "982586",
    "final_x": "3663921.6",
    "final_y": "541502.38",
    "longitude": "-90.1232439486889",
    "latitude": "29.983465946664598",
    "geocoded_column": {
      "latitude": "29.983465946664598",
      "longitude": "-90.1232439486889"
    }
  },
  {
    "service_request": "2023-982585",
    "request_type": "Trash/Recycling",
    "request_reason": "Replace Trash Cart",
    "date_created": "2023-03-13T20:23:18.000",
    "date_modified": "2023-03-13T20:23:19.000",
    "request_status": "Pending",
    "responsible_agency": "Department of Sanitation",
    "final_address": "6819 Louisville St",
    "address_councildis": "A",
    "status": "Assigned to Contractor",
    "contractor": "IV Waste",
    "rowid": "982585",
    "final_x": "3668349.10868",
    "final_y": "552942.023639",
    "longitude": "-90.10887339030455",
    "latitude": "30.014791700748273",
    "geocoded_column": {
      "latitude": "30.014791700748273",
      "longitude": "-90.10887339030455"
    }
  },
  {
    "service_request": "2023-982584",
    "request_type": "Traffic Signals/Signs/Striping/Streetlights",
    "request_reason": "Street Light Outage/Malfunction",
    "date_created": "2023-03-13T20:12:35.000",
    "date_modified": "2023-03-13T20:12:35.000",
    "request_status": "Pending",
    "responsible_agency": "Department of Public Works",
    "final_address": "3921 Palmyra St",
    "address_councildis": "A",
    "status": "Assigned to Contractor",
    "contractor": "Legacy Professional Services",
    "rowid": "982584",
    "final_x": "3671186.12769",
    "final_y": "537380.496776",
    "longitude": "-90.100438781535",
    "latitude": "29.971919216415333",
    "geocoded_column": {
      "latitude": "29.971919216415333",
      "longitude": "-90.100438781535"
    }
  },
  {
    "service_request": "2023-982582",
    "request_type": "Traffic Signals/Signs/Striping/Streetlights",
    "request_reason": "Street Light Outage/Malfunction",
    "date_created": "2023-03-13T20:03:22.000",
    "date_modified": "2023-03-13T20:05:47.000",
    "request_status": "Pending",
    "responsible_agency": "Department of Public Works",
    "final_address": "2431 Congress St",
    "address_councildis": "D",
    "status": "Assigned to Contractor",
    "contractor": "Legacy Professional Services",
    "rowid": "982582",
    "final_x": "3692025.19401",
    "final_y": "540699.420619",
    "longitude": "-90.03450712849856",
    "latitude": "29.980412083972233",
    "geocoded_column": {
      "latitude": "29.980412083972233",
      "longitude": "-90.03450712849856"
    }
  },
  {
    "service_request": "2023-982581",
    "request_type": "Trash/Recycling",
    "request_reason": "Order Recycling Cart",
    "date_created": "2023-03-13T19:55:04.000",
    "date_modified": "2023-03-13T19:55:04.000",
    "request_status": "Pending",
    "responsible_agency": "Department of Sanitation",
    "final_address": "321 Jewel St",
    "address_councildis": "D",
    "status": "Pending",
    "rowid": "982581",
    "final_x": "3667625.46305",
    "final_y": "555898.773785",
    "longitude": "-90.11106011839301",
    "latitude": "30.02294296106776",
    "geocoded_column": {
      "latitude": "30.02294296106776",
      "longitude": "-90.11106011839301"
    }
  },
  {
    "service_request": "2023-982580",
    "request_type": "Traffic Signals/Signs/Striping/Streetlights",
    "request_reason": "Street Light Outage/Malfunction",
    "date_created": "2023-03-13T19:53:15.000",
    "date_modified": "2023-03-13T19:53:16.000",
    "request_status": "Pending",
    "responsible_agency": "Department of Public Works",
    "final_address": "5828 Orleans Ave",
    "address_councildis": "A",
    "status": "Assigned to Contractor",
    "contractor": "Legacy Professional Services",
    "rowid": "982580",
    "final_x": "3670734.14337",
    "final_y": "546000.332176",
    "longitude": "-90.10157358268891",
    "latitude": "29.995634185564683",
    "geocoded_column": {
      "latitude": "29.995634185564683",
      "longitude": "-90.10157358268891"
    }
  },
  {
    "service_request": "2023-982579",
    "request_type": "Traffic Signals/Signs/Striping/Streetlights",
    "request_reason": "Street Light Outage/Malfunction",
    "date_created": "2023-03-13T19:50:41.000",
    "date_modified": "2023-03-13T19:50:42.000",
    "request_status": "Pending",
    "responsible_agency": "Department of Public Works",
    "final_address": "5828 Orleans Ave",
    "address_councildis": "A",
    "status": "Assigned to Contractor",
    "contractor": "Legacy Professional Services",
    "rowid": "982579",
    "final_x": "3670734.14337",
    "final_y": "546000.332176",
    "longitude": "-90.10157358268891",
    "latitude": "29.995634185564683",
    "geocoded_column": {
      "latitude": "29.995634185564683",
      "longitude": "-90.10157358268891"
    }
  },
  {
    "service_request": "2023-982578",
    "request_type": "Abandoned Vehicles",
    "request_reason": "Vehicle Blocking Your Driveway",
    "date_created": "2023-03-13T19:42:03.000",
    "date_modified": "2023-03-13T19:42:03.000",
    "request_status": "Pending",
    "responsible_agency": "Department of Public Works",
    "final_address": "2641 Ursulines Ave. NOLA 70119",
    "status": "Pending",
    "rowid": "982578",
    "longitude": "0.0",
    "latitude": "0.0",
    "geocoded_column": {
      "latitude": "0.0",
      "longitude": "0.0"
    }
  },
  {
    "service_request": "2023-982577",
    "request_type": "Trash/Recycling",
    "request_reason": "Order Trash Cart",
    "date_created": "2023-03-13T19:33:51.000",
    "date_modified": "2023-03-13T19:33:52.000",
    "request_status": "Pending",
    "responsible_agency": "Department of Sanitation",
    "final_address": "1306 Pacific Ave, New Orleans, Louisiana, 70114",
    "address_councildis": "C",
    "status": "Assigned to Contractor",
    "contractor": "Richards Disposal",
    "rowid": "982577",
    "final_x": "3688412.09839",
    "final_y": "526698.078462",
    "longitude": "-90.0464154699488",
    "latitude": "29.942025371308386",
    "geocoded_column": {
      "latitude": "29.942025371308386",
      "longitude": "-90.0464154699488"
    }
  },
  {
    "service_request": "2023-982575",
    "request_type": "Trash/Recycling",
    "request_reason": "Request a Large Item Pick Up",
    "date_created": "2023-03-13T19:08:17.000",
    "date_modified": "2023-03-13T19:08:18.000",
    "request_status": "Pending",
    "responsible_agency": "Department of Sanitation",
    "final_address": "2209 S Lopez St",
    "address_councildis": "A",
    "status": "Assigned to Contractor",
    "contractor": "Richards Disposal",
    "rowid": "982575",
    "final_x": "3668970.46196",
    "final_y": "529105.9792",
    "longitude": "-90.10771574609977",
    "latitude": "29.949232395674844",
    "geocoded_column": {
      "latitude": "29.949232395674844",
      "longitude": "-90.10771574609977"
    }
  },
  {
    "service_request": "2023-982573",
    "request_type": "Trash/Recycling",
    "request_reason": "Order Recycling Cart",
    "date_created": "2023-03-13T19:06:55.000",
    "date_modified": "2023-03-13T19:06:55.000",
    "request_status": "Pending",
    "responsible_agency": "Department of Sanitation",
    "final_address": "2813 Palmer Ave",
    "address_councildis": "A",
    "status": "Pending",
    "rowid": "982573",
    "final_x": "3666946.37242",
    "final_y": "526906.615678",
    "longitude": "-90.11418060107485",
    "latitude": "29.943244233233113",
    "geocoded_column": {
      "latitude": "29.943244233233113",
      "longitude": "-90.11418060107485"
    }
  },
  {
    "service_request": "2023-982572",
    "request_type": "Abandoned Vehicles",
    "request_reason": "Abandoned/Junk Vehicles",
    "date_created": "2023-03-13T19:01:00.000",
    "date_modified": "2023-03-13T19:01:00.000",
    "request_status": "Pending",
    "responsible_agency": "Department of Public Works",
    "final_address": "2713 DAbadie St",
    "address_councildis": "D",
    "status": "Pending",
    "rowid": "982572",
    "final_x": "3679164.19074",
    "final_y": "541077.857548",
    "longitude": "-90.07511456390446",
    "latitude": "29.981847233527525",
    "geocoded_column": {
      "latitude": "29.981847233527525",
      "longitude": "-90.07511456390446"
    }
  },
  {
    "service_request": "2023-982571",
    "request_type": "Trash/Recycling",
    "request_reason": "Request a Large Item Pick Up",
    "date_created": "2023-03-13T19:00:49.000",
    "date_modified": "2023-03-13T19:00:50.000",
    "request_status": "Pending",
    "responsible_agency": "Department of Sanitation",
    "final_address": "2854 Fortin St",
    "address_councildis": "A",
    "status": "Assigned to Contractor",
    "contractor": "IV Waste",
    "rowid": "982571",
    "final_x": "3677936.82293",
    "final_y": "540875.344715",
    "longitude": "-90.07899817656201",
    "latitude": "29.981327394520708",
    "geocoded_column": {
      "latitude": "29.981327394520708",
      "longitude": "-90.07899817656201"
    }
  },
  {
    "service_request": "2023-982570",
    "request_type": "Abandoned Vehicles",
    "request_reason": "Abandoned/Junk Vehicles",
    "date_created": "2023-03-13T18:58:17.000",
    "date_modified": "2023-03-13T18:58:17.000",
    "request_status": "Pending",
    "responsible_agency": "Department of Public Works",
    "final_address": "2713 DAbadie St",
    "address_councildis": "D",
    "status": "Pending",
    "rowid": "982570",
    "final_x": "3679164.19074",
    "final_y": "541077.857548",
    "longitude": "-90.07511456390446",
    "latitude": "29.981847233527525",
    "geocoded_column": {
      "latitude": "29.981847233527525",
      "longitude": "-90.07511456390446"
    }
  },
  {
    "service_request": "2023-982569",
    "request_type": "Trash/Recycling",
    "request_reason": "Request a Large Item Pick Up",
    "date_created": "2023-03-13T18:51:36.000",
    "date_modified": "2023-03-13T18:51:37.000",
    "request_status": "Pending",
    "responsible_agency": "Department of Sanitation",
    "final_address": "2425 Independence St, New Orleans, Louisiana, 70117",
    "address_councildis": "D",
    "status": "Assigned to Contractor",
    "contractor": "IV Waste",
    "rowid": "982569",
    "final_x": "3692291.60464",
    "final_y": "540614.608587",
    "longitude": "-90.03366873129565",
    "latitude": "29.98017057516085",
    "geocoded_column": {
      "latitude": "29.98017057516085",
      "longitude": "-90.03366873129565"
    }
  },
  {
    "service_request": "2023-982568",
    "request_type": "Property Maintenance",
    "request_reason": "Property Maintenance",
    "date_created": "2023-03-13T18:33:59.000",
    "date_modified": "2023-03-13T18:33:59.000",
    "request_status": "Pending",
    "responsible_agency": "Department of Code Enforcement",
    "final_address": "2632 Martin Luther King, Jr. Blvd",
    "address_councildis": "B",
    "status": "Pending",
    "rowid": "982568",
    "final_x": "3675883.41083",
    "final_y": "527541.242303",
    "longitude": "-90.08594227499403",
    "latitude": "29.9447247596226",
    "geocoded_column": {
      "latitude": "29.9447247596226",
      "longitude": "-90.08594227499403"
    }
  },
  {
    "service_request": "2023-982567",
    "request_type": "Trash/Recycling",
    "request_reason": "Repair Trash Cart",
    "date_created": "2023-03-13T18:30:25.000",
    "date_modified": "2023-03-13T18:30:26.000",
    "request_status": "Pending",
    "responsible_agency": "Department of Sanitation",
    "final_address": "1016 First St",
    "address_councildis": "B",
    "status": "Assigned to Contractor",
    "contractor": "Richards Disposal",
    "rowid": "982567",
    "final_x": "3678158.71381",
    "final_y": "521296.637881",
    "longitude": "-90.07897429372254",
    "latitude": "29.927485847998724",
    "geocoded_column": {
      "latitude": "29.927485847998724",
      "longitude": "-90.07897429372254"
    }
  },
  {
    "service_request": "2023-982566",
    "request_type": "Abandoned Vehicles",
    "request_reason": "Abandoned/Junk Vehicles",
    "date_created": "2023-03-13T18:28:07.000",
    "date_modified": "2023-03-13T18:28:07.000",
    "request_status": "Pending",
    "responsible_agency": "Department of Public Works",
    "final_address": "1022 First St",
    "address_councildis": "B",
    "status": "Pending",
    "rowid": "982566",
    "final_x": "3678132.74517",
    "final_y": "521332.211961",
    "longitude": "-90.07905504109316",
    "latitude": "29.927584446778187",
    "geocoded_column": {
      "latitude": "29.927584446778187",
      "longitude": "-90.07905504109316"
    }
  },
  {
    "service_request": "2023-982565",
    "request_type": "Trash/Recycling",
    "request_reason": "Missed Trash Pick-Up",
    "date_created": "2023-03-13T18:25:35.000",
    "date_modified": "2023-03-13T18:25:36.000",
    "request_status": "Pending",
    "responsible_agency": "Department of Sanitation",
    "final_address": "2601 Calhoun St",
    "address_councildis": "A",
    "status": "Assigned to Contractor",
    "contractor": "Richards Disposal",
    "rowid": "982565",
    "final_x": "3666374.15777",
    "final_y": "526372.882942",
    "longitude": "-90.11600513664193",
    "latitude": "29.941793368244124",
    "geocoded_column": {
      "latitude": "29.941793368244124",
      "longitude": "-90.11600513664193"
    }
  },
  {
    "service_request": "2023-982564",
    "request_type": "Trash/Recycling",
    "request_reason": "Missed Trash Pick-Up",
    "date_created": "2023-03-13T18:25:28.000",
    "date_modified": "2023-03-13T18:25:28.000",
    "request_status": "Pending",
    "responsible_agency": "Department of Sanitation",
    "final_address": "2601 Calhoun St",
    "address_councildis": "A",
    "status": "Assigned to Contractor",
    "contractor": "Richards Disposal",
    "rowid": "982564",
    "final_x": "3666374.15777",
    "final_y": "526372.882942",
    "longitude": "-90.11600513664193",
    "latitude": "29.941793368244124",
    "geocoded_column": {
      "latitude": "29.941793368244124",
      "longitude": "-90.11600513664193"
    }
  },
  {
    "service_request": "2023-982563",
    "request_type": "Property Maintenance",
    "request_reason": "Property Maintenance",
    "date_created": "2023-03-13T18:22:24.000",
    "date_modified": "2023-03-13T18:22:24.000",
    "request_status": "Pending",
    "responsible_agency": "Department of Code Enforcement",
    "final_address": "700 Commerce St",
    "address_councildis": "B",
    "status": "Pending",
    "rowid": "982563",
    "final_x": "3682026.90696",
    "final_y": "528124.928063",
    "longitude": "-90.06652506229699",
    "latitude": "29.9461443729485",
    "geocoded_column": {
      "latitude": "29.9461443729485",
      "longitude": "-90.06652506229699"
    }
  },
  {
    "service_request": "2023-982562",
    "request_type": "Traffic Signals/Signs/Striping/Streetlights",
    "request_reason": "Street Light Outage/Malfunction",
    "date_created": "2023-03-13T18:21:15.000",
    "date_modified": "2023-03-13T18:22:45.000",
    "request_status": "Pending",
    "responsible_agency": "Department of Public Works",
    "final_address": "5760 E Louis PRIMA Dr. New Orleans La, 70128",
    "address_councildis": "E",
    "status": "Assigned to Contractor",
    "contractor": "Legacy Professional Services",
    "rowid": "982562",
    "final_x": "3715938.35692",
    "final_y": "562386.138207",
    "longitude": "-89.95815794515165",
    "latitude": "30.03927508677445",
    "geocoded_column": {
      "latitude": "30.03927508677445",
      "longitude": "-89.95815794515165"
    }
  },
  {
    "service_request": "2023-982561",
    "request_type": "Trash/Recycling",
    "request_reason": "Request a Large Item Pick Up",
    "date_created": "2023-03-13T18:11:08.000",
    "date_modified": "2023-03-13T18:11:09.000",
    "request_status": "Pending",
    "responsible_agency": "Department of Sanitation",
    "final_address": "7400 BLK Camberley Dr",
    "address_councildis": "E",
    "status": "Assigned to Contractor",
    "contractor": "Waste Pro",
    "rowid": "982561",
    "final_x": "3712717.15589",
    "final_y": "565610.232412",
    "longitude": "-89.9682163874321",
    "latitude": "30.048245949549862",
    "geocoded_column": {
      "latitude": "30.048245949549862",
      "longitude": "-89.9682163874321"
    }
  },
  {
    "service_request": "2023-982560",
    "request_type": "Property Maintenance",
    "request_reason": "Property Maintenance",
    "date_created": "2023-03-13T18:01:39.000",
    "date_modified": "2023-03-13T18:01:39.000",
    "request_status": "Pending",
    "responsible_agency": "Department of Code Enforcement",
    "final_address": "3126 Arts St",
    "address_councildis": "D",
    "status": "Pending",
    "rowid": "982560",
    "final_x": "3686508.13564",
    "final_y": "544424.263887",
    "longitude": "-90.05180074546624",
    "latitude": "29.99082488002991",
    "geocoded_column": {
      "latitude": "29.99082488002991",
      "longitude": "-90.05180074546624"
    }
  },
  {
    "service_request": "2023-982559",
    "request_type": "Property Maintenance",
    "request_reason": "Property Maintenance",
    "date_created": "2023-03-13T17:56:58.000",
    "date_modified": "2023-03-13T17:56:59.000",
    "request_status": "Pending",
    "responsible_agency": "Department of Code Enforcement",
    "final_address": "3718 N Villere St",
    "address_councildis": "D",
    "status": "Pending",
    "rowid": "982559",
    "final_x": "3691366.84438",
    "final_y": "536550.264263",
    "longitude": "-90.03673476092304",
    "latitude": "29.96902387962756",
    "geocoded_column": {
      "latitude": "29.96902387962756",
      "longitude": "-90.03673476092304"
    }
  },
  {
    "service_request": "2023-982558",
    "request_type": "Trash/Recycling",
    "request_reason": "Request a Large Item Pick Up",
    "date_created": "2023-03-13T17:50:26.000",
    "date_modified": "2023-03-13T17:50:27.000",
    "request_status": "Pending",
    "responsible_agency": "Department of Sanitation",
    "final_address": "6301 General Haig St",
    "address_councildis": "A",
    "status": "Assigned to Contractor",
    "contractor": "IV Waste",
    "rowid": "982558",
    "final_x": "3670816.50855",
    "final_y": "549193.587923",
    "longitude": "-90.10120492941775",
    "latitude": "30.004412092293165",
    "geocoded_column": {
      "latitude": "30.004412092293165",
      "longitude": "-90.10120492941775"
    }
  },
  {
    "service_request": "2023-982557",
    "request_type": "Abandoned Vehicles",
    "request_reason": "Abandoned/Junk Vehicles",
    "date_created": "2023-03-13T17:49:53.000",
    "date_modified": "2023-03-13T17:49:53.000",
    "request_status": "Pending",
    "responsible_agency": "Department of Public Works",
    "final_address": "4329 Wellington Ave",
    "address_councildis": "D",
    "status": "Pending",
    "rowid": "982557",
    "final_x": "3677315.1947",
    "final_y": "548290.906386",
    "longitude": "-90.08070551850322",
    "latitude": "30.001736290288385",
    "geocoded_column": {
      "latitude": "30.001736290288385",
      "longitude": "-90.08070551850322"
    }
  },
  {
    "service_request": "2023-982556",
    "request_type": "Abandoned Vehicles",
    "request_reason": "Abandoned/Junk Vehicles",
    "date_created": "2023-03-13T17:46:07.000",
    "date_modified": "2023-03-13T17:46:07.000",
    "request_status": "Pending",
    "responsible_agency": "Department of Public Works",
    "final_address": "4430 S Derbigny St",
    "address_councildis": "B",
    "status": "Pending",
    "rowid": "982556",
    "final_x": "3669991.52974",
    "final_y": "526185.59539",
    "longitude": "-90.10459065607371",
    "latitude": "29.941172221120723",
    "geocoded_column": {
      "latitude": "29.941172221120723",
      "longitude": "-90.10459065607371"
    }
  },
  {
    "service_request": "2023-982555",
    "request_type": "Trash/Recycling",
    "request_reason": "Missed Trash Pick-Up",
    "date_created": "2023-03-13T17:42:46.000",
    "date_modified": "2023-03-13T17:42:47.000",
    "request_status": "Pending",
    "responsible_agency": "Department of Sanitation",
    "final_address": "14812 Emory Rd",
    "address_councildis": "E",
    "status": "Assigned to Contractor",
    "contractor": "Waste Pro",
    "rowid": "982555",
    "final_x": "3720679.97145",
    "final_y": "573805.353002",
    "longitude": "-89.94273528792085",
    "latitude": "30.070515856547193",
    "geocoded_column": {
      "latitude": "30.070515856547193",
      "longitude": "-89.94273528792085"
    }
  },
  {
    "service_request": "2023-982554",
    "request_type": "Trash/Recycling",
    "request_reason": "Replace Recycling Cart",
    "date_created": "2023-03-13T17:40:41.000",
    "date_modified": "2023-03-13T17:40:41.000",
    "request_status": "Pending",
    "responsible_agency": "Department of Sanitation",
    "final_address": "7006 Pritchard Pl",
    "address_councildis": "B",
    "status": "Pending",
    "rowid": "982554",
    "final_x": "3667952.92877",
    "final_y": "531091.054402",
    "longitude": "-90.11086168922466",
    "latitude": "29.95472059168722",
    "geocoded_column": {
      "latitude": "29.95472059168722",
      "longitude": "-90.11086168922466"
    }
  },
  {
    "service_request": "2023-982553",
    "request_type": "Trash/Recycling",
    "request_reason": "Request a Large Item Pick Up",
    "date_created": "2023-03-13T17:38:31.000",
    "date_modified": "2023-03-13T17:38:32.000",
    "request_status": "Pending",
    "responsible_agency": "Department of Sanitation",
    "final_address": "8834 Birch St",
    "address_councildis": "A",
    "status": "Assigned to Contractor",
    "contractor": "Richards Disposal",
    "rowid": "982553",
    "final_x": "3660840.6144",
    "final_y": "531242.073602",
    "longitude": "-90.13331477039974",
    "latitude": "29.955342573246597",
    "geocoded_column": {
      "latitude": "29.955342573246597",
      "longitude": "-90.13331477039974"
    }
  },
  {
    "service_request": "2023-982552",
    "request_type": "Property Maintenance",
    "request_reason": "Property Maintenance",
    "date_created": "2023-03-13T17:37:26.000",
    "date_modified": "2023-03-13T17:37:26.000",
    "request_status": "Pending",
    "responsible_agency": "Department of Code Enforcement",
    "final_address": "5321 Wilton Dr",
    "address_councildis": "D",
    "status": "Pending",
    "rowid": "982552",
    "final_x": "3681969.91925",
    "final_y": "552743.144854",
    "longitude": "-90.06584519061145",
    "latitude": "30.013837602843974",
    "geocoded_column": {
      "latitude": "30.013837602843974",
      "longitude": "-90.06584519061145"
    }
  },
  {
    "service_request": "2023-982551",
    "request_type": "Trash/Recycling",
    "request_reason": "MIssed Recycling Pick-Up",
    "date_created": "2023-03-13T17:36:32.000",
    "date_modified": "2023-03-13T17:36:32.000",
    "request_status": "Pending",
    "responsible_agency": "Department of Sanitation",
    "final_address": "323 Eliza St, New Orleans, Louisiana, 70114",
    "address_councildis": "C",
    "status": "Assigned to Contractor",
    "contractor": "Richards Disposal",
    "rowid": "982551",
    "final_x": "3686529.09986",
    "final_y": "529528.384577",
    "longitude": "-90.0522605805592",
    "latitude": "29.94986576824648",
    "geocoded_column": {
      "latitude": "29.94986576824648",
      "longitude": "-90.0522605805592"
    }
  },
  {
    "service_request": "2023-982550",
    "request_type": "Trash/Recycling",
    "request_reason": "Request a Large Item Pick Up",
    "date_created": "2023-03-13T17:35:38.000",
    "date_modified": "2023-03-13T17:35:39.000",
    "request_status": "Pending",
    "responsible_agency": "Department of Sanitation",
    "final_address": "6644 Bamberry St",
    "address_councildis": "E",
    "status": "Assigned to Contractor",
    "contractor": "Waste Pro",
    "rowid": "982550",
    "final_x": "3698062.08816",
    "final_y": "558721.035868",
    "longitude": "-90.01478515099652",
    "latitude": "30.029775261008663",
    "geocoded_column": {
      "latitude": "30.029775261008663",
      "longitude": "-90.01478515099652"
    }
  },
  {
    "service_request": "2023-982549",
    "request_type": "Trash/Recycling",
    "request_reason": "Request a Large Item Pick Up",
    "date_created": "2023-03-13T17:35:32.000",
    "date_modified": "2023-03-13T17:35:33.000",
    "request_status": "Pending",
    "responsible_agency": "Department of Sanitation",
    "final_address": "4722 Eastern St",
    "address_councildis": "D",
    "status": "Assigned to Contractor",
    "contractor": "IV Waste",
    "rowid": "982549",
    "final_x": "3687974.11235",
    "final_y": "550568.924372",
    "longitude": "-90.04695219101913",
    "latitude": "30.007675307146236",
    "geocoded_column": {
      "latitude": "30.007675307146236",
      "longitude": "-90.04695219101913"
    }
  },
  {
    "service_request": "2023-982548",
    "request_type": "Trash/Recycling",
    "request_reason": "Missed Trash Pick-Up",
    "date_created": "2023-03-13T17:33:37.000",
    "date_modified": "2023-03-13T17:33:38.000",
    "request_status": "Pending",
    "responsible_agency": "Department of Sanitation",
    "final_address": "6316 Urquhart St",
    "address_councildis": "E",
    "status": "Assigned to Contractor",
    "contractor": "Waste Pro",
    "rowid": "982548",
    "final_x": "3700549.48721",
    "final_y": "533642.137989",
    "longitude": "-90.00784178175002",
    "latitude": "29.960738670296873",
    "geocoded_column": {
      "latitude": "29.960738670296873",
      "longitude": "-90.00784178175002"
    }
  },
  {
    "service_request": "2023-982547",
    "request_type": "Trash/Recycling",
    "request_reason": "Request a Large Item Pick Up",
    "date_created": "2023-03-13T17:31:28.000",
    "date_modified": "2023-03-13T17:31:28.000",
    "request_status": "Pending",
    "responsible_agency": "Department of Sanitation",
    "final_address": "931 N Tonti St",
    "address_councildis": "D",
    "status": "Assigned to Contractor",
    "contractor": "Richards Disposal",
    "rowid": "982547",
    "final_x": "3678302.37614",
    "final_y": "536986.383816",
    "longitude": "-90.07797816285691",
    "latitude": "29.97062308333351",
    "geocoded_column": {
      "latitude": "29.97062308333351",
      "longitude": "-90.07797816285691"
    }
  },
  {
    "service_request": "2023-982546",
    "request_type": "Property Maintenance",
    "request_reason": "Property Maintenance",
    "date_created": "2023-03-13T17:30:07.000",
    "date_modified": "2023-03-13T17:30:08.000",
    "request_status": "Pending",
    "responsible_agency": "Department of Code Enforcement",
    "final_address": "2123 Soniat St",
    "address_councildis": "B",
    "status": "Pending",
    "rowid": "982546",
    "final_x": "3668555.93722",
    "final_y": "523414.748795",
    "longitude": "-90.10921656122541",
    "latitude": "29.93359553615721",
    "geocoded_column": {
      "latitude": "29.93359553615721",
      "longitude": "-90.10921656122541"
    }
  },
  {
    "service_request": "2023-982545",
    "request_type": "Abandoned Vehicles",
    "request_reason": "Abandoned/Junk Vehicles",
    "date_created": "2023-03-13T17:18:35.000",
    "date_modified": "2023-03-13T17:18:35.000",
    "request_status": "Pending",
    "responsible_agency": "Department of Public Works",
    "final_address": "1340 Poland Ave",
    "address_councildis": "D",
    "status": "Pending",
    "rowid": "982545",
    "final_x": "3693250.14198",
    "final_y": "536086.919495",
    "longitude": "-90.0308038384269",
    "latitude": "29.967691113763987",
    "geocoded_column": {
      "latitude": "29.967691113763987",
      "longitude": "-90.0308038384269"
    }
  },
  {
    "service_request": "2023-982544",
    "request_type": "Abandoned Vehicles",
    "request_reason": "Abandoned/Junk Vehicles",
    "date_created": "2023-03-13T17:14:36.000",
    "date_modified": "2023-03-13T17:19:37.000",
    "request_status": "Pending",
    "responsible_agency": "Department of Public Works",
    "final_address": "2500 BLK Peace Ct",
    "address_councildis": "D",
    "status": "Pending",
    "rowid": "982544",
    "final_x": "3686322.43309",
    "final_y": "541041.204451",
    "longitude": "-90.05250678521314",
    "latitude": "29.98152837812512",
    "geocoded_column": {
      "latitude": "29.98152837812512",
      "longitude": "-90.05250678521314"
    }
  },
  {
    "service_request": "2023-982543",
    "request_type": "Roads/Drainage",
    "request_reason": "Pothole",
    "date_created": "2023-03-13T17:14:04.000",
    "date_modified": "2023-03-13T17:16:43.000",
    "request_status": "Pending",
    "responsible_agency": "Department of Public Works",
    "final_address": "1117 Bellecastle St, New Orleans, Louisiana, 70115",
    "address_councildis": "B",
    "rowid": "982543",
    "final_x": "3667708.46737",
    "final_y": "519172.829552",
    "longitude": "-90.11203472207451",
    "latitude": "29.921956472195372",
    "geocoded_column": {
      "latitude": "29.921956472195372",
      "longitude": "-90.11203472207451"
    }
  },
  {
    "service_request": "2023-982542",
    "request_type": "Trash/Recycling",
    "request_reason": "Illegal Dumping",
    "date_created": "2023-03-13T17:13:03.000",
    "date_modified": "2023-03-13T17:14:42.000",
    "request_status": "Pending",
    "responsible_agency": "Department of Sanitation",
    "final_address": "FRANKLIN AVE & GENTILLY BLVD",
    "address_councildis": "D",
    "rowid": "982542",
    "final_x": "3686927.77",
    "final_y": "548844.3",
    "longitude": "-90.05031889266762",
    "latitude": "30.002965475495987",
    "geocoded_column": {
      "latitude": "30.002965475495987",
      "longitude": "-90.05031889266762"
    }
  },
  {
    "service_request": "2023-982541",
    "request_type": "Traffic Signals/Signs/Striping/Streetlights",
    "request_reason": "Additional signage",
    "date_created": "2023-03-13T17:07:42.000",
    "date_modified": "2023-03-13T17:07:43.000",
    "request_status": "Pending",
    "responsible_agency": "Department of Public Works",
    "final_address": "173 Broadway St",
    "address_councildis": "A",
    "status": "Pending",
    "rowid": "982541",
    "final_x": "3661081.52474",
    "final_y": "521807.188602",
    "longitude": "-90.13286618213397",
    "latitude": "29.929392695420223",
    "geocoded_column": {
      "latitude": "29.929392695420223",
      "longitude": "-90.13286618213397"
    }
  },
  {
    "service_request": "2023-982540",
    "request_type": "Trash/Recycling",
    "request_reason": "Request a Large Item Pick Up",
    "date_created": "2023-03-13T17:02:44.000",
    "date_modified": "2023-03-13T17:02:45.000",
    "request_status": "Pending",
    "responsible_agency": "Department of Sanitation",
    "final_address": "3008 Mandeville St",
    "address_councildis": "D",
    "status": "Assigned to Contractor",
    "contractor": "IV Waste",
    "rowid": "982540",
    "final_x": "3685128.91817",
    "final_y": "543828.33627",
    "longitude": "-90.05617833317521",
    "latitude": "29.989228633647564",
    "geocoded_column": {
      "latitude": "29.989228633647564",
      "longitude": "-90.05617833317521"
    }
  },
  {
    "service_request": "2023-982539",
    "request_type": "Trash/Recycling",
    "request_reason": "Request a Large Item Pick Up",
    "date_created": "2023-03-13T16:53:01.000",
    "date_modified": "2023-03-13T16:53:02.000",
    "request_status": "Pending",
    "responsible_agency": "Department of Sanitation",
    "final_address": "729 Burgundy St",
    "address_councildis": "C",
    "status": "Assigned to Contractor",
    "contractor": "Empire Services",
    "rowid": "982539",
    "final_x": "3681824.31426",
    "final_y": "533341.578948",
    "longitude": "-90.06698268645985",
    "latitude": "29.960494554058187",
    "geocoded_column": {
      "latitude": "29.960494554058187",
      "longitude": "-90.06698268645985"
    }
  },
  {
    "service_request": "2023-982538",
    "request_type": "Trash/Recycling",
    "request_reason": "Request a Large Item Pick Up",
    "date_created": "2023-03-13T16:52:31.000",
    "date_modified": "2023-03-13T16:52:32.000",
    "request_status": "Pending",
    "responsible_agency": "Department of Sanitation",
    "final_address": "2761 Palmyra St",
    "address_councildis": "B",
    "status": "Assigned to Contractor",
    "contractor": "Richards Disposal",
    "rowid": "982538",
    "final_x": "3674449.83092",
    "final_y": "534831.40551",
    "longitude": "-90.09021880953685",
    "latitude": "29.964813115309372",
    "geocoded_column": {
      "latitude": "29.964813115309372",
      "longitude": "-90.09021880953685"
    }
  },
  {
    "service_request": "2023-982537",
    "request_type": "Traffic Signals/Signs/Striping/Streetlights",
    "request_reason": "Street Light Outage/Malfunction",
    "date_created": "2023-03-13T16:52:27.000",
    "date_modified": "2023-03-13T16:52:28.000",
    "request_status": "Pending",
    "responsible_agency": "Department of Public Works",
    "final_address": "3600 BLK Dauphine St",
    "address_councildis": "C",
    "status": "Assigned to Contractor",
    "contractor": "Legacy Professional Services",
    "rowid": "982537",
    "final_x": "3690553.36426",
    "final_y": "534401.422127",
    "longitude": "-90.03938041123716",
    "latitude": "29.963140603442053",
    "geocoded_column": {
      "latitude": "29.963140603442053",
      "longitude": "-90.03938041123716"
    }
  },
  {
    "service_request": "2023-982536",
    "request_type": "Abandoned Vehicles",
    "request_reason": "Abandoned/Junk Vehicles",
    "date_created": "2023-03-13T16:47:00.000",
    "date_modified": "2023-03-13T16:47:01.000",
    "request_status": "Pending",
    "responsible_agency": "Department of Public Works",
    "final_address": "4900 Toulon St",
    "address_councildis": "E",
    "status": "Pending",
    "rowid": "982536",
    "final_x": "3723679.97119",
    "final_y": "560682.371102",
    "longitude": "-89.93375829038916",
    "latitude": "30.034332684991195",
    "geocoded_column": {
      "latitude": "30.034332684991195",
      "longitude": "-89.93375829038916"
    }
  },
  {
    "service_request": "2023-982535",
    "request_type": "Trash/Recycling",
    "request_reason": "Order Recycling Cart",
    "date_created": "2023-03-13T16:46:59.000",
    "date_modified": "2023-03-13T16:46:59.000",
    "request_status": "Pending",
    "responsible_agency": "Department of Sanitation",
    "final_address": "1121 Delery St",
    "address_councildis": "E",
    "status": "Pending",
    "rowid": "982535",
    "final_x": "3700559.84887",
    "final_y": "533125.060356",
    "longitude": "-90.00782795036046",
    "latitude": "29.959316561900096",
    "geocoded_column": {
      "latitude": "29.959316561900096",
      "longitude": "-90.00782795036046"
    }
  },
  {
    "service_request": "2023-982534",
    "request_type": "EMS",
    "request_reason": "EMS Complaint",
    "date_created": "2023-03-13T16:46:05.000",
    "date_modified": "2023-03-13T16:46:06.000",
    "request_status": "Pending",
    "responsible_agency": "Emergency Medical Services",
    "status": "Pending",
    "rowid": "982534",
    "longitude": "0.0",
    "latitude": "0.0",
    "geocoded_column": {
      "latitude": "0.0",
      "longitude": "0.0"
    }
  },
  {
    "service_request": "2023-982533",
    "request_type": "Traffic Signals/Signs/Striping/Streetlights",
    "request_reason": "Traffic Sign Missing/Damaged",
    "date_created": "2023-03-13T16:44:22.000",
    "date_modified": "2023-03-13T16:44:22.000",
    "request_status": "Pending",
    "responsible_agency": "Department of Public Works",
    "final_address": "PHILIP ST & CONSTANCE ST",
    "address_councildis": "B",
    "status": "Pending",
    "rowid": "982533",
    "final_x": "3678772.5",
    "final_y": "521548.08",
    "longitude": "-90.0770280189126",
    "latitude": "29.92815874196705",
    "geocoded_column": {
      "latitude": "29.92815874196705",
      "longitude": "-90.0770280189126"
    }
  },
  {
    "service_request": "2023-982532",
    "request_type": "Trash/Recycling",
    "request_reason": "Request a Large Item Pick Up",
    "date_created": "2023-03-13T16:43:30.000",
    "date_modified": "2023-03-13T16:43:30.000",
    "request_status": "Pending",
    "responsible_agency": "Department of Sanitation",
    "final_address": "1225 Desire St",
    "address_councildis": "C",
    "status": "Assigned to Contractor",
    "contractor": "IV Waste",
    "rowid": "982532",
    "final_x": "3690356.61443",
    "final_y": "536271.912775",
    "longitude": "-90.03993504742822",
    "latitude": "29.96828990481821",
    "geocoded_column": {
      "latitude": "29.96828990481821",
      "longitude": "-90.03993504742822"
    }
  },
  {
    "service_request": "2023-982531",
    "request_type": "Traffic Signals/Signs/Striping/Streetlights",
    "request_reason": "Street Light Outage/Malfunction",
    "date_created": "2023-03-13T16:41:59.000",
    "date_modified": "2023-03-13T16:43:49.000",
    "request_status": "Pending",
    "responsible_agency": "Department of Public Works",
    "final_address": "3810 Gentilly Blvd",
    "address_councildis": "D",
    "status": "Assigned to Contractor",
    "contractor": "Legacy Professional Services",
    "rowid": "982531",
    "final_x": "3687849.60822",
    "final_y": "548775.485907",
    "longitude": "-90.04740912167146",
    "latitude": "30.002747847860743",
    "geocoded_column": {
      "latitude": "30.002747847860743",
      "longitude": "-90.04740912167146"
    }
  },
  {
    "service_request": "2023-982530",
    "request_type": "Trash/Recycling",
    "request_reason": "Request a Large Item Pick Up",
    "date_created": "2023-03-13T16:40:36.000",
    "date_modified": "2023-03-13T16:40:37.000",
    "request_status": "Pending",
    "responsible_agency": "Department of Sanitation",
    "final_address": "6511 General Diaz St",
    "address_councildis": "A",
    "status": "Assigned to Contractor",
    "contractor": "IV Waste",
    "rowid": "982530",
    "final_x": "3669917.54874",
    "final_y": "550707.541973",
    "longitude": "-90.10399360667277",
    "latitude": "30.0086014847787",
    "geocoded_column": {
      "latitude": "30.0086014847787",
      "longitude": "-90.10399360667277"
    }
  },
  {
    "service_request": "2023-982529",
    "request_type": "Traffic Signals/Signs/Striping/Streetlights",
    "request_reason": "Request for Traffic Calming due to Speeding",
    "date_created": "2023-03-13T16:40:24.000",
    "date_modified": "2023-03-13T16:41:49.000",
    "request_status": "Pending",
    "responsible_agency": "Department of Public Works",
    "final_address": "1112 Casa Calvo St",
    "address_councildis": "C",
    "status": "Pending",
    "rowid": "982529",
    "final_x": "3692165.27945",
    "final_y": "527257.802943",
    "longitude": "-90.03454589184254",
    "latitude": "29.94344798186939",
    "geocoded_column": {
      "latitude": "29.94344798186939",
      "longitude": "-90.03454589184254"
    }
  },
  {
    "service_request": "2023-982528",
    "request_type": "Trash/Recycling",
    "request_reason": "Missed Trash Pick-Up",
    "date_created": "2023-03-13T16:33:28.000",
    "date_modified": "2023-03-13T16:33:29.000",
    "request_status": "Pending",
    "responsible_agency": "Department of Sanitation",
    "final_address": "1645 Lesseps St",
    "address_councildis": "D",
    "status": "Assigned to Contractor",
    "contractor": "IV Waste",
    "rowid": "982528",
    "final_x": "3693282.63913",
    "final_y": "537276.687688",
    "longitude": "-90.03065849616152",
    "latitude": "29.970961538768204",
    "geocoded_column": {
      "latitude": "29.970961538768204",
      "longitude": "-90.03065849616152"
    }
  },
  {
    "service_request": "2023-982527",
    "request_type": "Property Maintenance",
    "request_reason": "Property Maintenance",
    "date_created": "2023-03-13T16:32:44.000",
    "date_modified": "2023-03-13T16:32:44.000",
    "request_status": "Pending",
    "responsible_agency": "Department of Code Enforcement",
    "final_address": "8010 Chef Menteur Hwy",
    "address_councildis": "E",
    "status": "Pending",
    "rowid": "982527",
    "final_x": "3705214.37022",
    "final_y": "552786.211926",
    "longitude": "-89.99240365020127",
    "latitude": "30.01322854735012",
    "geocoded_column": {
      "latitude": "30.01322854735012",
      "longitude": "-89.99240365020127"
    }
  },
  {
    "service_request": "2023-982526",
    "request_type": "Law Enforcement Services",
    "request_reason": "Off Duty Officer for Hire",
    "date_created": "2023-03-13T16:28:08.000",
    "date_modified": "2023-03-13T16:28:08.000",
    "request_status": "Pending",
    "responsible_agency": "Office of Police Secondary Employment",
    "status": "Pending",
    "rowid": "982526",
    "longitude": "0.0",
    "latitude": "0.0",
    "geocoded_column": {
      "latitude": "0.0",
      "longitude": "0.0"
    }
  },
  {
    "service_request": "2023-982525",
    "request_type": "Trash/Recycling",
    "request_reason": "Request a Large Item Pick Up",
    "date_created": "2023-03-13T16:21:43.000",
    "date_modified": "2023-03-13T16:21:44.000",
    "request_status": "Pending",
    "responsible_agency": "Department of Sanitation",
    "final_address": "469 Crystal St",
    "address_councildis": "D",
    "status": "Assigned to Contractor",
    "contractor": "IV Waste",
    "rowid": "982525",
    "final_x": "3668239.69325",
    "final_y": "556344.397914",
    "longitude": "-90.10910423850012",
    "latitude": "30.024150238708124",
    "geocoded_column": {
      "latitude": "30.024150238708124",
      "longitude": "-90.10910423850012"
    }
  },
  {
    "service_request": "2023-982524",
    "request_type": "Abandoned Vehicles",
    "request_reason": "Abandoned/Junk Vehicles",
    "date_created": "2023-03-13T16:20:52.000",
    "date_modified": "2023-03-13T16:20:53.000",
    "request_status": "Pending",
    "responsible_agency": "Department of Public Works",
    "final_address": "4809 Reynes St",
    "address_councildis": "E",
    "status": "Pending",
    "rowid": "982524",
    "final_x": "3699192.11575",
    "final_y": "555312.055833",
    "longitude": "-90.01133857900544",
    "latitude": "30.020366068074964",
    "geocoded_column": {
      "latitude": "30.020366068074964",
      "longitude": "-90.01133857900544"
    }
  },
  {
    "service_request": "2023-982523",
    "request_type": "Trash/Recycling",
    "request_reason": "Request a Large Item Pick Up",
    "date_created": "2023-03-13T16:17:29.000",
    "date_modified": "2023-03-13T16:17:30.000",
    "request_status": "Pending",
    "responsible_agency": "Department of Sanitation",
    "final_address": "2114 Simon Bolivar Ave",
    "address_councildis": "B",
    "status": "Assigned to Contractor",
    "contractor": "Richards Disposal",
    "rowid": "982523",
    "final_x": "3676473.03758",
    "final_y": "525576.195005",
    "longitude": "-90.08414828353308",
    "latitude": "29.93930386483447",
    "geocoded_column": {
      "latitude": "29.93930386483447",
      "longitude": "-90.08414828353308"
    }
  },
  {
    "service_request": "2023-982522",
    "request_type": "Parks & Parkways",
    "request_reason": "Request Tree Service (Right of Way/Public Property)",
    "date_created": "2023-03-13T16:16:16.000",
    "date_modified": "2023-03-13T16:16:17.000",
    "request_status": "Pending",
    "responsible_agency": "Department of Parks & Parkway",
    "final_address": "7421 Sheffield St",
    "address_councildis": "E",
    "status": "Pending",
    "rowid": "982522",
    "final_x": "3699493.3537",
    "final_y": "559711.864925",
    "longitude": "-90.01022623807616",
    "latitude": "30.032454294719255",
    "geocoded_column": {
      "latitude": "30.032454294719255",
      "longitude": "-90.01022623807616"
    }
  },
  {
    "service_request": "2023-982521",
    "request_type": "Traffic Signals/Signs/Striping/Streetlights",
    "request_reason": "Street Light Outage/Malfunction",
    "date_created": "2023-03-13T16:14:29.000",
    "date_modified": "2023-03-13T16:14:30.000",
    "request_status": "Pending",
    "responsible_agency": "Department of Public Works",
    "final_address": "7421 Sheffield St",
    "address_councildis": "E",
    "status": "Assigned to Contractor",
    "contractor": "Legacy Professional Services",
    "rowid": "982521",
    "final_x": "3699493.3537",
    "final_y": "559711.864925",
    "longitude": "-90.01022623807616",
    "latitude": "30.032454294719255",
    "geocoded_column": {
      "latitude": "30.032454294719255",
      "longitude": "-90.01022623807616"
    }
  },
  {
    "service_request": "2023-982520",
    "request_type": "Trash/Recycling",
    "request_reason": "Missed Trash Pick-Up",
    "date_created": "2023-03-13T16:12:55.000",
    "date_modified": "2023-03-13T16:12:56.000",
    "request_status": "Pending",
    "responsible_agency": "Department of Sanitation",
    "final_address": "2412 Soniat St",
    "address_councildis": "B",
    "status": "Assigned to Contractor",
    "contractor": "Richards Disposal",
    "rowid": "982520",
    "final_x": "3668483.77742",
    "final_y": "524400.490748",
    "longitude": "-90.10941112665276",
    "latitude": "29.936308129930914",
    "geocoded_column": {
      "latitude": "29.936308129930914",
      "longitude": "-90.10941112665276"
    }
  },
  {
    "service_request": "2023-982519",
    "request_type": "Trash/Recycling",
    "request_reason": "Illegal Dumping",
    "date_created": "2023-03-13T16:10:46.000",
    "date_modified": "2023-03-13T16:10:46.000",
    "request_status": "Pending",
    "responsible_agency": "Department of Sanitation",
    "final_address": "3417 First St",
    "address_councildis": "B",
    "status": "Pending",
    "rowid": "982519",
    "final_x": "3673366.67848",
    "final_y": "528695.66496",
    "longitude": "-90.09384893840895",
    "latitude": "29.947974137127908",
    "geocoded_column": {
      "latitude": "29.947974137127908",
      "longitude": "-90.09384893840895"
    }
  },
  {
    "service_request": "2023-982518",
    "request_type": "Trash/Recycling",
    "request_reason": "MIssed Recycling Pick-Up",
    "date_created": "2023-03-13T16:09:04.000",
    "date_modified": "2023-03-13T16:09:05.000",
    "request_status": "Pending",
    "responsible_agency": "Department of Sanitation",
    "final_address": "1675 St Thomas St",
    "address_councildis": "B",
    "status": "Assigned to Contractor",
    "contractor": "Richards Disposal",
    "rowid": "982518",
    "final_x": "3681347.43324",
    "final_y": "522138.97049",
    "longitude": "-90.06887895489903",
    "latitude": "29.929705617314124",
    "geocoded_column": {
      "latitude": "29.929705617314124",
      "longitude": "-90.06887895489903"
    }
  },
  {
    "service_request": "2023-982517",
    "request_type": "Abandoned Vehicles",
    "request_reason": "Abandoned/Junk Vehicles",
    "date_created": "2023-03-13T16:03:14.000",
    "date_modified": "2023-03-13T16:06:10.000",
    "request_status": "Pending",
    "responsible_agency": "Department of Public Works",
    "final_address": "7015 Pritchard Pl",
    "address_councildis": "B",
    "status": "Pending",
    "rowid": "982517",
    "final_x": "3667939.76071",
    "final_y": "531221.117698",
    "longitude": "-90.11089888760296",
    "latitude": "29.95507860941571",
    "geocoded_column": {
      "latitude": "29.95507860941571",
      "longitude": "-90.11089888760296"
    }
  },
  {
    "service_request": "2023-982516",
    "request_type": "Abandoned Vehicles",
    "request_reason": "Abandoned/Junk Vehicles",
    "date_created": "2023-03-13T16:03:00.000",
    "date_modified": "2023-03-13T16:03:00.000",
    "request_status": "Pending",
    "responsible_agency": "Department of Public Works",
    "final_address": "2719 N Tonti St",
    "address_councildis": "D",
    "status": "Pending",
    "rowid": "982516",
    "final_x": "3688092.5279",
    "final_y": "541027.466507",
    "longitude": "-90.04691650714359",
    "latitude": "29.981436079746068",
    "geocoded_column": {
      "latitude": "29.981436079746068",
      "longitude": "-90.04691650714359"
    }
  },
  {
    "service_request": "2023-982515",
    "request_type": "Abandoned Vehicles",
    "request_reason": "Abandoned/Junk Vehicles",
    "date_created": "2023-03-13T16:02:56.000",
    "date_modified": "2023-03-13T16:02:58.000",
    "request_status": "Pending",
    "responsible_agency": "Department of Public Works",
    "final_address": "4674 Stephen Girard Ave",
    "address_councildis": "D",
    "status": "Pending",
    "rowid": "982515",
    "final_x": "3691647.47043",
    "final_y": "550544.363156",
    "longitude": "-90.03534790437367",
    "latitude": "30.007493868845177",
    "geocoded_column": {
      "latitude": "30.007493868845177",
      "longitude": "-90.03534790437367"
    }
  },
  {
    "service_request": "2023-982514",
    "request_type": "Trash/Recycling",
    "request_reason": "Request a Large Item Pick Up",
    "date_created": "2023-03-13T15:58:48.000",
    "date_modified": "2023-03-13T15:58:49.000",
    "request_status": "Pending",
    "responsible_agency": "Department of Sanitation",
    "final_address": "1638 Spain St",
    "address_councildis": "D",
    "status": "Assigned to Contractor",
    "contractor": "IV Waste",
    "rowid": "982514",
    "final_x": "3685932.03042",
    "final_y": "538565.376201",
    "longitude": "-90.05382717552689",
    "latitude": "29.97473271474159",
    "geocoded_column": {
      "latitude": "29.97473271474159",
      "longitude": "-90.05382717552689"
    }
  },
  {
    "service_request": "2023-982513",
    "request_type": "Trash/Recycling",
    "request_reason": "Missed Trash Pick-Up",
    "date_created": "2023-03-13T15:54:28.000",
    "date_modified": "2023-03-13T15:54:29.000",
    "request_status": "Pending",
    "responsible_agency": "Department of Sanitation",
    "final_address": "1723 N Tonti St",
    "address_councildis": "D",
    "status": "Assigned to Contractor",
    "contractor": "IV Waste",
    "rowid": "982513",
    "final_x": "3680751.71586",
    "final_y": "540065.361611",
    "longitude": "-90.0701356643095",
    "latitude": "29.979015194274236",
    "geocoded_column": {
      "latitude": "29.979015194274236",
      "longitude": "-90.0701356643095"
    }
  },
  {
    "service_request": "2023-982512",
    "request_type": "Trash/Recycling",
    "request_reason": "Request a Large Item Pick Up",
    "date_created": "2023-03-13T15:53:26.000",
    "date_modified": "2023-03-13T15:53:27.000",
    "request_status": "Pending",
    "responsible_agency": "Department of Sanitation",
    "final_address": "2366 Beck St",
    "address_councildis": "C",
    "status": "Assigned to Contractor",
    "contractor": "Richards Disposal",
    "rowid": "982512",
    "final_x": "3700356.72861",
    "final_y": "521879.629306",
    "longitude": "-90.00887980769949",
    "latitude": "29.92840203135869",
    "geocoded_column": {
      "latitude": "29.92840203135869",
      "longitude": "-90.00887980769949"
    }
  },
  {
    "service_request": "2023-982511",
    "request_type": "Abandoned Vehicles",
    "request_reason": "Abandoned/Junk Vehicles",
    "date_created": "2023-03-13T15:52:18.000",
    "date_modified": "2023-03-13T15:52:19.000",
    "request_status": "Pending",
    "responsible_agency": "Department of Public Works",
    "final_address": "900 BLK Elysian Fields Ave",
    "address_councildis": "C",
    "status": "Pending",
    "rowid": "982511",
    "final_x": "3685089.09632",
    "final_y": "535766.324909",
    "longitude": "-90.05658786649909",
    "latitude": "29.967062152660215",
    "geocoded_column": {
      "latitude": "29.967062152660215",
      "longitude": "-90.05658786649909"
    }
  },
  {
    "service_request": "2023-982510",
    "request_type": "Property Maintenance",
    "request_reason": "Property Maintenance",
    "date_created": "2023-03-13T15:51:53.000",
    "date_modified": "2023-03-13T15:51:53.000",
    "request_status": "Pending",
    "responsible_agency": "Department of Code Enforcement",
    "final_address": "2413 Philip St",
    "address_councildis": "B",
    "status": "Pending",
    "rowid": "982510",
    "final_x": "3675475.45512",
    "final_y": "525933.011069",
    "longitude": "-90.08728553192698",
    "latitude": "29.94031485839843",
    "geocoded_column": {
      "latitude": "29.94031485839843",
      "longitude": "-90.08728553192698"
    }
  },
  {
    "service_request": "2023-982509",
    "request_type": "Trash/Recycling",
    "request_reason": "Missed Trash Pick-Up",
    "date_created": "2023-03-13T15:51:17.000",
    "date_modified": "2023-03-13T15:51:17.000",
    "request_status": "Pending",
    "responsible_agency": "Department of Sanitation",
    "final_address": "2122 Upperline St",
    "address_councildis": "B",
    "status": "Assigned to Contractor",
    "contractor": "Richards Disposal",
    "rowid": "982509",
    "final_x": "3669085.54612",
    "final_y": "522649.837818",
    "longitude": "-90.10757044105625",
    "latitude": "29.93147670799794",
    "geocoded_column": {
      "latitude": "29.93147670799794",
      "longitude": "-90.10757044105625"
    }
  },
  {
    "service_request": "2023-982508",
    "request_type": "Abandoned Vehicles",
    "request_reason": "Abandoned/Junk Vehicles",
    "date_created": "2023-03-13T15:49:26.000",
    "date_modified": "2023-03-13T15:49:26.000",
    "request_status": "Pending",
    "responsible_agency": "Department of Public Works",
    "final_address": "8206 Apple St",
    "address_councildis": "A",
    "status": "Pending",
    "rowid": "982508",
    "final_x": "3665025.62036",
    "final_y": "532356.429187",
    "longitude": "-90.12006273516747",
    "latitude": "29.95828550948843",
    "geocoded_column": {
      "latitude": "29.95828550948843",
      "longitude": "-90.12006273516747"
    }
  },
  {
    "service_request": "2023-982507",
    "request_type": "Trash/Recycling",
    "request_reason": "Repair Trash Cart",
    "date_created": "2023-03-13T15:48:13.000",
    "date_modified": "2023-03-13T15:48:14.000",
    "request_status": "Pending",
    "responsible_agency": "Department of Sanitation",
    "final_address": "14201 Intrepid St",
    "address_councildis": "E",
    "status": "Assigned to Contractor",
    "contractor": "Waste Pro",
    "rowid": "982507",
    "final_x": "3726411.61145",
    "final_y": "571191.055784",
    "longitude": "-89.92471782132979",
    "latitude": "30.063135147876878",
    "geocoded_column": {
      "latitude": "30.063135147876878",
      "longitude": "-89.92471782132979"
    }
  },
  {
    "service_request": "2023-982506",
    "request_type": "Abandoned Vehicles",
    "request_reason": "Abandoned/Junk Vehicles",
    "date_created": "2023-03-13T15:47:08.000",
    "date_modified": "2023-03-13T15:47:08.000",
    "request_status": "Pending",
    "responsible_agency": "Department of Public Works",
    "final_address": "8206 Apple St",
    "address_councildis": "A",
    "status": "Pending",
    "rowid": "982506",
    "final_x": "3665025.62036",
    "final_y": "532356.429187",
    "longitude": "-90.12006273516747",
    "latitude": "29.95828550948843",
    "geocoded_column": {
      "latitude": "29.95828550948843",
      "longitude": "-90.12006273516747"
    }
  },
  {
    "service_request": "2023-982505",
    "request_type": "Parks & Parkways",
    "request_reason": "Request Tree Service (Right of Way/Public Property)",
    "date_created": "2023-03-13T15:46:04.000",
    "date_modified": "2023-03-13T15:46:04.000",
    "request_status": "Pending",
    "responsible_agency": "Department of Parks & Parkway",
    "final_address": "5041 Warren Dr",
    "address_councildis": "E",
    "status": "Pending",
    "rowid": "982505",
    "final_x": "3713374.03128",
    "final_y": "557810.836891",
    "longitude": "-89.96643436575577",
    "latitude": "30.026779206178034",
    "geocoded_column": {
      "latitude": "30.026779206178034",
      "longitude": "-89.96643436575577"
    }
  },
  {
    "service_request": "2023-982504",
    "request_type": "Abandoned Vehicles",
    "request_reason": "Abandoned/Junk Vehicles",
    "date_created": "2023-03-13T15:43:10.000",
    "date_modified": "2023-03-13T15:43:11.000",
    "request_status": "Pending",
    "responsible_agency": "Department of Public Works",
    "final_address": "1728 Marais St",
    "address_councildis": "C",
    "status": "Pending",
    "rowid": "982504",
    "final_x": "3683391.14057",
    "final_y": "536511.567687",
    "longitude": "-90.06192390006456",
    "latitude": "29.96916322527738",
    "geocoded_column": {
      "latitude": "29.96916322527738",
      "longitude": "-90.06192390006456"
    }
  },
  {
    "service_request": "2023-982503",
    "request_type": "Safety & Permits",
    "request_reason": "Licenses & Permits",
    "date_created": "2023-03-13T15:41:59.000",
    "date_modified": "2023-03-13T15:41:59.000",
    "request_status": "Pending",
    "responsible_agency": "Safety and Permits",
    "final_address": "3433 Live Oak Pl",
    "address_councildis": "D",
    "status": "Pending",
    "rowid": "982503",
    "final_x": "3681592.13416",
    "final_y": "544919.960079",
    "longitude": "-90.06731189388798",
    "latitude": "29.99233813342656",
    "geocoded_column": {
      "latitude": "29.99233813342656",
      "longitude": "-90.06731189388798"
    }
  },
  {
    "service_request": "2023-982502",
    "request_type": "Trash/Recycling",
    "request_reason": "Missed Trash Pick-Up",
    "date_created": "2023-03-13T15:40:13.000",
    "date_modified": "2023-03-13T15:40:13.000",
    "request_status": "Pending",
    "responsible_agency": "Department of Sanitation",
    "final_address": "321 S Salcedo St",
    "address_councildis": "B",
    "status": "Assigned to Contractor",
    "contractor": "Richards Disposal",
    "rowid": "982502",
    "final_x": "3673435.92705",
    "final_y": "535286.722694",
    "longitude": "-90.09340509804716",
    "latitude": "29.96609529115343",
    "geocoded_column": {
      "latitude": "29.96609529115343",
      "longitude": "-90.09340509804716"
    }
  },
  {
    "service_request": "2023-982501",
    "request_type": "Trash/Recycling",
    "request_reason": "Request a Large Item Pick Up",
    "date_created": "2023-03-13T15:39:37.000",
    "date_modified": "2023-03-13T15:40:54.000",
    "request_status": "Pending",
    "responsible_agency": "Department of Sanitation",
    "final_address": "3719 Preston Pl",
    "address_councildis": "C",
    "status": "Assigned to Contractor",
    "contractor": "Richards Disposal",
    "rowid": "982501",
    "final_x": "3708340.08388",
    "final_y": "517377.583221",
    "longitude": "-89.98384569600852",
    "latitude": "29.915766832335102",
    "geocoded_column": {
      "latitude": "29.915766832335102",
      "longitude": "-89.98384569600852"
    }
  },
  {
    "service_request": "2023-982500",
    "request_type": "Abandoned Vehicles",
    "request_reason": "Abandoned/Junk Vehicles",
    "date_created": "2023-03-13T15:38:33.000",
    "date_modified": "2023-03-13T15:38:33.000",
    "request_status": "Pending",
    "responsible_agency": "Department of Public Works",
    "final_address": "4866 Gallier Dr",
    "address_councildis": "D",
    "status": "Pending",
    "rowid": "982500",
    "final_x": "3691907.08854",
    "final_y": "551903.204822",
    "longitude": "-90.03447903731028",
    "latitude": "30.011222091988564",
    "geocoded_column": {
      "latitude": "30.011222091988564",
      "longitude": "-90.03447903731028"
    }
  },
  {
    "service_request": "2023-982499",
    "request_type": "Roads/Drainage",
    "request_reason": "Debris in Roadway",
    "date_created": "2023-03-13T15:35:15.000",
    "date_modified": "2023-03-13T15:36:04.000",
    "request_status": "Pending",
    "responsible_agency": "Department of Public Works",
    "final_address": "8905 Edinburgh St",
    "address_councildis": "A",
    "status": "Pending",
    "rowid": "982499",
    "final_x": "3665364.44474",
    "final_y": "536413.535559",
    "longitude": "-90.11885702897789",
    "latitude": "29.96943134773042",
    "geocoded_column": {
      "latitude": "29.96943134773042",
      "longitude": "-90.11885702897789"
    }
  },
  {
    "service_request": "2023-982498",
    "request_type": "Abandoned Vehicles",
    "request_reason": "Abandoned/Junk Vehicles",
    "date_created": "2023-03-13T15:29:51.000",
    "date_modified": "2023-03-13T15:29:51.000",
    "request_status": "Pending",
    "responsible_agency": "Department of Public Works",
    "final_address": "2828 Urquhart St",
    "address_councildis": "C",
    "status": "Pending",
    "rowid": "982498",
    "final_x": "3688133.7279",
    "final_y": "536948.910856",
    "longitude": "-90.04693100084549",
    "latitude": "29.970220218108317",
    "geocoded_column": {
      "latitude": "29.970220218108317",
      "longitude": "-90.04693100084549"
    }
  },
  {
    "service_request": "2023-982497",
    "request_type": "Trash/Recycling",
    "request_reason": "Request a Large Item Pick Up",
    "date_created": "2023-03-13T15:20:58.000",
    "date_modified": "2023-03-13T15:20:59.000",
    "request_status": "Pending",
    "responsible_agency": "Department of Sanitation",
    "final_address": "4344 Ray Ave",
    "address_councildis": "E",
    "status": "Assigned to Contractor",
    "contractor": "Waste Pro",
    "rowid": "982497",
    "final_x": "3698900.33936",
    "final_y": "552248.311126",
    "longitude": "-90.01237209703201",
    "latitude": "30.011951183524285",
    "geocoded_column": {
      "latitude": "30.011951183524285",
      "longitude": "-90.01237209703201"
    }
  },
  {
    "service_request": "2023-982496",
    "request_type": "Trash/Recycling",
    "request_reason": "Order Recycling Cart",
    "date_created": "2023-03-13T15:19:29.000",
    "date_modified": "2023-03-13T15:19:29.000",
    "request_status": "Pending",
    "responsible_agency": "Department of Sanitation",
    "final_address": "716 Peniston St",
    "address_councildis": "B",
    "status": "Pending",
    "rowid": "982496",
    "final_x": "3673485.12014",
    "final_y": "518469.724342",
    "longitude": "-90.09382423794936",
    "latitude": "29.91985259424551",
    "geocoded_column": {
      "latitude": "29.91985259424551",
      "longitude": "-90.09382423794936"
    }
  },
  {
    "service_request": "2023-982495",
    "request_type": "Trash/Recycling",
    "request_reason": "Request a Large Item Pick Up",
    "date_created": "2023-03-13T15:11:32.000",
    "date_modified": "2023-03-13T15:11:33.000",
    "request_status": "Pending",
    "responsible_agency": "Department of Sanitation",
    "final_address": "1210 N Tonti St",
    "address_councildis": "D",
    "status": "Assigned to Contractor",
    "contractor": "Richards Disposal",
    "rowid": "982495",
    "final_x": "3679007.39483",
    "final_y": "537642.348296",
    "longitude": "-90.07572889330902",
    "latitude": "29.972405503271023",
    "geocoded_column": {
      "latitude": "29.972405503271023",
      "longitude": "-90.07572889330902"
    }
  },
  {
    "service_request": "2023-982494",
    "request_type": "Trash/Recycling",
    "request_reason": "Order Recycling Cart",
    "date_created": "2023-03-13T15:10:39.000",
    "date_modified": "2023-03-13T15:10:39.000",
    "request_status": "Pending",
    "responsible_agency": "Department of Sanitation",
    "final_address": "204 Raphael Semmes St",
    "address_councildis": "C",
    "status": "Pending",
    "rowid": "982494",
    "final_x": "3694022.33584",
    "final_y": "528839.646272",
    "longitude": "-90.02862584389761",
    "latitude": "29.94773949445935",
    "geocoded_column": {
      "latitude": "29.94773949445935",
      "longitude": "-90.02862584389761"
    }
  },
  {
    "service_request": "2023-982493",
    "request_type": "Trash/Recycling",
    "request_reason": "Replace Recycling Cart",
    "date_created": "2023-03-13T15:05:24.000",
    "date_modified": "2023-03-13T15:08:53.000",
    "request_status": "Pending",
    "responsible_agency": "Department of Sanitation",
    "final_address": "4939 Chestnut St",
    "address_councildis": "B",
    "status": "Pending",
    "rowid": "982493",
    "final_x": "3668705.56052",
    "final_y": "519382.335159",
    "longitude": "-90.10888024194556",
    "latitude": "29.922503286339914",
    "geocoded_column": {
      "latitude": "29.922503286339914",
      "longitude": "-90.10888024194556"
    }
  },
  {
    "service_request": "2023-982492",
    "request_type": "Trash/Recycling",
    "request_reason": "MIssed Recycling Pick-Up",
    "date_created": "2023-03-13T15:05:19.000",
    "date_modified": "2023-03-13T15:05:19.000",
    "request_status": "Pending",
    "responsible_agency": "Department of Sanitation",
    "final_address": "5018 Revel St",
    "address_councildis": "E",
    "status": "Assigned to Contractor",
    "contractor": "Waste Pro",
    "rowid": "982492",
    "final_x": "3725087.93881",
    "final_y": "562062.662431",
    "longitude": "-89.92925553691377",
    "latitude": "30.038080556849305",
    "geocoded_column": {
      "latitude": "30.038080556849305",
      "longitude": "-89.92925553691377"
    }
  },
  {
    "service_request": "2023-982491",
    "request_type": "Property Maintenance",
    "request_reason": "Property Maintenance",
    "date_created": "2023-03-13T15:02:20.000",
    "date_modified": "2023-03-13T15:02:20.000",
    "request_status": "Pending",
    "responsible_agency": "Department of Code Enforcement",
    "final_address": "4901 Perrault Walk",
    "address_councildis": "E",
    "status": "Pending",
    "rowid": "982491",
    "final_x": "3709782.54693",
    "final_y": "556601.03497",
    "longitude": "-89.97782820068133",
    "latitude": "30.02357004045313",
    "geocoded_column": {
      "latitude": "30.02357004045313",
      "longitude": "-89.97782820068133"
    }
  },
  {
    "service_request": "2023-982490",
    "request_type": "Roads/Drainage",
    "request_reason": "Accessibility Ramps, Curbs and Sidewalk Repair",
    "date_created": "2023-03-13T15:01:45.000",
    "date_modified": "2023-03-13T15:01:45.000",
    "request_status": "Pending",
    "responsible_agency": "Department of Public Works",
    "final_address": "8118 Zimple St",
    "address_councildis": "A",
    "status": "Pending",
    "rowid": "982490",
    "final_x": "3661604.5097",
    "final_y": "528175.686208",
    "longitude": "-90.13100425411248",
    "latitude": "29.946888972924253",
    "geocoded_column": {
      "latitude": "29.946888972924253",
      "longitude": "-90.13100425411248"
    }
  },
  {
    "service_request": "2023-982489",
    "request_type": "Trash/Recycling",
    "request_reason": "Repair Recycling Cart",
    "date_created": "2023-03-13T15:00:43.000",
    "date_modified": "2023-03-13T15:00:44.000",
    "request_status": "Pending",
    "responsible_agency": "Department of Sanitation",
    "final_address": "106 Neil Ave",
    "address_councildis": "C",
    "status": "Pending",
    "rowid": "982489",
    "final_x": "3705859.31825",
    "final_y": "518835.606455",
    "longitude": "-89.99162199058027",
    "latitude": "29.919855994474613",
    "geocoded_column": {
      "latitude": "29.919855994474613",
      "longitude": "-89.99162199058027"
    }
  },
  {
    "service_request": "2023-982488",
    "request_type": "Trash/Recycling",
    "request_reason": "Order Trash Cart",
    "date_created": "2023-03-13T15:00:26.000",
    "date_modified": "2023-03-13T15:00:26.000",
    "request_status": "Pending",
    "responsible_agency": "Department of Sanitation",
    "final_address": "1634 Washington Ave",
    "address_councildis": "B",
    "status": "Assigned to Contractor",
    "contractor": "Richards Disposal",
    "rowid": "982488",
    "final_x": "3675698.78638",
    "final_y": "522792.117178",
    "longitude": "-90.08668832560726",
    "latitude": "29.931671747318152",
    "geocoded_column": {
      "latitude": "29.931671747318152",
      "longitude": "-90.08668832560726"
    }
  },
  {
    "service_request": "2023-982487",
    "request_type": "Trash/Recycling",
    "request_reason": "Repair Recycling Cart",
    "date_created": "2023-03-13T14:59:37.000",
    "date_modified": "2023-03-13T14:59:38.000",
    "request_status": "Pending",
    "responsible_agency": "Department of Sanitation",
    "final_address": "3226 Chestnut St",
    "address_councildis": "B",
    "status": "Pending",
    "rowid": "982487",
    "final_x": "3675287.07867",
    "final_y": "520523.648952",
    "longitude": "-90.0880658685638",
    "latitude": "29.925446504596405",
    "geocoded_column": {
      "latitude": "29.925446504596405",
      "longitude": "-90.0880658685638"
    }
  },
  {
    "service_request": "2023-982486",
    "request_type": "Roads/Drainage",
    "request_reason": "Pothole",
    "date_created": "2023-03-13T14:56:21.000",
    "date_modified": "2023-03-13T14:56:21.000",
    "request_status": "Pending",
    "responsible_agency": "Department of Public Works",
    "final_address": "SEABROOK PL & COUNT LN",
    "address_councildis": "D",
    "status": "Pending",
    "rowid": "982486",
    "final_x": "3694186.4",
    "final_y": "558453.88",
    "longitude": "-90.02704186201488",
    "latitude": "30.029162743906813",
    "geocoded_column": {
      "latitude": "30.029162743906813",
      "longitude": "-90.02704186201488"
    }
  },
  {
    "service_request": "2023-982485",
    "request_type": "Roads/Drainage",
    "request_reason": "Pothole",
    "date_created": "2023-03-13T14:55:19.000",
    "date_modified": "2023-03-13T14:55:19.000",
    "request_status": "Pending",
    "responsible_agency": "Department of Public Works",
    "final_address": "PRINCESS LN & DOWNMAN RD",
    "address_councildis": "D",
    "status": "Pending",
    "rowid": "982485",
    "final_x": "3694695.0",
    "final_y": "558319.98",
    "longitude": "-90.02543953727285",
    "latitude": "30.028778617220585",
    "geocoded_column": {
      "latitude": "30.028778617220585",
      "longitude": "-90.02543953727285"
    }
  },
  {
    "service_request": "2023-982484",
    "request_type": "Abandoned Vehicles",
    "request_reason": "Abandoned/Junk Vehicles",
    "date_created": "2023-03-13T14:54:43.000",
    "date_modified": "2023-03-13T14:56:43.000",
    "request_status": "Pending",
    "responsible_agency": "Department of Public Works",
    "final_address": "CAMP ST & JOSEPH ST",
    "address_councildis": "A",
    "status": "Pending",
    "rowid": "982484",
    "final_x": "3666185.0",
    "final_y": "519213.38",
    "longitude": "-90.11684232693814",
    "latitude": "29.922112534389647",
    "geocoded_column": {
      "latitude": "29.922112534389647",
      "longitude": "-90.11684232693814"
    }
  },
  {
    "service_request": "2023-982483",
    "request_type": "Trash/Recycling",
    "request_reason": "Order Trash Cart",
    "date_created": "2023-03-13T14:54:02.000",
    "date_modified": "2023-03-13T14:54:02.000",
    "request_status": "Pending",
    "responsible_agency": "Department of Sanitation",
    "final_address": "8235 Hickory St",
    "address_councildis": "A",
    "status": "Assigned to Contractor",
    "contractor": "Richards Disposal",
    "rowid": "982483",
    "final_x": "3662949.97389",
    "final_y": "530382.590082",
    "longitude": "-90.1266827305072",
    "latitude": "29.95291836016481",
    "geocoded_column": {
      "latitude": "29.95291836016481",
      "longitude": "-90.1266827305072"
    }
  },
  {
    "service_request": "2023-982482",
    "request_type": "Trash/Recycling",
    "request_reason": "Illegal Dumping",
    "date_created": "2023-03-13T14:52:04.000",
    "date_modified": "2023-03-13T14:52:05.000",
    "request_status": "Pending",
    "responsible_agency": "Department of Sanitation",
    "final_address": "DAUPHINE ST & ST PHILIP ST",
    "address_councildis": "C",
    "status": "Pending",
    "rowid": "982482",
    "final_x": "3682652.8",
    "final_y": "533783.68",
    "longitude": "-90.06435103754121",
    "latitude": "29.9616849782444",
    "geocoded_column": {
      "latitude": "29.9616849782444",
      "longitude": "-90.06435103754121"
    }
  },
  {
    "service_request": "2023-982481",
    "request_type": "Trash/Recycling",
    "request_reason": "MIssed Recycling Pick-Up",
    "date_created": "2023-03-13T14:41:45.000",
    "date_modified": "2023-03-13T15:06:29.000",
    "case_close_date": "2023-03-13T10:06:29.000",
    "request_status": "Closed",
    "responsible_agency": "Department of Sanitation",
    "final_address": "4458 De Montluzin St",
    "address_councildis": "D",
    "status": "Assigned to Contractor",
    "contractor": "IV Waste",
    "contractor_action": "Completed",
    "rowid": "982481",
    "final_x": "3687192.50895",
    "final_y": "549354.614931",
    "longitude": "-90.04946448303916",
    "latitude": "30.004360502672984",
    "geocoded_column": {
      "latitude": "30.004360502672984",
      "longitude": "-90.04946448303916"
    }
  },
  {
    "service_request": "2023-982480",
    "request_type": "Property Maintenance",
    "request_reason": "Property Maintenance",
    "date_created": "2023-03-13T14:40:13.000",
    "date_modified": "2023-03-13T14:42:55.000",
    "request_status": "Pending",
    "responsible_agency": "Department of Code Enforcement",
    "final_address": "ASTER ST & WISTERIA ST",
    "address_councildis": "D",
    "status": "Pending",
    "rowid": "982480",
    "final_x": "3688224.7",
    "final_y": "548482.38",
    "longitude": "-90.04623456022316",
    "latitude": "30.001930333298063",
    "geocoded_column": {
      "latitude": "30.001930333298063",
      "longitude": "-90.04623456022316"
    }
  },
  {
    "service_request": "2023-982479",
    "request_type": "Traffic Signals/Signs/Striping/Streetlights",
    "request_reason": "Street Light Outage/Malfunction",
    "date_created": "2023-03-13T14:40:06.000",
    "date_modified": "2023-03-13T14:40:07.000",
    "request_status": "Pending",
    "responsible_agency": "Department of Public Works",
    "final_address": "820 Union St",
    "address_councildis": "B",
    "status": "Assigned to Contractor",
    "contractor": "Legacy Professional Services",
    "rowid": "982479",
    "final_x": "3680282.95989",
    "final_y": "530054.491521",
    "longitude": "-90.07196423589207",
    "latitude": "29.951502924945164",
    "geocoded_column": {
      "latitude": "29.951502924945164",
      "longitude": "-90.07196423589207"
    }
  },
  {
    "service_request": "2023-982478",
    "request_type": "Trash/Recycling",
    "request_reason": "Illegal Dumping",
    "date_created": "2023-03-13T14:37:54.000",
    "date_modified": "2023-03-13T14:37:54.000",
    "request_status": "Pending",
    "responsible_agency": "Department of Sanitation",
    "final_address": "4170 Peoples Ave",
    "address_councildis": "D",
    "status": "Pending",
    "rowid": "982478",
    "final_x": "3688349.02063",
    "final_y": "548386.612818",
    "longitude": "-90.04584521818143",
    "latitude": "30.001663167988262",
    "geocoded_column": {
      "latitude": "30.001663167988262",
      "longitude": "-90.04584521818143"
    }
  },
  {
    "service_request": "2023-982477",
    "request_type": "Trash/Recycling",
    "request_reason": "Order Recycling Cart",
    "date_created": "2023-03-13T14:37:38.000",
    "date_modified": "2023-03-13T14:37:38.000",
    "request_status": "Pending",
    "responsible_agency": "Department of Sanitation",
    "final_address": "8012 Arcadia Ln",
    "address_councildis": "E",
    "status": "Pending",
    "rowid": "982477",
    "final_x": "3711659.30917",
    "final_y": "568090.808229",
    "longitude": "-89.97146657845148",
    "latitude": "30.055101136249625",
    "geocoded_column": {
      "latitude": "30.055101136249625",
      "longitude": "-89.97146657845148"
    }
  },
  {
    "service_request": "2023-982476",
    "request_type": "Trash/Recycling",
    "request_reason": "Order Trash Cart",
    "date_created": "2023-03-13T14:37:15.000",
    "date_modified": "2023-03-13T14:37:16.000",
    "request_status": "Pending",
    "responsible_agency": "Department of Sanitation",
    "final_address": "8012 Arcadia Ln",
    "address_councildis": "E",
    "status": "Assigned to Contractor",
    "contractor": "Waste Pro",
    "rowid": "982476",
    "final_x": "3711659.30917",
    "final_y": "568090.808229",
    "longitude": "-89.97146657845148",
    "latitude": "30.055101136249625",
    "geocoded_column": {
      "latitude": "30.055101136249625",
      "longitude": "-89.97146657845148"
    }
  },
  {
    "service_request": "2023-982475",
    "request_type": "Traffic Signals/Signs/Striping/Streetlights",
    "request_reason": "Street Light Outage/Malfunction",
    "date_created": "2023-03-13T14:37:09.000",
    "date_modified": "2023-03-13T14:37:10.000",
    "request_status": "Pending",
    "responsible_agency": "Department of Public Works",
    "final_address": "820 Union St",
    "address_councildis": "B",
    "status": "Assigned to Contractor",
    "contractor": "Legacy Professional Services",
    "rowid": "982475",
    "final_x": "3680282.95989",
    "final_y": "530054.491521",
    "longitude": "-90.07196423589207",
    "latitude": "29.951502924945164",
    "geocoded_column": {
      "latitude": "29.951502924945164",
      "longitude": "-90.07196423589207"
    }
  },
  {
    "service_request": "2023-982474",
    "request_type": "Trash/Recycling",
    "request_reason": "Request a Large Item Pick Up",
    "date_created": "2023-03-13T14:27:30.000",
    "date_modified": "2023-03-13T14:30:45.000",
    "request_status": "Pending",
    "responsible_agency": "Department of Sanitation",
    "final_address": "New Orleans,LA",
    "address_councildis": "D",
    "status": "Assigned to Contractor",
    "contractor": "IV Waste",
    "rowid": "982474",
    "final_x": "3667247.93428",
    "final_y": "556194.804634",
    "longitude": "-90.11224306057866",
    "latitude": "30.02376800843378",
    "geocoded_column": {
      "latitude": "30.02376800843378",
      "longitude": "-90.11224306057866"
    }
  },
  {
    "service_request": "2023-982473",
    "request_type": "Trash/Recycling",
    "request_reason": "Illegal Dumping",
    "date_created": "2023-03-13T14:26:31.000",
    "date_modified": "2023-03-13T14:26:32.000",
    "request_status": "Pending",
    "responsible_agency": "Department of Code Enforcement",
    "final_address": "ANNETTE ST & N ROMAN ST",
    "address_councildis": "D",
    "status": "Pending",
    "rowid": "982473",
    "final_x": "3682939.8",
    "final_y": "538727.28",
    "longitude": "-90.06327170497366",
    "latitude": "29.97526942829095",
    "geocoded_column": {
      "latitude": "29.97526942829095",
      "longitude": "-90.06327170497366"
    }
  },
  {
    "service_request": "2023-982472",
    "request_type": "Traffic Signals/Signs/Striping/Streetlights",
    "request_reason": "Request for Stop Sign",
    "date_created": "2023-03-13T14:25:39.000",
    "date_modified": "2023-03-13T14:26:45.000",
    "request_status": "Pending",
    "responsible_agency": "Department of Public Works",
    "final_address": "CLOVER ST & W DAHLIA WALK & PEOPLES AVE",
    "address_councildis": "D",
    "status": "Pending",
    "rowid": "982472",
    "final_x": "3688511.2",
    "final_y": "546754.28",
    "longitude": "-90.04539084067979",
    "latitude": "29.99716983309235",
    "geocoded_column": {
      "latitude": "29.99716983309235",
      "longitude": "-90.04539084067979"
    }
  },
  {
    "service_request": "2023-982471",
    "request_type": "Trash/Recycling",
    "request_reason": "Dead Animal Pick Up",
    "date_created": "2023-03-13T14:21:28.000",
    "date_modified": "2023-03-13T14:21:29.000",
    "request_status": "Pending",
    "responsible_agency": "Department of Sanitation",
    "final_address": "7051 W Renaissance Ct",
    "address_councildis": "E",
    "status": "Assigned to Contractor",
    "contractor": "Waste Pro",
    "rowid": "982471",
    "final_x": "3716924.88709",
    "final_y": "567273.633764",
    "longitude": "-89.95485444004656",
    "latitude": "30.052681112608205",
    "geocoded_column": {
      "latitude": "30.052681112608205",
      "longitude": "-89.95485444004656"
    }
  },
  {
    "service_request": "2023-982470",
    "request_type": "Trash/Recycling",
    "request_reason": "Repair Recycling Cart",
    "date_created": "2023-03-13T14:20:19.000",
    "date_modified": "2023-03-13T14:20:19.000",
    "request_status": "Pending",
    "responsible_agency": "Department of Sanitation",
    "final_address": "2104 Audubon St",
    "address_councildis": "A",
    "status": "Pending",
    "rowid": "982470",
    "final_x": "3666197.60129",
    "final_y": "529053.228288",
    "longitude": "-90.11647269482489",
    "latitude": "29.949168609339075",
    "geocoded_column": {
      "latitude": "29.949168609339075",
      "longitude": "-90.11647269482489"
    }
  },
  {
    "service_request": "2023-982469",
    "request_type": "Traffic Signals/Signs/Striping/Streetlights",
    "request_reason": "Traffic Sign Missing/Damaged",
    "date_created": "2023-03-13T14:20:05.000",
    "date_modified": "2023-03-13T14:20:06.000",
    "request_status": "Pending",
    "responsible_agency": "Department of Public Works",
    "final_address": "800 Homer Plessy Way",
    "address_councildis": "C",
    "status": "Pending",
    "rowid": "982469",
    "final_x": "3687753.22307",
    "final_y": "535174.552454",
    "longitude": "-90.04819552050046",
    "latitude": "29.965353092530798",
    "geocoded_column": {
      "latitude": "29.965353092530798",
      "longitude": "-90.04819552050046"
    }
  },
  {
    "service_request": "2023-982468",
    "request_type": "Trash/Recycling",
    "request_reason": "Dead Animal Pick Up",
    "date_created": "2023-03-13T14:16:48.000",
    "date_modified": "2023-03-13T14:16:48.000",
    "request_status": "Pending",
    "responsible_agency": "Department of Sanitation",
    "final_address": "1653 N Broad St",
    "address_councildis": "D",
    "status": "Assigned to Contractor",
    "contractor": "IV Waste",
    "rowid": "982468",
    "final_x": "3679332.66651",
    "final_y": "540588.565323",
    "longitude": "-90.07459941438194",
    "latitude": "29.980496761977133",
    "geocoded_column": {
      "latitude": "29.980496761977133",
      "longitude": "-90.07459941438194"
    }
  },
  {
    "service_request": "2023-982467",
    "request_type": "Abandoned Vehicles",
    "request_reason": "Abandoned/Junk Vehicles",
    "date_created": "2023-03-13T14:15:05.000",
    "date_modified": "2023-03-13T14:15:05.000",
    "request_status": "Pending",
    "responsible_agency": "Department of Public Works",
    "final_address": "211 S Cortez St",
    "address_councildis": "A",
    "status": "Pending",
    "rowid": "982467",
    "final_x": "3671720.75259",
    "final_y": "537199.852616",
    "longitude": "-90.09875649380542",
    "latitude": "29.971406677870977",
    "geocoded_column": {
      "latitude": "29.971406677870977",
      "longitude": "-90.09875649380542"
    }
  },
  {
    "service_request": "2023-982466",
    "request_type": "Trash/Recycling",
    "request_reason": "Repair Trash Cart",
    "date_created": "2023-03-13T14:11:58.000",
    "date_modified": "2023-03-13T14:11:59.000",
    "request_status": "Pending",
    "responsible_agency": "Department of Sanitation",
    "final_address": "3747 Socrates St",
    "address_councildis": "C",
    "status": "Assigned to Contractor",
    "contractor": "Richards Disposal",
    "rowid": "982466",
    "final_x": "3697863.49719",
    "final_y": "526062.162302",
    "longitude": "-90.01659862727692",
    "latitude": "29.939981560261483",
    "geocoded_column": {
      "latitude": "29.939981560261483",
      "longitude": "-90.01659862727692"
    }
  },
  {
    "service_request": "2023-982465",
    "request_type": "Trash/Recycling",
    "request_reason": "Request a Large Item Pick Up",
    "date_created": "2023-03-13T14:11:36.000",
    "date_modified": "2023-03-13T15:16:30.000",
    "case_close_date": "2023-03-13T10:16:30.000",
    "request_status": "Closed",
    "responsible_agency": "Department of Sanitation",
    "final_address": "6875 West End Blvd",
    "address_councildis": "A",
    "status": "Assigned to Contractor",
    "contractor": "IV Waste",
    "contractor_action": "Completed",
    "rowid": "982465",
    "final_x": "3666872.39405",
    "final_y": "553398.758295",
    "longitude": "-90.11352375056856",
    "latitude": "30.0160908681702",
    "geocoded_column": {
      "latitude": "30.0160908681702",
      "longitude": "-90.11352375056856"
    }
  },
  {
    "service_request": "2023-982464",
    "request_type": "Trash/Recycling",
    "request_reason": "Illegal Dumping",
    "date_created": "2023-03-13T14:03:42.000",
    "date_modified": "2023-03-13T14:04:22.000",
    "case_close_date": "2023-03-13T09:04:22.000",
    "request_status": "Closed",
    "responsible_agency": "Department of Sanitation",
    "final_address": "FLORIDA AVE & PIETY ST",
    "address_councildis": "D",
    "status": "Resolved",
    "rowid": "982464",
    "final_x": "3691439.0",
    "final_y": "542202.18",
    "longitude": "-90.03630484728399",
    "latitude": "29.984562391315364",
    "geocoded_column": {
      "latitude": "29.984562391315364",
      "longitude": "-90.03630484728399"
    }
  },
  {
    "service_request": "2023-982463",
    "request_type": "Abandoned Vehicles",
    "request_reason": "Abandoned/Junk Vehicles",
    "date_created": "2023-03-13T14:03:41.000",
    "date_modified": "2023-03-13T14:03:41.000",
    "request_status": "Pending",
    "responsible_agency": "Department of Public Works",
    "final_address": "FLEUR DE LIS DR & W HARRISON AVE",
    "address_councildis": "A",
    "status": "Pending",
    "rowid": "982463",
    "final_x": "3665232.8",
    "final_y": "549626.98",
    "longitude": "-90.11883047813842",
    "latitude": "30.005767682861702",
    "geocoded_column": {
      "latitude": "30.005767682861702",
      "longitude": "-90.11883047813842"
    }
  },