[
  {
    "service_request": "2023-1046011",
    "request_type": "Health Related Request",
    "request_reason": "Noise Ordinance Complaint",
    "date_created": "2023-10-26T00:37:34.000",
    "date_modified": "2023-10-26T00:37:34.000",
    "request_status": "Pending",
    "responsible_agency": "Health Department",
    "final_address": "4801 Bienville Ave",
    "address_councildis": "A",
    "status": "Pending",
    "rowid": "1046011",
    "final_x": "3669301.71156",
    "final_y": "540770.138955",
    "longitude": "-90.1062754478953",
    "latitude": "29.981295206071636",
    "geocoded_column": {
      "latitude": "29.981295206071636",
      "longitude": "-90.1062754478953"
    }
  },
  {
    "service_request": "2023-1046010",
    "request_type": "Roads/Drainage",
    "request_reason": "Pothole",
    "date_created": "2023-10-26T00:17:22.000",
    "date_modified": "2023-10-26T00:17:22.000",
    "request_status": "Pending",
    "responsible_agency": "Department of Public Works",
    "final_address": "4216 Chestnut St",
    "address_councildis": "B",
    "status": "Pending",
    "rowid": "1046010",
    "final_x": "3671574.31393",
    "final_y": "519539.203703",
    "longitude": "-90.09981939416457",
    "latitude": "29.922850019854593",
    "geocoded_column": {
      "latitude": "29.922850019854593",
      "longitude": "-90.09981939416457"
    }
  },
  {
    "service_request": "2023-1046009",
    "request_type": "Property Maintenance",
    "request_reason": "Property Maintenance",
    "date_created": "2023-10-25T20:41:50.000",
    "date_modified": "2023-10-25T20:41:50.000",
    "request_status": "Pending",
    "responsible_agency": "Department of Code Enforcement",
    "final_address": "1247 Foy St",
    "address_councildis": "D",
    "status": "Pending",
    "rowid": "1046009",
    "final_x": "3677020.78926",
    "final_y": "546445.387857",
    "longitude": "-90.08169926120956",
    "latitude": "29.99667061187954",
    "geocoded_column": {
      "latitude": "29.99667061187954",
      "longitude": "-90.08169926120956"
    }
  },
  {
    "service_request": "2023-1046008",
    "request_type": "Abandoned Vehicles",
    "request_reason": "Abandoned/Junk Vehicles",
    "date_created": "2023-10-25T20:31:00.000",
    "date_modified": "2023-10-25T20:31:00.000",
    "request_status": "Pending",
    "responsible_agency": "Department of Public Works",
    "final_address": "5024 Burgundy St",
    "address_councildis": "E",
    "status": "Pending",
    "rowid": "1046008",
    "final_x": "3695953.54941",
    "final_y": "533409.44378",
    "longitude": "-90.02236319271506",
    "latitude": "29.96024422894876",
    "geocoded_column": {
      "latitude": "29.96024422894876",
      "longitude": "-90.02236319271506"
    }
  },
  {
    "service_request": "2023-1046007",
    "request_type": "Trash/Recycling",
    "request_reason": "Damaged Caused By Contractor",
    "date_created": "2023-10-25T20:23:48.000",
    "date_modified": "2023-10-25T20:23:49.000",
    "request_status": "Pending",
    "responsible_agency": "Department of Sanitation",
    "final_address": "4228 S Roman St",
    "address_councildis": "B",
    "status": "Assigned to Contractor",
    "contractor": "Richards Disposal",
    "rowid": "1046007",
    "final_x": "3670808.17774",
    "final_y": "526574.075646",
    "longitude": "-90.1019991591659",
    "latitude": "29.94221631051673",
    "geocoded_column": {
      "latitude": "29.94221631051673",
      "longitude": "-90.1019991591659"
    }
  },
  {
    "service_request": "2023-1046006",
    "request_type": "Traffic Signals/Signs/Striping/Streetlights",
    "request_reason": "Street Light Outage/Malfunction",
    "date_created": "2023-10-25T19:54:07.000",
    "date_modified": "2023-10-25T19:54:08.000",
    "request_status": "Pending",
    "responsible_agency": "Department of Public Works",
    "final_address": "1000 BLK L. B. Landry Ave",
    "address_councildis": "C",
    "status": "Assigned to Contractor",
    "contractor": "Legacy Professional Services",
    "rowid": "1046006",
    "final_x": "3690132.96484",
    "final_y": "527664.599314",
    "longitude": "-90.04094792720348",
    "latitude": "29.94462971721497",
    "geocoded_column": {
      "latitude": "29.94462971721497",
      "longitude": "-90.04094792720348"
    }
  },
  {
    "service_request": "2023-1046005",
    "request_type": "Roads/Drainage",
    "request_reason": "Man hole cover issue",
    "date_created": "2023-10-25T19:42:54.000",
    "date_modified": "2023-10-25T19:42:54.000",
    "request_status": "Pending",
    "responsible_agency": "Department of Public Works",
    "final_address": "1545 Tulane Ave",
    "address_councildis": "B",
    "status": "Pending",
    "rowid": "1046005",
    "final_x": "3678311.78254",
    "final_y": "531783.461763",
    "longitude": "-90.07812845373572",
    "latitude": "29.956316530783184",
    "geocoded_column": {
      "latitude": "29.956316530783184",
      "longitude": "-90.07812845373572"
    }
  },
  {
    "service_request": "2023-1046004",
    "request_type": "Traffic Signals/Signs/Striping/Streetlights",
    "request_reason": "Street Light Outage/Malfunction",
    "date_created": "2023-10-25T19:41:27.000",
    "date_modified": "2023-10-25T19:41:28.000",
    "request_status": "Pending",
    "responsible_agency": "Department of Public Works",
    "final_address": "2502 Jefferson Ave",
    "address_councildis": "A",
    "status": "Assigned to Contractor",
    "contractor": "Legacy Professional Services",
    "rowid": "1046004",
    "final_x": "3668017.67546",
    "final_y": "524751.179068",
    "longitude": "-90.11087081908794",
    "latitude": "29.937286091646094",
    "geocoded_column": {
      "latitude": "29.937286091646094",
      "longitude": "-90.11087081908794"
    }
  },
  {
    "service_request": "2023-1046003",
    "request_type": "Traffic Signals/Signs/Striping/Streetlights",
    "request_reason": "Street Light Outage/Malfunction",
    "date_created": "2023-10-25T19:00:46.000",
    "date_modified": "2023-10-25T19:00:47.000",
    "request_status": "Pending",
    "responsible_agency": "Department of Public Works",
    "final_address": "NEWTON ST & L B LANDRY AVE & WHITNEY AVE",
    "address_councildis": "C",
    "status": "Assigned to Contractor",
    "contractor": "Legacy Professional Services",
    "rowid": "1046003",
    "final_x": "3690138.8",
    "final_y": "527855.08",
    "longitude": "-90.04092272061989",
    "latitude": "29.945153292917983",
    "geocoded_column": {
      "latitude": "29.945153292917983",
      "longitude": "-90.04092272061989"
    }
  },
  {
    "service_request": "2023-1046002",
    "request_type": "Trash/Recycling",
    "request_reason": "Illegal Dumping",
    "date_created": "2023-10-25T18:54:06.000",
    "date_modified": "2023-10-25T18:54:06.000",
    "request_status": "Pending",
    "responsible_agency": "Department of Sanitation",
    "final_address": "1300 Jena St",
    "address_councildis": "B",
    "status": "Pending",
    "rowid": "1046002",
    "final_x": "3670463.74196",
    "final_y": "520145.726136",
    "longitude": "-90.1033044906772",
    "latitude": "29.92455059049944",
    "geocoded_column": {
      "latitude": "29.92455059049944",
      "longitude": "-90.1033044906772"
    }
  },
  {
    "service_request": "2023-1046001",
    "request_type": "Trash/Recycling",
    "request_reason": "Illegal Dumping",
    "date_created": "2023-10-25T18:49:51.000",
    "date_modified": "2023-10-25T18:49:51.000",
    "request_status": "Pending",
    "responsible_agency": "Department of Sanitation",
    "final_address": "1300 Jena St",
    "address_councildis": "B",
    "status": "Pending",
    "rowid": "1046001",
    "final_x": "3670463.74196",
    "final_y": "520145.726136",
    "longitude": "-90.1033044906772",
    "latitude": "29.92455059049944",
    "geocoded_column": {
      "latitude": "29.92455059049944",
      "longitude": "-90.1033044906772"
    }
  },
  {
    "service_request": "2023-1046000",
    "request_type": "Mosquito, Termite & Rodent Control",
    "request_reason": "Mosquito Complaint",
    "date_created": "2023-10-25T18:23:22.000",
    "date_modified": "2023-10-25T18:23:22.000",
    "request_status": "Pending",
    "responsible_agency": "Mosquito, Termite & Rodent Control Board",
    "final_address": "2238 Fats Domino Ave",
    "address_councildis": "E",
    "status": "Pending",
    "rowid": "1046000",
    "final_x": "3699171.07658",
    "final_y": "538213.598665",
    "longitude": "-90.01202804449794",
    "latitude": "29.9733523193546",
    "geocoded_column": {
      "latitude": "29.9733523193546",
      "longitude": "-90.01202804449794"
    }
  },
  {
    "service_request": "2023-1045999",
    "request_type": "Mosquito, Termite & Rodent Control",
    "request_reason": "Non-Rodent Complaint (Mice, Possums, Snakes)",
    "date_created": "2023-10-25T18:09:19.000",
    "date_modified": "2023-10-25T18:09:19.000",
    "request_status": "Pending",
    "responsible_agency": "Mosquito, Termite & Rodent Control Board",
    "final_address": "2422 Oriole St",
    "address_councildis": "D",
    "status": "Pending",
    "rowid": "1045999",
    "final_x": "3684790.04444",
    "final_y": "558108.619739",
    "longitude": "-90.0567461923795",
    "latitude": "30.028504602798",
    "geocoded_column": {
      "latitude": "30.028504602798",
      "longitude": "-90.0567461923795"
    }
  },
  {
    "service_request": "2023-1045998",
    "request_type": "Roads/Drainage",
    "request_reason": "WaterMain Break",
    "date_created": "2023-10-25T18:04:15.000",
    "date_modified": "2023-10-25T18:04:15.000",
    "request_status": "Pending",
    "responsible_agency": "Department of Public Works",
    "final_address": "3042 Boyd St",
    "address_councildis": "C",
    "status": "Pending",
    "rowid": "1045998",
    "final_x": "3708145.29016",
    "final_y": "519335.053879",
    "longitude": "-89.98438779732439",
    "latitude": "29.921155501175047",
    "geocoded_column": {
      "latitude": "29.921155501175047",
      "longitude": "-89.98438779732439"
    }
  },
  {
    "service_request": "2023-1045997",
    "request_type": "Property Maintenance",
    "request_reason": "Property Maintenance",
    "date_created": "2023-10-25T17:45:03.000",
    "date_modified": "2023-10-25T17:45:03.000",
    "request_status": "Pending",
    "responsible_agency": "Department of Code Enforcement",
    "final_address": "840 Poydras St",
    "address_councildis": "B",
    "status": "Pending",
    "rowid": "1045997",
    "final_x": "3679990.1588",
    "final_y": "529463.526337",
    "longitude": "-90.07290928486657",
    "latitude": "29.94988682878874",
    "geocoded_column": {
      "latitude": "29.94988682878874",
      "longitude": "-90.07290928486657"
    }
  },
  {
    "service_request": "2023-1045996",
    "request_type": "Abandoned Vehicles",
    "request_reason": "Abandoned/Junk Vehicles",
    "date_created": "2023-10-25T17:25:23.000",
    "date_modified": "2023-10-25T17:25:23.000",
    "request_status": "Pending",
    "responsible_agency": "Department of Public Works",
    "final_address": "1810 Frenchmen St",
    "address_councildis": "D",
    "status": "Pending",
    "rowid": "1045996",
    "final_x": "3684343.65692",
    "final_y": "538948.728138",
    "longitude": "-90.05883017953178",
    "latitude": "29.97583547264905",
    "geocoded_column": {
      "latitude": "29.97583547264905",
      "longitude": "-90.05883017953178"
    }
  },
  {
    "service_request": "2023-1045995",
    "request_type": "Mayor's Request",
    "request_reason": "Requests to the Mayor",
    "date_created": "2023-10-25T17:23:27.000",
    "date_modified": "2023-10-25T17:23:27.000",
    "request_status": "Pending",
    "responsible_agency": "Executive Office of the Mayor",
    "final_address": "4000 Cadillac St",
    "address_councildis": "D",
    "status": "Pending",
    "rowid": "1045995",
    "final_x": "3676764.69493",
    "final_y": "546983.836561",
    "longitude": "-90.08248968126163",
    "latitude": "29.998158845663383",
    "geocoded_column": {
      "latitude": "29.998158845663383",
      "longitude": "-90.08248968126163"
    }
  },
  {
    "service_request": "2023-1045993",
    "request_type": "Trash/Recycling",
    "request_reason": "Request a Large Item Pick Up",
    "date_created": "2023-10-25T17:08:31.000",
    "date_modified": "2023-10-25T17:08:31.000",
    "request_status": "Pending",
    "responsible_agency": "Department of Sanitation",
    "final_address": "4738 S Liberty St",
    "address_councildis": "B",
    "status": "Assigned to Contractor",
    "contractor": "Richards Disposal",
    "rowid": "1045993",
    "final_x": "3669177.2681",
    "final_y": "523161.363067",
    "longitude": "-90.10726360597617",
    "latitude": "29.932880540341202",
    "geocoded_column": {
      "latitude": "29.932880540341202",
      "longitude": "-90.10726360597617"
    }
  },
  {
    "service_request": "2023-1045992",
    "request_type": "Traffic Signals/Signs/Striping/Streetlights",
    "request_reason": "Street Light Outage/Malfunction",
    "date_created": "2023-10-25T17:03:58.000",
    "date_modified": "2023-10-25T17:03:59.000",
    "request_status": "Pending",
    "responsible_agency": "Department of Public Works",
    "final_address": "1601 Newton St",
    "address_councildis": "C",
    "status": "Assigned to Contractor",
    "contractor": "Legacy Professional Services",
    "rowid": "1045992",
    "final_x": "3690239.10915",
    "final_y": "527798.088127",
    "longitude": "-90.0406080444145",
    "latitude": "29.94499347343239",
    "geocoded_column": {
      "latitude": "29.94499347343239",
      "longitude": "-90.0406080444145"
    }
  },
  {
    "service_request": "2023-1045991",
    "request_type": "Trash/Recycling",
    "request_reason": "Request a Large Item Pick Up",
    "date_created": "2023-10-25T16:58:26.000",
    "date_modified": "2023-10-25T16:58:27.000",
    "request_status": "Pending",
    "responsible_agency": "Department of Sanitation",
    "final_address": "1938 Jo Ann Pl",
    "address_councildis": "C",
    "status": "Assigned to Contractor",
    "contractor": "Richards Disposal",
    "rowid": "1045991",
    "final_x": "3695032.73021",
    "final_y": "523470.121467",
    "longitude": "-90.02562913169758",
    "latitude": "29.932943480065372",
    "geocoded_column": {
      "latitude": "29.932943480065372",
      "longitude": "-90.02562913169758"
    }
  },
  {
    "service_request": "2023-1045990",
    "request_type": "Trash/Recycling",
    "request_reason": "Order Trash Cart",
    "date_created": "2023-10-25T16:58:20.000",
    "date_modified": "2023-10-25T16:58:20.000",
    "request_status": "Pending",
    "responsible_agency": "Department of Sanitation",
    "final_address": "1505 Mandeville St",
    "address_councildis": "C",
    "status": "Assigned to Contractor",
    "contractor": "IV Waste",
    "rowid": "1045990",
    "final_x": "3685691.04975",
    "final_y": "537913.187209",
    "longitude": "-90.05461123734",
    "latitude": "29.972946820028078",
    "geocoded_column": {
      "latitude": "29.972946820028078",
      "longitude": "-90.05461123734"
    }
  },
  {
    "service_request": "2023-1045989",
    "request_type": "Trash/Recycling",
    "request_reason": "Order Recycling Cart",
    "date_created": "2023-10-25T16:57:34.000",
    "date_modified": "2023-10-25T16:57:35.000",
    "request_status": "Pending",
    "responsible_agency": "Department of Sanitation",
    "final_address": "904 Aline St",
    "address_councildis": "B",
    "status": "Pending",
    "rowid": "1045989",
    "final_x": "3674637.85057",
    "final_y": "518751.159991",
    "longitude": "-90.09017598688128",
    "latitude": "29.92059211434586",
    "geocoded_column": {
      "latitude": "29.92059211434586",
      "longitude": "-90.09017598688128"
    }
  },
  {
    "service_request": "2023-1045988",
    "request_type": "Trash/Recycling",
    "request_reason": "Order Trash Cart",
    "date_created": "2023-10-25T16:56:54.000",
    "date_modified": "2023-10-25T16:56:55.000",
    "request_status": "Pending",
    "responsible_agency": "Department of Sanitation",
    "final_address": "904 Aline St",
    "address_councildis": "B",
    "status": "Assigned to Contractor",
    "contractor": "Richards Disposal",
    "rowid": "1045988",
    "final_x": "3674637.85057",
    "final_y": "518751.159991",
    "longitude": "-90.09017598688128",
    "latitude": "29.92059211434586",
    "geocoded_column": {
      "latitude": "29.92059211434586",
      "longitude": "-90.09017598688128"
    }
  },
  {
    "service_request": "2023-1045987",
    "request_type": "Property Maintenance",
    "request_reason": "Property Maintenance",
    "date_created": "2023-10-25T16:49:54.000",
    "date_modified": "2023-10-25T16:49:54.000",
    "request_status": "Pending",
    "responsible_agency": "Department of Code Enforcement",
    "final_address": "4215 Urquhart St",
    "address_councildis": "D",
    "status": "Pending",
    "rowid": "1045987",
    "final_x": "3692711.4303",
    "final_y": "535894.525383",
    "longitude": "-90.03251199439138",
    "latitude": "29.967178925206124",
    "geocoded_column": {
      "latitude": "29.967178925206124",
      "longitude": "-90.03251199439138"
    }
  },
  {
    "service_request": "2023-1045986",
    "request_type": "Traffic Signals/Signs/Striping/Streetlights",
    "request_reason": "Street Name Sign Damaged or Missing",
    "date_created": "2023-10-25T16:45:23.000",
    "date_modified": "2023-10-25T16:45:24.000",
    "request_status": "Pending",
    "responsible_agency": "Department of Public Works",
    "final_address": "STATE ST & WILLOW ST",
    "address_councildis": "A",
    "status": "Pending",
    "rowid": "1045986",
    "final_x": "3666819.8",
    "final_y": "525764.68",
    "longitude": "-90.11461857043614",
    "latitude": "29.940107979999212",
    "geocoded_column": {
      "latitude": "29.940107979999212",
      "longitude": "-90.11461857043614"
    }
  },
  {
    "service_request": "2023-1045985",
    "request_type": "Parks & Parkways",
    "request_reason": "Request Tree Service (Right of Way/Public Property)",
    "date_created": "2023-10-25T16:44:08.000",
    "date_modified": "2023-10-25T16:45:13.000",
    "request_status": "Pending",
    "responsible_agency": "Department of Parks & Parkway",
    "final_address": "4414 Banks St",
    "address_councildis": "A",
    "status": "Pending",
    "rowid": "1045985",
    "final_x": "3669102.26042",
    "final_y": "538259.379977",
    "longitude": "-90.10699028027192",
    "latitude": "29.974397338053716",
    "geocoded_column": {
      "latitude": "29.974397338053716",
      "longitude": "-90.10699028027192"
    }
  },
  {
    "service_request": "2023-1045984",
    "request_type": "Abandoned Vehicles",
    "request_reason": "Vehicle Blocking Your Driveway",
    "date_created": "2023-10-25T16:42:17.000",
    "date_modified": "2023-10-25T16:42:17.000",
    "request_status": "Pending",
    "responsible_agency": "Department of Public Works",
    "final_address": "1920 Washington Ave",
    "address_councildis": "B",
    "status": "Pending",
    "rowid": "1045984",
    "final_x": "3675184.59573",
    "final_y": "523574.369979",
    "longitude": "-90.0882847360212",
    "latitude": "29.933838060393562",
    "geocoded_column": {
      "latitude": "29.933838060393562",
      "longitude": "-90.0882847360212"
    }
  },
  {
    "service_request": "2023-1045983",
    "request_type": "Mosquito, Termite & Rodent Control",
    "request_reason": "Mosquito Complaint",
    "date_created": "2023-10-25T16:40:23.000",
    "date_modified": "2023-10-25T16:40:24.000",
    "request_status": "Pending",
    "responsible_agency": "Mosquito, Termite & Rodent Control Board",
    "final_address": "9015 Marks St",
    "address_councildis": "A",
    "status": "Pending",
    "rowid": "1045983",
    "final_x": "3666469.71034",
    "final_y": "538245.361289",
    "longitude": "-90.1153050023771",
    "latitude": "29.974436000454364",
    "geocoded_column": {
      "latitude": "29.974436000454364",
      "longitude": "-90.1153050023771"
    }
  },
  {
    "service_request": "2023-1045982",
    "request_type": "Traffic Signals/Signs/Striping/Streetlights",
    "request_reason": "Traffic Signal Malfunctioning/Damaged",
    "date_created": "2023-10-25T16:39:27.000",
    "date_modified": "2023-10-25T16:39:28.000",
    "request_status": "Pending",
    "responsible_agency": "Department of Public Works",
    "final_address": "NEWTON ST & WHITNEY AVE & L B LANDRY AVE",
    "address_councildis": "C",
    "status": "Pending",
    "rowid": "1045982",
    "final_x": "3690196.8",
    "final_y": "527852.58",
    "longitude": "-90.04073968614316",
    "latitude": "29.945144619842505",
    "geocoded_column": {
      "latitude": "29.945144619842505",
      "longitude": "-90.04073968614316"
    }
  },
  {
    "service_request": "2023-1045981",
    "request_type": "Traffic Signals/Signs/Striping/Streetlights",
    "request_reason": "Street Light Outage/Malfunction",
    "date_created": "2023-10-25T16:32:20.000",
    "date_modified": "2023-10-25T16:32:21.000",
    "request_status": "Pending",
    "responsible_agency": "Department of Public Works",
    "final_address": "14 Marywood Ct",
    "address_councildis": "E",
    "status": "Assigned to Contractor",
    "contractor": "Legacy Professional Services",
    "rowid": "1045981",
    "final_x": "3712641.56606",
    "final_y": "566550.176291",
    "longitude": "-89.96841990508382",
    "latitude": "30.050832889585376",
    "geocoded_column": {
      "latitude": "30.050832889585376",
      "longitude": "-89.96841990508382"
    }
  },
  {
    "service_request": "2023-1045980",
    "request_type": "Parks & Parkways",
    "request_reason": "Request Tree Service (Right of Way/Public Property)",
    "date_created": "2023-10-25T16:25:59.000",
    "date_modified": "2023-10-25T16:25:59.000",
    "request_status": "Pending",
    "responsible_agency": "Department of Parks & Parkway",
    "final_address": "1920 St Bernard Ave",
    "address_councildis": "D",
    "status": "Pending",
    "rowid": "1045980",
    "final_x": "3681503.16245",
    "final_y": "538916.568586",
    "longitude": "-90.06780238218838",
    "latitude": "29.97583361307787",
    "geocoded_column": {
      "latitude": "29.97583361307787",
      "longitude": "-90.06780238218838"
    }
  },
  {
    "service_request": "2023-1045979",
    "request_type": "Trash/Recycling",
    "request_reason": "Missed Trash Pick-Up",
    "date_created": "2023-10-25T16:23:19.000",
    "date_modified": "2023-10-25T16:24:05.000",
    "request_status": "Pending",
    "responsible_agency": "Department of Sanitation",
    "final_address": "4912 Virgilian St",
    "address_councildis": "D",
    "status": "Assigned to Contractor",
    "contractor": "Waste Pro",
    "rowid": "1045979",
    "final_x": "3697319.58755",
    "final_y": "554626.70204",
    "longitude": "-90.01728003345445",
    "latitude": "30.01854087485218",
    "geocoded_column": {
      "latitude": "30.01854087485218",
      "longitude": "-90.01728003345445"
    }
  },
  {
    "service_request": "2023-1045978",
    "request_type": "Trash/Recycling",
    "request_reason": "Replace Trash Cart",
    "date_created": "2023-10-25T16:05:14.000",
    "date_modified": "2023-10-25T16:05:15.000",
    "request_status": "Pending",
    "responsible_agency": "Department of Sanitation",
    "final_address": "609 S Pierce St",
    "address_councildis": "A",
    "status": "Assigned to Contractor",
    "contractor": "Richards Disposal",
    "rowid": "1045978",
    "final_x": "3670143.37633",
    "final_y": "536442.203463",
    "longitude": "-90.10376376390559",
    "latitude": "29.969370033950103",
    "geocoded_column": {
      "latitude": "29.969370033950103",
      "longitude": "-90.10376376390559"
    }
  },
  {
    "service_request": "2023-1045977",
    "request_type": "Property Maintenance",
    "request_reason": "Property Maintenance",
    "date_created": "2023-10-25T16:04:12.000",
    "date_modified": "2023-10-25T16:04:12.000",
    "request_status": "Pending",
    "responsible_agency": "Department of Code Enforcement",
    "final_address": "2707 Lepage St",
    "address_councildis": "A",
    "status": "Pending",
    "rowid": "1045977",
    "final_x": "3677881.12533",
    "final_y": "539747.418378",
    "longitude": "-90.07921308671543",
    "latitude": "29.978227663311234",
    "geocoded_column": {
      "latitude": "29.978227663311234",
      "longitude": "-90.07921308671543"
    }
  },
  {
    "service_request": "2023-1045976",
    "request_type": "Tax and Revenue",
    "request_reason": "Business Renewal",
    "date_created": "2023-10-25T15:58:13.000",
    "date_modified": "2023-10-25T15:58:14.000",
    "request_status": "Pending",
    "responsible_agency": "Bureau of Revenue",
    "final_address": "3716 Downman Rd",
    "address_councildis": "E",
    "status": "Pending",
    "rowid": "1045976",
    "final_x": "3695982.02646",
    "final_y": "551125.670101",
    "longitude": "-90.02163284957727",
    "latitude": "30.008956524103986",
    "geocoded_column": {
      "latitude": "30.008956524103986",
      "longitude": "-90.02163284957727"
    }
  },
  {
    "service_request": "2023-1045975",
    "request_type": "Trash/Recycling",
    "request_reason": "Request a Large Item Pick Up",
    "date_created": "2023-10-25T15:57:57.000",
    "date_modified": "2023-10-25T15:57:57.000",
    "request_status": "Pending",
    "responsible_agency": "Department of Sanitation",
    "final_address": "5500 Samovar Dr",
    "address_councildis": "E",
    "status": "Assigned to Contractor",
    "contractor": "Waste Pro",
    "rowid": "1045975",
    "final_x": "3703738.17066",
    "final_y": "556309.091034",
    "longitude": "-89.99693780526998",
    "latitude": "30.02296253077885",
    "geocoded_column": {
      "latitude": "30.02296253077885",
      "longitude": "-89.99693780526998"
    }
  },
  {
    "service_request": "2023-1045974",
    "request_type": "Trash/Recycling",
    "request_reason": "Request a Large Item Pick Up",
    "date_created": "2023-10-25T15:57:45.000",
    "date_modified": "2023-10-25T15:57:46.000",
    "request_status": "Pending",
    "responsible_agency": "Department of Sanitation",
    "final_address": "5525 Annunciation St",
    "address_councildis": "A",
    "status": "Assigned to Contractor",
    "contractor": "Richards Disposal",
    "rowid": "1045974",
    "final_x": "3665932.71879",
    "final_y": "517594.188854",
    "longitude": "-90.11769290159114",
    "latitude": "29.917667628110742",
    "geocoded_column": {
      "latitude": "29.917667628110742",
      "longitude": "-90.11769290159114"
    }
  },
  {
    "service_request": "2023-1045973",
    "request_type": "Trash/Recycling",
    "request_reason": "Order Trash Cart",
    "date_created": "2023-10-25T15:53:01.000",
    "date_modified": "2023-10-25T15:53:02.000",
    "request_status": "Pending",
    "responsible_agency": "Department of Sanitation",
    "final_address": "FRANKLIN AVE & ELDER ST",
    "address_councildis": "D",
    "status": "Assigned to Contractor",
    "contractor": "IV Waste",
    "rowid": "1045973",
    "final_x": "3687156.3",
    "final_y": "545768.88",
    "longitude": "-90.0497057754717",
    "latitude": "29.994502143375684",
    "geocoded_column": {
      "latitude": "29.994502143375684",
      "longitude": "-90.0497057754717"
    }
  },
  {
    "service_request": "2023-1045972",
    "request_type": "Trash/Recycling",
    "request_reason": "Missed Trash Pick-Up",
    "date_created": "2023-10-25T15:52:48.000",
    "date_modified": "2023-10-25T15:52:49.000",
    "request_status": "Pending",
    "responsible_agency": "Department of Sanitation",
    "final_address": "7320 Farwood Dr",
    "address_councildis": "E",
    "status": "Assigned to Contractor",
    "contractor": "Waste Pro",
    "rowid": "1045972",
    "final_x": "3701433.1866",
    "final_y": "556785.50761",
    "longitude": "-90.0042035266883",
    "latitude": "30.024346210299154",
    "geocoded_column": {
      "latitude": "30.024346210299154",
      "longitude": "-90.0042035266883"
    }
  },
  {
    "service_request": "2023-1045971",
    "request_type": "Trash/Recycling",
    "request_reason": "Request a Large Item Pick Up",
    "date_created": "2023-10-25T15:52:31.000",
    "date_modified": "2023-10-25T15:52:32.000",
    "request_status": "Pending",
    "responsible_agency": "Department of Sanitation",
    "final_address": "7801 Lady Gray St",
    "address_councildis": "E",
    "status": "Assigned to Contractor",
    "contractor": "Waste Pro",
    "rowid": "1045971",
    "final_x": "3709587.29009",
    "final_y": "566006.430691",
    "longitude": "-89.97809366537889",
    "latitude": "30.0494374918845",
    "geocoded_column": {
      "latitude": "30.0494374918845",
      "longitude": "-89.97809366537889"
    }
  },
  {
    "service_request": "2023-1045970",
    "request_type": "Traffic Signals/Signs/Striping/Streetlights",
    "request_reason": "Street Light Outage/Malfunction",
    "date_created": "2023-10-25T15:51:58.000",
    "date_modified": "2023-10-25T15:51:59.000",
    "request_status": "Pending",
    "responsible_agency": "Department of Public Works",
    "final_address": "6423 Painters St",
    "address_councildis": "D",
    "status": "Assigned to Contractor",
    "contractor": "Legacy Professional Services",
    "rowid": "1045970",
    "final_x": "3685989.24559",
    "final_y": "557050.520602",
    "longitude": "-90.05299414256903",
    "latitude": "30.025558433634593",
    "geocoded_column": {
      "latitude": "30.025558433634593",
      "longitude": "-90.05299414256903"
    }
  },
  {
    "service_request": "2023-1045969",
    "request_type": "Trash/Recycling",
    "request_reason": "Missed Trash Pick-Up",
    "date_created": "2023-10-25T15:51:43.000",
    "date_modified": "2023-10-25T15:51:44.000",
    "request_status": "Pending",
    "responsible_agency": "Department of Sanitation",
    "final_address": "6040 S Muirfield Cir",
    "address_councildis": "E",
    "status": "Assigned to Contractor",
    "contractor": "Waste Pro",
    "rowid": "1045969",
    "final_x": "3718543.74905",
    "final_y": "566211.796579",
    "longitude": "-89.94977826213707",
    "latitude": "30.04970784884758",
    "geocoded_column": {
      "latitude": "30.04970784884758",
      "longitude": "-89.94977826213707"
    }
  },
  {
    "service_request": "2023-1045968",
    "request_type": "Abandoned Vehicles",
    "request_reason": "Abandoned/Junk Vehicles",
    "date_created": "2023-10-25T15:51:27.000",
    "date_modified": "2023-10-25T15:51:27.000",
    "request_status": "Pending",
    "responsible_agency": "Department of Public Works",
    "final_address": "10200 Almonaster Ave",
    "address_councildis": "E",
    "status": "Inspected",
    "rowid": "1045968",
    "final_x": "3713684.56383",
    "final_y": "551626.395989",
    "longitude": "-89.96568637555853",
    "latitude": "30.00976423388402",
    "geocoded_column": {
      "latitude": "30.00976423388402",
      "longitude": "-89.96568637555853"
    }
  },
  {
    "service_request": "2023-1045967",
    "request_type": "Traffic Signals/Signs/Striping/Streetlights",
    "request_reason": "Traffic Signal Malfunctioning/Damaged",
    "date_created": "2023-10-25T15:48:17.000",
    "date_modified": "2023-10-25T15:48:18.000",
    "request_status": "Pending",
    "responsible_agency": "Department of Public Works",
    "final_address": "NEWTON ST & L B LANDRY AVE & WHITNEY AVE",
    "address_councildis": "C",
    "status": "Pending",
    "rowid": "1045967",
    "final_x": "3690138.8",
    "final_y": "527855.08",
    "longitude": "-90.04092272061989",
    "latitude": "29.945153292917983",
    "geocoded_column": {
      "latitude": "29.945153292917983",
      "longitude": "-90.04092272061989"
    }
  },
  {
    "service_request": "2023-1045966",
    "request_type": "Trash/Recycling",
    "request_reason": "Replace Trash Cart",
    "date_created": "2023-10-25T15:47:53.000",
    "date_modified": "2023-10-25T15:47:54.000",
    "request_status": "Pending",
    "responsible_agency": "Department of Sanitation",
    "final_address": "820 France St",
    "address_councildis": "C",
    "status": "Assigned to Contractor",
    "contractor": "IV Waste",
    "rowid": "1045966",
    "final_x": "3692117.10185",
    "final_y": "534191.736645",
    "longitude": "-90.03444983836246",
    "latitude": "29.962515393997293",
    "geocoded_column": {
      "latitude": "29.962515393997293",
      "longitude": "-90.03444983836246"
    }
  },
  {
    "service_request": "2023-1045965",
    "request_type": "Parks & Parkways",
    "request_reason": "Request Tree Service (Right of Way/Public Property)",
    "date_created": "2023-10-25T15:41:20.000",
    "date_modified": "2023-10-25T15:41:21.000",
    "request_status": "Pending",
    "responsible_agency": "Department of Parks & Parkway",
    "final_address": "4755 Babylon St",
    "address_councildis": "D",
    "status": "Pending",
    "rowid": "1045965",
    "final_x": "3696680.97175",
    "final_y": "554315.409624",
    "longitude": "-90.01930909535523",
    "latitude": "30.017705090855813",
    "geocoded_column": {
      "latitude": "30.017705090855813",
      "longitude": "-90.01930909535523"
    }
  },
  {
    "service_request": "2023-1045964",
    "request_type": "Traffic Signals/Signs/Striping/Streetlights",
    "request_reason": "Street Light Outage/Malfunction",
    "date_created": "2023-10-25T15:40:44.000",
    "date_modified": "2023-10-25T15:40:45.000",
    "request_status": "Pending",
    "responsible_agency": "Department of Public Works",
    "final_address": "1209 Mandeville St",
    "address_councildis": "C",
    "status": "Assigned to Contractor",
    "contractor": "Legacy Professional Services",
    "rowid": "1045964",
    "final_x": "3685781.39708",
    "final_y": "536827.163016",
    "longitude": "-90.05436418736134",
    "latitude": "29.96995785977556",
    "geocoded_column": {
      "latitude": "29.96995785977556",
      "longitude": "-90.05436418736134"
    }
  },
  {
    "service_request": "2023-1045963",
    "request_type": "Property Maintenance",
    "request_reason": "Property Maintenance",
    "date_created": "2023-10-25T15:37:51.000",
    "date_modified": "2023-10-25T15:37:52.000",
    "request_status": "Pending",
    "responsible_agency": "Department of Code Enforcement",
    "final_address": "2005 Bartholomew St",
    "address_councildis": "D",
    "status": "Pending",
    "rowid": "1045963",
    "final_x": "3692700.42019",
    "final_y": "538743.448457",
    "longitude": "-90.03244462105621",
    "latitude": "29.97501279691239",
    "geocoded_column": {
      "latitude": "29.97501279691239",
      "longitude": "-90.03244462105621"
    }
  },
  {
    "service_request": "2023-1045962",
    "request_type": "Trash/Recycling",
    "request_reason": "Missed Trash Pick-Up",
    "date_created": "2023-10-25T15:37:33.000",
    "date_modified": "2023-10-25T15:37:34.000",
    "request_status": "Pending",
    "responsible_agency": "Department of Sanitation",
    "final_address": "4419 Knight Dr",
    "address_councildis": "E",
    "status": "Assigned to Contractor",
    "contractor": "Waste Pro",
    "rowid": "1045962",
    "final_x": "3708377.53784",
    "final_y": "553852.125207",
    "longitude": "-89.98237011006736",
    "latitude": "30.016057233859833",
    "geocoded_column": {
      "latitude": "30.016057233859833",
      "longitude": "-89.98237011006736"
    }
  },
  {
    "service_request": "2023-1045961",
    "request_type": "Trash/Recycling",
    "request_reason": "Order Recycling Cart",
    "date_created": "2023-10-25T15:36:56.000",
    "date_modified": "2023-10-25T15:36:56.000",
    "request_status": "Pending",
    "responsible_agency": "Department of Sanitation",
    "final_address": "3205 Chippewa St",
    "address_councildis": "B",
    "status": "Pending",
    "rowid": "1045961",
    "final_x": "3676425.51393",
    "final_y": "518641.857655",
    "longitude": "-90.08453691874627",
    "latitude": "29.920238117354295",
    "geocoded_column": {
      "latitude": "29.920238117354295",
      "longitude": "-90.08453691874627"
    }
  },
  {
    "service_request": "2023-1045960",
    "request_type": "Traffic Signals/Signs/Striping/Streetlights",
    "request_reason": "Traffic Signal Malfunctioning/Damaged",
    "date_created": "2023-10-25T15:36:13.000",
    "date_modified": "2023-10-25T15:36:13.000",
    "request_status": "Pending",
    "responsible_agency": "Department of Public Works",
    "final_address": "1600 BLK L. B. Landry Ave",
    "address_councildis": "C",
    "status": "Pending",
    "rowid": "1045960",
    "final_x": "3690012.84992",
    "final_y": "525540.880136",
    "longitude": "-90.04140276521694",
    "latitude": "29.938793938437996",
    "geocoded_column": {
      "latitude": "29.938793938437996",
      "longitude": "-90.04140276521694"
    }
  },
  {
    "service_request": "2023-1045959",
    "request_type": "Trash/Recycling",
    "request_reason": "Request a Large Item Pick Up",
    "date_created": "2023-10-25T15:35:52.000",
    "date_modified": "2023-10-25T15:35:53.000",
    "request_status": "Pending",
    "responsible_agency": "Department of Sanitation",
    "final_address": "4824 Bonita Dr",
    "address_councildis": "E",
    "status": "Assigned to Contractor",
    "contractor": "Waste Pro",
    "rowid": "1045959",
    "final_x": "3704396.18481",
    "final_y": "555793.593177",
    "longitude": "-89.99487767089465",
    "latitude": "30.02152399254928",
    "geocoded_column": {
      "latitude": "30.02152399254928",
      "longitude": "-89.99487767089465"
    }
  },
  {
    "service_request": "2023-1045958",
    "request_type": "Trash/Recycling",
    "request_reason": "Order Trash Cart",
    "date_created": "2023-10-25T15:35:01.000",
    "date_modified": "2023-10-25T15:35:02.000",
    "request_status": "Pending",
    "responsible_agency": "Department of Sanitation",
    "final_address": "1129 Lowerline St",
    "address_councildis": "A",
    "status": "Assigned to Contractor",
    "contractor": "Richards Disposal",
    "rowid": "1045958",
    "final_x": "3663644.79885",
    "final_y": "526701.583166",
    "longitude": "-90.1246113786",
    "latitude": "29.942776637243345",
    "geocoded_column": {
      "latitude": "29.942776637243345",
      "longitude": "-90.1246113786"
    }
  },
  {
    "service_request": "2023-1045957",
    "request_type": "Traffic Signals/Signs/Striping/Streetlights",
    "request_reason": "Street Light Outage/Malfunction",
    "date_created": "2023-10-25T15:33:56.000",
    "date_modified": "2023-10-25T15:33:57.000",
    "request_status": "Pending",
    "responsible_agency": "Department of Public Works",
    "final_address": "1202 Mandeville St",
    "address_councildis": "C",
    "status": "Assigned to Contractor",
    "contractor": "Legacy Professional Services",
    "rowid": "1045957",
    "final_x": "3685706.62838",
    "final_y": "536776.005384",
    "longitude": "-90.05460211672212",
    "latitude": "29.969819488632854",
    "geocoded_column": {
      "latitude": "29.969819488632854",
      "longitude": "-90.05460211672212"
    }
  },
  {
    "service_request": "2023-1045956",
    "request_type": "Roads/Drainage",
    "request_reason": "Pothole",
    "date_created": "2023-10-25T15:31:13.000",
    "date_modified": "2023-10-25T15:31:13.000",
    "request_status": "Pending",
    "responsible_agency": "Department of Public Works",
    "final_address": "4216 Chestnut St",
    "address_councildis": "B",
    "status": "Pending",
    "rowid": "1045956",
    "final_x": "3671574.31393",
    "final_y": "519539.203703",
    "longitude": "-90.09981939416457",
    "latitude": "29.922850019854593",
    "geocoded_column": {
      "latitude": "29.922850019854593",
      "longitude": "-90.09981939416457"
    }
  },
  {
    "service_request": "2023-1045955",
    "request_type": "Tax and Revenue",
    "request_reason": "Sales Tax Question",
    "date_created": "2023-10-25T15:29:56.000",
    "date_modified": "2023-10-25T15:29:56.000",
    "request_status": "Pending",
    "responsible_agency": "Bureau of Revenue",
    "status": "Pending",
    "rowid": "1045955",
    "longitude": "0.0",
    "latitude": "0.0",
    "geocoded_column": {
      "latitude": "0.0",
      "longitude": "0.0"
    }
  },
  {
    "service_request": "2023-1045954",
    "request_type": "Trash/Recycling",
    "request_reason": "MIssed Recycling Pick-Up",
    "date_created": "2023-10-25T15:29:06.000",
    "date_modified": "2023-10-25T15:29:23.000",
    "request_status": "Pending",
    "responsible_agency": "Department of Sanitation",
    "final_address": "4501 Charlene Dr",
    "address_councildis": "E",
    "status": "Assigned to Contractor",
    "contractor": "Waste Pro",
    "rowid": "1045954",
    "final_x": "3708120.18763",
    "final_y": "554029.463256",
    "longitude": "-89.9831766132496",
    "latitude": "30.01655318527736",
    "geocoded_column": {
      "latitude": "30.01655318527736",
      "longitude": "-89.9831766132496"
    }
  },
  {
    "service_request": "2023-1045953",
    "request_type": "Abandoned Vehicles",
    "request_reason": "Abandoned/Junk Vehicles",
    "date_created": "2023-10-25T15:28:43.000",
    "date_modified": "2023-10-25T15:28:44.000",
    "request_status": "Pending",
    "responsible_agency": "Department of Public Works",
    "final_address": "3709 General Taylor St",
    "address_councildis": "B",
    "status": "Pending",
    "rowid": "1045953",
    "final_x": "3670957.60289",
    "final_y": "528372.352064",
    "longitude": "-90.10146635182647",
    "latitude": "29.947156567813266",
    "geocoded_column": {
      "latitude": "29.947156567813266",
      "longitude": "-90.10146635182647"
    }
  },
  {
    "service_request": "2023-1045952",
    "request_type": "Parks & Parkways",
    "request_reason": "Request Tree Service (Right of Way/Public Property)",
    "date_created": "2023-10-25T15:25:26.000",
    "date_modified": "2023-10-25T15:25:27.000",
    "request_status": "Pending",
    "responsible_agency": "Department of Parks & Parkway",
    "final_address": "1900 BLK Saint Bernard Ave",
    "address_councildis": "D",
    "status": "Pending",
    "rowid": "1045952",
    "final_x": "3681544.52401",
    "final_y": "539007.333846",
    "longitude": "-90.06766858435087",
    "latitude": "29.97608192987187",
    "geocoded_column": {
      "latitude": "29.97608192987187",
      "longitude": "-90.06766858435087"
    }
  },
  {
    "service_request": "2023-1045951",
    "request_type": "Trash/Recycling",
    "request_reason": "Request a Large Item Pick Up",
    "date_created": "2023-10-25T15:25:16.000",
    "date_modified": "2023-10-25T15:25:17.000",
    "request_status": "Pending",
    "responsible_agency": "Department of Sanitation",
    "final_address": "4701 Marjorie Ln",
    "address_councildis": "D",
    "status": "Assigned to Contractor",
    "contractor": "IV Waste",
    "rowid": "1045951",
    "final_x": "3678513.44981",
    "final_y": "549811.811732",
    "longitude": "-90.07686741990159",
    "latitude": "30.005882165656818",
    "geocoded_column": {
      "latitude": "30.005882165656818",
      "longitude": "-90.07686741990159"
    }
  },
  {
    "service_request": "2023-1045950",
    "request_type": "Roads/Drainage",
    "request_reason": "Pothole",
    "date_created": "2023-10-25T15:24:55.000",
    "date_modified": "2023-10-25T15:24:55.000",
    "request_status": "Pending",
    "responsible_agency": "Department of Public Works",
    "final_address": "1421 Constantinople St",
    "address_councildis": "B",
    "status": "Pending",
    "rowid": "1045950",
    "final_x": "3672433.24257",
    "final_y": "520667.657465",
    "longitude": "-90.09706965638372",
    "latitude": "29.925927453713577",
    "geocoded_column": {
      "latitude": "29.925927453713577",
      "longitude": "-90.09706965638372"
    }
  },
  {
    "service_request": "2023-1045948",
    "request_type": "Roads/Drainage",
    "request_reason": "Pothole",
    "date_created": "2023-10-25T15:16:25.000",
    "date_modified": "2023-10-25T15:16:25.000",
    "request_status": "Pending",
    "responsible_agency": "Department of Public Works",
    "final_address": "1315 Peniston St",
    "address_councildis": "B",
    "status": "Pending",
    "rowid": "1045948",
    "final_x": "3673101.31451",
    "final_y": "520423.11276",
    "longitude": "-90.09496908964098",
    "latitude": "29.925235197927364",
    "geocoded_column": {
      "latitude": "29.925235197927364",
      "longitude": "-90.09496908964098"
    }
  },
  {
    "service_request": "2023-1045947",
    "request_type": "Roads/Drainage",
    "request_reason": "Pothole",
    "date_created": "2023-10-25T15:08:44.000",
    "date_modified": "2023-10-25T15:08:44.000",
    "request_status": "Pending",
    "responsible_agency": "Department of Public Works",
    "final_address": "1312 Milan St",
    "address_councildis": "B",
    "status": "Pending",
    "rowid": "1045947",
    "final_x": "3671625.82823",
    "final_y": "520286.919608",
    "longitude": "-90.09963137110304",
    "latitude": "29.92490447494246",
    "geocoded_column": {
      "latitude": "29.92490447494246",
      "longitude": "-90.09963137110304"
    }
  },
  {
    "service_request": "2023-1045946",
    "request_type": "Trash/Recycling",
    "request_reason": "Repair Trash Cart",
    "date_created": "2023-10-25T15:06:56.000",
    "date_modified": "2023-10-25T15:06:56.000",
    "request_status": "Pending",
    "responsible_agency": "Department of Sanitation",
    "final_address": "3621 Franklin Ave",
    "address_councildis": "D",
    "status": "Assigned to Contractor",
    "contractor": "IV Waste",
    "rowid": "1045946",
    "final_x": "3687210.8765",
    "final_y": "546239.980944",
    "longitude": "-90.04951670214828",
    "latitude": "29.99579582026325",
    "geocoded_column": {
      "latitude": "29.99579582026325",
      "longitude": "-90.04951670214828"
    }
  },
  {
    "service_request": "2023-1045945",
    "request_type": "Trash/Recycling",
    "request_reason": "Order Trash Cart",
    "date_created": "2023-10-25T15:03:57.000",
    "date_modified": "2023-10-25T15:03:58.000",
    "request_status": "Pending",
    "responsible_agency": "Department of Sanitation",
    "final_address": "1308 Socrates St",
    "address_councildis": "C",
    "status": "Assigned to Contractor",
    "contractor": "Richards Disposal",
    "rowid": "1045945",
    "final_x": "3689498.22934",
    "final_y": "526417.299006",
    "longitude": "-90.04299631589319",
    "latitude": "29.941219736770652",
    "geocoded_column": {
      "latitude": "29.941219736770652",
      "longitude": "-90.04299631589319"
    }
  },
  {
    "service_request": "2023-1045943",
    "request_type": "Trash/Recycling",
    "request_reason": "Request a Large Item Pick Up",
    "date_created": "2023-10-25T15:01:59.000",
    "date_modified": "2023-10-25T15:02:00.000",
    "request_status": "Pending",
    "responsible_agency": "Department of Sanitation",
    "final_address": "1229 St Ferdinand St",
    "address_councildis": "C",
    "status": "Assigned to Contractor",
    "contractor": "IV Waste",
    "rowid": "1045943",
    "final_x": "3687894.61039",
    "final_y": "536896.07444",
    "longitude": "-90.04768802946924",
    "latitude": "29.97008231575897",
    "geocoded_column": {
      "latitude": "29.97008231575897",
      "longitude": "-90.04768802946924"
    }
  },
  {
    "service_request": "2023-1045942",
    "request_type": "Property Maintenance",
    "request_reason": "Property Maintenance",
    "date_created": "2023-10-25T14:57:20.000",
    "date_modified": "2023-10-25T14:57:21.000",
    "request_status": "Pending",
    "responsible_agency": "Department of Code Enforcement",
    "final_address": "2701 Valence St",
    "address_councildis": "B",
    "status": "Pending",
    "rowid": "1045942",
    "final_x": "3669399.17998",
    "final_y": "524671.177148",
    "longitude": "-90.10651201256601",
    "latitude": "29.937025512827383",
    "geocoded_column": {
      "latitude": "29.937025512827383",
      "longitude": "-90.10651201256601"
    }
  },
  {
    "service_request": "2023-1045941",
    "request_type": "Trash/Recycling",
    "request_reason": "Return Trash Cart",
    "date_created": "2023-10-25T14:55:13.000",
    "date_modified": "2023-10-25T14:55:13.000",
    "request_status": "Pending",
    "responsible_agency": "Department of Sanitation",
    "final_address": "342 Pacific Ave",
    "address_councildis": "C",
    "status": "Assigned to Contractor",
    "contractor": "Richards Disposal",
    "rowid": "1045941",
    "final_x": "3688570.04675",
    "final_y": "530377.650306",
    "longitude": "-90.0457862557931",
    "latitude": "29.95213805727556",
    "geocoded_column": {
      "latitude": "29.95213805727556",
      "longitude": "-90.0457862557931"
    }
  },
  {
    "service_request": "2023-1045940",
    "request_type": "Trash/Recycling",
    "request_reason": "Request a Large Item Pick Up",
    "date_created": "2023-10-25T14:55:08.000",
    "date_modified": "2023-10-25T14:55:09.000",
    "request_status": "Pending",
    "responsible_agency": "Department of Sanitation",
    "final_address": "438 Eighth St",
    "address_councildis": "B",
    "status": "Assigned to Contractor",
    "contractor": "Richards Disposal",
    "rowid": "1045940",
    "final_x": "3677111.56936",
    "final_y": "518640.134839",
    "longitude": "-90.08237142583228",
    "latitude": "29.920212803041746",
    "geocoded_column": {
      "latitude": "29.920212803041746",
      "longitude": "-90.08237142583228"
    }
  },
  {
    "service_request": "2023-1045939",
    "request_type": "Property Maintenance",
    "request_reason": "Property Maintenance",
    "date_created": "2023-10-25T14:53:05.000",
    "date_modified": "2023-10-25T14:53:05.000",
    "request_status": "Pending",
    "responsible_agency": "Department of Code Enforcement",
    "final_address": "6245 London Ave",
    "address_councildis": "D",
    "status": "Pending",
    "rowid": "1045939",
    "final_x": "3680611.74728",
    "final_y": "555899.107673",
    "longitude": "-90.07002638112795",
    "latitude": "30.022556591309144",
    "geocoded_column": {
      "latitude": "30.022556591309144",
      "longitude": "-90.07002638112795"
    }
  },
  {
    "service_request": "2023-1045938",
    "request_type": "Trash/Recycling",
    "request_reason": "Request a Large Item Pick Up",
    "date_created": "2023-10-25T14:51:03.000",
    "date_modified": "2023-10-25T14:51:04.000",
    "request_status": "Pending",
    "responsible_agency": "Department of Sanitation",
    "final_address": "9122 Forshey St",
    "address_councildis": "A",
    "status": "Assigned to Contractor",
    "contractor": "Richards Disposal",
    "rowid": "1045938",
    "final_x": "3664237.90298",
    "final_y": "536393.898119",
    "longitude": "-90.12241541020055",
    "latitude": "29.96941013471971",
    "geocoded_column": {
      "latitude": "29.96941013471971",
      "longitude": "-90.12241541020055"
    }
  },
  {
    "service_request": "2023-1045937",
    "request_type": "Abandoned Vehicles",
    "request_reason": "Abandoned/Junk Vehicles",
    "date_created": "2023-10-25T14:43:26.000",
    "date_modified": "2023-10-25T14:43:26.000",
    "request_status": "Pending",
    "responsible_agency": "Department of Public Works",
    "final_address": "7102 Freret St",
    "address_councildis": "A",
    "status": "Pending",
    "rowid": "1045937",
    "final_x": "3663946.01581",
    "final_y": "525720.501245",
    "longitude": "-90.12369306061936",
    "latitude": "29.94007023488417",
    "geocoded_column": {
      "latitude": "29.94007023488417",
      "longitude": "-90.12369306061936"
    }
  },
  {
    "service_request": "2023-1045936",
    "request_type": "Property Maintenance",
    "request_reason": "Property Maintenance",
    "date_created": "2023-10-25T14:41:20.000",
    "date_modified": "2023-10-25T14:41:20.000",
    "request_status": "Pending",
    "responsible_agency": "Department of Code Enforcement",
    "final_address": "2109 Painters St",
    "address_councildis": "D",
    "status": "Pending",
    "rowid": "1045936",
    "final_x": "3687294.9823",
    "final_y": "540292.532875",
    "longitude": "-90.04946152633933",
    "latitude": "29.97943986830905",
    "geocoded_column": {
      "latitude": "29.97943986830905",
      "longitude": "-90.04946152633933"
    }
  },
  {
    "service_request": "2023-1045935",
    "request_type": "Trash/Recycling",
    "request_reason": "Repair Trash Cart",
    "date_created": "2023-10-25T14:40:53.000",
    "date_modified": "2023-10-25T14:40:53.000",
    "request_status": "Pending",
    "responsible_agency": "Department of Sanitation",
    "final_address": "256 Audubon St",
    "address_councildis": "A",
    "status": "Assigned to Contractor",
    "contractor": "Richards Disposal",
    "rowid": "1045935",
    "final_x": "3661243.13498",
    "final_y": "521657.424889",
    "longitude": "-90.13236096117208",
    "latitude": "29.928976235450936",
    "geocoded_column": {
      "latitude": "29.928976235450936",
      "longitude": "-90.13236096117208"
    }
  },
  {
    "service_request": "2023-1045934",
    "request_type": "Traffic Signals/Signs/Striping/Streetlights",
    "request_reason": "Street Light Outage/Malfunction",
    "date_created": "2023-10-25T14:39:32.000",
    "date_modified": "2023-10-25T14:39:32.000",
    "request_status": "Pending",
    "responsible_agency": "Department of Public Works",
    "final_address": "1541 Virginia Marie St",
    "address_councildis": "D",
    "status": "Assigned to Contractor",
    "contractor": "Legacy Professional Services",
    "rowid": "1045934",
    "final_x": "3679221.98184",
    "final_y": "548880.166611",
    "longitude": "-90.0746613318497",
    "latitude": "30.0032990921428",
    "geocoded_column": {
      "latitude": "30.0032990921428",
      "longitude": "-90.0746613318497"
    }
  },
  {
    "service_request": "2023-1045933",
    "request_type": "Traffic Signals/Signs/Striping/Streetlights",
    "request_reason": "Street Light Outage/Malfunction",
    "date_created": "2023-10-25T14:29:57.000",
    "date_modified": "2023-10-25T14:29:57.000",
    "request_status": "Pending",
    "responsible_agency": "Department of Public Works",
    "final_address": "827 Calhoun St",
    "address_councildis": "A",
    "status": "Assigned to Contractor",
    "contractor": "Legacy Professional Services",
    "rowid": "1045933",
    "final_x": "3663591.32691",
    "final_y": "519938.274744",
    "longitude": "-90.1250053819446",
    "latitude": "29.92418122862939",
    "geocoded_column": {
      "latitude": "29.92418122862939",
      "longitude": "-90.1250053819446"
    }
  },
  {
    "service_request": "2023-1045932",
    "request_type": "Trash/Recycling",
    "request_reason": "Replace Trash Cart",
    "date_created": "2023-10-25T14:24:29.000",
    "date_modified": "2023-10-25T14:24:30.000",
    "request_status": "Pending",
    "responsible_agency": "Department of Sanitation",
    "final_address": "1700 BLK Piety St",
    "address_councildis": "D",
    "status": "Assigned to Contractor",
    "contractor": "IV Waste",
    "rowid": "1045932",
    "final_x": "3690444.61973",
    "final_y": "538227.929565",
    "longitude": "-90.039587378368",
    "latitude": "29.973665529374774",
    "geocoded_column": {
      "latitude": "29.973665529374774",
      "longitude": "-90.039587378368"
    }
  },
  {
    "service_request": "2023-1045931",
    "request_type": "Roads/Drainage",
    "request_reason": "Catch Basin - Clogged",
    "date_created": "2023-10-25T14:24:19.000",
    "date_modified": "2023-10-25T14:27:46.000",
    "request_status": "Pending",
    "responsible_agency": "Department of Public Works",
    "final_address": "8332 Pritchard Pl",
    "address_councildis": "A",
    "status": "Pending",
    "rowid": "1045931",
    "final_x": "3665263.19047",
    "final_y": "533535.230533",
    "longitude": "-90.11927311067241",
    "latitude": "29.961519908235665",
    "geocoded_column": {
      "latitude": "29.961519908235665",
      "longitude": "-90.11927311067241"
    }
  },
  {
    "service_request": "2023-1045930",
    "request_type": "Property Maintenance",
    "request_reason": "Property Maintenance",
    "date_created": "2023-10-25T14:19:30.000",
    "date_modified": "2023-10-25T14:19:30.000",
    "request_status": "Pending",
    "responsible_agency": "Department of Code Enforcement",
    "final_address": "5527 Marigny St",
    "address_councildis": "D",
    "status": "Pending",
    "rowid": "1045930",
    "final_x": "3684103.42165",
    "final_y": "553289.515159",
    "longitude": "-90.05908523060502",
    "latitude": "30.015274857417435",
    "geocoded_column": {
      "latitude": "30.015274857417435",
      "longitude": "-90.05908523060502"
    }
  },
  {
    "service_request": "2023-1045927",
    "request_type": "Property Maintenance",
    "request_reason": "Property Maintenance",
    "date_created": "2023-10-25T14:14:39.000",
    "date_modified": "2023-10-25T14:14:39.000",
    "request_status": "Pending",
    "responsible_agency": "Department of Code Enforcement",
    "final_address": "100 BLK S Saratoga St",
    "address_councildis": "B",
    "status": "Pending",
    "rowid": "1045927",
    "final_x": "3679469.49437",
    "final_y": "531684.19659",
    "longitude": "-90.07447623050955",
    "latitude": "29.95600866281603",
    "geocoded_column": {
      "latitude": "29.95600866281603",
      "longitude": "-90.07447623050955"
    }
  },
  {
    "service_request": "2023-1045926",
    "request_type": "Trash/Recycling",
    "request_reason": "Repair Recycling Cart",
    "date_created": "2023-10-25T14:13:12.000",
    "date_modified": "2023-10-25T14:13:12.000",
    "request_status": "Pending",
    "responsible_agency": "Department of Sanitation",
    "final_address": "7720 Jeannette St",
    "address_councildis": "A",
    "status": "Pending",
    "rowid": "1045926",
    "final_x": "3663616.88429",
    "final_y": "528234.76544",
    "longitude": "-90.1246484507472",
    "latitude": "29.946993206861634",
    "geocoded_column": {
      "latitude": "29.946993206861634",
      "longitude": "-90.1246484507472"
    }
  },
  {
    "service_request": "2023-1045925",
    "request_type": "Trash/Recycling",
    "request_reason": "Replace Trash Cart",
    "date_created": "2023-10-25T14:13:06.000",
    "date_modified": "2023-10-25T14:13:06.000",
    "request_status": "Pending",
    "responsible_agency": "Department of Sanitation",
    "final_address": "4920 Gilbert St",
    "address_councildis": "E",
    "status": "Assigned to Contractor",
    "contractor": "Waste Pro",
    "rowid": "1045925",
    "final_x": "3729348.70637",
    "final_y": "562621.733216",
    "longitude": "-89.915768784021",
    "latitude": "30.039473522618636",
    "geocoded_column": {
      "latitude": "30.039473522618636",
      "longitude": "-89.915768784021"
    }
  },
  {
    "service_request": "2023-1045922",
    "request_type": "Property Maintenance",
    "request_reason": "Property Maintenance",
    "date_created": "2023-10-25T14:11:49.000",
    "date_modified": "2023-10-25T14:11:49.000",
    "request_status": "Pending",
    "responsible_agency": "Department of Code Enforcement",
    "final_address": "4617 Gallatin St",
    "address_councildis": "C",
    "status": "Pending",
    "rowid": "1045922",
    "final_x": "3702112.79729",
    "final_y": "522307.42201",
    "longitude": "-90.00332064465876",
    "latitude": "29.929522383262196",
    "geocoded_column": {
      "latitude": "29.929522383262196",
      "longitude": "-90.00332064465876"
    }
  },
  {
    "service_request": "2023-1045921",
    "request_type": "Trash/Recycling",
    "request_reason": "Request a Large Item Pick Up",
    "date_created": "2023-10-25T14:11:43.000",
    "date_modified": "2023-10-25T14:11:44.000",
    "request_status": "Pending",
    "responsible_agency": "Department of Sanitation",
    "final_address": "4935 Galahad Dr",
    "address_councildis": "E",
    "status": "Assigned to Contractor",
    "contractor": "Waste Pro",
    "rowid": "1045921",
    "final_x": "3707162.83928",
    "final_y": "556692.536986",
    "longitude": "-89.98610246867372",
    "latitude": "30.02390658772815",
    "geocoded_column": {
      "latitude": "30.02390658772815",
      "longitude": "-89.98610246867372"
    }
  },
  {
    "service_request": "2023-1045920",
    "request_type": "Traffic Signals/Signs/Striping/Streetlights",
    "request_reason": "Traffic Signal Malfunctioning/Damaged",
    "date_created": "2023-10-25T14:01:03.000",
    "date_modified": "2023-10-25T14:01:03.000",
    "request_status": "Pending",
    "responsible_agency": "Department of Public Works",
    "final_address": "NEWTON ST & L B LANDRY AVE & WHITNEY AVE",
    "address_councildis": "C",
    "status": "Pending",
    "rowid": "1045920",
    "final_x": "3690138.8",
    "final_y": "527855.08",
    "longitude": "-90.04092272061989",
    "latitude": "29.945153292917983",
    "geocoded_column": {
      "latitude": "29.945153292917983",
      "longitude": "-90.04092272061989"
    }
  },
  {
    "service_request": "2023-1045919",
    "request_type": "Property Maintenance",
    "request_reason": "Property Maintenance",
    "date_created": "2023-10-25T13:55:10.000",
    "date_modified": "2023-10-25T13:55:10.000",
    "request_status": "Pending",
    "responsible_agency": "Department of Code Enforcement",
    "final_address": "9300 BLK Morrison Rd",
    "address_councildis": "E",
    "status": "Pending",
    "rowid": "1045919",
    "final_x": "3706742.99133",
    "final_y": "562496.004389",
    "longitude": "-89.98721366522697",
    "latitude": "30.03987741092082",
    "geocoded_column": {
      "latitude": "30.03987741092082",
      "longitude": "-89.98721366522697"
    }
  },
  {
    "service_request": "2023-1045918",
    "request_type": "Trash/Recycling",
    "request_reason": "Request a Large Item Pick Up",
    "date_created": "2023-10-25T13:48:00.000",
    "date_modified": "2023-10-25T13:48:01.000",
    "request_status": "Pending",
    "responsible_agency": "Department of Sanitation",
    "final_address": "1418 Reynes St",
    "address_councildis": "E",
    "status": "Assigned to Contractor",
    "contractor": "Waste Pro",
    "rowid": "1045918",
    "final_x": "3696248.51152",
    "final_y": "535574.785158",
    "longitude": "-90.02135347817216",
    "latitude": "29.966188867277335",
    "geocoded_column": {
      "latitude": "29.966188867277335",
      "longitude": "-90.02135347817216"
    }
  },
  {
    "service_request": "2023-1045917",
    "request_type": "Traffic Signals/Signs/Striping/Streetlights",
    "request_reason": "Street Light Outage/Malfunction",
    "date_created": "2023-10-25T13:43:50.000",
    "date_modified": "2023-10-25T13:43:51.000",
    "request_status": "Pending",
    "responsible_agency": "Department of Public Works",
    "final_address": "2200 BLK Lake Oaks Pkwy",
    "address_councildis": "D",
    "status": "Assigned to Contractor",
    "contractor": "Legacy Professional Services",
    "rowid": "1045917",
    "final_x": "3684427.13537",
    "final_y": "558424.7166",
    "longitude": "-90.05788184733372",
    "latitude": "30.02938486387656",
    "geocoded_column": {
      "latitude": "30.02938486387656",
      "longitude": "-90.05788184733372"
    }
  },
  {
    "service_request": "2023-1045916",
    "request_type": "Traffic Signals/Signs/Striping/Streetlights",
    "request_reason": "Street Light Outage/Malfunction",
    "date_created": "2023-10-25T13:42:32.000",
    "date_modified": "2023-10-25T13:42:33.000",
    "request_status": "Pending",
    "responsible_agency": "Department of Public Works",
    "final_address": "MUSIC ST & LAKE OAKS PKWY",
    "address_councildis": "D",
    "status": "Assigned to Contractor",
    "contractor": "Legacy Professional Services",
    "rowid": "1045916",
    "final_x": "3685213.8",
    "final_y": "558558.88",
    "longitude": "-90.05539127942514",
    "latitude": "30.029729662655807",
    "geocoded_column": {
      "latitude": "30.029729662655807",
      "longitude": "-90.05539127942514"
    }
  },
  {
    "service_request": "2023-1045915",
    "request_type": "Traffic Signals/Signs/Striping/Streetlights",
    "request_reason": "Street Light Outage/Malfunction",
    "date_created": "2023-10-25T13:41:44.000",
    "date_modified": "2023-10-25T13:41:45.000",
    "request_status": "Pending",
    "responsible_agency": "Department of Public Works",
    "final_address": "MARIGNY ST & LAKE OAKS PKWY",
    "address_councildis": "D",
    "status": "Assigned to Contractor",
    "contractor": "Legacy Professional Services",
    "rowid": "1045915",
    "final_x": "3683597.2",
    "final_y": "558261.28",
    "longitude": "-90.06051015955043",
    "latitude": "30.02896084925525",
    "geocoded_column": {
      "latitude": "30.02896084925525",
      "longitude": "-90.06051015955043"
    }
  },
  {
    "service_request": "2023-1045914",
    "request_type": "Trash/Recycling",
    "request_reason": "Order Trash Cart",
    "date_created": "2023-10-25T13:37:39.000",
    "date_modified": "2023-10-25T13:37:40.000",
    "request_status": "Pending",
    "responsible_agency": "Department of Sanitation",
    "final_address": "9032 Hickory St",
    "address_councildis": "A",
    "status": "Assigned to Contractor",
    "contractor": "Richards Disposal",
    "rowid": "1045914",
    "final_x": "3660805.00794",
    "final_y": "532219.786563",
    "longitude": "-90.1333948729786",
    "latitude": "29.9580319937155",
    "geocoded_column": {
      "latitude": "29.9580319937155",
      "longitude": "-90.1333948729786"
    }
  },
  {
    "service_request": "2023-1045913",
    "request_type": "Traffic Signals/Signs/Striping/Streetlights",
    "request_reason": "Street Light Knocked Down/Leaning",
    "date_created": "2023-10-25T13:34:37.000",
    "date_modified": "2023-10-25T13:34:37.000",
    "request_status": "Pending",
    "responsible_agency": "Department of Public Works",
    "final_address": "3601 Conti St",
    "address_councildis": "B",
    "status": "Pending",
    "contractor": "Legacy Professional Services",
    "rowid": "1045913",
    "final_x": "3673355.81339",
    "final_y": "538436.863433",
    "longitude": "-90.09355045873869",
    "latitude": "29.974759496447952",
    "geocoded_column": {
      "latitude": "29.974759496447952",
      "longitude": "-90.09355045873869"
    }
  },
  {
    "service_request": "2023-1045912",
    "request_type": "Abandoned Vehicles",
    "request_reason": "Abandoned/Junk Vehicles",
    "date_created": "2023-10-25T13:33:40.000",
    "date_modified": "2023-10-25T13:33:41.000",
    "request_status": "Pending",
    "responsible_agency": "Department of Public Works",
    "final_address": "8234 Oleander St",
    "address_councildis": "A",
    "status": "Pending",
    "rowid": "1045912",
    "final_x": "3666269.72097",
    "final_y": "534055.546117",
    "longitude": "-90.11607719093288",
    "latitude": "29.96292124247108",
    "geocoded_column": {
      "latitude": "29.96292124247108",
      "longitude": "-90.11607719093288"
    }
  },
  {
    "service_request": "2023-1045910",
    "request_type": "Trash/Recycling",
    "request_reason": "Order Recycling Cart",
    "date_created": "2023-10-25T13:19:15.000",
    "date_modified": "2023-10-25T13:19:15.000",
    "request_status": "Pending",
    "responsible_agency": "Department of Sanitation",
    "final_address": "720 Elmira Ave",
    "address_councildis": "C",
    "status": "Pending",
    "rowid": "1045910",
    "final_x": "3688208.88271",
    "final_y": "528919.3232",
    "longitude": "-90.0469783341631",
    "latitude": "29.94813931149952",
    "geocoded_column": {
      "latitude": "29.94813931149952",
      "longitude": "-90.0469783341631"
    }
  },
  {
    "service_request": "2023-1045909",
    "request_type": "Trash/Recycling",
    "request_reason": "Request a Large Item Pick Up",
    "date_created": "2023-10-25T13:17:29.000",
    "date_modified": "2023-10-25T13:17:30.000",
    "request_status": "Pending",
    "responsible_agency": "Department of Sanitation",
    "final_address": "1720 Washington Ave Unit 4",
    "address_councildis": "B",
    "status": "Assigned to Contractor",
    "contractor": "Richards Disposal",
    "rowid": "1045909",
    "final_x": "3675549.38843",
    "final_y": "522986.934331",
    "longitude": "-90.08715326974408",
    "latitude": "29.93221189960906",
    "geocoded_column": {
      "latitude": "29.93221189960906",
      "longitude": "-90.08715326974408"
    }
  },
  {
    "service_request": "2023-1045908",
    "request_type": "Trash/Recycling",
    "request_reason": "Request a Large Item Pick Up",
    "date_created": "2023-10-25T13:13:49.000",
    "date_modified": "2023-10-25T13:13:50.000",
    "request_status": "Pending",
    "responsible_agency": "Department of Sanitation",
    "final_address": "4821 Francis Dr",
    "address_councildis": "D",
    "status": "Assigned to Contractor",
    "contractor": "Waste Pro",
    "rowid": "1045908",
    "final_x": "3698242.05904",
    "final_y": "554763.263576",
    "longitude": "-90.01436040975005",
    "latitude": "30.01888720258028",
    "geocoded_column": {
      "latitude": "30.01888720258028",
      "longitude": "-90.01436040975005"
    }
  },
  {
    "service_request": "2023-1045907",
    "request_type": "Parks & Parkways",
    "request_reason": "Request Tree Service (Right of Way/Public Property)",
    "date_created": "2023-10-25T13:09:27.000",
    "date_modified": "2023-10-25T13:09:27.000",
    "request_status": "Pending",
    "responsible_agency": "Department of Parks & Parkway",
    "final_address": "6063 Perlita St",
    "address_councildis": "D",
    "status": "Pending",
    "rowid": "1045907",
    "final_x": "3678366.21787",
    "final_y": "554839.063448",
    "longitude": "-90.07715844435616",
    "latitude": "30.01970973737239",
    "geocoded_column": {
      "latitude": "30.01970973737239",
      "longitude": "-90.07715844435616"
    }
  },
  {
    "service_request": "2023-1045905",
    "request_type": "Abandoned Vehicles",
    "request_reason": "Abandoned/Junk Vehicles",
    "date_created": "2023-10-25T13:08:06.000",
    "date_modified": "2023-10-25T13:08:08.000",
    "request_status": "Pending",
    "responsible_agency": "Department of Public Works",
    "final_address": "2000 Robert St",
    "address_councildis": "B",
    "status": "Pending",
    "rowid": "1045905",
    "final_x": "3668694.51521",
    "final_y": "522901.042875",
    "longitude": "-90.10879640772397",
    "latitude": "29.93217893783565",
    "geocoded_column": {
      "latitude": "29.93217893783565",
      "longitude": "-90.10879640772397"
    }
  },
  {
    "service_request": "2023-1045904",
    "request_type": "Trash/Recycling",
    "request_reason": "Request a Large Item Pick Up",
    "date_created": "2023-10-25T13:04:06.000",
    "date_modified": "2023-10-25T13:04:07.000",
    "request_status": "Pending",
    "responsible_agency": "Department of Sanitation",
    "final_address": "1342 Forstall St",
    "address_councildis": "E",
    "status": "Assigned to Contractor",
    "contractor": "Waste Pro",
    "rowid": "1045904",
    "final_x": "3696487.50461",
    "final_y": "535276.254342",
    "longitude": "-90.02060954778814",
    "latitude": "29.965360487294163",
    "geocoded_column": {
      "latitude": "29.965360487294163",
      "longitude": "-90.02060954778814"
    }
  },
  {
    "service_request": "2023-1045903",
    "request_type": "Abandoned Vehicles",
    "request_reason": "Abandoned/Junk Vehicles",
    "date_created": "2023-10-25T13:03:56.000",
    "date_modified": "2023-10-25T13:03:56.000",
    "request_status": "Pending",
    "responsible_agency": "Department of Public Works",
    "final_address": "5431 Edenboro Rd",
    "address_councildis": "E",
    "status": "Pending",
    "rowid": "1045903",
    "final_x": "3708331.7091",
    "final_y": "557888.460187",
    "longitude": "-89.9823645469339",
    "latitude": "30.027157068537793",
    "geocoded_column": {
      "latitude": "30.027157068537793",
      "longitude": "-89.9823645469339"
    }
  },
  {
    "service_request": "2023-1045902",
    "request_type": "Trash/Recycling",
    "request_reason": "Repair Trash Cart",
    "date_created": "2023-10-25T13:01:07.000",
    "date_modified": "2023-10-25T13:01:07.000",
    "request_status": "Pending",
    "responsible_agency": "Department of Sanitation",
    "final_address": "7436 Hurst St",
    "address_councildis": "A",
    "status": "Assigned to Contractor",
    "contractor": "Richards Disposal",
    "rowid": "1045902",
    "final_x": "3661436.40736",
    "final_y": "524051.193212",
    "longitude": "-90.13167158755344",
    "latitude": "29.935552775106533",
    "geocoded_column": {
      "latitude": "29.935552775106533",
      "longitude": "-90.13167158755344"
    }
  },
  {
    "service_request": "2023-1045901",
    "request_type": "Abandoned Vehicles",
    "request_reason": "Abandoned/Junk Vehicles",
    "date_created": "2023-10-25T13:00:53.000",
    "date_modified": "2023-10-25T13:03:32.000",
    "request_status": "Pending",
    "responsible_agency": "Department of Public Works",
    "final_address": "5411 Edenboro Rd",
    "address_councildis": "E",
    "status": "Pending",
    "rowid": "1045901",
    "final_x": "3708380.44875",
    "final_y": "557795.508443",
    "longitude": "-89.98221399886887",
    "latitude": "30.02689990750971",
    "geocoded_column": {
      "latitude": "30.02689990750971",
      "longitude": "-89.98221399886887"
    }
  },
  {
    "service_request": "2023-1045900",
    "request_type": "Trash/Recycling",
    "request_reason": "Request a Large Item Pick Up",
    "date_created": "2023-10-25T13:00:25.000",
    "date_modified": "2023-10-25T13:00:25.000",
    "request_status": "Pending",
    "responsible_agency": "Department of Sanitation",
    "final_address": "5415 Burgundy St",
    "address_councildis": "E",
    "status": "Assigned to Contractor",
    "contractor": "Waste Pro",
    "rowid": "1045900",
    "final_x": "3697082.16797",
    "final_y": "533198.77082",
    "longitude": "-90.01880690380933",
    "latitude": "29.959629399258237",
    "geocoded_column": {
      "latitude": "29.959629399258237",
      "longitude": "-90.01880690380933"
    }
  },
  {
    "service_request": "2023-1045899",
    "request_type": "Trash/Recycling",
    "request_reason": "Order Recycling Cart",
    "date_created": "2023-10-25T12:47:01.000",
    "date_modified": "2023-10-25T12:47:02.000",
    "request_status": "Pending",
    "responsible_agency": "Department of Sanitation",
    "final_address": "5177 Music St",
    "address_councildis": "D",
    "status": "Pending",
    "rowid": "1045899",
    "final_x": "3685560.7286",
    "final_y": "552041.694934",
    "longitude": "-90.05452483114671",
    "latitude": "30.011799167048117",
    "geocoded_column": {
      "latitude": "30.011799167048117",
      "longitude": "-90.05452483114671"
    }
  },
  {
    "service_request": "2023-1045898",
    "request_type": "Abandoned Vehicles",
    "request_reason": "Abandoned/Junk Vehicles",
    "date_created": "2023-10-25T12:45:35.000",
    "date_modified": "2023-10-25T12:45:35.000",
    "request_status": "Pending",
    "responsible_agency": "Department of Public Works",
    "final_address": "2049 Pelopidas St",
    "address_councildis": "D",
    "status": "Pending",
    "rowid": "1045898",
    "final_x": "3683074.06856",
    "final_y": "548049.428434",
    "longitude": "-90.06252112072076",
    "latitude": "30.000897949562376",
    "geocoded_column": {
      "latitude": "30.000897949562376",
      "longitude": "-90.06252112072076"
    }
  },
  {
    "service_request": "2023-1045897",
    "request_type": "Trash/Recycling",
    "request_reason": "Missed Trash Pick-Up",
    "date_created": "2023-10-25T12:43:22.000",
    "date_modified": "2023-10-25T13:42:35.000",
    "case_close_date": "2023-10-25T08:42:35.000",
    "request_status": "Closed",
    "responsible_agency": "Department of Sanitation",
    "final_address": "1306 Socrates St",
    "address_councildis": "C",
    "status": "Resolved",
    "contractor": "Richards Disposal",
    "contractor_action": "Completed",
    "rowid": "1045897",
    "final_x": "3689472.20124",
    "final_y": "526418.094974",
    "longitude": "-90.04307846294898",
    "latitude": "29.94122273132339",
    "geocoded_column": {
      "latitude": "29.94122273132339",
      "longitude": "-90.04307846294898"
    }
  },
  {
    "service_request": "2023-1045896",
    "request_type": "Trash/Recycling",
    "request_reason": "Repair Trash Cart",
    "date_created": "2023-10-25T12:41:45.000",
    "date_modified": "2023-10-25T12:41:46.000",
    "request_status": "Pending",
    "responsible_agency": "Department of Sanitation",
    "final_address": "7366 Hickman St",
    "address_councildis": "E",
    "status": "Assigned to Contractor",
    "contractor": "Waste Pro",
    "rowid": "1045896",
    "final_x": "3706346.52119",
    "final_y": "562802.907808",
    "longitude": "-89.988455240099",
    "latitude": "30.04073407466219",
    "geocoded_column": {
      "latitude": "30.04073407466219",
      "longitude": "-89.988455240099"
    }
  },
  {
    "service_request": "2023-1045895",
    "request_type": "Trash/Recycling",
    "request_reason": "Illegal Dumping",
    "date_created": "2023-10-25T12:41:44.000",
    "date_modified": "2023-10-25T12:41:44.000",
    "request_status": "Pending",
    "responsible_agency": "Department of Sanitation",
    "final_address": "615 Homer St",
    "address_councildis": "C",
    "status": "Pending",
    "rowid": "1045895",
    "final_x": "3687311.45058",
    "final_y": "528308.061696",
    "longitude": "-90.04983350444571",
    "latitude": "29.946486222642573",
    "geocoded_column": {
      "latitude": "29.946486222642573",
      "longitude": "-90.04983350444571"
    }
  },
  {
    "service_request": "2023-1045894",
    "request_type": "Trash/Recycling",
    "request_reason": "Missed Trash Pick-Up",
    "date_created": "2023-10-25T12:41:41.000",
    "date_modified": "2023-10-25T12:41:42.000",
    "request_status": "Pending",
    "responsible_agency": "Department of Sanitation",
    "final_address": "13700 BLK Pierres Ct",
    "address_councildis": "E",
    "status": "Assigned to Contractor",
    "contractor": "Waste Pro",
    "rowid": "1045894",
    "final_x": "3725123.66455",
    "final_y": "570155.795171",
    "longitude": "-89.92882913753702",
    "latitude": "30.060332091102232",
    "geocoded_column": {
      "latitude": "30.060332091102232",
      "longitude": "-89.92882913753702"
    }
  },
  {
    "service_request": "2023-1045893",
    "request_type": "Trash/Recycling",
    "request_reason": "Illegal Dumping",
    "date_created": "2023-10-25T12:41:40.000",
    "date_modified": "2023-10-25T12:41:41.000",
    "request_status": "Pending",
    "responsible_agency": "Department of Code Enforcement",
    "final_address": "5535 Annunciation St",
    "address_councildis": "A",
    "status": "Pending",
    "rowid": "1045893",
    "final_x": "3665873.1088",
    "final_y": "517589.000182",
    "longitude": "-90.117881231626",
    "latitude": "29.91765509967947",
    "geocoded_column": {
      "latitude": "29.91765509967947",
      "longitude": "-90.117881231626"
    }
  },
  {
    "service_request": "2023-1045892",
    "request_type": "Trash/Recycling",
    "request_reason": "Illegal Dumping",
    "date_created": "2023-10-25T12:37:45.000",
    "date_modified": "2023-10-25T12:37:45.000",
    "request_status": "Pending",
    "responsible_agency": "Department of Sanitation",
    "final_address": "1400 BLK Thayer St",
    "address_councildis": "C",
    "status": "Pending",
    "rowid": "1045892",
    "final_x": "3689363.44932",
    "final_y": "526189.4146",
    "longitude": "-90.0434299397693",
    "latitude": "29.940597304843344",
    "geocoded_column": {
      "latitude": "29.940597304843344",
      "longitude": "-90.0434299397693"
    }
  },
  {
    "service_request": "2023-1045891",
    "request_type": "Trash/Recycling",
    "request_reason": "Illegal Dumping",
    "date_created": "2023-10-25T12:32:01.000",
    "date_modified": "2023-10-25T12:32:01.000",
    "request_status": "Pending",
    "responsible_agency": "Department of Sanitation",
    "final_address": "40 Vivian Ct",
    "address_councildis": "C",
    "status": "Pending",
    "rowid": "1045891",
    "final_x": "3702118.29431",
    "final_y": "521018.604921",
    "longitude": "-90.00335051557305",
    "latitude": "29.925978407345198",
    "geocoded_column": {
      "latitude": "29.925978407345198",
      "longitude": "-90.00335051557305"
    }
  },
  {
    "service_request": "2023-1045890",
    "request_type": "Trash/Recycling",
    "request_reason": "Repair Trash Cart",
    "date_created": "2023-10-25T12:29:46.000",
    "date_modified": "2023-10-25T12:29:47.000",
    "request_status": "Pending",
    "responsible_agency": "Department of Sanitation",
    "final_address": "824 Gravier St",
    "address_councildis": "B",
    "status": "Assigned to Contractor",
    "contractor": "Empire Services",
    "rowid": "1045890",
    "final_x": "3680294.00891",
    "final_y": "530286.283649",
    "longitude": "-90.07192129141158",
    "latitude": "29.9521399408123",
    "geocoded_column": {
      "latitude": "29.9521399408123",
      "longitude": "-90.07192129141158"
    }
  },
  {
    "service_request": "2023-1045887",
    "request_type": "Trash/Recycling",
    "request_reason": "Replace Trash Cart",
    "date_created": "2023-10-25T12:23:45.000",
    "date_modified": "2023-10-25T12:23:45.000",
    "request_status": "Pending",
    "responsible_agency": "Department of Sanitation",
    "final_address": "5918 Magazine St",
    "address_councildis": "A",
    "status": "Assigned to Contractor",
    "contractor": "Richards Disposal",
    "rowid": "1045887",
    "final_x": "3665068.57466",
    "final_y": "519069.627895",
    "longitude": "-90.12037123554789",
    "latitude": "29.921749804825588",
    "geocoded_column": {
      "latitude": "29.921749804825588",
      "longitude": "-90.12037123554789"
    }
  },
  {
    "service_request": "2023-1045886",
    "request_type": "Trash/Recycling",
    "request_reason": "Order Recycling Cart",
    "date_created": "2023-10-25T12:20:57.000",
    "date_modified": "2023-10-25T12:20:57.000",
    "request_status": "Pending",
    "responsible_agency": "Department of Sanitation",
    "final_address": "2709 Marais St",
    "address_councildis": "C",
    "status": "Pending",
    "rowid": "1045886",
    "final_x": "3687602.38908",
    "final_y": "536749.269704",
    "longitude": "-90.04861608981334",
    "latitude": "29.969687666299045",
    "geocoded_column": {
      "latitude": "29.969687666299045",
      "longitude": "-90.04861608981334"
    }
  },
  {
    "service_request": "2023-1045885",
    "request_type": "Trash/Recycling",
    "request_reason": "Request a Large Item Pick Up",
    "date_created": "2023-10-25T12:17:50.000",
    "date_modified": "2023-10-25T12:17:51.000",
    "request_status": "Pending",
    "responsible_agency": "Department of Sanitation",
    "final_address": "5422 N Rampart St",
    "address_councildis": "E",
    "status": "Assigned to Contractor",
    "contractor": "Waste Pro",
    "rowid": "1045885",
    "final_x": "3697210.99607",
    "final_y": "533469.518724",
    "longitude": "-90.01839028515127",
    "latitude": "29.960369795643757",
    "geocoded_column": {
      "latitude": "29.960369795643757",
      "longitude": "-90.01839028515127"
    }
  },
  {
    "service_request": "2023-1045884",
    "request_type": "Mosquito, Termite & Rodent Control",
    "request_reason": "Non-Rodent Complaint (Mice, Possums, Snakes)",
    "date_created": "2023-10-25T12:17:18.000",
    "date_modified": "2023-10-25T12:17:18.000",
    "request_status": "Pending",
    "responsible_agency": "Mosquito, Termite & Rodent Control Board",
    "final_address": "7870 Parry St",
    "address_councildis": "E",
    "status": "Pending",
    "rowid": "1045884",
    "final_x": "3713820.52319",
    "final_y": "569127.823014",
    "longitude": "-89.96459634551317",
    "latitude": "30.057881695910485",
    "geocoded_column": {
      "latitude": "30.057881695910485",
      "longitude": "-89.96459634551317"
    }
  },
  {
    "service_request": "2023-1045883",
    "request_type": "Trash/Recycling",
    "request_reason": "Replace Trash Cart",
    "date_created": "2023-10-25T12:16:47.000",
    "date_modified": "2023-10-25T12:16:48.000",
    "request_status": "Pending",
    "responsible_agency": "Department of Sanitation",
    "final_address": "5931 Winchester Park Dr",
    "address_councildis": "E",
    "status": "Assigned to Contractor",
    "contractor": "Waste Pro",
    "rowid": "1045883",
    "final_x": "3714838.08927",
    "final_y": "562808.441376",
    "longitude": "-89.96161909729491",
    "latitude": "30.040472512360946",
    "geocoded_column": {
      "latitude": "30.040472512360946",
      "longitude": "-89.96161909729491"
    }
  },
  {
    "service_request": "2023-1045882",
    "request_type": "Parks & Parkways",
    "request_reason": "Request Tree Service (Right of Way/Public Property)",
    "date_created": "2023-10-25T12:13:34.000",
    "date_modified": "2023-10-25T12:35:14.000",
    "case_close_date": "2023-10-25T07:35:14.000",
    "request_status": "Closed",
    "responsible_agency": "Department of Parks & Parkway",
    "final_address": "5828 Fleur-De-Lis Dr",
    "address_councildis": "A",
    "status": "Duplicate Request",
    "rowid": "1045882",
    "final_x": "3664981.51367",
    "final_y": "546574.232913",
    "longitude": "-90.11972650042745",
    "latitude": "29.99738099991745",
    "geocoded_column": {
      "latitude": "29.99738099991745",
      "longitude": "-90.11972650042745"
    }
  },
  {
    "service_request": "2023-1045881",
    "request_type": "Property Maintenance",
    "request_reason": "Property Maintenance",
    "date_created": "2023-10-25T12:13:34.000",
    "date_modified": "2023-10-25T12:13:34.000",
    "request_status": "Pending",
    "responsible_agency": "Department of Code Enforcement",
    "final_address": "CURRAN BLVD & AVON PARK BLVD",
    "address_councildis": "E",
    "status": "Pending",
    "rowid": "1045881",
    "final_x": "3719255.5",
    "final_y": "572890.48",
    "longitude": "-89.94727337345488",
    "latitude": "30.068047797899403",
    "geocoded_column": {
      "latitude": "30.068047797899403",
      "longitude": "-89.94727337345488"
    }
  },
  {
    "service_request": "2023-1045880",
    "request_type": "Property Maintenance",
    "request_reason": "Property Maintenance",
    "date_created": "2023-10-25T12:12:34.000",
    "date_modified": "2023-10-25T12:12:35.000",
    "request_status": "Pending",
    "responsible_agency": "Department of Code Enforcement",
    "final_address": "CURRAN BLVD & SHOREWOOD BLVD",
    "address_councildis": "E",
    "status": "Pending",
    "rowid": "1045880",
    "final_x": "3719430.5",
    "final_y": "573047.98",
    "longitude": "-89.94671414452668",
    "latitude": "30.068475034860853",
    "geocoded_column": {
      "latitude": "30.068475034860853",
      "longitude": "-89.94671414452668"
    }
  },
  {
    "service_request": "2023-1045879",
    "request_type": "Traffic Signals/Signs/Striping/Streetlights",
    "request_reason": "Traffic Sign Missing/Damaged",
    "date_created": "2023-10-25T12:10:16.000",
    "date_modified": "2023-10-25T12:10:16.000",
    "request_status": "Pending",
    "responsible_agency": "Department of Public Works",
    "final_address": "561 Allen Toussaint Blvd",
    "address_councildis": "D",
    "status": "Pending",
    "rowid": "1045879",
    "final_x": "3668589.88654",
    "final_y": "554882.0038",
    "longitude": "-90.10804710226004",
    "latitude": "30.020118882846127",
    "geocoded_column": {
      "latitude": "30.020118882846127",
      "longitude": "-90.10804710226004"
    }
  },
  {
    "service_request": "2023-1045878",
    "request_type": "Trash/Recycling",
    "request_reason": "Request a Large Item Pick Up",
    "date_created": "2023-10-25T12:09:21.000",
    "date_modified": "2023-10-25T12:09:22.000",
    "request_status": "Pending",
    "responsible_agency": "Department of Sanitation",
    "final_address": "2424 Laurel St",
    "address_councildis": "B",
    "status": "Assigned to Contractor",
    "contractor": "Richards Disposal",
    "rowid": "1045878",
    "final_x": "3678313.58139",
    "final_y": "520735.503417",
    "longitude": "-90.07850481324427",
    "latitude": "29.925938248453903",
    "geocoded_column": {
      "latitude": "29.925938248453903",
      "longitude": "-90.07850481324427"
    }
  },
  {
    "service_request": "2023-1045877",
    "request_type": "Abandoned Vehicles",
    "request_reason": "Abandoned/Junk Vehicles",
    "date_created": "2023-10-25T12:06:56.000",
    "date_modified": "2023-10-25T12:06:56.000",
    "request_status": "Pending",
    "responsible_agency": "Department of Public Works",
    "final_address": "600 State St",
    "address_councildis": "A",
    "status": "Pending",
    "rowid": "1045877",
    "final_x": "3664453.2185",
    "final_y": "518615.063863",
    "longitude": "-90.12232882506491",
    "latitude": "29.9205177929166",
    "geocoded_column": {
      "latitude": "29.9205177929166",
      "longitude": "-90.12232882506491"
    }
  },
  {
    "service_request": "2023-1045876",
    "request_type": "Trash/Recycling",
    "request_reason": "Request a Large Item Pick Up",
    "date_created": "2023-10-25T12:05:34.000",
    "date_modified": "2023-10-25T12:05:34.000",
    "request_status": "Pending",
    "responsible_agency": "Department of Sanitation",
    "final_address": "6940 Bundy Rd",
    "address_councildis": "E",
    "status": "Assigned to Contractor",
    "contractor": "Waste Pro",
    "rowid": "1045876",
    "final_x": "3707076.93988",
    "final_y": "560551.857118",
    "longitude": "-89.98623052560575",
    "latitude": "30.034520982988756",
    "geocoded_column": {
      "latitude": "30.034520982988756",
      "longitude": "-89.98623052560575"
    }
  },
  {
    "service_request": "2023-1045875",
    "request_type": "Trash/Recycling",
    "request_reason": "Order Trash Cart",
    "date_created": "2023-10-25T12:05:12.000",
    "date_modified": "2023-10-25T15:27:32.000",
    "case_close_date": "2023-10-25T10:27:32.000",
    "request_status": "Closed",
    "responsible_agency": "Department of Sanitation",
    "final_address": "5900 Spain St",
    "address_councildis": "D",
    "status": "Assigned to Contractor",
    "contractor": "IV Waste",
    "contractor_action": "Completed",
    "rowid": "1045875",
    "final_x": "3684576.05781",
    "final_y": "554723.911512",
    "longitude": "-90.05754146371464",
    "latitude": "30.019204460452332",
    "geocoded_column": {
      "latitude": "30.019204460452332",
      "longitude": "-90.05754146371464"
    }
  },
  {
    "service_request": "2023-1045874",
    "request_type": "Trash/Recycling",
    "request_reason": "Order Trash Cart",
    "date_created": "2023-10-25T12:04:46.000",
    "date_modified": "2023-10-25T12:04:47.000",
    "request_status": "Pending",
    "responsible_agency": "Department of Sanitation",
    "final_address": "8820 Dinkins St",
    "address_councildis": "E",
    "status": "Assigned to Contractor",
    "contractor": "Waste Pro",
    "rowid": "1045874",
    "final_x": "3704551.26922",
    "final_y": "563277.84368",
    "longitude": "-89.99411125772059",
    "latitude": "30.042097775607125",
    "geocoded_column": {
      "latitude": "30.042097775607125",
      "longitude": "-89.99411125772059"
    }
  },
  {
    "service_request": "2023-1045873",
    "request_type": "Traffic Signals/Signs/Striping/Streetlights",
    "request_reason": "Street Light Outage/Malfunction",
    "date_created": "2023-10-25T12:04:23.000",
    "date_modified": "2023-10-25T12:04:24.000",
    "request_status": "Pending",
    "responsible_agency": "Department of Public Works",
    "final_address": "2340 Broadway St",
    "address_councildis": "A",
    "status": "Assigned to Contractor",
    "contractor": "Legacy Professional Services",
    "rowid": "1045873",
    "final_x": "3666521.06113",
    "final_y": "530120.683969",
    "longitude": "-90.1154155615965",
    "latitude": "29.952094316316472",
    "geocoded_column": {
      "latitude": "29.952094316316472",
      "longitude": "-90.1154155615965"
    }
  },
  {
    "service_request": "2023-1045872",
    "request_type": "Roads/Drainage",
    "request_reason": "Street Subsidence (Sinking)",
    "date_created": "2023-10-25T12:02:44.000",
    "date_modified": "2023-10-25T12:02:44.000",
    "request_status": "Pending",
    "responsible_agency": "Department of Public Works",
    "final_address": "6735 Argonne Blvd",
    "address_councildis": "A",
    "status": "Pending",
    "rowid": "1045872",
    "final_x": "3670684.86919",
    "final_y": "552127.170838",
    "longitude": "-90.10152117299083",
    "latitude": "30.012482305336974",
    "geocoded_column": {
      "latitude": "30.012482305336974",
      "longitude": "-90.10152117299083"
    }
  },
  {
    "service_request": "2023-1045871",
    "request_type": "Trash/Recycling",
    "request_reason": "Request a Large Item Pick Up",
    "date_created": "2023-10-25T12:01:20.000",
    "date_modified": "2023-10-25T12:01:21.000",
    "request_status": "Pending",
    "responsible_agency": "Department of Sanitation",
    "final_address": "3301 Lancaster St",
    "address_councildis": "C",
    "status": "Assigned to Contractor",
    "contractor": "Richards Disposal",
    "rowid": "1045871",
    "final_x": "3709888.22667",
    "final_y": "518600.215287",
    "longitude": "-89.97891359541285",
    "latitude": "29.919078417794868",
    "geocoded_column": {
      "latitude": "29.919078417794868",
      "longitude": "-89.97891359541285"
    }
  },
  {
    "service_request": "2023-1045870",
    "request_type": "Traffic Signals/Signs/Striping/Streetlights",
    "request_reason": "Street Light Outage/Malfunction",
    "date_created": "2023-10-25T12:01:02.000",
    "date_modified": "2023-10-25T12:01:03.000",
    "request_status": "Pending",
    "responsible_agency": "Department of Public Works",
    "final_address": "1 Dove St",
    "address_councildis": "D",
    "status": "Assigned to Contractor",
    "contractor": "Legacy Professional Services",
    "rowid": "1045870",
    "final_x": "3673514.96692",
    "final_y": "554528.518168",
    "longitude": "-90.09249746310674",
    "latitude": "30.01900119330056",
    "geocoded_column": {
      "latitude": "30.01900119330056",
      "longitude": "-90.09249746310674"
    }
  },
  {
    "service_request": "2023-1045869",
    "request_type": "Trash/Recycling",
    "request_reason": "Missed Trash Pick-Up",
    "date_created": "2023-10-25T11:56:08.000",
    "date_modified": "2023-10-25T11:56:23.000",
    "request_status": "Pending",
    "responsible_agency": "Department of Sanitation",
    "final_address": "7809 Burke Ave",
    "address_councildis": "E",
    "status": "Assigned to Contractor",
    "contractor": "Waste Pro",
    "rowid": "1045869",
    "final_x": "3705197.13636",
    "final_y": "563454.93808",
    "longitude": "-89.99206353571205",
    "latitude": "30.0425639432378",
    "geocoded_column": {
      "latitude": "30.0425639432378",
      "longitude": "-89.99206353571205"
    }
  },
  {
    "service_request": "2023-1045868",
    "request_type": "Trash/Recycling",
    "request_reason": "Repair Trash Cart",
    "date_created": "2023-10-25T11:55:54.000",
    "date_modified": "2023-10-25T11:55:55.000",
    "request_status": "Pending",
    "responsible_agency": "Department of Sanitation",
    "final_address": "6402 Lafaye St",
    "address_councildis": "D",
    "status": "Assigned to Contractor",
    "contractor": "IV Waste",
    "rowid": "1045868",
    "final_x": "3686958.31394",
    "final_y": "556847.65769",
    "longitude": "-90.04993921082072",
    "latitude": "30.024970827083777",
    "geocoded_column": {
      "latitude": "30.024970827083777",
      "longitude": "-90.04993921082072"
    }
  },
  {
    "service_request": "2023-1045867",
    "request_type": "Trash/Recycling",
    "request_reason": "Request a Large Item Pick Up",
    "date_created": "2023-10-25T11:53:10.000",
    "date_modified": "2023-10-25T14:55:08.000",
    "request_status": "Pending",
    "responsible_agency": "Department of Sanitation",
    "final_address": "2013 Elysian Fields Ave",
    "address_councildis": "D",
    "status": "Assigned to Contractor",
    "contractor": "IV Waste",
    "rowid": "1045867",
    "final_x": "3684854.31637",
    "final_y": "539764.454474",
    "longitude": "-90.05718868226391",
    "latitude": "29.9780628064072",
    "geocoded_column": {
      "latitude": "29.9780628064072",
      "longitude": "-90.05718868226391"
    }
  },
  {
    "service_request": "2023-1045866",
    "request_type": "Trash/Recycling",
    "request_reason": "Repair Trash Cart",
    "date_created": "2023-10-25T11:49:49.000",
    "date_modified": "2023-10-25T11:49:50.000",
    "request_status": "Pending",
    "responsible_agency": "Department of Sanitation",
    "final_address": "7329 Sycamore St",
    "address_councildis": "A",
    "status": "Assigned to Contractor",
    "contractor": "Richards Disposal",
    "rowid": "1045866",
    "final_x": "3665734.0064",
    "final_y": "529814.018753",
    "longitude": "-90.11791099335059",
    "latitude": "29.951274065785174",
    "geocoded_column": {
      "latitude": "29.951274065785174",
      "longitude": "-90.11791099335059"
    }
  },
  {
    "service_request": "2023-1045865",
    "request_type": "Trash/Recycling",
    "request_reason": "Request a Large Item Pick Up",
    "date_created": "2023-10-25T11:48:19.000",
    "date_modified": "2023-10-25T11:49:08.000",
    "request_status": "Pending",
    "responsible_agency": "Department of Sanitation",
    "final_address": "605 River Oaks Dr",
    "address_councildis": "C",
    "status": "Assigned to Contractor",
    "contractor": "Richards Disposal",
    "rowid": "1045865",
    "final_x": "3701451.84183",
    "final_y": "520706.946233",
    "longitude": "-90.00546569671816",
    "latitude": "29.92514270686297",
    "geocoded_column": {
      "latitude": "29.92514270686297",
      "longitude": "-90.00546569671816"
    }
  },
  {
    "service_request": "2023-1045864",
    "request_type": "Trash/Recycling",
    "request_reason": "Order Trash Cart",
    "date_created": "2023-10-25T11:42:32.000",
    "date_modified": "2023-10-25T11:42:33.000",
    "request_status": "Pending",
    "responsible_agency": "Department of Sanitation",
    "final_address": "4853 N Derbigny St",
    "address_councildis": "E",
    "status": "Assigned to Contractor",
    "contractor": "Waste Pro",
    "rowid": "1045864",
    "final_x": "3696157.24803",
    "final_y": "536649.555207",
    "longitude": "-90.02160283000524",
    "latitude": "29.96914697493521",
    "geocoded_column": {
      "latitude": "29.96914697493521",
      "longitude": "-90.02160283000524"
    }
  },