[
  {
    "service_request": "2023-1052745",
    "request_type": "Roads/Drainage",
    "request_reason": "Pothole",
    "date_created": "2023-11-30T01:35:10.000",
    "date_modified": "2023-11-30T01:35:10.000",
    "request_status": "Pending",
    "responsible_agency": "Department of Public Works",
    "final_address": "4315 Pitt St",
    "address_councildis": "B",
    "status": "Pending",
    "rowid": "1052745",
    "final_x": "3671135.74062",
    "final_y": "520647.281017",
    "longitude": "-90.10116618834792",
    "latitude": "29.92590985375874",
    "geocoded_column": {
      "latitude": "29.92590985375874",
      "longitude": "-90.10116618834792"
    }
  },
  {
    "service_request": "2023-1052744",
    "request_type": "Trash/Recycling",
    "request_reason": "Missed Trash Pick-Up",
    "date_created": "2023-11-30T01:01:26.000",
    "date_modified": "2023-11-30T01:01:27.000",
    "request_status": "Pending",
    "responsible_agency": "Department of Sanitation",
    "final_address": "4666 Wright Rd",
    "address_councildis": "E",
    "status": "Assigned to Contractor",
    "contractor": "Waste Pro",
    "rowid": "1052744",
    "final_x": "3716611.17253",
    "final_y": "556591.805594",
    "longitude": "-89.95625174776956",
    "latitude": "30.023320777487026",
    "geocoded_column": {
      "latitude": "30.023320777487026",
      "longitude": "-89.95625174776956"
    }
  },
  {
    "service_request": "2023-1052743",
    "request_type": "Trash/Recycling",
    "request_reason": "Missed Trash Pick-Up",
    "date_created": "2023-11-30T00:59:38.000",
    "date_modified": "2023-11-30T00:59:39.000",
    "request_status": "Pending",
    "responsible_agency": "Department of Sanitation",
    "final_address": "4666 Wright Rd",
    "address_councildis": "E",
    "status": "Assigned to Contractor",
    "contractor": "Waste Pro",
    "rowid": "1052743",
    "final_x": "3716611.17253",
    "final_y": "556591.805594",
    "longitude": "-89.95625174776956",
    "latitude": "30.023320777487026",
    "geocoded_column": {
      "latitude": "30.023320777487026",
      "longitude": "-89.95625174776956"
    }
  },
  {
    "service_request": "2023-1052742",
    "request_type": "Roads/Drainage",
    "request_reason": "Pothole",
    "date_created": "2023-11-29T23:31:13.000",
    "date_modified": "2023-11-29T23:31:13.000",
    "request_status": "Pending",
    "responsible_agency": "Department of Public Works",
    "final_address": "1503 Napoleon Ave",
    "address_councildis": "B",
    "status": "Pending",
    "rowid": "1052742",
    "final_x": "3670967.88622",
    "final_y": "520626.232376",
    "longitude": "-90.10169677051358",
    "latitude": "29.925856938828442",
    "geocoded_column": {
      "latitude": "29.925856938828442",
      "longitude": "-90.10169677051358"
    }
  },
  {
    "service_request": "2023-1052741",
    "request_type": "Trash/Recycling",
    "request_reason": "Order Trash Cart",
    "date_created": "2023-11-29T23:12:17.000",
    "date_modified": "2023-11-29T23:12:18.000",
    "request_status": "Pending",
    "responsible_agency": "Department of Sanitation",
    "final_address": "7902 W Laverne St",
    "address_councildis": "D",
    "status": "Assigned to Contractor",
    "contractor": "Waste Pro",
    "rowid": "1052741",
    "final_x": "3694842.22467",
    "final_y": "559415.702621",
    "longitude": "-90.02493477896614",
    "latitude": "30.031786814980524",
    "geocoded_column": {
      "latitude": "30.031786814980524",
      "longitude": "-90.02493477896614"
    }
  },
  {
    "service_request": "2023-1052740",
    "request_type": "Trash/Recycling",
    "request_reason": "Order Trash Cart",
    "date_created": "2023-11-29T23:08:45.000",
    "date_modified": "2023-11-29T23:08:46.000",
    "request_status": "Pending",
    "responsible_agency": "Department of Sanitation",
    "final_address": "7900 W Laverne St",
    "address_councildis": "D",
    "status": "Assigned to Contractor",
    "contractor": "Waste Pro",
    "rowid": "1052740",
    "final_x": "3694849.51638",
    "final_y": "559391.049885",
    "longitude": "-90.02491262644251",
    "latitude": "30.031718800436394",
    "geocoded_column": {
      "latitude": "30.031718800436394",
      "longitude": "-90.02491262644251"
    }
  },
  {
    "service_request": "2023-1052739",
    "request_type": "Traffic Signals/Signs/Striping/Streetlights",
    "request_reason": "Traffic Sign Missing/Damaged",
    "date_created": "2023-11-29T23:05:42.000",
    "date_modified": "2023-11-29T23:05:42.000",
    "request_status": "Pending",
    "responsible_agency": "Department of Public Works",
    "final_address": "3267 Desaix Blvd",
    "address_councildis": "D",
    "status": "Pending",
    "rowid": "1052739",
    "final_x": "3677761.15022",
    "final_y": "543694.951054",
    "longitude": "-90.07945557871298",
    "latitude": "29.989085618090346",
    "geocoded_column": {
      "latitude": "29.989085618090346",
      "longitude": "-90.07945557871298"
    }
  },
  {
    "service_request": "2023-1052738",
    "request_type": "Roads/Drainage",
    "request_reason": "Pothole",
    "date_created": "2023-11-29T22:48:42.000",
    "date_modified": "2023-11-29T22:48:42.000",
    "request_status": "Pending",
    "responsible_agency": "Department of Public Works",
    "final_address": "5902 Hurst St",
    "address_councildis": "A",
    "status": "Pending",
    "rowid": "1052738",
    "final_x": "3665757.45908",
    "final_y": "521688.420601",
    "longitude": "-90.11810904350683",
    "latitude": "29.92893059016598",
    "geocoded_column": {
      "latitude": "29.92893059016598",
      "longitude": "-90.11810904350683"
    }
  },
  {
    "service_request": "2023-1052737",
    "request_type": "Roads/Drainage",
    "request_reason": "Pothole",
    "date_created": "2023-11-29T22:42:57.000",
    "date_modified": "2023-11-29T22:42:57.000",
    "request_status": "Pending",
    "responsible_agency": "Department of Public Works",
    "final_address": "6070 Chestnut St",
    "address_councildis": "A",
    "status": "Pending",
    "rowid": "1052737",
    "final_x": "3664412.78983",
    "final_y": "519991.592952",
    "longitude": "-90.12241052146828",
    "latitude": "29.92430399204139",
    "geocoded_column": {
      "latitude": "29.92430399204139",
      "longitude": "-90.12241052146828"
    }
  },
  {
    "service_request": "2023-1052736",
    "request_type": "Roads/Drainage",
    "request_reason": "Pothole",
    "date_created": "2023-11-29T22:37:22.000",
    "date_modified": "2023-11-29T22:37:22.000",
    "request_status": "Pending",
    "responsible_agency": "Department of Public Works",
    "final_address": "1516 Eleonore St",
    "address_councildis": "A",
    "status": "Pending",
    "rowid": "1052736",
    "final_x": "3665795.25588",
    "final_y": "521919.094394",
    "longitude": "-90.11798200244233",
    "latitude": "29.929563767827943",
    "geocoded_column": {
      "latitude": "29.929563767827943",
      "longitude": "-90.11798200244233"
    }
  },
  {
    "service_request": "2023-1052735",
    "request_type": "Trash/Recycling",
    "request_reason": "Replace Recycling Cart",
    "date_created": "2023-11-29T22:18:32.000",
    "date_modified": "2023-11-29T22:18:32.000",
    "request_status": "Pending",
    "responsible_agency": "Department of Sanitation",
    "final_address": "1012 Esplanade Ave Unit 6A",
    "address_councildis": "C",
    "status": "Pending",
    "rowid": "1052735",
    "final_x": "3683020.38799",
    "final_y": "535078.235334",
    "longitude": "-90.06314494014605",
    "latitude": "29.965233362052714",
    "geocoded_column": {
      "latitude": "29.965233362052714",
      "longitude": "-90.06314494014605"
    }
  },
  {
    "service_request": "2023-1052734",
    "request_type": "Trash/Recycling",
    "request_reason": "Replace Trash Cart",
    "date_created": "2023-11-29T22:06:56.000",
    "date_modified": "2023-11-29T22:06:57.000",
    "request_status": "Pending",
    "responsible_agency": "Department of Sanitation",
    "final_address": "4003 Annunciation St",
    "address_councildis": "B",
    "status": "Assigned to Contractor",
    "contractor": "Richards Disposal",
    "rowid": "1052734",
    "final_x": "3672564.78715",
    "final_y": "517932.489462",
    "longitude": "-90.09674758722798",
    "latitude": "29.91840271214324",
    "geocoded_column": {
      "latitude": "29.91840271214324",
      "longitude": "-90.09674758722798"
    }
  },
  {
    "service_request": "2023-1052733",
    "request_type": "Abandoned Vehicles",
    "request_reason": "Abandoned/Junk Vehicles",
    "date_created": "2023-11-29T22:02:52.000",
    "date_modified": "2023-11-29T22:02:52.000",
    "request_status": "Pending",
    "responsible_agency": "Department of Public Works",
    "final_address": "1772 Prytania St",
    "address_councildis": "B",
    "status": "Pending",
    "rowid": "1052733",
    "final_x": "3679043.61973",
    "final_y": "524209.929276",
    "longitude": "-90.07607995594225",
    "latitude": "29.935469777492614",
    "geocoded_column": {
      "latitude": "29.935469777492614",
      "longitude": "-90.07607995594225"
    }
  },
  {
    "service_request": "2023-1052731",
    "request_type": "Abandoned Vehicles",
    "request_reason": "Abandoned/Junk Vehicles",
    "date_created": "2023-11-29T20:59:07.000",
    "date_modified": "2023-11-29T20:59:07.000",
    "request_status": "Pending",
    "responsible_agency": "Department of Public Works",
    "final_address": "2230 St Ann St",
    "address_councildis": "D",
    "status": "Pending",
    "rowid": "1052731",
    "final_x": "3678336.1396",
    "final_y": "536066.446791",
    "longitude": "-90.0779033651563",
    "latitude": "29.968092553830004",
    "geocoded_column": {
      "latitude": "29.968092553830004",
      "longitude": "-90.0779033651563"
    }
  },
  {
    "service_request": "2023-1052730",
    "request_type": "Traffic Signals/Signs/Striping/Streetlights",
    "request_reason": "Street Light Outage/Malfunction",
    "date_created": "2023-11-29T19:47:55.000",
    "date_modified": "2023-11-29T19:47:55.000",
    "request_status": "Pending",
    "responsible_agency": "Department of Public Works",
    "final_address": "1409 Madrid St",
    "address_councildis": "D",
    "status": "Assigned to Contractor",
    "contractor": "Legacy Professional Services",
    "rowid": "1052730",
    "final_x": "3677552.87426",
    "final_y": "554635.844888",
    "longitude": "-90.07973537039825",
    "latitude": "30.019175452277228",
    "geocoded_column": {
      "latitude": "30.019175452277228",
      "longitude": "-90.07973537039825"
    }
  },
  {
    "service_request": "2023-1052729",
    "request_type": "Property Maintenance",
    "request_reason": "Property Maintenance",
    "date_created": "2023-11-29T19:46:48.000",
    "date_modified": "2023-11-29T19:46:48.000",
    "request_status": "Pending",
    "responsible_agency": "Department of Code Enforcement",
    "final_address": "1619 Ursulines Ave",
    "address_councildis": "D",
    "status": "Pending",
    "rowid": "1052729",
    "final_x": "3680863.66287",
    "final_y": "535677.607303",
    "longitude": "-90.06993489281842",
    "latitude": "29.966946991489632",
    "geocoded_column": {
      "latitude": "29.966946991489632",
      "longitude": "-90.06993489281842"
    }
  },
  {
    "service_request": "2023-1052728",
    "request_type": "Property Maintenance",
    "request_reason": "Property Maintenance",
    "date_created": "2023-11-29T19:44:49.000",
    "date_modified": "2023-11-29T19:44:49.000",
    "request_status": "Pending",
    "responsible_agency": "Department of Code Enforcement",
    "final_address": "1619 Ursulines Ave",
    "address_councildis": "D",
    "status": "Pending",
    "rowid": "1052728",
    "final_x": "3680863.66287",
    "final_y": "535677.607303",
    "longitude": "-90.06993489281842",
    "latitude": "29.966946991489632",
    "geocoded_column": {
      "latitude": "29.966946991489632",
      "longitude": "-90.06993489281842"
    }
  },
  {
    "service_request": "2023-1052727",
    "request_type": "Trash/Recycling",
    "request_reason": "Replace Trash Cart",
    "date_created": "2023-11-29T19:36:38.000",
    "date_modified": "2023-11-29T19:36:39.000",
    "request_status": "Pending",
    "responsible_agency": "Department of Sanitation",
    "final_address": "6919 Foch Rd",
    "address_councildis": "D",
    "status": "Assigned to Contractor",
    "contractor": "Waste Pro",
    "rowid": "1052727",
    "final_x": "3696710.78461",
    "final_y": "556493.261658",
    "longitude": "-90.01913597698528",
    "latitude": "30.023692418779596",
    "geocoded_column": {
      "latitude": "30.023692418779596",
      "longitude": "-90.01913597698528"
    }
  },
  {
    "service_request": "2023-1052726",
    "request_type": "Trash/Recycling",
    "request_reason": "Missed Trash Pick-Up",
    "date_created": "2023-11-29T19:26:10.000",
    "date_modified": "2023-11-29T19:26:10.000",
    "request_status": "Pending",
    "responsible_agency": "Department of Sanitation",
    "final_address": "4843 Chrysler St",
    "address_councildis": "E",
    "status": "Assigned to Contractor",
    "contractor": "Waste Pro",
    "rowid": "1052726",
    "final_x": "3715337.28485",
    "final_y": "557329.737563",
    "longitude": "-89.96024897473912",
    "latitude": "30.025391831821544",
    "geocoded_column": {
      "latitude": "30.025391831821544",
      "longitude": "-89.96024897473912"
    }
  },
  {
    "service_request": "2023-1052725",
    "request_type": "Roads/Drainage",
    "request_reason": "Accessibility Ramps, Curbs and Sidewalk Repair",
    "date_created": "2023-11-29T18:35:11.000",
    "date_modified": "2023-11-29T18:35:11.000",
    "request_status": "Pending",
    "responsible_agency": "Department of Public Works",
    "final_address": "3666 Clematis St",
    "address_councildis": "D",
    "status": "Pending",
    "rowid": "1052725",
    "final_x": "3686072.16943",
    "final_y": "546499.555025",
    "longitude": "-90.05310461267139",
    "latitude": "29.99654458722963",
    "geocoded_column": {
      "latitude": "29.99654458722963",
      "longitude": "-90.05310461267139"
    }
  },
  {
    "service_request": "2023-1052724",
    "request_type": "Traffic Signals/Signs/Striping/Streetlights",
    "request_reason": "Traffic Sign Missing/Damaged",
    "date_created": "2023-11-29T18:29:12.000",
    "date_modified": "2023-11-29T18:29:12.000",
    "request_status": "Pending",
    "responsible_agency": "Department of Public Works",
    "final_address": "4601 LaSalle St",
    "address_councildis": "B",
    "status": "Pending",
    "rowid": "1052724",
    "final_x": "3669768.41684",
    "final_y": "523659.901691",
    "longitude": "-90.1053805224347",
    "latitude": "29.93423395540886",
    "geocoded_column": {
      "latitude": "29.93423395540886",
      "longitude": "-90.1053805224347"
    }
  },
  {
    "service_request": "2023-1052723",
    "request_type": "Trash/Recycling",
    "request_reason": "Request a Large Item Pick Up",
    "date_created": "2023-11-29T18:25:42.000",
    "date_modified": "2023-11-29T18:25:43.000",
    "request_status": "Pending",
    "responsible_agency": "Department of Sanitation",
    "final_address": "2730 Dauphine St",
    "address_councildis": "C",
    "status": "Assigned to Contractor",
    "contractor": "IV Waste",
    "rowid": "1052723",
    "final_x": "3687368.2541",
    "final_y": "535162.575622",
    "longitude": "-90.04941165473089",
    "latitude": "29.96533202695357",
    "geocoded_column": {
      "latitude": "29.96533202695357",
      "longitude": "-90.04941165473089"
    }
  },
  {
    "service_request": "2023-1052722",
    "request_type": "Trash/Recycling",
    "request_reason": "Missed Trash Pick-Up",
    "date_created": "2023-11-29T18:08:06.000",
    "date_modified": "2023-11-29T18:08:07.000",
    "request_status": "Pending",
    "responsible_agency": "Department of Sanitation",
    "final_address": "4801 Bundy Rd",
    "address_councildis": "E",
    "status": "Assigned to Contractor",
    "contractor": "Waste Pro",
    "rowid": "1052722",
    "final_x": "3709428.26616",
    "final_y": "556141.210202",
    "longitude": "-89.97896481841791",
    "latitude": "30.02231722127076",
    "geocoded_column": {
      "latitude": "30.02231722127076",
      "longitude": "-89.97896481841791"
    }
  },
  {
    "service_request": "2023-1052721",
    "request_type": "Trash/Recycling",
    "request_reason": "Missed Trash Pick-Up",
    "date_created": "2023-11-29T18:00:39.000",
    "date_modified": "2023-11-29T18:00:40.000",
    "request_status": "Pending",
    "responsible_agency": "Department of Sanitation",
    "final_address": "328 Socrates St",
    "address_councildis": "C",
    "status": "Assigned to Contractor",
    "contractor": "Richards Disposal",
    "rowid": "1052721",
    "final_x": "3686520.91612",
    "final_y": "526425.576958",
    "longitude": "-90.05239594108886",
    "latitude": "29.941334352462533",
    "geocoded_column": {
      "latitude": "29.941334352462533",
      "longitude": "-90.05239594108886"
    }
  },
  {
    "service_request": "2023-1052720",
    "request_type": "Traffic Signals/Signs/Striping/Streetlights",
    "request_reason": "Street Light Outage/Malfunction",
    "date_created": "2023-11-29T17:48:22.000",
    "date_modified": "2023-11-29T17:48:22.000",
    "request_status": "Pending",
    "responsible_agency": "Department of Public Works",
    "final_address": "3534 Gentilly Blvd",
    "address_councildis": "D",
    "status": "Assigned to Contractor",
    "contractor": "Legacy Professional Services",
    "rowid": "1052720",
    "final_x": "3685883.3711",
    "final_y": "548605.195091",
    "longitude": "-90.0536267271555",
    "latitude": "30.002340137259885",
    "geocoded_column": {
      "latitude": "30.002340137259885",
      "longitude": "-90.0536267271555"
    }
  },
  {
    "service_request": "2023-1052719",
    "request_type": "Safety & Permits",
    "request_reason": "Licenses & Permits",
    "date_created": "2023-11-29T17:42:26.000",
    "date_modified": "2023-11-29T17:42:26.000",
    "request_status": "Pending",
    "responsible_agency": "Safety and Permits",
    "final_address": "5014 Prytania St",
    "address_councildis": "B",
    "status": "Pending",
    "rowid": "1052719",
    "final_x": "3668559.08692",
    "final_y": "520069.294136",
    "longitude": "-90.1093194374985",
    "latitude": "29.924396509102646",
    "geocoded_column": {
      "latitude": "29.924396509102646",
      "longitude": "-90.1093194374985"
    }
  },
  {
    "service_request": "2023-1052718",
    "request_type": "Roads/Drainage",
    "request_reason": "Pothole",
    "date_created": "2023-11-29T17:35:48.000",
    "date_modified": "2023-11-29T17:35:48.000",
    "request_status": "Pending",
    "responsible_agency": "Department of Public Works",
    "final_address": "7433 Maple St",
    "address_councildis": "A",
    "status": "Pending",
    "rowid": "1052718",
    "final_x": "3662707.60826",
    "final_y": "525857.775421",
    "longitude": "-90.12759835997058",
    "latitude": "29.94048358528151",
    "geocoded_column": {
      "latitude": "29.94048358528151",
      "longitude": "-90.12759835997058"
    }
  },
  {
    "service_request": "2023-1052717",
    "request_type": "Roads/Drainage",
    "request_reason": "Damaged Sidewalk",
    "date_created": "2023-11-29T17:17:56.000",
    "date_modified": "2023-11-29T17:17:56.000",
    "request_status": "Pending",
    "responsible_agency": "Department of Public Works",
    "final_address": "205 River Oaks Dr",
    "address_councildis": "C",
    "status": "Pending",
    "rowid": "1052717",
    "final_x": "3701545.14788",
    "final_y": "523277.056763",
    "longitude": "-90.00507711572857",
    "latitude": "29.932206647310906",
    "geocoded_column": {
      "latitude": "29.932206647310906",
      "longitude": "-90.00507711572857"
    }
  },
  {
    "service_request": "2023-1052716",
    "request_type": "Trash/Recycling",
    "request_reason": "MIssed Recycling Pick-Up",
    "date_created": "2023-11-29T17:13:59.000",
    "date_modified": "2023-11-29T17:13:59.000",
    "request_status": "Pending",
    "responsible_agency": "Department of Sanitation",
    "final_address": "11200 Chef Menteur Hwy",
    "address_councildis": "E",
    "status": "Assigned to Contractor",
    "contractor": "Waste Pro",
    "rowid": "1052716",
    "final_x": "3716501.04197",
    "final_y": "555743.655193",
    "longitude": "-89.95663193198165",
    "latitude": "30.020992339521815",
    "geocoded_column": {
      "latitude": "30.020992339521815",
      "longitude": "-89.95663193198165"
    }
  },
  {
    "service_request": "2023-1052715",
    "request_type": "Trash/Recycling",
    "request_reason": "Repair Trash Cart",
    "date_created": "2023-11-29T17:10:28.000",
    "date_modified": "2023-11-29T17:10:28.000",
    "request_status": "Pending",
    "responsible_agency": "Department of Sanitation",
    "final_address": "1529 Burdette St",
    "address_councildis": "A",
    "status": "Assigned to Contractor",
    "contractor": "Richards Disposal",
    "rowid": "1052715",
    "final_x": "3663697.06906",
    "final_y": "528538.737472",
    "longitude": "-90.12438515039544",
    "latitude": "29.94782670625401",
    "geocoded_column": {
      "latitude": "29.94782670625401",
      "longitude": "-90.12438515039544"
    }
  },
  {
    "service_request": "2023-1052714",
    "request_type": "Traffic Signals/Signs/Striping/Streetlights",
    "request_reason": "Traffic Signal Malfunctioning/Damaged",
    "date_created": "2023-11-29T16:49:50.000",
    "date_modified": "2023-11-29T16:49:51.000",
    "request_status": "Pending",
    "responsible_agency": "Department of Public Works",
    "final_address": "3336 S Claiborne Ave",
    "address_councildis": "B",
    "status": "Pending",
    "rowid": "1052714",
    "final_x": "3672352.71611",
    "final_y": "526032.973566",
    "longitude": "-90.09714113291999",
    "latitude": "29.940682727471348",
    "geocoded_column": {
      "latitude": "29.940682727471348",
      "longitude": "-90.09714113291999"
    }
  },
  {
    "service_request": "2023-1052713",
    "request_type": "Roads/Drainage",
    "request_reason": "Pothole",
    "date_created": "2023-11-29T16:49:30.000",
    "date_modified": "2023-11-29T16:49:51.000",
    "request_status": "Pending",
    "responsible_agency": "Department of Public Works",
    "final_address": "ELYSIAN FIELDS AV OVER & FLORIDA AVE",
    "address_councildis": "D",
    "status": "Pending",
    "rowid": "1052713",
    "final_x": "3684508.45",
    "final_y": "542348.88",
    "longitude": "-90.05819021267064",
    "latitude": "29.98517965418547",
    "geocoded_column": {
      "latitude": "29.98517965418547",
      "longitude": "-90.05819021267064"
    }
  },
  {
    "service_request": "2023-1052711",
    "request_type": "Trash/Recycling",
    "request_reason": "Request a Large Item Pick Up",
    "date_created": "2023-11-29T16:45:02.000",
    "date_modified": "2023-11-29T16:45:03.000",
    "request_status": "Pending",
    "responsible_agency": "Department of Sanitation",
    "final_address": "7315 Ebbtide Dr",
    "address_councildis": "E",
    "status": "Assigned to Contractor",
    "contractor": "Waste Pro",
    "rowid": "1052711",
    "final_x": "3702619.54129",
    "final_y": "560583.791518",
    "longitude": "-90.0003152627618",
    "latitude": "30.034752125907602",
    "geocoded_column": {
      "latitude": "30.034752125907602",
      "longitude": "-90.0003152627618"
    }
  },
  {
    "service_request": "2023-1052710",
    "request_type": "Trash/Recycling",
    "request_reason": "Replace Trash Cart",
    "date_created": "2023-11-29T16:34:22.000",
    "date_modified": "2023-11-29T16:34:23.000",
    "request_status": "Pending",
    "responsible_agency": "Department of Sanitation",
    "final_address": "808 Solomon Pl",
    "address_councildis": "A",
    "status": "Assigned to Contractor",
    "contractor": "Richards Disposal",
    "rowid": "1052710",
    "final_x": "3672527.74574",
    "final_y": "540581.859723",
    "longitude": "-90.09609256009354",
    "latitude": "29.980682115887152",
    "geocoded_column": {
      "latitude": "29.980682115887152",
      "longitude": "-90.09609256009354"
    }
  },
  {
    "service_request": "2023-1052709",
    "request_type": "Trash/Recycling",
    "request_reason": "Dead Animal Pick Up",
    "date_created": "2023-11-29T16:33:16.000",
    "date_modified": "2023-11-29T16:33:17.000",
    "request_status": "Pending",
    "responsible_agency": "Department of Sanitation",
    "final_address": "2463 Oriole St",
    "address_councildis": "D",
    "status": "Assigned to Contractor",
    "contractor": "IV Waste",
    "rowid": "1052709",
    "final_x": "3685038.80994",
    "final_y": "558317.081372",
    "longitude": "-90.05595276332826",
    "latitude": "30.029070171679372",
    "geocoded_column": {
      "latitude": "30.029070171679372",
      "longitude": "-90.05595276332826"
    }
  },
  {
    "service_request": "2023-1052708",
    "request_type": "Trash/Recycling",
    "request_reason": "Request a Large Item Pick Up",
    "date_created": "2023-11-29T16:29:00.000",
    "date_modified": "2023-11-29T16:29:01.000",
    "request_status": "Pending",
    "responsible_agency": "Department of Sanitation",
    "final_address": "2619 Prancer St",
    "address_councildis": "C",
    "status": "Assigned to Contractor",
    "contractor": "Richards Disposal",
    "rowid": "1052708",
    "final_x": "3699537.46244",
    "final_y": "521294.431097",
    "longitude": "-90.01148734778485",
    "latitude": "29.926818950861104",
    "geocoded_column": {
      "latitude": "29.926818950861104",
      "longitude": "-90.01148734778485"
    }
  },
  {
    "service_request": "2023-1052707",
    "request_type": "Trash/Recycling",
    "request_reason": "MIssed Recycling Pick-Up",
    "date_created": "2023-11-29T16:27:50.000",
    "date_modified": "2023-11-29T16:27:51.000",
    "request_status": "Pending",
    "responsible_agency": "Department of Public Works",
    "final_address": "2021 Brainard St",
    "address_councildis": "B",
    "status": "Assigned to Contractor",
    "contractor": "Richards Disposal",
    "rowid": "1052707",
    "final_x": "3677553.89333",
    "final_y": "524569.934524",
    "longitude": "-90.08077061009227",
    "latitude": "29.936504535061776",
    "geocoded_column": {
      "latitude": "29.936504535061776",
      "longitude": "-90.08077061009227"
    }
  },
  {
    "service_request": "2023-1052706",
    "request_type": "Roads/Drainage",
    "request_reason": "Damaged Sidewalk",
    "date_created": "2023-11-29T16:21:45.000",
    "date_modified": "2023-11-29T16:21:45.000",
    "request_status": "Pending",
    "responsible_agency": "Department of Public Works",
    "final_address": "3300 St Anthony Ave",
    "address_councildis": "D",
    "status": "Pending",
    "rowid": "1052706",
    "final_x": "3682746.31125",
    "final_y": "544718.791695",
    "longitude": "-90.06367311739966",
    "latitude": "29.991749876838632",
    "geocoded_column": {
      "latitude": "29.991749876838632",
      "longitude": "-90.06367311739966"
    }
  },
  {
    "service_request": "2023-1052705",
    "request_type": "Trash/Recycling",
    "request_reason": "Request a Large Item Pick Up",
    "date_created": "2023-11-29T16:15:01.000",
    "date_modified": "2023-11-29T16:15:02.000",
    "request_status": "Pending",
    "responsible_agency": "Department of Sanitation",
    "final_address": "7812 Star St",
    "address_councildis": "E",
    "status": "Assigned to Contractor",
    "contractor": "Waste Pro",
    "rowid": "1052705",
    "final_x": "3720659.98335",
    "final_y": "574413.582571",
    "longitude": "-89.9427751408715",
    "latitude": "30.072188897201016",
    "geocoded_column": {
      "latitude": "30.072188897201016",
      "longitude": "-89.9427751408715"
    }
  },
  {
    "service_request": "2023-1052703",
    "request_type": "Trash/Recycling",
    "request_reason": "Replace Trash Cart",
    "date_created": "2023-11-29T16:10:37.000",
    "date_modified": "2023-11-29T16:10:38.000",
    "request_status": "Pending",
    "responsible_agency": "Department of Sanitation",
    "final_address": "5316 Cameron Blvd",
    "address_councildis": "D",
    "status": "Assigned to Contractor",
    "contractor": "IV Waste",
    "rowid": "1052703",
    "final_x": "3682481.38517",
    "final_y": "552406.176662",
    "longitude": "-90.06424101394414",
    "latitude": "30.0128954963788",
    "geocoded_column": {
      "latitude": "30.0128954963788",
      "longitude": "-90.06424101394414"
    }
  },
  {
    "service_request": "2023-1052702",
    "request_type": "Traffic Signals/Signs/Striping/Streetlights",
    "request_reason": "Street Light Outage/Malfunction",
    "date_created": "2023-11-29T16:10:32.000",
    "date_modified": "2023-11-29T16:10:33.000",
    "request_status": "Pending",
    "responsible_agency": "Department of Public Works",
    "final_address": "2900 BLK Camp St",
    "address_councildis": "B",
    "status": "Assigned to Contractor",
    "contractor": "Legacy Professional Services",
    "rowid": "1052702",
    "final_x": "3676292.17855",
    "final_y": "520770.880818",
    "longitude": "-90.08488457443273",
    "latitude": "29.926096238831292",
    "geocoded_column": {
      "latitude": "29.926096238831292",
      "longitude": "-90.08488457443273"
    }
  },
  {
    "service_request": "2023-1052701",
    "request_type": "Trash/Recycling",
    "request_reason": "Request a Large Item Pick Up",
    "date_created": "2023-11-29T16:09:58.000",
    "date_modified": "2023-11-29T16:09:59.000",
    "request_status": "Pending",
    "responsible_agency": "Department of Sanitation",
    "final_address": "2830 Baronne St",
    "address_councildis": "B",
    "status": "Assigned to Contractor",
    "contractor": "Richards Disposal",
    "rowid": "1052701",
    "final_x": "3675304.21697",
    "final_y": "522969.858363",
    "longitude": "-90.08792783916941",
    "latitude": "29.932172275722003",
    "geocoded_column": {
      "latitude": "29.932172275722003",
      "longitude": "-90.08792783916941"
    }
  },
  {
    "service_request": "2023-1052700",
    "request_type": "Trash/Recycling",
    "request_reason": "Request a Large Item Pick Up",
    "date_created": "2023-11-29T16:08:59.000",
    "date_modified": "2023-11-29T16:09:00.000",
    "request_status": "Pending",
    "responsible_agency": "Department of Sanitation",
    "final_address": "3617 Eagle St",
    "address_councildis": "A",
    "status": "Assigned to Contractor",
    "contractor": "Richards Disposal",
    "rowid": "1052700",
    "final_x": "3666032.52",
    "final_y": "536445.025799",
    "longitude": "-90.11674612909431",
    "latitude": "29.969498448372278",
    "geocoded_column": {
      "latitude": "29.969498448372278",
      "longitude": "-90.11674612909431"
    }
  },
  {
    "service_request": "2023-1052699",
    "request_type": "Trash/Recycling",
    "request_reason": "Request a Large Item Pick Up",
    "date_created": "2023-11-29T16:06:33.000",
    "date_modified": "2023-11-29T16:06:34.000",
    "request_status": "Pending",
    "responsible_agency": "Department of Sanitation",
    "final_address": "9730 W Rockton Cir",
    "address_councildis": "E",
    "status": "Assigned to Contractor",
    "contractor": "Waste Pro",
    "rowid": "1052699",
    "final_x": "3707941.23499",
    "final_y": "562389.991583",
    "longitude": "-89.98343082243048",
    "latitude": "30.039547157464636",
    "geocoded_column": {
      "latitude": "30.039547157464636",
      "longitude": "-89.98343082243048"
    }
  },
  {
    "service_request": "2023-1052698",
    "request_type": "Roads/Drainage",
    "request_reason": "Pothole",
    "date_created": "2023-11-29T16:02:16.000",
    "date_modified": "2023-11-29T16:02:16.000",
    "request_status": "Pending",
    "responsible_agency": "Department of Public Works",
    "final_address": "4216 Chestnut St",
    "address_councildis": "B",
    "status": "Pending",
    "rowid": "1052698",
    "final_x": "3671574.31393",
    "final_y": "519539.203703",
    "longitude": "-90.09981939416457",
    "latitude": "29.922850019854593",
    "geocoded_column": {
      "latitude": "29.922850019854593",
      "longitude": "-90.09981939416457"
    }
  },
  {
    "service_request": "2023-1052697",
    "request_type": "Abandoned Vehicles",
    "request_reason": "Abandoned/Junk Vehicles",
    "date_created": "2023-11-29T16:01:36.000",
    "date_modified": "2023-11-29T16:01:37.000",
    "request_status": "Pending",
    "responsible_agency": "Department of Public Works",
    "final_address": "7402 St Charles Ave",
    "address_councildis": "A",
    "status": "Pending",
    "rowid": "1052697",
    "final_x": "3662409.36947",
    "final_y": "525040.199933",
    "longitude": "-90.12856709338256",
    "latitude": "29.938244138082382",
    "geocoded_column": {
      "latitude": "29.938244138082382",
      "longitude": "-90.12856709338256"
    }
  },
  {
    "service_request": "2023-1052696",
    "request_type": "Trash/Recycling",
    "request_reason": "Illegal Dumping",
    "date_created": "2023-11-29T15:58:14.000",
    "date_modified": "2023-11-29T15:58:15.000",
    "request_status": "Pending",
    "responsible_agency": "Department of Sanitation",
    "final_address": "2700 BLK Monticello Ave",
    "address_councildis": "A",
    "status": "Pending",
    "rowid": "1052696",
    "final_x": "3662409.03899",
    "final_y": "535637.899969",
    "longitude": "-90.12821624834463",
    "latitude": "29.96738440505092",
    "geocoded_column": {
      "latitude": "29.96738440505092",
      "longitude": "-90.12821624834463"
    }
  },
  {
    "service_request": "2023-1052695",
    "request_type": "Trash/Recycling",
    "request_reason": "Replace Trash Cart",
    "date_created": "2023-11-29T15:56:56.000",
    "date_modified": "2023-11-29T15:56:57.000",
    "request_status": "Pending",
    "responsible_agency": "Department of Sanitation",
    "final_address": "909 Orleans Ave",
    "address_councildis": "C",
    "status": "Assigned to Contractor",
    "contractor": "Empire Services",
    "rowid": "1052695",
    "final_x": "3682025.14037",
    "final_y": "533108.087748",
    "longitude": "-90.06635667135573",
    "latitude": "29.95984642862718",
    "geocoded_column": {
      "latitude": "29.95984642862718",
      "longitude": "-90.06635667135573"
    }
  },
  {
    "service_request": "2023-1052694",
    "request_type": "Trash/Recycling",
    "request_reason": "Replace Trash Cart",
    "date_created": "2023-11-29T15:56:30.000",
    "date_modified": "2023-11-29T15:56:30.000",
    "request_status": "Pending",
    "responsible_agency": "Department of Sanitation",
    "final_address": "909 Orleans Ave",
    "address_councildis": "C",
    "status": "Assigned to Contractor",
    "contractor": "Empire Services",
    "rowid": "1052694",
    "final_x": "3682025.14037",
    "final_y": "533108.087748",
    "longitude": "-90.06635667135573",
    "latitude": "29.95984642862718",
    "geocoded_column": {
      "latitude": "29.95984642862718",
      "longitude": "-90.06635667135573"
    }
  },
  {
    "service_request": "2023-1052693",
    "request_type": "Trash/Recycling",
    "request_reason": "MIssed Recycling Pick-Up",
    "date_created": "2023-11-29T15:53:46.000",
    "date_modified": "2023-11-29T15:53:46.000",
    "request_status": "Pending",
    "responsible_agency": "Department of Sanitation",
    "final_address": "7601 Mackenzie St",
    "address_councildis": "E",
    "status": "Assigned to Contractor",
    "contractor": "Waste Pro",
    "rowid": "1052693",
    "final_x": "3711190.53649",
    "final_y": "565901.213155",
    "longitude": "-89.973030419559",
    "latitude": "30.049095949592893",
    "geocoded_column": {
      "latitude": "30.049095949592893",
      "longitude": "-89.973030419559"
    }
  },
  {
    "service_request": "2023-1052692",
    "request_type": "Trash/Recycling",
    "request_reason": "Replace Trash Cart",
    "date_created": "2023-11-29T15:52:35.000",
    "date_modified": "2023-11-29T15:52:36.000",
    "request_status": "Pending",
    "responsible_agency": "Department of Sanitation",
    "final_address": "8401 Beechwood Ct",
    "address_councildis": "E",
    "status": "Assigned to Contractor",
    "contractor": "Waste Pro",
    "rowid": "1052692",
    "final_x": "3704021.82602",
    "final_y": "560613.570014",
    "longitude": "-89.99588276909276",
    "latitude": "30.03478907448169",
    "geocoded_column": {
      "latitude": "30.03478907448169",
      "longitude": "-89.99588276909276"
    }
  },
  {
    "service_request": "2023-1052691",
    "request_type": "Abandoned Vehicles",
    "request_reason": "Abandoned/Junk Vehicles",
    "date_created": "2023-11-29T15:42:43.000",
    "date_modified": "2023-11-29T15:42:43.000",
    "request_status": "Pending",
    "responsible_agency": "Department of Public Works",
    "final_address": "605 Short St",
    "address_councildis": "A",
    "status": "Pending",
    "rowid": "1052691",
    "final_x": "3660991.64429",
    "final_y": "526585.700478",
    "longitude": "-90.13299189551934",
    "latitude": "29.942534686558723",
    "geocoded_column": {
      "latitude": "29.942534686558723",
      "longitude": "-90.13299189551934"
    }
  },
  {
    "service_request": "2023-1052690",
    "request_type": "Traffic Signals/Signs/Striping/Streetlights",
    "request_reason": "Street Light Outage/Malfunction",
    "date_created": "2023-11-29T15:36:41.000",
    "date_modified": "2023-11-29T15:37:29.000",
    "request_status": "Pending",
    "responsible_agency": "Department of Public Works",
    "final_address": "400 BLK S Norman C Francis Pkwy",
    "address_councildis": "B",
    "status": "Assigned to Contractor",
    "contractor": "Legacy Professional Services",
    "rowid": "1052690",
    "final_x": "3672280.23283",
    "final_y": "535661.49441",
    "longitude": "-90.09704198999108",
    "latitude": "29.967160123933276",
    "geocoded_column": {
      "latitude": "29.967160123933276",
      "longitude": "-90.09704198999108"
    }
  },
  {
    "service_request": "2023-1052689",
    "request_type": "Trash/Recycling",
    "request_reason": "Request a Large Item Pick Up",
    "date_created": "2023-11-29T15:36:04.000",
    "date_modified": "2023-11-29T15:36:05.000",
    "request_status": "Pending",
    "responsible_agency": "Department of Sanitation",
    "final_address": "4969 Tynecastle Dr",
    "address_councildis": "E",
    "status": "Assigned to Contractor",
    "contractor": "Waste Pro",
    "rowid": "1052689",
    "final_x": "3718462.12441",
    "final_y": "558420.613852",
    "longitude": "-89.95033345984216",
    "latitude": "30.028287972746426",
    "geocoded_column": {
      "latitude": "30.028287972746426",
      "longitude": "-89.95033345984216"
    }
  },
  {
    "service_request": "2023-1052688",
    "request_type": "Trash/Recycling",
    "request_reason": "Order Recycling Cart",
    "date_created": "2023-11-29T15:33:28.000",
    "date_modified": "2023-11-29T15:33:29.000",
    "request_status": "Pending",
    "responsible_agency": "Department of Sanitation",
    "final_address": "935 St Peter St",
    "address_councildis": "C",
    "status": "Pending",
    "rowid": "1052688",
    "final_x": "3681738.57295",
    "final_y": "533072.235204",
    "longitude": "-90.06726283776716",
    "latitude": "29.95975655589466",
    "geocoded_column": {
      "latitude": "29.95975655589466",
      "longitude": "-90.06726283776716"
    }
  },
  {
    "service_request": "2023-1052687",
    "request_type": "Trash/Recycling",
    "request_reason": "MIssed Recycling Pick-Up",
    "date_created": "2023-11-29T15:28:22.000",
    "date_modified": "2023-11-29T15:28:23.000",
    "request_status": "Pending",
    "responsible_agency": "Department of Sanitation",
    "final_address": "110 Constitution St",
    "address_councildis": "C",
    "status": "Assigned to Contractor",
    "contractor": "Richards Disposal",
    "rowid": "1052687",
    "final_x": "3693820.84323",
    "final_y": "528226.180224",
    "longitude": "-90.02928407660094",
    "latitude": "29.946058982242185",
    "geocoded_column": {
      "latitude": "29.946058982242185",
      "longitude": "-90.02928407660094"
    }
  },
  {
    "service_request": "2023-1052686",
    "request_type": "Taxi Issues",
    "request_reason": "Taxi Lost & Found Item",
    "date_created": "2023-11-29T15:27:10.000",
    "date_modified": "2023-11-29T15:27:11.000",
    "request_status": "Pending",
    "responsible_agency": "Ground Transportation Bureau",
    "final_address": "228 Poydras St",
    "address_councildis": "B",
    "status": "Pending",
    "rowid": "1052686",
    "final_x": "3682272.06844",
    "final_y": "528907.947328",
    "longitude": "-90.06572365399002",
    "latitude": "29.948289957310266",
    "geocoded_column": {
      "latitude": "29.948289957310266",
      "longitude": "-90.06572365399002"
    }
  },
  {
    "service_request": "2023-1052685",
    "request_type": "Roads/Drainage",
    "request_reason": "Pothole",
    "date_created": "2023-11-29T15:23:42.000",
    "date_modified": "2023-11-29T15:23:42.000",
    "request_status": "Pending",
    "responsible_agency": "Department of Public Works",
    "final_address": "1312 Milan St",
    "address_councildis": "B",
    "status": "Pending",
    "rowid": "1052685",
    "final_x": "3671625.82823",
    "final_y": "520286.919608",
    "longitude": "-90.09963137110304",
    "latitude": "29.92490447494246",
    "geocoded_column": {
      "latitude": "29.92490447494246",
      "longitude": "-90.09963137110304"
    }
  },
  {
    "service_request": "2023-1052684",
    "request_type": "Trash/Recycling",
    "request_reason": "Missed Trash Pick-Up",
    "date_created": "2023-11-29T15:20:39.000",
    "date_modified": "2023-11-29T15:20:39.000",
    "request_status": "Pending",
    "responsible_agency": "Department of Sanitation",
    "final_address": "7710 Windward Ct",
    "address_councildis": "E",
    "status": "Assigned to Contractor",
    "contractor": "Waste Pro",
    "rowid": "1052684",
    "final_x": "3715461.33029",
    "final_y": "569783.901862",
    "longitude": "-89.95938513991581",
    "latitude": "30.059631647797367",
    "geocoded_column": {
      "latitude": "30.059631647797367",
      "longitude": "-89.95938513991581"
    }
  },
  {
    "service_request": "2023-1052683",
    "request_type": "Tax and Revenue",
    "request_reason": "Personal Property Tax Question",
    "date_created": "2023-11-29T15:19:30.000",
    "date_modified": "2023-11-29T15:19:31.000",
    "request_status": "Pending",
    "responsible_agency": "Bureau of Treasury",
    "final_address": "5334 Prytania St",
    "address_councildis": "B",
    "status": "Pending",
    "rowid": "1052683",
    "final_x": "3667420.81473",
    "final_y": "520188.14828",
    "longitude": "-90.11290858804301",
    "latitude": "29.924756705490168",
    "geocoded_column": {
      "latitude": "29.924756705490168",
      "longitude": "-90.11290858804301"
    }
  },
  {
    "service_request": "2023-1052682",
    "request_type": "Roads/Drainage",
    "request_reason": "Pothole",
    "date_created": "2023-11-29T15:16:21.000",
    "date_modified": "2023-11-29T15:16:21.000",
    "request_status": "Pending",
    "responsible_agency": "Department of Public Works",
    "final_address": "1301 Constantinople St",
    "address_councildis": "B",
    "status": "Pending",
    "rowid": "1052682",
    "final_x": "3672430.66305",
    "final_y": "520250.7726",
    "longitude": "-90.09709199725775",
    "latitude": "29.924781230435865",
    "geocoded_column": {
      "latitude": "29.924781230435865",
      "longitude": "-90.09709199725775"
    }
  },
  {
    "service_request": "2023-1052681",
    "request_type": "Trash/Recycling",
    "request_reason": "Missed Trash Pick-Up",
    "date_created": "2023-11-29T15:15:32.000",
    "date_modified": "2023-11-29T17:01:46.000",
    "case_close_date": "2023-11-29T11:01:46.000",
    "request_status": "Closed",
    "responsible_agency": "Department of Sanitation",
    "final_address": "11137 Winchester Park Dr",
    "address_councildis": "E",
    "status": "Assigned to Contractor",
    "contractor": "Waste Pro",
    "contractor_action": "Invalid Pick-Up",
    "rowid": "1052681",
    "final_x": "3715016.478",
    "final_y": "561447.954399",
    "longitude": "-89.96110682674389",
    "latitude": "30.036725848477847",
    "geocoded_column": {
      "latitude": "30.036725848477847",
      "longitude": "-89.96110682674389"
    }
  },
  {
    "service_request": "2023-1052680",
    "request_type": "Trash/Recycling",
    "request_reason": "Missed Trash Pick-Up",
    "date_created": "2023-11-29T15:15:19.000",
    "date_modified": "2023-11-29T15:15:20.000",
    "request_status": "Pending",
    "responsible_agency": "Department of Sanitation",
    "final_address": "10142 Boulevard Way",
    "address_councildis": "E",
    "status": "Assigned to Contractor",
    "contractor": "Waste Pro",
    "rowid": "1052680",
    "final_x": "3708783.63537",
    "final_y": "564812.174818",
    "longitude": "-89.98067824355407",
    "latitude": "30.046179879127443",
    "geocoded_column": {
      "latitude": "30.046179879127443",
      "longitude": "-89.98067824355407"
    }
  },
  {
    "service_request": "2023-1052679",
    "request_type": "Trash/Recycling",
    "request_reason": "MIssed Recycling Pick-Up",
    "date_created": "2023-11-29T15:13:14.000",
    "date_modified": "2023-11-29T15:13:14.000",
    "request_status": "Pending",
    "responsible_agency": "Department of Sanitation",
    "final_address": "11137 Winchester Park Dr",
    "address_councildis": "E",
    "status": "Assigned to Contractor",
    "contractor": "Waste Pro",
    "rowid": "1052679",
    "final_x": "3715016.478",
    "final_y": "561447.954399",
    "longitude": "-89.96110682674389",
    "latitude": "30.036725848477847",
    "geocoded_column": {
      "latitude": "30.036725848477847",
      "longitude": "-89.96110682674389"
    }
  },
  {
    "service_request": "2023-1052678",
    "request_type": "Trash/Recycling",
    "request_reason": "Order Trash Cart",
    "date_created": "2023-11-29T15:13:05.000",
    "date_modified": "2023-11-29T15:13:06.000",
    "request_status": "Pending",
    "responsible_agency": "Department of Sanitation",
    "final_address": "5207 N Rampart St",
    "address_councildis": "E",
    "status": "Assigned to Contractor",
    "contractor": "Waste Pro",
    "rowid": "1052678",
    "final_x": "3696495.02474",
    "final_y": "533708.757893",
    "longitude": "-90.02064250839582",
    "latitude": "29.961050191383666",
    "geocoded_column": {
      "latitude": "29.961050191383666",
      "longitude": "-90.02064250839582"
    }
  },
  {
    "service_request": "2023-1052677",
    "request_type": "Trash/Recycling",
    "request_reason": "Request a Large Item Pick Up",
    "date_created": "2023-11-29T15:03:53.000",
    "date_modified": "2023-11-29T15:03:54.000",
    "request_status": "Pending",
    "responsible_agency": "Department of Sanitation",
    "final_address": "207 N Rendon St",
    "address_councildis": "B",
    "status": "Assigned to Contractor",
    "contractor": "Richards Disposal",
    "rowid": "1052677",
    "final_x": "3673805.51918",
    "final_y": "536908.299592",
    "longitude": "-90.09218246476787",
    "latitude": "29.97054307786656",
    "geocoded_column": {
      "latitude": "29.97054307786656",
      "longitude": "-90.09218246476787"
    }
  },
  {
    "service_request": "2023-1052676",
    "request_type": "Parks & Parkways",
    "request_reason": "Request Tree Service (Right of Way/Public Property)",
    "date_created": "2023-11-29T15:01:22.000",
    "date_modified": "2023-11-29T15:01:22.000",
    "request_status": "Pending",
    "responsible_agency": "Department of Parks & Parkway",
    "final_address": "630 Napoleon Ave",
    "address_councildis": "B",
    "status": "Pending",
    "rowid": "1052676",
    "final_x": "3671042.34151",
    "final_y": "517975.564662",
    "longitude": "-90.10155168626466",
    "latitude": "29.918566245175832",
    "geocoded_column": {
      "latitude": "29.918566245175832",
      "longitude": "-90.10155168626466"
    }
  },
  {
    "service_request": "2023-1052675",
    "request_type": "Trash/Recycling",
    "request_reason": "Request a Large Item Pick Up",
    "date_created": "2023-11-29T15:00:11.000",
    "date_modified": "2023-11-29T15:00:11.000",
    "request_status": "Pending",
    "responsible_agency": "Department of Sanitation",
    "final_address": "1403 Charbonnet St",
    "address_councildis": "E",
    "status": "Assigned to Contractor",
    "contractor": "Waste Pro",
    "rowid": "1052675",
    "final_x": "3698962.844",
    "final_y": "534752.23271",
    "longitude": "-90.01281166360408",
    "latitude": "29.96384140681001",
    "geocoded_column": {
      "latitude": "29.96384140681001",
      "longitude": "-90.01281166360408"
    }
  },
  {
    "service_request": "2023-1052674",
    "request_type": "Trash/Recycling",
    "request_reason": "Order Trash Cart",
    "date_created": "2023-11-29T14:57:41.000",
    "date_modified": "2023-11-29T14:57:42.000",
    "request_status": "Pending",
    "responsible_agency": "Department of Sanitation",
    "final_address": "7655 Marquis St",
    "address_councildis": "E",
    "status": "Assigned to Contractor",
    "contractor": "Waste Pro",
    "rowid": "1052674",
    "final_x": "3711218.05297",
    "final_y": "566377.949603",
    "longitude": "-89.97292556248688",
    "latitude": "30.050405883616",
    "geocoded_column": {
      "latitude": "30.050405883616",
      "longitude": "-89.97292556248688"
    }
  },
  {
    "service_request": "2023-1052673",
    "request_type": "Trash/Recycling",
    "request_reason": "Missed Trash Pick-Up",
    "date_created": "2023-11-29T14:56:10.000",
    "date_modified": "2023-11-29T14:56:11.000",
    "request_status": "Pending",
    "responsible_agency": "Department of Sanitation",
    "final_address": "9702 Hayne Blvd",
    "address_councildis": "E",
    "status": "Assigned to Contractor",
    "contractor": "Waste Pro",
    "rowid": "1052673",
    "final_x": "3706915.27371",
    "final_y": "565382.200162",
    "longitude": "-89.9865619966026",
    "latitude": "30.047807733771375",
    "geocoded_column": {
      "latitude": "30.047807733771375",
      "longitude": "-89.9865619966026"
    }
  },
  {
    "service_request": "2023-1052672",
    "request_type": "Trash/Recycling",
    "request_reason": "Replace Trash Cart",
    "date_created": "2023-11-29T14:54:52.000",
    "date_modified": "2023-11-29T14:54:53.000",
    "request_status": "Pending",
    "responsible_agency": "Department of Sanitation",
    "final_address": "1126 Joliet St",
    "address_councildis": "A",
    "status": "Assigned to Contractor",
    "contractor": "Richards Disposal",
    "rowid": "1052672",
    "final_x": "3660783.89741",
    "final_y": "529264.725633",
    "longitude": "-90.13355923935401",
    "latitude": "29.949907134404143",
    "geocoded_column": {
      "latitude": "29.949907134404143",
      "longitude": "-90.13355923935401"
    }
  },
  {
    "service_request": "2023-1052671",
    "request_type": "Trash/Recycling",
    "request_reason": "Order Recycling Cart",
    "date_created": "2023-11-29T14:51:29.000",
    "date_modified": "2023-11-29T14:51:29.000",
    "request_status": "Pending",
    "responsible_agency": "Department of Sanitation",
    "final_address": "1126 Joliet St",
    "address_councildis": "A",
    "status": "Pending",
    "rowid": "1052671",
    "final_x": "3660783.89741",
    "final_y": "529264.725633",
    "longitude": "-90.13355923935401",
    "latitude": "29.949907134404143",
    "geocoded_column": {
      "latitude": "29.949907134404143",
      "longitude": "-90.13355923935401"
    }
  },
  {
    "service_request": "2023-1052670",
    "request_type": "Trash/Recycling",
    "request_reason": "Missed Trash Pick-Up",
    "date_created": "2023-11-29T14:51:04.000",
    "date_modified": "2023-11-29T14:51:05.000",
    "request_status": "Pending",
    "responsible_agency": "Department of Sanitation",
    "final_address": "4759 Schindler Dr",
    "address_councildis": "E",
    "status": "Assigned to Contractor",
    "contractor": "Waste Pro",
    "rowid": "1052670",
    "final_x": "3714392.14853",
    "final_y": "556819.330522",
    "longitude": "-89.96325471765954",
    "latitude": "30.02401952246808",
    "geocoded_column": {
      "latitude": "30.02401952246808",
      "longitude": "-89.96325471765954"
    }
  },
  {
    "service_request": "2023-1052669",
    "request_type": "Property Maintenance",
    "request_reason": "Property Maintenance",
    "date_created": "2023-11-29T14:49:28.000",
    "date_modified": "2023-11-29T14:49:28.000",
    "request_status": "Pending",
    "responsible_agency": "Department of Code Enforcement",
    "final_address": "2413 Philip St",
    "address_councildis": "B",
    "status": "Pending",
    "rowid": "1052669",
    "final_x": "3675475.45512",
    "final_y": "525933.011069",
    "longitude": "-90.08728553192698",
    "latitude": "29.94031485839843",
    "geocoded_column": {
      "latitude": "29.94031485839843",
      "longitude": "-90.08728553192698"
    }
  },
  {
    "service_request": "2023-1052668",
    "request_type": "Trash/Recycling",
    "request_reason": "Repair Trash Cart",
    "date_created": "2023-11-29T14:47:38.000",
    "date_modified": "2023-11-29T14:47:39.000",
    "request_status": "Pending",
    "responsible_agency": "Department of Sanitation",
    "final_address": "47 Warbler St",
    "address_councildis": "D",
    "status": "Assigned to Contractor",
    "contractor": "IV Waste",
    "rowid": "1052668",
    "final_x": "3673485.5362",
    "final_y": "556644.86441",
    "longitude": "-90.09251804231005",
    "latitude": "30.02482126041787",
    "geocoded_column": {
      "latitude": "30.02482126041787",
      "longitude": "-90.09251804231005"
    }
  },
  {
    "service_request": "2023-1052667",
    "request_type": "Trash/Recycling",
    "request_reason": "Repair Trash Cart",
    "date_created": "2023-11-29T14:39:40.000",
    "date_modified": "2023-11-29T14:39:41.000",
    "request_status": "Pending",
    "responsible_agency": "Department of Sanitation",
    "final_address": "2115 Audubon St",
    "address_councildis": "A",
    "status": "Assigned to Contractor",
    "contractor": "Richards Disposal",
    "rowid": "1052667",
    "final_x": "3666309.30477",
    "final_y": "529085.873536",
    "longitude": "-90.11611890150603",
    "latitude": "29.949255110865728",
    "geocoded_column": {
      "latitude": "29.949255110865728",
      "longitude": "-90.11611890150603"
    }
  },
  {
    "service_request": "2023-1052666",
    "request_type": "Roads/Drainage",
    "request_reason": "Street Subsidence (Sinking)",
    "date_created": "2023-11-29T14:37:42.000",
    "date_modified": "2023-11-29T14:37:42.000",
    "request_status": "Pending",
    "responsible_agency": "Department of Public Works",
    "final_address": "2768 Sage St",
    "address_councildis": "D",
    "status": "Pending",
    "rowid": "1052666",
    "final_x": "3688472.09807",
    "final_y": "545545.260304",
    "longitude": "-90.04555728503226",
    "latitude": "29.993846673802683",
    "geocoded_column": {
      "latitude": "29.993846673802683",
      "longitude": "-90.04555728503226"
    }
  },
  {
    "service_request": "2023-1052665",
    "request_type": "Trash/Recycling",
    "request_reason": "Replace Trash Cart",
    "date_created": "2023-11-29T14:37:18.000",
    "date_modified": "2023-11-29T14:37:18.000",
    "request_status": "Pending",
    "responsible_agency": "Department of Sanitation",
    "final_address": "8428 Nelson St",
    "address_councildis": "A",
    "status": "Assigned to Contractor",
    "contractor": "Richards Disposal",
    "rowid": "1052665",
    "final_x": "3664143.69837",
    "final_y": "532682.33242",
    "longitude": "-90.12283674568427",
    "latitude": "29.95920728458372",
    "geocoded_column": {
      "latitude": "29.95920728458372",
      "longitude": "-90.12283674568427"
    }
  },
  {
    "service_request": "2023-1052664",
    "request_type": "Roads/Drainage",
    "request_reason": "Street Subsidence (Sinking)",
    "date_created": "2023-11-29T14:36:14.000",
    "date_modified": "2023-11-29T14:36:15.000",
    "request_status": "Pending",
    "responsible_agency": "Department of Public Works",
    "final_address": "2764 Sage St",
    "address_councildis": "D",
    "status": "Pending",
    "rowid": "1052664",
    "final_x": "3688424.88585",
    "final_y": "545548.99784",
    "longitude": "-90.04570628844112",
    "latitude": "29.993858409568684",
    "geocoded_column": {
      "latitude": "29.993858409568684",
      "longitude": "-90.04570628844112"
    }
  },
  {
    "service_request": "2023-1052663",
    "request_type": "Trash/Recycling",
    "request_reason": "Missed Trash Pick-Up",
    "date_created": "2023-11-29T14:34:07.000",
    "date_modified": "2023-11-29T14:34:07.000",
    "request_status": "Pending",
    "responsible_agency": "Department of Sanitation",
    "final_address": "2041 Upperline St",
    "address_councildis": "B",
    "status": "Assigned to Contractor",
    "contractor": "Richards Disposal",
    "rowid": "1052663",
    "final_x": "3669139.60647",
    "final_y": "522392.693754",
    "longitude": "-90.10740846359799",
    "latitude": "29.930768053782995",
    "geocoded_column": {
      "latitude": "29.930768053782995",
      "longitude": "-90.10740846359799"
    }
  },
  {
    "service_request": "2023-1052662",
    "request_type": "Trash/Recycling",
    "request_reason": "Replace Trash Cart",
    "date_created": "2023-11-29T14:32:03.000",
    "date_modified": "2023-11-29T14:32:04.000",
    "request_status": "Pending",
    "responsible_agency": "Department of Sanitation",
    "final_address": "1225 Desire St",
    "address_councildis": "C",
    "status": "Assigned to Contractor",
    "contractor": "IV Waste",
    "rowid": "1052662",
    "final_x": "3690356.61443",
    "final_y": "536271.912775",
    "longitude": "-90.03993504742822",
    "latitude": "29.96828990481821",
    "geocoded_column": {
      "latitude": "29.96828990481821",
      "longitude": "-90.03993504742822"
    }
  },
  {
    "service_request": "2023-1052661",
    "request_type": "Trash/Recycling",
    "request_reason": "Missed Trash Pick-Up",
    "date_created": "2023-11-29T14:27:43.000",
    "date_modified": "2023-11-29T14:27:43.000",
    "request_status": "Pending",
    "responsible_agency": "Department of Sanitation",
    "final_address": "1800 BLK Bordeaux St",
    "address_councildis": "B",
    "status": "Assigned to Contractor",
    "contractor": "Richards Disposal",
    "rowid": "1052661",
    "final_x": "3669291.22404",
    "final_y": "521621.908316",
    "longitude": "-90.1069558699635",
    "latitude": "29.928644178796755",
    "geocoded_column": {
      "latitude": "29.928644178796755",
      "longitude": "-90.1069558699635"
    }
  },
  {
    "service_request": "2023-1052659",
    "request_type": "Trash/Recycling",
    "request_reason": "Order Trash Cart",
    "date_created": "2023-11-29T14:24:37.000",
    "date_modified": "2023-11-29T14:24:37.000",
    "request_status": "Pending",
    "responsible_agency": "Department of Sanitation",
    "final_address": "4831 Shalimar Dr",
    "address_councildis": "D",
    "status": "Assigned to Contractor",
    "contractor": "Waste Pro",
    "rowid": "1052659",
    "final_x": "3697175.68739",
    "final_y": "554713.850008",
    "longitude": "-90.01773154154311",
    "latitude": "30.018785042496074",
    "geocoded_column": {
      "latitude": "30.018785042496074",
      "longitude": "-90.01773154154311"
    }
  },
  {
    "service_request": "2023-1052658",
    "request_type": "Abandoned Vehicles",
    "request_reason": "Abandoned/Junk Vehicles",
    "date_created": "2023-11-29T14:23:10.000",
    "date_modified": "2023-11-29T14:23:11.000",
    "request_status": "Pending",
    "responsible_agency": "Department of Public Works",
    "final_address": "1511 St Philip St",
    "address_councildis": "C",
    "status": "Pending",
    "rowid": "1052658",
    "final_x": "3680927.28763",
    "final_y": "535153.523718",
    "longitude": "-90.06975221700591",
    "latitude": "29.965504012163564",
    "geocoded_column": {
      "latitude": "29.965504012163564",
      "longitude": "-90.06975221700591"
    }
  },
  {
    "service_request": "2023-1052656",
    "request_type": "Property Maintenance",
    "request_reason": "Property Maintenance",
    "date_created": "2023-11-29T14:21:44.000",
    "date_modified": "2023-11-29T14:21:44.000",
    "request_status": "Pending",
    "responsible_agency": "Department of Code Enforcement",
    "final_address": "8405 Edinburgh St",
    "address_councildis": "A",
    "status": "Pending",
    "rowid": "1052656",
    "final_x": "3666674.59674",
    "final_y": "535226.290118",
    "longitude": "-90.11475932171214",
    "latitude": "29.96612856887457",
    "geocoded_column": {
      "latitude": "29.96612856887457",
      "longitude": "-90.11475932171214"
    }
  },
  {
    "service_request": "2023-1052655",
    "request_type": "Abandoned Vehicles",
    "request_reason": "Abandoned/Junk Vehicles",
    "date_created": "2023-11-29T14:21:17.000",
    "date_modified": "2023-11-29T14:23:41.000",
    "request_status": "Pending",
    "responsible_agency": "Department of Public Works",
    "final_address": "507 Spain St",
    "address_councildis": "C",
    "status": "Pending",
    "rowid": "1052655",
    "final_x": "3686330.3951",
    "final_y": "534327.650629",
    "longitude": "-90.05271862339232",
    "latitude": "29.96306820825234",
    "geocoded_column": {
      "latitude": "29.96306820825234",
      "longitude": "-90.05271862339232"
    }
  },
  {
    "service_request": "2023-1052654",
    "request_type": "Abandoned Vehicles",
    "request_reason": "Abandoned/Junk Vehicles",
    "date_created": "2023-11-29T14:19:50.000",
    "date_modified": "2023-11-29T14:19:51.000",
    "request_status": "Pending",
    "responsible_agency": "Department of Public Works",
    "final_address": "1400 BLK Piety St",
    "address_councildis": "C",
    "status": "Pending",
    "rowid": "1052654",
    "final_x": "3690161.44083",
    "final_y": "537090.768126",
    "longitude": "-90.04052223564028",
    "latitude": "29.97054752518818",
    "geocoded_column": {
      "latitude": "29.97054752518818",
      "longitude": "-90.04052223564028"
    }
  },
  {
    "service_request": "2023-1052653",
    "request_type": "Trash/Recycling",
    "request_reason": "Request a Large Item Pick Up",
    "date_created": "2023-11-29T14:17:52.000",
    "date_modified": "2023-11-29T14:17:53.000",
    "request_status": "Pending",
    "responsible_agency": "Department of Sanitation",
    "final_address": "8118 Sycamore St",
    "address_councildis": "A",
    "status": "Assigned to Contractor",
    "contractor": "Richards Disposal",
    "rowid": "1052653",
    "final_x": "3664206.99546",
    "final_y": "531030.207234",
    "longitude": "-90.12269198851192",
    "latitude": "29.95466263923019",
    "geocoded_column": {
      "latitude": "29.95466263923019",
      "longitude": "-90.12269198851192"
    }
  },
  {
    "service_request": "2023-1052652",
    "request_type": "Trash/Recycling",
    "request_reason": "Missed Trash Pick-Up",
    "date_created": "2023-11-29T14:15:19.000",
    "date_modified": "2023-11-29T14:15:20.000",
    "request_status": "Pending",
    "responsible_agency": "Department of Sanitation",
    "final_address": "324 Socrates St",
    "address_councildis": "C",
    "status": "Assigned to Contractor",
    "contractor": "Richards Disposal",
    "rowid": "1052652",
    "final_x": "3686485.49833",
    "final_y": "526422.428158",
    "longitude": "-90.05250787272448",
    "latitude": "29.94132678297143",
    "geocoded_column": {
      "latitude": "29.94132678297143",
      "longitude": "-90.05250787272448"
    }
  },
  {
    "service_request": "2023-1052651",
    "request_type": "Trash/Recycling",
    "request_reason": "Illegal Dumping",
    "date_created": "2023-11-29T14:14:24.000",
    "date_modified": "2023-11-29T14:14:25.000",
    "request_status": "Pending",
    "responsible_agency": "Department of Code Enforcement",
    "final_address": "1477 Louisiana Ave",
    "address_councildis": "B",
    "status": "Pending",
    "rowid": "1052651",
    "final_x": "3674520.15969",
    "final_y": "520987.251193",
    "longitude": "-90.0904709233468",
    "latitude": "29.92674415663005",
    "geocoded_column": {
      "latitude": "29.92674415663005",
      "longitude": "-90.0904709233468"
    }
  },
  {
    "service_request": "2023-1052650",
    "request_type": "Trash/Recycling",
    "request_reason": "Missed Trash Pick-Up",
    "date_created": "2023-11-29T14:05:47.000",
    "date_modified": "2023-11-29T14:05:47.000",
    "request_status": "Pending",
    "responsible_agency": "Department of Sanitation",
    "final_address": "5251 E Idlewood Ct",
    "address_councildis": "E",
    "status": "Assigned to Contractor",
    "contractor": "Waste Pro",
    "rowid": "1052650",
    "final_x": "3716694.25432",
    "final_y": "560019.037469",
    "longitude": "-89.95585904568335",
    "latitude": "30.032741548927557",
    "geocoded_column": {
      "latitude": "30.032741548927557",
      "longitude": "-89.95585904568335"
    }
  },
  {
    "service_request": "2023-1052649",
    "request_type": "Trash/Recycling",
    "request_reason": "Repair Trash Cart",
    "date_created": "2023-11-29T14:03:57.000",
    "date_modified": "2023-11-29T14:03:58.000",
    "request_status": "Pending",
    "responsible_agency": "Department of Sanitation",
    "final_address": "1620 Bordeaux St",
    "address_councildis": "B",
    "status": "Assigned to Contractor",
    "contractor": "Richards Disposal",
    "rowid": "1052649",
    "final_x": "3669322.72103",
    "final_y": "520936.318457",
    "longitude": "-90.10687960555161",
    "latitude": "29.92675809822399",
    "geocoded_column": {
      "latitude": "29.92675809822399",
      "longitude": "-90.10687960555161"
    }
  },
  {
    "service_request": "2023-1052648",
    "request_type": "Trash/Recycling",
    "request_reason": "Request a Large Item Pick Up",
    "date_created": "2023-11-29T14:03:17.000",
    "date_modified": "2023-11-29T14:03:18.000",
    "request_status": "Pending",
    "responsible_agency": "Department of Sanitation",
    "final_address": "255 Belleville St",
    "address_councildis": "C",
    "status": "Assigned to Contractor",
    "contractor": "Richards Disposal",
    "rowid": "1052648",
    "final_x": "3687856.53724",
    "final_y": "530994.247682",
    "longitude": "-90.0480173410112",
    "latitude": "29.95385551437567",
    "geocoded_column": {
      "latitude": "29.95385551437567",
      "longitude": "-90.0480173410112"
    }
  },
  {
    "service_request": "2023-1052647",
    "request_type": "Trash/Recycling",
    "request_reason": "Request a Large Item Pick Up",
    "date_created": "2023-11-29T14:01:04.000",
    "date_modified": "2023-11-29T14:01:05.000",
    "request_status": "Pending",
    "responsible_agency": "Department of Sanitation",
    "final_address": "7935 Zimple St",
    "address_councildis": "A",
    "status": "Assigned to Contractor",
    "contractor": "Richards Disposal",
    "rowid": "1052647",
    "final_x": "3662129.20064",
    "final_y": "527806.250047",
    "longitude": "-90.12935985982456",
    "latitude": "29.94585799267754",
    "geocoded_column": {
      "latitude": "29.94585799267754",
      "longitude": "-90.12935985982456"
    }
  },
  {
    "service_request": "2023-1052646",
    "request_type": "Trash/Recycling",
    "request_reason": "Request a Large Item Pick Up",
    "date_created": "2023-11-29T13:57:26.000",
    "date_modified": "2023-11-29T13:57:27.000",
    "request_status": "Pending",
    "responsible_agency": "Department of Sanitation",
    "final_address": "1129 Baronne St",
    "address_councildis": "B",
    "status": "Assigned to Contractor",
    "contractor": "Richards Disposal",
    "rowid": "1052646",
    "final_x": "3678970.82171",
    "final_y": "526984.548478",
    "longitude": "-90.07621367801762",
    "latitude": "29.943101258387365",
    "geocoded_column": {
      "latitude": "29.943101258387365",
      "longitude": "-90.07621367801762"
    }
  },
  {
    "service_request": "2023-1052645",
    "request_type": "Trash/Recycling",
    "request_reason": "Missed Trash Pick-Up",
    "date_created": "2023-11-29T13:57:19.000",
    "date_modified": "2023-11-29T13:57:20.000",
    "request_status": "Pending",
    "responsible_agency": "Department of Sanitation",
    "final_address": "7700 Tricia Ct",
    "address_councildis": "E",
    "status": "Assigned to Contractor",
    "contractor": "Waste Pro",
    "rowid": "1052645",
    "final_x": "3717416.82181",
    "final_y": "571313.218472",
    "longitude": "-89.9531457997029",
    "latitude": "30.063772015019794",
    "geocoded_column": {
      "latitude": "30.063772015019794",
      "longitude": "-89.9531457997029"
    }
  },
  {
    "service_request": "2023-1052644",
    "request_type": "Trash/Recycling",
    "request_reason": "Request a Large Item Pick Up",
    "date_created": "2023-11-29T13:52:54.000",
    "date_modified": "2023-11-29T13:52:55.000",
    "request_status": "Pending",
    "responsible_agency": "Department of Sanitation",
    "final_address": "6448 Center St",
    "address_councildis": "A",
    "status": "Assigned to Contractor",
    "contractor": "IV Waste",
    "rowid": "1052644",
    "final_x": "3664827.14061",
    "final_y": "551068.989333",
    "longitude": "-90.12006381815299",
    "latitude": "30.009744525102423",
    "geocoded_column": {
      "latitude": "30.009744525102423",
      "longitude": "-90.12006381815299"
    }
  },
  {
    "service_request": "2023-1052643",
    "request_type": "Abandoned Vehicles",
    "request_reason": "Abandoned/Junk Vehicles",
    "date_created": "2023-11-29T13:52:43.000",
    "date_modified": "2023-11-29T13:52:43.000",
    "request_status": "Pending",
    "responsible_agency": "Department of Public Works",
    "final_address": "724 Port St",
    "address_councildis": "C",
    "status": "Pending",
    "rowid": "1052643",
    "final_x": "3687066.35356",
    "final_y": "535113.656646",
    "longitude": "-90.05036676931375",
    "latitude": "29.96520681489899",
    "geocoded_column": {
      "latitude": "29.96520681489899",
      "longitude": "-90.05036676931375"
    }
  },
  {
    "service_request": "2023-1052642",
    "request_type": "Abandoned Vehicles",
    "request_reason": "Abandoned/Junk Vehicles",
    "date_created": "2023-11-29T13:49:18.000",
    "date_modified": "2023-11-29T13:49:18.000",
    "request_status": "Pending",
    "responsible_agency": "Department of Public Works",
    "final_address": "724 Port St",
    "address_councildis": "C",
    "status": "Pending",
    "rowid": "1052642",
    "final_x": "3687066.35356",
    "final_y": "535113.656646",
    "longitude": "-90.05036676931375",
    "latitude": "29.96520681489899",
    "geocoded_column": {
      "latitude": "29.96520681489899",
      "longitude": "-90.05036676931375"
    }
  },
  {
    "service_request": "2023-1052641",
    "request_type": "Trash/Recycling",
    "request_reason": "Request a Large Item Pick Up",
    "date_created": "2023-11-29T13:45:25.000",
    "date_modified": "2023-11-29T13:45:26.000",
    "request_status": "Pending",
    "responsible_agency": "Department of Sanitation",
    "final_address": "4657 Chantilly Dr",
    "address_councildis": "E",
    "status": "Assigned to Contractor",
    "contractor": "Waste Pro",
    "rowid": "1052641",
    "final_x": "3701002.63217",
    "final_y": "553779.226711",
    "longitude": "-90.00567405799599",
    "latitude": "30.016093812742938",
    "geocoded_column": {
      "latitude": "30.016093812742938",
      "longitude": "-90.00567405799599"
    }
  },
  {
    "service_request": "2023-1052640",
    "request_type": "Trash/Recycling",
    "request_reason": "Request a Large Item Pick Up",
    "date_created": "2023-11-29T13:44:44.000",
    "date_modified": "2023-11-29T13:44:45.000",
    "request_status": "Pending",
    "responsible_agency": "Department of Sanitation",
    "final_address": "1536 St Mary St",
    "address_councildis": "B",
    "status": "Assigned to Contractor",
    "contractor": "Richards Disposal",
    "rowid": "1052640",
    "final_x": "3678476.76475",
    "final_y": "524095.140732",
    "longitude": "-90.07787349169797",
    "latitude": "29.93517123676265",
    "geocoded_column": {
      "latitude": "29.93517123676265",
      "longitude": "-90.07787349169797"
    }
  },
  {
    "service_request": "2023-1052639",
    "request_type": "Property Maintenance",
    "request_reason": "Property Maintenance",
    "date_created": "2023-11-29T13:42:05.000",
    "date_modified": "2023-11-29T13:42:05.000",
    "request_status": "Pending",
    "responsible_agency": "Department of Code Enforcement",
    "final_address": "6119 Marigny St",
    "address_councildis": "D",
    "status": "Pending",
    "rowid": "1052639",
    "final_x": "3683976.6102",
    "final_y": "555526.977497",
    "longitude": "-90.05940729928459",
    "latitude": "30.021430934880307",
    "geocoded_column": {
      "latitude": "30.021430934880307",
      "longitude": "-90.05940729928459"
    }
  },
  {
    "service_request": "2023-1052638",
    "request_type": "Trash/Recycling",
    "request_reason": "Request a Large Item Pick Up",
    "date_created": "2023-11-29T13:36:46.000",
    "date_modified": "2023-11-29T13:37:41.000",
    "request_status": "Pending",
    "responsible_agency": "Department of Sanitation",
    "final_address": "7040 E Renaissance Ct",
    "address_councildis": "E",
    "status": "Assigned to Contractor",
    "contractor": "Waste Pro",
    "rowid": "1052638",
    "final_x": "3717428.9182",
    "final_y": "567408.516196",
    "longitude": "-89.95325622446245",
    "latitude": "30.053035301464238",
    "geocoded_column": {
      "latitude": "30.053035301464238",
      "longitude": "-89.95325622446245"
    }
  },
  {
    "service_request": "2023-1052637",
    "request_type": "Trash/Recycling",
    "request_reason": "Request a Large Item Pick Up",
    "date_created": "2023-11-29T13:35:53.000",
    "date_modified": "2023-11-29T13:35:54.000",
    "request_status": "Pending",
    "responsible_agency": "Department of Sanitation",
    "final_address": "7731 Sandpiper Dr",
    "address_councildis": "E",
    "status": "Assigned to Contractor",
    "contractor": "Waste Pro",
    "rowid": "1052637",
    "final_x": "3715693.22124",
    "final_y": "570100.430503",
    "longitude": "-89.95864015187043",
    "latitude": "30.060494323178062",
    "geocoded_column": {
      "latitude": "30.060494323178062",
      "longitude": "-89.95864015187043"
    }
  },
  {
    "service_request": "2023-1052636",
    "request_type": "Traffic Signals/Signs/Striping/Streetlights",
    "request_reason": "Street Light Outage/Malfunction",
    "date_created": "2023-11-29T13:34:32.000",
    "date_modified": "2023-11-29T13:34:33.000",
    "request_status": "Pending",
    "responsible_agency": "Department of Public Works",
    "final_address": "7117 Edinburgh St",
    "address_councildis": "B",
    "status": "Assigned to Contractor",
    "contractor": "Legacy Professional Services",
    "rowid": "1052636",
    "final_x": "3668870.07994",
    "final_y": "533217.783684",
    "longitude": "-90.1078938506277",
    "latitude": "29.960541459440126",
    "geocoded_column": {
      "latitude": "29.960541459440126",
      "longitude": "-90.1078938506277"
    }
  },
  {
    "service_request": "2023-1052635",
    "request_type": "Trash/Recycling",
    "request_reason": "Illegal Dumping",
    "date_created": "2023-11-29T13:34:16.000",
    "date_modified": "2023-11-29T13:34:55.000",
    "case_close_date": "2023-11-29T07:34:55.000",
    "request_status": "Closed",
    "responsible_agency": "Department of Sanitation",
    "final_address": "3000 BLK Louisiana Avenue Pkwy",
    "address_councildis": "B",
    "status": "Resolved",
    "rowid": "1052635",
    "final_x": "3672087.2844",
    "final_y": "526556.865965",
    "longitude": "-90.09796131549793",
    "latitude": "29.942131132115904",
    "geocoded_column": {
      "latitude": "29.942131132115904",
      "longitude": "-90.09796131549793"
    }
  },
  {
    "service_request": "2023-1052634",
    "request_type": "Trash/Recycling",
    "request_reason": "Order Trash Cart",
    "date_created": "2023-11-29T13:33:35.000",
    "date_modified": "2023-11-29T13:33:36.000",
    "request_status": "Pending",
    "responsible_agency": "Department of Sanitation",
    "final_address": "11230 Woodvine Ln",
    "address_councildis": "E",
    "status": "Assigned to Contractor",
    "contractor": "Waste Pro",
    "rowid": "1052634",
    "final_x": "3716484.60376",
    "final_y": "559750.376989",
    "longitude": "-89.95653175276698",
    "latitude": "30.032009768761345",
    "geocoded_column": {
      "latitude": "30.032009768761345",
      "longitude": "-89.95653175276698"
    }
  },
  {
    "service_request": "2023-1052633",
    "request_type": "Trash/Recycling",
    "request_reason": "Request a Large Item Pick Up",
    "date_created": "2023-11-29T13:29:40.000",
    "date_modified": "2023-11-29T13:29:41.000",
    "request_status": "Pending",
    "responsible_agency": "Department of Sanitation",
    "final_address": "6450 Center St",
    "address_councildis": "A",
    "status": "Assigned to Contractor",
    "contractor": "IV Waste",
    "rowid": "1052633",
    "final_x": "3664838.5698",
    "final_y": "551081.924885",
    "longitude": "-90.1200272763599",
    "latitude": "30.00977976061555",
    "geocoded_column": {
      "latitude": "30.00977976061555",
      "longitude": "-90.1200272763599"
    }
  },
  {
    "service_request": "2023-1052632",
    "request_type": "Trash/Recycling",
    "request_reason": "Illegal Dumping",
    "date_created": "2023-11-29T13:29:15.000",
    "date_modified": "2023-11-29T13:29:46.000",
    "case_close_date": "2023-11-29T07:29:46.000",
    "request_status": "Closed",
    "responsible_agency": "Department of Sanitation",
    "final_address": "TOLEDANO ST & S CLAIBORNE AVE",
    "address_councildis": "B",
    "status": "Resolved",
    "rowid": "1052632",
    "final_x": "3672631.4",
    "final_y": "526283.48",
    "longitude": "-90.09625273972583",
    "latitude": "29.94136326836494",
    "geocoded_column": {
      "latitude": "29.94136326836494",
      "longitude": "-90.09625273972583"
    }
  },
  {
    "service_request": "2023-1052631",
    "request_type": "Trash/Recycling",
    "request_reason": "Illegal Dumping",
    "date_created": "2023-11-29T13:27:58.000",
    "date_modified": "2023-11-29T13:28:27.000",
    "case_close_date": "2023-11-29T07:28:27.000",
    "request_status": "Closed",
    "responsible_agency": "Department of Sanitation",
    "final_address": "ORLEANS AVE & N BROAD ST",
    "address_councildis": "A",
    "status": "Resolved",
    "rowid": "1052631",
    "final_x": "3676712.7",
    "final_y": "537012.78",
    "longitude": "-90.08299764280888",
    "latitude": "29.970743456412134",
    "geocoded_column": {
      "latitude": "29.970743456412134",
      "longitude": "-90.08299764280888"
    }
  },
  {
    "service_request": "2023-1052630",
    "request_type": "Trash/Recycling",
    "request_reason": "Missed Trash Pick-Up",
    "date_created": "2023-11-29T13:27:14.000",
    "date_modified": "2023-11-29T13:27:14.000",
    "request_status": "Pending",
    "responsible_agency": "Department of Sanitation",
    "final_address": "1700 BLK Bordeaux St",
    "address_councildis": "B",
    "status": "Assigned to Contractor",
    "contractor": "Richards Disposal",
    "rowid": "1052630",
    "final_x": "3669326.73054",
    "final_y": "521272.434605",
    "longitude": "-90.10685559159015",
    "latitude": "29.9276821925539",
    "geocoded_column": {
      "latitude": "29.9276821925539",
      "longitude": "-90.10685559159015"
    }
  },
  {
    "service_request": "2023-1052629",
    "request_type": "Trash/Recycling",
    "request_reason": "Illegal Dumping",
    "date_created": "2023-11-29T13:26:18.000",
    "date_modified": "2023-11-29T13:26:51.000",
    "case_close_date": "2023-11-29T07:26:51.000",
    "request_status": "Closed",
    "responsible_agency": "Department of Sanitation",
    "final_address": "3762 Clermont Dr",
    "address_councildis": "D",
    "status": "Resolved",
    "rowid": "1052629",
    "final_x": "3685343.82409",
    "final_y": "546489.872465",
    "longitude": "-90.055405748185",
    "latitude": "29.996540319292716",
    "geocoded_column": {
      "latitude": "29.996540319292716",
      "longitude": "-90.055405748185"
    }
  },
  {
    "service_request": "2023-1052628",
    "request_type": "Trash/Recycling",
    "request_reason": "Request a Large Item Pick Up",
    "date_created": "2023-11-29T13:25:10.000",
    "date_modified": "2023-11-29T13:25:11.000",
    "request_status": "Pending",
    "responsible_agency": "Department of Sanitation",
    "final_address": "6454 Center St",
    "address_councildis": "A",
    "status": "Assigned to Contractor",
    "contractor": "IV Waste",
    "rowid": "1052628",
    "final_x": "3664829.63776",
    "final_y": "551118.504085",
    "longitude": "-90.1200542723098",
    "latitude": "30.009880600762173",
    "geocoded_column": {
      "latitude": "30.009880600762173",
      "longitude": "-90.1200542723098"
    }
  },
  {
    "service_request": "2023-1052627",
    "request_type": "Trash/Recycling",
    "request_reason": "Request a Large Item Pick Up",
    "date_created": "2023-11-29T13:25:02.000",
    "date_modified": "2023-11-29T13:25:02.000",
    "request_status": "Pending",
    "responsible_agency": "Department of Sanitation",
    "final_address": "7300 Willowbrae Dr",
    "address_councildis": "E",
    "status": "Assigned to Contractor",
    "contractor": "Waste Pro",
    "rowid": "1052627",
    "final_x": "3710958.70193",
    "final_y": "563579.784928",
    "longitude": "-89.97385020051816",
    "latitude": "30.042720522606157",
    "geocoded_column": {
      "latitude": "30.042720522606157",
      "longitude": "-89.97385020051816"
    }
  },
  {
    "service_request": "2023-1052626",
    "request_type": "Trash/Recycling",
    "request_reason": "Request a Large Item Pick Up",
    "date_created": "2023-11-29T13:24:43.000",
    "date_modified": "2023-11-29T13:24:44.000",
    "request_status": "Pending",
    "responsible_agency": "Department of Sanitation",
    "final_address": "10000 Hayne Blvd",
    "address_councildis": "E",
    "status": "Assigned to Contractor",
    "contractor": "Waste Pro",
    "rowid": "1052626",
    "final_x": "3707598.22936",
    "final_y": "565713.58813",
    "longitude": "-89.98439116098561",
    "latitude": "30.048696828541004",
    "geocoded_column": {
      "latitude": "30.048696828541004",
      "longitude": "-89.98439116098561"
    }
  },
  {
    "service_request": "2023-1052625",
    "request_type": "Trash/Recycling",
    "request_reason": "Illegal Dumping",
    "date_created": "2023-11-29T13:22:30.000",
    "date_modified": "2023-11-29T13:22:58.000",
    "case_close_date": "2023-11-29T07:22:58.000",
    "request_status": "Closed",
    "responsible_agency": "Department of Sanitation",
    "final_address": "10880 Morrison Rd",
    "address_councildis": "E",
    "status": "Resolved",
    "rowid": "1052625",
    "final_x": "3710874.24664",
    "final_y": "564678.834402",
    "longitude": "-89.97407590688428",
    "latitude": "30.045745221820557",
    "geocoded_column": {
      "latitude": "30.045745221820557",
      "longitude": "-89.97407590688428"
    }
  },
  {
    "service_request": "2023-1052624",
    "request_type": "Trash/Recycling",
    "request_reason": "Illegal Dumping",
    "date_created": "2023-11-29T13:21:33.000",
    "date_modified": "2023-11-29T13:21:59.000",
    "case_close_date": "2023-11-29T07:21:59.000",
    "request_status": "Closed",
    "responsible_agency": "Department of Sanitation",
    "final_address": "4117 N Johnson St",
    "address_councildis": "D",
    "status": "Resolved",
    "rowid": "1052624",
    "final_x": "3693143.10845",
    "final_y": "538675.509769",
    "longitude": "-90.03104894214016",
    "latitude": "29.974812162841307",
    "geocoded_column": {
      "latitude": "29.974812162841307",
      "longitude": "-90.03104894214016"
    }
  },
  {
    "service_request": "2023-1052623",
    "request_type": "Trash/Recycling",
    "request_reason": "MIssed Recycling Pick-Up",
    "date_created": "2023-11-29T13:20:59.000",
    "date_modified": "2023-11-29T13:20:59.000",
    "request_status": "Pending",
    "responsible_agency": "Department of Sanitation",
    "final_address": "320 N Dorgenois St",
    "address_councildis": "B",
    "status": "Assigned to Contractor",
    "contractor": "Richards Disposal",
    "rowid": "1052623",
    "final_x": "3676423.15093",
    "final_y": "535540.140806",
    "longitude": "-90.08396278487012",
    "latitude": "29.966702883824333",
    "geocoded_column": {
      "latitude": "29.966702883824333",
      "longitude": "-90.08396278487012"
    }
  },
  {
    "service_request": "2023-1052622",
    "request_type": "Trash/Recycling",
    "request_reason": "Illegal Dumping",
    "date_created": "2023-11-29T13:20:36.000",
    "date_modified": "2023-11-29T13:21:07.000",
    "case_close_date": "2023-11-29T07:21:07.000",
    "request_status": "Closed",
    "responsible_agency": "Department of Sanitation",
    "final_address": "N JOHNSON ST & FRANCE ST",
    "address_councildis": "D",
    "status": "Resolved",
    "rowid": "1052622",
    "final_x": "3693232.8",
    "final_y": "538546.68",
    "longitude": "-90.03077030018487",
    "latitude": "29.974455123683097",
    "geocoded_column": {
      "latitude": "29.974455123683097",
      "longitude": "-90.03077030018487"
    }
  },
  {
    "service_request": "2023-1052621",
    "request_type": "Trash/Recycling",
    "request_reason": "Repair Trash Cart",
    "date_created": "2023-11-29T13:18:28.000",
    "date_modified": "2023-11-29T13:18:29.000",
    "request_status": "Pending",
    "responsible_agency": "Department of Sanitation",
    "final_address": "4731 Lennox Blvd",
    "address_councildis": "C",
    "status": "Assigned to Contractor",
    "contractor": "Richards Disposal",
    "rowid": "1052621",
    "final_x": "3700653.26525",
    "final_y": "513232.028466",
    "longitude": "-90.00825939812731",
    "latitude": "29.904614651459603",
    "geocoded_column": {
      "latitude": "29.904614651459603",
      "longitude": "-90.00825939812731"
    }
  },
  {
    "service_request": "2023-1052620",
    "request_type": "Abandoned Vehicles",
    "request_reason": "Abandoned/Junk Vehicles",
    "date_created": "2023-11-29T13:18:04.000",
    "date_modified": "2023-11-29T13:18:04.000",
    "request_status": "Pending",
    "responsible_agency": "Department of Public Works",
    "final_address": "6374 Orleans Ave",
    "address_councildis": "A",
    "status": "Pending",
    "rowid": "1052620",
    "final_x": "3671078.40833",
    "final_y": "549686.911892",
    "longitude": "-90.10036076648055",
    "latitude": "30.005760814082684",
    "geocoded_column": {
      "latitude": "30.005760814082684",
      "longitude": "-90.10036076648055"
    }
  },
  {
    "service_request": "2023-1052619",
    "request_type": "Abandoned Vehicles",
    "request_reason": "Abandoned/Junk Vehicles",
    "date_created": "2023-11-29T13:17:30.000",
    "date_modified": "2023-11-29T13:17:30.000",
    "request_status": "Pending",
    "responsible_agency": "Department of Public Works",
    "final_address": "3031 Dumaine St",
    "address_councildis": "A",
    "status": "Pending",
    "rowid": "1052619",
    "final_x": "3675978.26331",
    "final_y": "538463.028617",
    "longitude": "-90.08526719931308",
    "latitude": "29.974753160934092",
    "geocoded_column": {
      "latitude": "29.974753160934092",
      "longitude": "-90.08526719931308"
    }
  },
  {
    "service_request": "2023-1052618",
    "request_type": "Trash/Recycling",
    "request_reason": "Illegal Dumping",
    "date_created": "2023-11-29T13:15:42.000",
    "date_modified": "2023-11-29T13:16:17.000",
    "case_close_date": "2023-11-29T07:16:17.000",
    "request_status": "Closed",
    "responsible_agency": "Department of Sanitation",
    "final_address": "3236 Toledano St",
    "address_councildis": "B",
    "status": "Resolved",
    "rowid": "1052618",
    "final_x": "3672006.24417",
    "final_y": "527609.916799",
    "longitude": "-90.0981813391061",
    "latitude": "29.945029080052915",
    "geocoded_column": {
      "latitude": "29.945029080052915",
      "longitude": "-90.0981813391061"
    }
  },
  {
    "service_request": "2023-1052617",
    "request_type": "Abandoned Vehicles",
    "request_reason": "Abandoned/Junk Vehicles",
    "date_created": "2023-11-29T13:15:35.000",
    "date_modified": "2023-11-29T13:15:35.000",
    "request_status": "Pending",
    "responsible_agency": "Department of Public Works",
    "final_address": "900 BLK Constance St",
    "address_councildis": "B",
    "status": "Pending",
    "rowid": "1052617",
    "final_x": "3681275.33951",
    "final_y": "527009.719062",
    "longitude": "-90.06893687195797",
    "latitude": "29.943100747432133",
    "geocoded_column": {
      "latitude": "29.943100747432133",
      "longitude": "-90.06893687195797"
    }
  },
  {
    "service_request": "2023-1052616",
    "request_type": "Trash/Recycling",
    "request_reason": "Illegal Dumping",
    "date_created": "2023-11-29T13:14:22.000",
    "date_modified": "2023-11-29T13:14:57.000",
    "case_close_date": "2023-11-29T07:14:57.000",
    "request_status": "Closed",
    "responsible_agency": "Department of Sanitation",
    "final_address": "5200 BLK S Claiborne Ave",
    "address_councildis": "B",
    "status": "Resolved",
    "rowid": "1052616",
    "final_x": "3668506.65737",
    "final_y": "526152.920579",
    "longitude": "-90.10927979244602",
    "latitude": "29.941126075533422",
    "geocoded_column": {
      "latitude": "29.941126075533422",
      "longitude": "-90.10927979244602"
    }
  },
  {
    "service_request": "2023-1052615",
    "request_type": "Trash/Recycling",
    "request_reason": "Illegal Dumping",
    "date_created": "2023-11-29T13:12:53.000",
    "date_modified": "2023-11-29T13:13:32.000",
    "case_close_date": "2023-11-29T07:13:32.000",
    "request_status": "Closed",
    "responsible_agency": "Department of Sanitation",
    "final_address": "3100 Toledano St",
    "address_councildis": "B",
    "status": "Resolved",
    "rowid": "1052615",
    "final_x": "3672239.27495",
    "final_y": "527068.907326",
    "longitude": "-90.09746401088009",
    "latitude": "29.943534571943907",
    "geocoded_column": {
      "latitude": "29.943534571943907",
      "longitude": "-90.09746401088009"
    }
  },
  {
    "service_request": "2023-1052614",
    "request_type": "Trash/Recycling",
    "request_reason": "Illegal Dumping",
    "date_created": "2023-11-29T13:11:33.000",
    "date_modified": "2023-11-29T13:12:21.000",
    "case_close_date": "2023-11-29T07:12:21.000",
    "request_status": "Closed",
    "responsible_agency": "Department of Sanitation",
    "final_address": "1000 Ursulines Ave",
    "address_councildis": "C",
    "status": "Resolved",
    "rowid": "1052614",
    "final_x": "3682542.35861",
    "final_y": "534285.441477",
    "longitude": "-90.06468224992096",
    "latitude": "29.963068013052947",
    "geocoded_column": {
      "latitude": "29.963068013052947",
      "longitude": "-90.06468224992096"
    }
  },
  {
    "service_request": "2023-1052613",
    "request_type": "Abandoned Vehicles",
    "request_reason": "Abandoned/Junk Vehicles",
    "date_created": "2023-11-29T13:11:15.000",
    "date_modified": "2023-11-29T13:11:15.000",
    "request_status": "Pending",
    "responsible_agency": "Department of Public Works",
    "final_address": "900 BLK Constance St",
    "address_councildis": "B",
    "status": "Pending",
    "rowid": "1052613",
    "final_x": "3681275.33951",
    "final_y": "527009.719062",
    "longitude": "-90.06893687195797",
    "latitude": "29.943100747432133",
    "geocoded_column": {
      "latitude": "29.943100747432133",
      "longitude": "-90.06893687195797"
    }
  },
  {
    "service_request": "2023-1052612",
    "request_type": "Trash/Recycling",
    "request_reason": "Illegal Dumping",
    "date_created": "2023-11-29T13:10:06.000",
    "date_modified": "2023-11-29T13:10:47.000",
    "case_close_date": "2023-11-29T07:10:47.000",
    "request_status": "Closed",
    "responsible_agency": "Department of Sanitation",
    "final_address": "N CLAIBORNE AVE & CONTI ST",
    "address_councildis": "B",
    "status": "Resolved",
    "rowid": "1052612",
    "final_x": "3679045.8",
    "final_y": "533763.38",
    "longitude": "-90.07574205521765",
    "latitude": "29.961738506173695",
    "geocoded_column": {
      "latitude": "29.961738506173695",
      "longitude": "-90.07574205521765"
    }
  },
  {
    "service_request": "2023-1052611",
    "request_type": "Trash/Recycling",
    "request_reason": "Request a Large Item Pick Up",
    "date_created": "2023-11-29T13:08:45.000",
    "date_modified": "2023-11-29T13:08:46.000",
    "request_status": "Pending",
    "responsible_agency": "Department of Sanitation",
    "final_address": "5434 Tullis Dr",
    "address_councildis": "C",
    "status": "Assigned to Contractor",
    "contractor": "Richards Disposal",
    "rowid": "1052611",
    "final_x": "3704119.63831",
    "final_y": "512006.375536",
    "longitude": "-89.99736460323194",
    "latitude": "29.901133843928914",
    "geocoded_column": {
      "latitude": "29.901133843928914",
      "longitude": "-89.99736460323194"
    }
  },
  {
    "service_request": "2023-1052610",
    "request_type": "Trash/Recycling",
    "request_reason": "Illegal Dumping",
    "date_created": "2023-11-29T13:08:42.000",
    "date_modified": "2023-11-29T13:09:18.000",
    "case_close_date": "2023-11-29T07:09:18.000",
    "request_status": "Closed",
    "responsible_agency": "Department of Sanitation",
    "final_address": "2100 BLK N Broad St",
    "address_councildis": "D",
    "status": "Resolved",
    "rowid": "1052610",
    "final_x": "3681349.41614",
    "final_y": "543049.192561",
    "longitude": "-90.06814384158831",
    "latitude": "29.987201554006308",
    "geocoded_column": {
      "latitude": "29.987201554006308",
      "longitude": "-90.06814384158831"
    }
  },
  {
    "service_request": "2023-1052609",
    "request_type": "Trash/Recycling",
    "request_reason": "Request a Large Item Pick Up",
    "date_created": "2023-11-29T13:08:33.000",
    "date_modified": "2023-11-29T13:08:34.000",
    "request_status": "Pending",
    "responsible_agency": "Department of Sanitation",
    "final_address": "9 Marywood Ct",
    "address_councildis": "E",
    "status": "Assigned to Contractor",
    "contractor": "Waste Pro",
    "rowid": "1052609",
    "final_x": "3712768.65726",
    "final_y": "566478.124195",
    "longitude": "-89.96802093085478",
    "latitude": "30.05063061237584",
    "geocoded_column": {
      "latitude": "30.05063061237584",
      "longitude": "-89.96802093085478"
    }
  },
  {
    "service_request": "2023-1052608",
    "request_type": "Trash/Recycling",
    "request_reason": "Illegal Dumping",
    "date_created": "2023-11-29T13:07:28.000",
    "date_modified": "2023-11-29T13:07:56.000",
    "case_close_date": "2023-11-29T07:07:56.000",
    "request_status": "Closed",
    "responsible_agency": "Department of Sanitation",
    "final_address": "2200 St Roch Ave",
    "address_councildis": "D",
    "status": "Resolved",
    "rowid": "1052608",
    "final_x": "3686086.38159",
    "final_y": "540512.156171",
    "longitude": "-90.05327101091459",
    "latitude": "29.98008093516954",
    "geocoded_column": {
      "latitude": "29.98008093516954",
      "longitude": "-90.05327101091459"
    }
  },
  {
    "service_request": "2023-1052607",
    "request_type": "Trash/Recycling",
    "request_reason": "Illegal Dumping",
    "date_created": "2023-11-29T13:07:03.000",
    "date_modified": "2023-11-29T13:07:03.000",
    "request_status": "Pending",
    "responsible_agency": "Department of Code Enforcement",
    "final_address": "2200 St Roch Ave",
    "address_councildis": "D",
    "status": "Pending",
    "rowid": "1052607",
    "final_x": "3686086.38159",
    "final_y": "540512.156171",
    "longitude": "-90.05327101091459",
    "latitude": "29.98008093516954",
    "geocoded_column": {
      "latitude": "29.98008093516954",
      "longitude": "-90.05327101091459"
    }
  },
  {
    "service_request": "2023-1052606",
    "request_type": "Abandoned Vehicles",
    "request_reason": "Abandoned/Junk Vehicles",
    "date_created": "2023-11-29T13:06:00.000",
    "date_modified": "2023-11-29T13:06:00.000",
    "request_status": "Pending",
    "responsible_agency": "Department of Public Works",
    "final_address": "400 BLK Saint Joseph St",
    "address_councildis": "B",
    "status": "Pending",
    "rowid": "1052606",
    "final_x": "3681182.80098",
    "final_y": "527236.130683",
    "longitude": "-90.06922115263174",
    "latitude": "29.94372611115971",
    "geocoded_column": {
      "latitude": "29.94372611115971",
      "longitude": "-90.06922115263174"
    }
  },
  {
    "service_request": "2023-1052604",
    "request_type": "Roads/Drainage",
    "request_reason": "Road Shoulder Repair",
    "date_created": "2023-11-29T13:04:37.000",
    "date_modified": "2023-11-29T13:04:37.000",
    "request_status": "Pending",
    "responsible_agency": "Department of Public Works",
    "final_address": "CLAIBORNE BRIDGE & JOURDAN AVE",
    "address_councildis": "E",
    "status": "Pending",
    "rowid": "1052604",
    "final_x": "3695570.19",
    "final_y": "536338.21",
    "longitude": "-90.02346803209659",
    "latitude": "29.968309352500377",
    "geocoded_column": {
      "latitude": "29.968309352500377",
      "longitude": "-90.02346803209659"
    }
  },
  {
    "service_request": "2023-1052603",
    "request_type": "Roads/Drainage",
    "request_reason": "Accessibility Ramps, Curbs and Sidewalk Repair",
    "date_created": "2023-11-29T13:03:42.000",
    "date_modified": "2023-11-29T13:03:43.000",
    "request_status": "Pending",
    "responsible_agency": "Department of Public Works",
    "final_address": "EUPHROSINE ST & S TELEMACHUS ST",
    "address_councildis": "B",
    "status": "Pending",
    "rowid": "1052603",
    "final_x": "3669617.5",
    "final_y": "533652.98",
    "longitude": "-90.10551891533099",
    "latitude": "29.961716104688463",
    "geocoded_column": {
      "latitude": "29.961716104688463",
      "longitude": "-90.10551891533099"
    }
  },
  {
    "service_request": "2023-1052602",
    "request_type": "Roads/Drainage",
    "request_reason": "Pothole",
    "date_created": "2023-11-29T13:02:55.000",
    "date_modified": "2023-11-29T13:02:55.000",
    "request_status": "Pending",
    "responsible_agency": "Department of Public Works",
    "final_address": "400 BLK Saint Joseph St",
    "address_councildis": "B",
    "status": "Pending",
    "rowid": "1052602",
    "final_x": "3681182.80098",
    "final_y": "527236.130683",
    "longitude": "-90.06922115263174",
    "latitude": "29.94372611115971",
    "geocoded_column": {
      "latitude": "29.94372611115971",
      "longitude": "-90.06922115263174"
    }
  },