[
  {
    "service_request": "2022-885111",
    "request_type": "Roads/Drainage",
    "request_reason": "Street Subsidence (Sinking)",
    "date_created": "2022-05-22T00:49:02.000",
    "date_modified": "2022-05-22T00:49:02.000",
    "request_status": "Pending",
    "responsible_agency": "Department of Public Works",
    "final_address": "2316 Broadway St",
    "address_councildis": "A",
    "status": "Pending",
    "rowid": "885111",
    "final_x": "3666470.79348",
    "final_y": "530031.852865",
    "longitude": "-90.11557726484064",
    "latitude": "29.95185152872813",
    "geocoded_column": {
      "latitude": "29.95185152872813",
      "longitude": "-90.11557726484064"
    }
  },
  {
    "service_request": "2022-885110",
    "request_type": "Health Related Questions",
    "request_reason": "Noise Ordinance Complaint",
    "date_created": "2022-05-22T00:20:16.000",
    "date_modified": "2022-05-22T00:20:16.000",
    "request_status": "Pending",
    "responsible_agency": "Health Department",
    "final_address": "501 Royal St, New Orleans, Louisiana, 70130",
    "address_councildis": "C",
    "status": "Pending",
    "rowid": "885110",
    "final_x": "3682101.60373",
    "final_y": "531910.979715",
    "longitude": "-90.0661570222278",
    "latitude": "29.956552464325615",
    "geocoded_column": {
      "latitude": "29.956552464325615",
      "longitude": "-90.0661570222278"
    }
  },
  {
    "service_request": "2022-885109",
    "request_type": "Health Related Questions",
    "request_reason": "Noise Ordinance Complaint",
    "date_created": "2022-05-21T23:58:43.000",
    "date_modified": "2022-05-21T23:58:43.000",
    "request_status": "Pending",
    "responsible_agency": "Health Department",
    "final_address": "600 N Broad St",
    "address_councildis": "D",
    "status": "Pending",
    "rowid": "885109",
    "final_x": "3676514.68328",
    "final_y": "536431.051079",
    "longitude": "-90.0836430411453",
    "latitude": "29.969149839828454",
    "geocoded_column": {
      "latitude": "29.969149839828454",
      "longitude": "-90.0836430411453"
    }
  },
  {
    "service_request": "2022-885108",
    "request_type": "Trash/Recycling",
    "request_reason": "Replace Trash Cart",
    "date_created": "2022-05-21T23:17:55.000",
    "date_modified": "2022-05-21T23:17:56.000",
    "request_status": "Pending",
    "responsible_agency": "Department of Sanitation",
    "final_address": "New Orleans,LA",
    "status": "Assigned to Contractor",
    "rowid": "885108",
    "longitude": "0.0",
    "latitude": "0.0",
    "geocoded_column": {
      "latitude": "0.0",
      "longitude": "0.0"
    }
  },
  {
    "service_request": "2022-885107",
    "request_type": "Traffic Signals/Signs/Striping/Streetlights",
    "request_reason": "Street Light Outage/Malfunction",
    "date_created": "2022-05-21T23:12:39.000",
    "date_modified": "2022-05-21T23:12:40.000",
    "request_status": "Pending",
    "responsible_agency": "Department of Public Works",
    "final_address": "3800 Gentilly Blvd",
    "address_councildis": "D",
    "status": "Pending",
    "contractor": "Royal Engineering",
    "rowid": "885107",
    "final_x": "3687735.30959",
    "final_y": "548757.635731",
    "longitude": "-90.04777083828733",
    "latitude": "30.002702292891186",
    "geocoded_column": {
      "latitude": "30.002702292891186",
      "longitude": "-90.04777083828733"
    }
  },
  {
    "service_request": "2022-885106",
    "request_type": "Trash/Recycling",
    "request_reason": "Missed Trash Pick-Up",
    "date_created": "2022-05-21T22:56:54.000",
    "date_modified": "2022-05-21T22:56:55.000",
    "request_status": "Pending",
    "responsible_agency": "Department of Sanitation",
    "final_address": "206 Berkley Dr",
    "address_councildis": "C",
    "status": "Assigned to Contractor",
    "contractor": "Richards Disposal",
    "rowid": "885106",
    "final_x": "3706338.01847",
    "final_y": "518164.190518",
    "longitude": "-89.990135823656",
    "latitude": "29.917994412272026",
    "geocoded_column": {
      "latitude": "29.917994412272026",
      "longitude": "-89.990135823656"
    }
  },
  {
    "service_request": "2022-885105",
    "request_type": "Health Related Questions",
    "request_reason": "Noise Ordinance Complaint",
    "date_created": "2022-05-21T22:52:12.000",
    "date_modified": "2022-05-21T22:52:12.000",
    "request_status": "Pending",
    "responsible_agency": "Health Department",
    "final_address": "4505 Dryades St, New Orleans, Louisiana, 70115",
    "address_councildis": "B",
    "status": "Pending",
    "rowid": "885105",
    "final_x": "3670254.12743",
    "final_y": "521940.249274",
    "longitude": "-90.10390539508411",
    "latitude": "29.92949114178332",
    "geocoded_column": {
      "latitude": "29.92949114178332",
      "longitude": "-90.10390539508411"
    }
  },
  {
    "service_request": "2022-885104",
    "request_type": "Abandoned Vehicles",
    "request_reason": "Abandoned/Junk Vehicles",
    "date_created": "2022-05-21T22:47:00.000",
    "date_modified": "2022-05-21T22:47:00.000",
    "request_status": "Pending",
    "responsible_agency": "Department of Public Works",
    "final_address": "3611 Banks St",
    "address_councildis": "B",
    "status": "Pending",
    "rowid": "885104",
    "final_x": "3671825.01556",
    "final_y": "536354.504199",
    "longitude": "-90.09845598749936",
    "latitude": "29.969079165152838",
    "geocoded_column": {
      "latitude": "29.969079165152838",
      "longitude": "-90.09845598749936"
    }
  },
  {
    "service_request": "2022-885103",
    "request_type": "Trash/Recycling",
    "request_reason": "MIssed Recycling Pick-Up",
    "date_created": "2022-05-21T22:44:07.000",
    "date_modified": "2022-05-21T22:44:08.000",
    "request_status": "Pending",
    "responsible_agency": "Department of Sanitation",
    "final_address": "7926 Green St, New Orleans, Louisiana, 70118",
    "address_councildis": "A",
    "status": "Assigned to Contractor",
    "contractor": "Richards Disposal",
    "rowid": "885103",
    "final_x": "3663524.93031",
    "final_y": "529268.082753",
    "longitude": "-90.1249043771137",
    "latitude": "29.94983716385107",
    "geocoded_column": {
      "latitude": "29.94983716385107",
      "longitude": "-90.1249043771137"
    }
  },
  {
    "service_request": "2022-885102",
    "request_type": "Traffic Signals/Signs/Striping/Streetlights",
    "request_reason": "Street Light Outage/Malfunction",
    "date_created": "2022-05-21T21:30:24.000",
    "date_modified": "2022-05-21T21:30:25.000",
    "request_status": "Pending",
    "responsible_agency": "Department of Public Works",
    "final_address": "6041 Colbert St",
    "address_councildis": "A",
    "status": "Pending",
    "contractor": "Royal Engineering",
    "rowid": "885102",
    "final_x": "3667548.10017",
    "final_y": "547791.383506",
    "longitude": "-90.1115777165768",
    "latitude": "30.000652748521013",
    "geocoded_column": {
      "latitude": "30.000652748521013",
      "longitude": "-90.1115777165768"
    }
  },
  {
    "service_request": "2022-885101",
    "request_type": "Trash/Recycling",
    "request_reason": "Replace Trash Cart",
    "date_created": "2022-05-21T21:06:09.000",
    "date_modified": "2022-05-21T21:06:10.000",
    "request_status": "Pending",
    "responsible_agency": "Department of Sanitation",
    "final_address": "523 Calhoun St",
    "address_councildis": "A",
    "status": "Assigned to Contractor",
    "contractor": "Richards Disposal",
    "rowid": "885101",
    "final_x": "3663152.96103",
    "final_y": "518934.950519",
    "longitude": "-90.12642251540365",
    "latitude": "29.92143510377385",
    "geocoded_column": {
      "latitude": "29.92143510377385",
      "longitude": "-90.12642251540365"
    }
  },
  {
    "service_request": "2022-885100",
    "request_type": "Traffic Signals/Signs/Striping/Streetlights",
    "request_reason": "Traffic Sign Missing/Damaged",
    "date_created": "2022-05-21T20:20:41.000",
    "date_modified": "2022-05-21T20:20:41.000",
    "request_status": "Pending",
    "responsible_agency": "Department of Public Works",
    "final_address": "I 510 N & CHEF MENTEUR EXIT",
    "address_councildis": "E",
    "status": "Pending",
    "rowid": "885100",
    "final_x": "3721944.99",
    "final_y": "558525.2",
    "longitude": "-89.9393239262928",
    "latitude": "30.028459495803236",
    "geocoded_column": {
      "latitude": "30.028459495803236",
      "longitude": "-89.9393239262928"
    }
  },
  {
    "service_request": "2022-885099",
    "request_type": "Abandoned Vehicles",
    "request_reason": "Abandoned/Junk Vehicles",
    "date_created": "2022-05-21T20:14:17.000",
    "date_modified": "2022-05-21T20:14:17.000",
    "request_status": "Pending",
    "responsible_agency": "Department of Public Works",
    "final_address": "933 First St",
    "address_councildis": "B",
    "status": "Pending",
    "rowid": "885099",
    "final_x": "3678366.26216",
    "final_y": "521128.814905",
    "longitude": "-90.07832491698841",
    "latitude": "29.927018140507617",
    "geocoded_column": {
      "latitude": "29.927018140507617",
      "longitude": "-90.07832491698841"
    }
  },
  {
    "service_request": "2022-885098",
    "request_type": "Abandoned Vehicles",
    "request_reason": "Abandoned/Junk Vehicles",
    "date_created": "2022-05-21T20:12:06.000",
    "date_modified": "2022-05-21T20:12:06.000",
    "request_status": "Pending",
    "responsible_agency": "Department of Public Works",
    "final_address": "933 First St",
    "address_councildis": "B",
    "status": "Pending",
    "rowid": "885098",
    "final_x": "3678366.26216",
    "final_y": "521128.814905",
    "longitude": "-90.07832491698841",
    "latitude": "29.927018140507617",
    "geocoded_column": {
      "latitude": "29.927018140507617",
      "longitude": "-90.07832491698841"
    }
  },
  {
    "service_request": "2022-885097",
    "request_type": "Traffic Signals/Signs/Striping/Streetlights",
    "request_reason": "Street Light Outage/Malfunction",
    "date_created": "2022-05-21T20:08:01.000",
    "date_modified": "2022-05-21T20:08:01.000",
    "request_status": "Pending",
    "responsible_agency": "Department of Public Works",
    "final_address": "919 St Charles Ave",
    "address_councildis": "B",
    "status": "Pending",
    "contractor": "Royal Engineering",
    "rowid": "885097",
    "final_x": "3680174.97122",
    "final_y": "527316.807551",
    "longitude": "-90.07240033685378",
    "latitude": "29.94397847949933",
    "geocoded_column": {
      "latitude": "29.94397847949933",
      "longitude": "-90.07240033685378"
    }
  },
  {
    "service_request": "2022-885096",
    "request_type": "Traffic Signals/Signs/Striping/Streetlights",
    "request_reason": "Street Light Outage/Malfunction",
    "date_created": "2022-05-21T20:07:58.000",
    "date_modified": "2022-05-21T20:07:59.000",
    "request_status": "Pending",
    "responsible_agency": "Department of Public Works",
    "final_address": "919 St Charles Ave",
    "address_councildis": "B",
    "status": "Pending",
    "contractor": "Royal Engineering",
    "rowid": "885096",
    "final_x": "3680174.97122",
    "final_y": "527316.807551",
    "longitude": "-90.07240033685378",
    "latitude": "29.94397847949933",
    "geocoded_column": {
      "latitude": "29.94397847949933",
      "longitude": "-90.07240033685378"
    }
  },
  {
    "service_request": "2022-885095",
    "request_type": "Trash/Recycling",
    "request_reason": "Request a Large Item Pick Up",
    "date_created": "2022-05-21T20:07:47.000",
    "date_modified": "2022-05-21T20:07:47.000",
    "request_status": "Pending",
    "responsible_agency": "Department of Sanitation",
    "final_address": "1108 Milan St",
    "address_councildis": "B",
    "status": "Assigned to Contractor",
    "contractor": "Richards Disposal",
    "rowid": "885095",
    "final_x": "3671681.31124",
    "final_y": "519663.417016",
    "longitude": "-90.09947742280646",
    "latitude": "29.923188399219377",
    "geocoded_column": {
      "latitude": "29.923188399219377",
      "longitude": "-90.09947742280646"
    }
  },
  {
    "service_request": "2022-885093",
    "request_type": "Trash/Recycling",
    "request_reason": "Repair Recycling Cart",
    "date_created": "2022-05-21T20:06:41.000",
    "date_modified": "2022-05-21T20:06:41.000",
    "request_status": "Pending",
    "responsible_agency": "Department of Sanitation",
    "final_address": "5521 S Eastover Dr",
    "address_councildis": "E",
    "status": "Pending",
    "rowid": "885093",
    "final_x": "3719484.49196",
    "final_y": "561725.760991",
    "longitude": "-89.94697651343519",
    "latitude": "30.037341821060227",
    "geocoded_column": {
      "latitude": "30.037341821060227",
      "longitude": "-89.94697651343519"
    }
  },
  {
    "service_request": "2022-885092",
    "request_type": "Trash/Recycling",
    "request_reason": "Request a Large Item Pick Up",
    "date_created": "2022-05-21T20:05:00.000",
    "date_modified": "2022-05-21T20:05:01.000",
    "request_status": "Pending",
    "responsible_agency": "Department of Sanitation",
    "final_address": "5521 S Eastover Dr",
    "address_councildis": "E",
    "status": "Assigned to Contractor",
    "contractor": "Metro Disposal",
    "rowid": "885092",
    "final_x": "3719484.49196",
    "final_y": "561725.760991",
    "longitude": "-89.94697651343519",
    "latitude": "30.037341821060227",
    "geocoded_column": {
      "latitude": "30.037341821060227",
      "longitude": "-89.94697651343519"
    }
  },
  {
    "service_request": "2022-885091",
    "request_type": "Mosquito, Termite & Rodent Control",
    "request_reason": "Non-Rodent Complaint (Mice, Possums, Snakes)",
    "date_created": "2022-05-21T19:30:26.000",
    "date_modified": "2022-05-21T19:30:26.000",
    "request_status": "Pending",
    "responsible_agency": "Mosquito, Termite & Rodent Control Board",
    "final_address": "1819 Esplanade Ave",
    "address_councildis": "D",
    "status": "Pending",
    "rowid": "885091",
    "final_x": "3680626.53787",
    "final_y": "537186.093384",
    "longitude": "-90.07063123727167",
    "latitude": "29.97110199680513",
    "geocoded_column": {
      "latitude": "29.97110199680513",
      "longitude": "-90.07063123727167"
    }
  },
  {
    "service_request": "2022-885090",
    "request_type": "Roads/Drainage",
    "request_reason": "Damaged Sidewalk",
    "date_created": "2022-05-21T19:17:39.000",
    "date_modified": "2022-05-21T19:17:39.000",
    "request_status": "Pending",
    "responsible_agency": "Department of Public Works",
    "final_address": "1610 Pine St, New Orleans, Louisiana, 70118",
    "address_councildis": "A",
    "status": "Pending",
    "rowid": "885090",
    "final_x": "3664712.92704",
    "final_y": "527991.883263",
    "longitude": "-90.12119593477131",
    "latitude": "29.946293523088812",
    "geocoded_column": {
      "latitude": "29.946293523088812",
      "longitude": "-90.12119593477131"
    }
  },
  {
    "service_request": "2022-885089",
    "request_type": "Traffic Signals/Signs/Striping/Streetlights",
    "request_reason": "Street Light Knocked Down/Leaning",
    "date_created": "2022-05-21T19:08:39.000",
    "date_modified": "2022-05-21T19:08:39.000",
    "request_status": "Pending",
    "responsible_agency": "Department of Public Works",
    "final_address": "333 Julia St",
    "address_councildis": "B",
    "status": "Pending",
    "contractor": "Royal Engineering",
    "rowid": "885089",
    "final_x": "3681904.3716",
    "final_y": "527685.356095",
    "longitude": "-90.0669272873948",
    "latitude": "29.94493942202408",
    "geocoded_column": {
      "latitude": "29.94493942202408",
      "longitude": "-90.0669272873948"
    }
  },
  {
    "service_request": "2022-885088",
    "request_type": "Traffic Signals/Signs/Striping/Streetlights",
    "request_reason": "Street Light Knocked Down/Leaning",
    "date_created": "2022-05-21T19:05:16.000",
    "date_modified": "2022-05-21T19:05:16.000",
    "request_status": "Pending",
    "responsible_agency": "Department of Public Works",
    "final_address": "333 Julia St",
    "address_councildis": "B",
    "status": "Pending",
    "contractor": "Royal Engineering",
    "rowid": "885088",
    "final_x": "3681904.3716",
    "final_y": "527685.356095",
    "longitude": "-90.0669272873948",
    "latitude": "29.94493942202408",
    "geocoded_column": {
      "latitude": "29.94493942202408",
      "longitude": "-90.0669272873948"
    }
  },
  {
    "service_request": "2022-885086",
    "request_type": "Trash/Recycling",
    "request_reason": "Replace Recycling Cart",
    "date_created": "2022-05-21T18:33:58.000",
    "date_modified": "2022-05-21T18:33:58.000",
    "request_status": "Pending",
    "responsible_agency": "Department of Sanitation",
    "final_address": "4169 Vincennes Pl",
    "address_councildis": "B",
    "status": "Pending",
    "rowid": "885086",
    "final_x": "3668749.22471",
    "final_y": "531013.563586",
    "longitude": "-90.10834990093771",
    "latitude": "29.95448413355615",
    "geocoded_column": {
      "latitude": "29.95448413355615",
      "longitude": "-90.10834990093771"
    }
  },
  {
    "service_request": "2022-885085",
    "request_type": "Trash/Recycling",
    "request_reason": "Missed Trash Pick-Up",
    "date_created": "2022-05-21T18:10:41.000",
    "date_modified": "2022-05-21T18:10:42.000",
    "request_status": "Pending",
    "responsible_agency": "Department of Sanitation",
    "final_address": "2622 S Carrollton Ave",
    "address_councildis": "A",
    "status": "Assigned to Contractor",
    "contractor": "Richards Disposal",
    "rowid": "885085",
    "final_x": "3665495.05639",
    "final_y": "532282.801923",
    "longitude": "-90.11858284251693",
    "latitude": "29.958069382715017",
    "geocoded_column": {
      "latitude": "29.958069382715017",
      "longitude": "-90.11858284251693"
    }
  },
  {
    "service_request": "2022-885084",
    "request_type": "Abandoned Vehicles",
    "request_reason": "Abandoned/Junk Vehicles",
    "date_created": "2022-05-21T18:04:04.000",
    "date_modified": "2022-05-21T18:08:30.000",
    "request_status": "Pending",
    "responsible_agency": "Department of Public Works",
    "final_address": "935 Governor Nicholls St",
    "address_councildis": "C",
    "status": "Pending",
    "rowid": "885084",
    "final_x": "3682874.4372",
    "final_y": "534543.044741",
    "longitude": "-90.06362457272418",
    "latitude": "29.963766219729205",
    "geocoded_column": {
      "latitude": "29.963766219729205",
      "longitude": "-90.06362457272418"
    }
  },
  {
    "service_request": "2022-885083",
    "request_type": "Trash/Recycling",
    "request_reason": "Replace Trash Cart",
    "date_created": "2022-05-21T17:57:17.000",
    "date_modified": "2022-05-21T17:57:18.000",
    "request_status": "Pending",
    "responsible_agency": "Department of Sanitation",
    "final_address": "7900 Flounder St",
    "address_councildis": "E",
    "status": "Assigned to Contractor",
    "contractor": "Metro Disposal",
    "rowid": "885083",
    "final_x": "3699717.47524",
    "final_y": "561297.82307",
    "longitude": "-90.00946009701941",
    "latitude": "30.03680794703345",
    "geocoded_column": {
      "latitude": "30.03680794703345",
      "longitude": "-90.00946009701941"
    }
  },
  {
    "service_request": "2022-885082",
    "request_type": "Roads/Drainage",
    "request_reason": "Debris in Roadway",
    "date_created": "2022-05-21T17:55:44.000",
    "date_modified": "2022-05-21T17:55:44.000",
    "request_status": "Pending",
    "responsible_agency": "Department of Public Works",
    "final_address": "7900 Flounder St",
    "address_councildis": "E",
    "status": "Pending",
    "rowid": "885082",
    "final_x": "3699717.47524",
    "final_y": "561297.82307",
    "longitude": "-90.00946009701941",
    "latitude": "30.03680794703345",
    "geocoded_column": {
      "latitude": "30.03680794703345",
      "longitude": "-90.00946009701941"
    }
  },
  {
    "service_request": "2022-885080",
    "request_type": "Trash/Recycling",
    "request_reason": "Request a Large Item Pick Up",
    "date_created": "2022-05-21T17:10:45.000",
    "date_modified": "2022-05-21T17:10:46.000",
    "request_status": "Pending",
    "responsible_agency": "Department of Sanitation",
    "final_address": "5601 Canal Blvd",
    "address_councildis": "A",
    "status": "Assigned to Contractor",
    "contractor": "Metro Disposal",
    "rowid": "885080",
    "final_x": "3668398.38798",
    "final_y": "544624.446799",
    "longitude": "-90.1089984890539",
    "latitude": "29.99191980765331",
    "geocoded_column": {
      "latitude": "29.99191980765331",
      "longitude": "-90.1089984890539"
    }
  },
  {
    "service_request": "2022-885079",
    "request_type": "Property Maintenance",
    "request_reason": "Property Maintenance",
    "date_created": "2022-05-21T17:10:12.000",
    "date_modified": "2022-05-21T17:10:12.000",
    "request_status": "Pending",
    "responsible_agency": "Department of Code Enforcement",
    "final_address": "6120 Warwick Ct",
    "address_councildis": "C",
    "status": "Pending",
    "rowid": "885079",
    "final_x": "3706535.23678",
    "final_y": "515948.338612",
    "longitude": "-89.98959534030452",
    "latitude": "29.911895227470314",
    "geocoded_column": {
      "latitude": "29.911895227470314",
      "longitude": "-89.98959534030452"
    }
  },
  {
    "service_request": "2022-885078",
    "request_type": "Trash/Recycling",
    "request_reason": "Request a Large Item Pick Up",
    "date_created": "2022-05-21T17:09:42.000",
    "date_modified": "2022-05-21T17:09:43.000",
    "request_status": "Pending",
    "responsible_agency": "Department of Sanitation",
    "final_address": "7573 Patterson St",
    "address_councildis": "C",
    "status": "Assigned to Contractor",
    "contractor": "Richards Disposal",
    "rowid": "885078",
    "final_x": "3712230.74251",
    "final_y": "518967.892535",
    "longitude": "-89.97150575580237",
    "latitude": "29.920013056495883",
    "geocoded_column": {
      "latitude": "29.920013056495883",
      "longitude": "-89.97150575580237"
    }
  },
  {
    "service_request": "2022-885077",
    "request_type": "Traffic Signals/Signs/Striping/Streetlights",
    "request_reason": "Street Light Outage/Malfunction",
    "date_created": "2022-05-21T16:56:04.000",
    "date_modified": "2022-05-21T16:56:05.000",
    "request_status": "Pending",
    "responsible_agency": "Department of Public Works",
    "final_address": "2519 Upperline St",
    "address_councildis": "B",
    "status": "Pending",
    "contractor": "Royal Engineering",
    "rowid": "885077",
    "final_x": "3669205.39879",
    "final_y": "524085.472956",
    "longitude": "-90.10714358004745",
    "latitude": "29.93542071823589",
    "geocoded_column": {
      "latitude": "29.93542071823589",
      "longitude": "-90.10714358004745"
    }
  },
  {
    "service_request": "2022-885076",
    "request_type": "Mayor's Request",
    "request_reason": "Requests to the Mayor",
    "date_created": "2022-05-21T16:37:27.000",
    "date_modified": "2022-05-21T16:37:27.000",
    "request_status": "Pending",
    "responsible_agency": "Executive Office of the Mayor",
    "final_address": "3234 Jackson Ave",
    "address_councildis": "B",
    "status": "Pending",
    "rowid": "885076",
    "final_x": "3673723.64718",
    "final_y": "528705.350528",
    "longitude": "-90.09272151178472",
    "latitude": "29.947990146798244",
    "geocoded_column": {
      "latitude": "29.947990146798244",
      "longitude": "-90.09272151178472"
    }
  },
  {
    "service_request": "2022-885075",
    "request_type": "Trash/Recycling",
    "request_reason": "Replace Trash Cart",
    "date_created": "2022-05-21T16:32:40.000",
    "date_modified": "2022-05-21T16:32:41.000",
    "request_status": "Pending",
    "responsible_agency": "Department of Sanitation",
    "final_address": "4617 Knight Dr",
    "address_councildis": "E",
    "status": "Assigned to Contractor",
    "contractor": "Metro Disposal",
    "rowid": "885075",
    "final_x": "3708289.81988",
    "final_y": "554738.46364",
    "longitude": "-89.98261424594638",
    "latitude": "30.018497164438",
    "geocoded_column": {
      "latitude": "30.018497164438",
      "longitude": "-89.98261424594638"
    }
  },
  {
    "service_request": "2022-885074",
    "request_type": "Trash/Recycling",
    "request_reason": "Illegal Dumping",
    "date_created": "2022-05-21T16:09:12.000",
    "date_modified": "2022-05-21T16:09:12.000",
    "request_status": "Pending",
    "responsible_agency": "Department of Sanitation",
    "final_address": "108 Brunswick Ct",
    "address_councildis": "C",
    "status": "Pending",
    "rowid": "885074",
    "final_x": "3705893.72683",
    "final_y": "517178.154869",
    "longitude": "-89.99157464325008",
    "latitude": "29.91529746847961",
    "geocoded_column": {
      "latitude": "29.91529746847961",
      "longitude": "-89.99157464325008"
    }
  },
  {
    "service_request": "2022-885073",
    "request_type": "Abandoned Vehicles",
    "request_reason": "Abandoned/Junk Vehicles",
    "date_created": "2022-05-21T16:06:12.000",
    "date_modified": "2022-05-21T16:06:12.000",
    "request_status": "Pending",
    "responsible_agency": "Department of Public Works",
    "final_address": "6118 Milne Blvd",
    "address_councildis": "A",
    "status": "Pending",
    "rowid": "885073",
    "final_x": "3667005.09639",
    "final_y": "548326.006418",
    "longitude": "-90.1132751263626",
    "latitude": "30.002138685458004",
    "geocoded_column": {
      "latitude": "30.002138685458004",
      "longitude": "-90.1132751263626"
    }
  },
  {
    "service_request": "2022-885072",
    "request_type": "Abandoned Vehicles",
    "request_reason": "Abandoned/Junk Vehicles",
    "date_created": "2022-05-21T16:00:36.000",
    "date_modified": "2022-05-21T16:00:36.000",
    "request_status": "Pending",
    "responsible_agency": "Department of Public Works",
    "final_address": "1300 BLK Flanders St",
    "address_councildis": "C",
    "status": "Pending",
    "rowid": "885072",
    "final_x": "3696725.06681",
    "final_y": "526417.30883",
    "longitude": "-90.02017995254383",
    "latitude": "29.940994012725966",
    "geocoded_column": {
      "latitude": "29.940994012725966",
      "longitude": "-90.02017995254383"
    }
  },
  {
    "service_request": "2022-885071",
    "request_type": "Trash/Recycling",
    "request_reason": "Start Trash Service",
    "date_created": "2022-05-21T15:21:51.000",
    "date_modified": "2022-05-21T15:21:52.000",
    "request_status": "Pending",
    "responsible_agency": "Department of Sanitation",
    "final_address": "2501 Ramsey Dr",
    "address_councildis": "C",
    "status": "Assigned to Contractor",
    "contractor": "Richards Disposal",
    "rowid": "885071",
    "final_x": "3703088.51876",
    "final_y": "521878.111034",
    "longitude": "-90.00025625927462",
    "latitude": "29.92831074995481",
    "geocoded_column": {
      "latitude": "29.92831074995481",
      "longitude": "-90.00025625927462"
    }
  },
  {
    "service_request": "2022-885070",
    "request_type": "Trash/Recycling",
    "request_reason": "MIssed Recycling Pick-Up",
    "date_created": "2022-05-21T15:13:34.000",
    "date_modified": "2022-05-21T15:13:35.000",
    "request_status": "Pending",
    "responsible_agency": "Department of Sanitation",
    "final_address": "6016 Annunciation St",
    "address_councildis": "A",
    "status": "Assigned to Contractor",
    "contractor": "Richards Disposal",
    "rowid": "885070",
    "final_x": "3664082.12384",
    "final_y": "517863.908982",
    "longitude": "-90.12352523721874",
    "latitude": "29.918463130036713",
    "geocoded_column": {
      "latitude": "29.918463130036713",
      "longitude": "-90.12352523721874"
    }
  },
  {
    "service_request": "2022-885069",
    "request_type": "Trash/Recycling",
    "request_reason": "Request a Large Item Pick Up",
    "date_created": "2022-05-21T15:12:05.000",
    "date_modified": "2022-05-21T15:12:06.000",
    "request_status": "Pending",
    "responsible_agency": "Department of Sanitation",
    "final_address": "2636 Bristol Pl",
    "address_councildis": "C",
    "status": "Assigned to Contractor",
    "contractor": "Richards Disposal",
    "rowid": "885069",
    "final_x": "3702654.4899",
    "final_y": "521238.763193",
    "longitude": "-90.00164983907115",
    "latitude": "29.926566642478083",
    "geocoded_column": {
      "latitude": "29.926566642478083",
      "longitude": "-90.00164983907115"
    }
  },
  {
    "service_request": "2022-885068",
    "request_type": "Trash/Recycling",
    "request_reason": "Repair Recycling Cart",
    "date_created": "2022-05-21T15:02:39.000",
    "date_modified": "2022-05-21T15:02:39.000",
    "request_status": "Pending",
    "responsible_agency": "Department of Sanitation",
    "final_address": "8217 Birch St",
    "address_councildis": "A",
    "status": "Pending",
    "rowid": "885068",
    "final_x": "3662562.19354",
    "final_y": "529790.754369",
    "longitude": "-90.12792683468498",
    "latitude": "29.95130222556222",
    "geocoded_column": {
      "latitude": "29.95130222556222",
      "longitude": "-90.12792683468498"
    }
  },
  {
    "service_request": "2022-885067",
    "request_type": "Trash/Recycling",
    "request_reason": "Replace Trash Cart",
    "date_created": "2022-05-21T15:00:20.000",
    "date_modified": "2022-05-21T15:00:21.000",
    "request_status": "Pending",
    "responsible_agency": "Department of Sanitation",
    "final_address": "8221 Birch St",
    "address_councildis": "A",
    "status": "Assigned to Contractor",
    "contractor": "Richards Disposal",
    "rowid": "885067",
    "final_x": "3662552.63687",
    "final_y": "529803.040641",
    "longitude": "-90.12795660199096",
    "latitude": "29.951336285287596",
    "geocoded_column": {
      "latitude": "29.951336285287596",
      "longitude": "-90.12795660199096"
    }
  },
  {
    "service_request": "2022-885066",
    "request_type": "Mayor's Request",
    "request_reason": "Requests to the Mayor",
    "date_created": "2022-05-21T14:55:56.000",
    "date_modified": "2022-05-21T14:55:56.000",
    "request_status": "Pending",
    "responsible_agency": "Executive Office of the Mayor",
    "final_address": "3234 Jackson Ave",
    "address_councildis": "B",
    "status": "Pending",
    "rowid": "885066",
    "final_x": "3673723.64718",
    "final_y": "528705.350528",
    "longitude": "-90.09272151178472",
    "latitude": "29.947990146798244",
    "geocoded_column": {
      "latitude": "29.947990146798244",
      "longitude": "-90.09272151178472"
    }
  },
  {
    "service_request": "2022-885065",
    "request_type": "Safety & Permits",
    "request_reason": "Safety & Permits Request (Cyber Incident Back Up)",
    "date_created": "2022-05-21T14:53:45.000",
    "date_modified": "2022-05-21T15:25:20.000",
    "request_status": "Pending",
    "responsible_agency": "Safety and Permits",
    "final_address": "1418 Governor Nicholls St",
    "address_councildis": "C",
    "status": "Pending",
    "rowid": "885065",
    "final_x": "3681549.46895",
    "final_y": "535564.20455",
    "longitude": "-90.06777307263567",
    "latitude": "29.96661436305579",
    "geocoded_column": {
      "latitude": "29.96661436305579",
      "longitude": "-90.06777307263567"
    }
  },
  {
    "service_request": "2022-885064",
    "request_type": "Property Maintenance",
    "request_reason": "Property Maintenance",
    "date_created": "2022-05-21T14:22:59.000",
    "date_modified": "2022-05-21T14:22:59.000",
    "request_status": "Pending",
    "responsible_agency": "Department of Code Enforcement",
    "final_address": "8215 Zimple St",
    "address_councildis": "A",
    "status": "Pending",
    "rowid": "885064",
    "final_x": "3661391.23955",
    "final_y": "528469.662848",
    "longitude": "-90.13166789576867",
    "latitude": "29.94770346634277",
    "geocoded_column": {
      "latitude": "29.94770346634277",
      "longitude": "-90.13166789576867"
    }
  },
  {
    "service_request": "2022-885063",
    "request_type": "Abandoned Vehicles",
    "request_reason": "Abandoned/Junk Vehicles",
    "date_created": "2022-05-21T14:06:30.000",
    "date_modified": "2022-05-21T14:06:30.000",
    "request_status": "Pending",
    "responsible_agency": "Department of Public Works",
    "final_address": "2419 Decatur St",
    "address_councildis": "C",
    "status": "Pending",
    "rowid": "885063",
    "final_x": "3686107.96598",
    "final_y": "534256.239621",
    "longitude": "-90.05342354520306",
    "latitude": "29.962878686214506",
    "geocoded_column": {
      "latitude": "29.962878686214506",
      "longitude": "-90.05342354520306"
    }
  },
  {
    "service_request": "2022-885062",
    "request_type": "Abandoned Vehicles",
    "request_reason": "Abandoned/Junk Vehicles",
    "date_created": "2022-05-21T14:03:04.000",
    "date_modified": "2022-05-21T14:03:04.000",
    "request_status": "Pending",
    "responsible_agency": "Department of Public Works",
    "final_address": "2419 Decatur St",
    "address_councildis": "C",
    "status": "Pending",
    "rowid": "885062",
    "final_x": "3686107.96598",
    "final_y": "534256.239621",
    "longitude": "-90.05342354520306",
    "latitude": "29.962878686214506",
    "geocoded_column": {
      "latitude": "29.962878686214506",
      "longitude": "-90.05342354520306"
    }
  },
  {
    "service_request": "2022-885061",
    "request_type": "Traffic Signals/Signs/Striping/Streetlights",
    "request_reason": "Street Name Sign Damaged or Missing",
    "date_created": "2022-05-21T14:00:08.000",
    "date_modified": "2022-05-21T14:00:09.000",
    "request_status": "Pending",
    "responsible_agency": "Department of Public Works",
    "final_address": "4335 Sybil St",
    "address_councildis": "D",
    "status": "Pending",
    "rowid": "885061",
    "final_x": "3679178.14331",
    "final_y": "548378.976658",
    "longitude": "-90.07481721480715",
    "latitude": "30.00192232228966",
    "geocoded_column": {
      "latitude": "30.00192232228966",
      "longitude": "-90.07481721480715"
    }
  },
  {
    "service_request": "2022-885060",
    "request_type": "Trash/Recycling",
    "request_reason": "MIssed Recycling Pick-Up",
    "date_created": "2022-05-21T13:58:35.000",
    "date_modified": "2022-05-21T13:58:36.000",
    "request_status": "Pending",
    "responsible_agency": "Department of Sanitation",
    "final_address": "4815 Walmsley Ave",
    "address_councildis": "B",
    "status": "Assigned to Contractor",
    "contractor": "Richards Disposal",
    "rowid": "885060",
    "final_x": "3668173.76909",
    "final_y": "530634.130626",
    "longitude": "-90.11017975954138",
    "latitude": "29.95345772065518",
    "geocoded_column": {
      "latitude": "29.95345772065518",
      "longitude": "-90.11017975954138"
    }
  },
  {
    "service_request": "2022-885059",
    "request_type": "Roads/Drainage",
    "request_reason": "Street Subsidence (Sinking)",
    "date_created": "2022-05-21T13:44:16.000",
    "date_modified": "2022-05-21T13:44:17.000",
    "request_status": "Pending",
    "responsible_agency": "Department of Public Works",
    "final_address": "7038 Walmsley Ave",
    "address_councildis": "B",
    "status": "Pending",
    "rowid": "885059",
    "final_x": "3667512.39527",
    "final_y": "531030.94861",
    "longitude": "-90.11225475196017",
    "latitude": "29.95456823638066",
    "geocoded_column": {
      "latitude": "29.95456823638066",
      "longitude": "-90.11225475196017"
    }
  },
  {
    "service_request": "2022-885058",
    "request_type": "Trash/Recycling",
    "request_reason": "Request a Large Item Pick Up",
    "date_created": "2022-05-21T13:40:29.000",
    "date_modified": "2022-05-21T13:40:30.000",
    "request_status": "Pending",
    "responsible_agency": "Department of Sanitation",
    "final_address": "1224 Poland Ave",
    "address_councildis": "D",
    "status": "Assigned to Contractor",
    "contractor": "Metro Disposal",
    "rowid": "885058",
    "final_x": "3693119.40944",
    "final_y": "535590.267014",
    "longitude": "-90.0312345166692",
    "latitude": "29.96632958057141",
    "geocoded_column": {
      "latitude": "29.96632958057141",
      "longitude": "-90.0312345166692"
    }
  },
  {
    "service_request": "2022-885057",
    "request_type": "Abandoned Vehicles",
    "request_reason": "Abandoned/Junk Vehicles",
    "date_created": "2022-05-21T13:37:10.000",
    "date_modified": "2022-05-21T13:37:10.000",
    "request_status": "Pending",
    "responsible_agency": "Department of Public Works",
    "final_address": "2100 Easter Ln",
    "address_councildis": "C",
    "status": "Pending",
    "rowid": "885057",
    "final_x": "3699541.93053",
    "final_y": "523625.943035",
    "longitude": "-90.01138833234367",
    "latitude": "29.93322966253509",
    "geocoded_column": {
      "latitude": "29.93322966253509",
      "longitude": "-90.01138833234367"
    }
  },
  {
    "service_request": "2022-885056",
    "request_type": "Trash/Recycling",
    "request_reason": "Missed Trash Pick-Up",
    "date_created": "2022-05-21T13:30:33.000",
    "date_modified": "2022-05-21T13:30:34.000",
    "request_status": "Pending",
    "responsible_agency": "Department of Sanitation",
    "final_address": "4675 Music St",
    "address_councildis": "D",
    "status": "Assigned to Contractor",
    "contractor": "Metro Disposal",
    "rowid": "885056",
    "final_x": "3685747.90671",
    "final_y": "550167.610324",
    "longitude": "-90.05399956595882",
    "latitude": "30.00664037210789",
    "geocoded_column": {
      "latitude": "30.00664037210789",
      "longitude": "-90.05399956595882"
    }
  },
  {
    "service_request": "2022-885055",
    "request_type": "Trash/Recycling",
    "request_reason": "Missed Trash Pick-Up",
    "date_created": "2022-05-21T13:27:26.000",
    "date_modified": "2022-05-21T13:27:26.000",
    "request_status": "Pending",
    "responsible_agency": "Department of Sanitation",
    "final_address": "5903 Perrier St",
    "address_councildis": "A",
    "status": "Assigned to Contractor",
    "contractor": "Richards Disposal",
    "rowid": "885055",
    "final_x": "3665482.85453",
    "final_y": "520449.337208",
    "longitude": "-90.11901737154504",
    "latitude": "29.92553150681425",
    "geocoded_column": {
      "latitude": "29.92553150681425",
      "longitude": "-90.11901737154504"
    }
  },
  {
    "service_request": "2022-885054",
    "request_type": "Trash/Recycling",
    "request_reason": "MIssed Recycling Pick-Up",
    "date_created": "2022-05-21T13:24:13.000",
    "date_modified": "2022-05-21T13:29:34.000",
    "request_status": "Pending",
    "responsible_agency": "Department of Sanitation",
    "final_address": "New Orleans,LA",
    "address_councildis": "A",
    "status": "Assigned to Contractor",
    "contractor": "Richards Disposal",
    "rowid": "885054",
    "final_x": "3666841.47911",
    "final_y": "525000.547517",
    "longitude": "-90.11457578599395",
    "latitude": "29.93800622681478",
    "geocoded_column": {
      "latitude": "29.93800622681478",
      "longitude": "-90.11457578599395"
    }
  },
  {
    "service_request": "2022-885052",
    "request_type": "Traffic Signals/Signs/Striping/Streetlights",
    "request_reason": "Street Light Outage/Malfunction",
    "date_created": "2022-05-21T13:19:44.000",
    "date_modified": "2022-05-21T13:19:45.000",
    "request_status": "Pending",
    "responsible_agency": "Department of Public Works",
    "final_address": "938 Dante St",
    "address_councildis": "A",
    "status": "Pending",
    "contractor": "Royal Engineering",
    "rowid": "885052",
    "final_x": "3660900.88454",
    "final_y": "528345.060864",
    "longitude": "-90.13322026832542",
    "latitude": "29.94737498160167",
    "geocoded_column": {
      "latitude": "29.94737498160167",
      "longitude": "-90.13322026832542"
    }
  },
  {
    "service_request": "2022-885051",
    "request_type": "Traffic Signals/Signs/Striping/Streetlights",
    "request_reason": "Street Light Outage/Malfunction",
    "date_created": "2022-05-21T12:46:47.000",
    "date_modified": "2022-05-21T12:46:47.000",
    "request_status": "Pending",
    "responsible_agency": "Department of Public Works",
    "final_address": "339 Broadway St",
    "address_councildis": "A",
    "status": "Pending",
    "contractor": "Royal Engineering",
    "rowid": "885051",
    "final_x": "3661750.77901",
    "final_y": "522789.753722",
    "longitude": "-90.13072090523535",
    "latitude": "29.93207514462521",
    "geocoded_column": {
      "latitude": "29.93207514462521",
      "longitude": "-90.13072090523535"
    }
  },
  {
    "service_request": "2022-885050",
    "request_type": "Abandoned Vehicles",
    "request_reason": "Abandoned/Junk Vehicles",
    "date_created": "2022-05-21T12:44:14.000",
    "date_modified": "2022-05-21T12:44:14.000",
    "request_status": "Pending",
    "responsible_agency": "Department of Public Works",
    "final_address": "4332 Lonely Oak Dr",
    "address_councildis": "E",
    "status": "Pending",
    "rowid": "885050",
    "final_x": "3702479.53578",
    "final_y": "552600.643542",
    "longitude": "-90.00105102552087",
    "latitude": "30.012806022372168",
    "geocoded_column": {
      "latitude": "30.012806022372168",
      "longitude": "-90.00105102552087"
    }
  },
  {
    "service_request": "2022-885049",
    "request_type": "Abandoned Vehicles",
    "request_reason": "Abandoned/Junk Vehicles",
    "date_created": "2022-05-21T12:31:16.000",
    "date_modified": "2022-05-21T12:31:16.000",
    "request_status": "Pending",
    "responsible_agency": "Department of Public Works",
    "final_address": "4 Caddo Pl",
    "address_councildis": "E",
    "status": "Pending",
    "rowid": "885049",
    "final_x": "3725830.43769",
    "final_y": "564289.453793",
    "longitude": "-89.92682270508399",
    "latitude": "30.044178272895074",
    "geocoded_column": {
      "latitude": "30.044178272895074",
      "longitude": "-89.92682270508399"
    }
  },
  {
    "service_request": "2022-885048",
    "request_type": "Traffic Signals/Signs/Striping/Streetlights",
    "request_reason": "Street Light Outage/Malfunction",
    "date_created": "2022-05-21T12:29:30.000",
    "date_modified": "2022-05-21T12:29:31.000",
    "request_status": "Pending",
    "responsible_agency": "Department of Public Works",
    "final_address": "2026 Prytania St, New Orleans, Louisiana, 70130",
    "address_councildis": "B",
    "status": "Pending",
    "contractor": "Royal Engineering",
    "rowid": "885048",
    "final_x": "3678387.80002",
    "final_y": "523585.772091",
    "longitude": "-90.07817196811428",
    "latitude": "29.933773320349417",
    "geocoded_column": {
      "latitude": "29.933773320349417",
      "longitude": "-90.07817196811428"
    }
  },
  {
    "service_request": "2022-885047",
    "request_type": "Safety & Permits",
    "request_reason": "Construction permit",
    "date_created": "2022-05-21T12:29:10.000",
    "date_modified": "2022-05-21T12:29:10.000",
    "request_status": "Pending",
    "responsible_agency": "Department of Code Enforcement",
    "final_address": "5115 Conti St",
    "address_councildis": "A",
    "status": "Pending",
    "rowid": "885047",
    "final_x": "3668769.14254",
    "final_y": "541618.401612",
    "longitude": "-90.10792889678723",
    "latitude": "29.983643311635998",
    "geocoded_column": {
      "latitude": "29.983643311635998",
      "longitude": "-90.10792889678723"
    }
  },
  {
    "service_request": "2022-885046",
    "request_type": "Trash/Recycling",
    "request_reason": "Replace Recycling Cart",
    "date_created": "2022-05-21T12:25:48.000",
    "date_modified": "2022-05-21T12:25:48.000",
    "request_status": "Pending",
    "responsible_agency": "Department of Sanitation",
    "final_address": "4566 Viola St",
    "address_councildis": "E",
    "status": "Pending",
    "rowid": "885046",
    "final_x": "3704006.72394",
    "final_y": "554026.455128",
    "longitude": "-89.99617341239001",
    "latitude": "30.016677545576886",
    "geocoded_column": {
      "latitude": "30.016677545576886",
      "longitude": "-89.99617341239001"
    }
  },
  {
    "service_request": "2022-885045",
    "request_type": "Trash/Recycling",
    "request_reason": "Missed Trash Pick-Up",
    "date_created": "2022-05-21T12:24:08.000",
    "date_modified": "2022-05-21T12:24:09.000",
    "request_status": "Pending",
    "responsible_agency": "Department of Sanitation",
    "final_address": "4566 Viola St",
    "address_councildis": "E",
    "status": "Assigned to Contractor",
    "contractor": "Metro Disposal",
    "rowid": "885045",
    "final_x": "3704006.72394",
    "final_y": "554026.455128",
    "longitude": "-89.99617341239001",
    "latitude": "30.016677545576886",
    "geocoded_column": {
      "latitude": "30.016677545576886",
      "longitude": "-89.99617341239001"
    }
  },
  {
    "service_request": "2022-885044",
    "request_type": "Trash/Recycling",
    "request_reason": "Request a Large Item Pick Up",
    "date_created": "2022-05-21T12:08:09.000",
    "date_modified": "2022-05-21T12:08:10.000",
    "request_status": "Pending",
    "responsible_agency": "Department of Sanitation",
    "final_address": "1830 General Taylor St",
    "address_councildis": "B",
    "status": "Assigned to Contractor",
    "contractor": "Richards Disposal",
    "rowid": "885044",
    "final_x": "3672367.75022",
    "final_y": "522013.03417",
    "longitude": "-90.0972305817191",
    "latitude": "29.92962875024938",
    "geocoded_column": {
      "latitude": "29.92962875024938",
      "longitude": "-90.0972305817191"
    }
  },
  {
    "service_request": "2022-885043",
    "request_type": "Trash/Recycling",
    "request_reason": "Missed Trash Pick-Up",
    "date_created": "2022-05-21T11:53:31.000",
    "date_modified": "2022-05-21T11:53:32.000",
    "request_status": "Pending",
    "responsible_agency": "Department of Sanitation",
    "final_address": "25514 Chef Menteur Hwy, New Orleans, Louisiana, 70129",
    "address_councildis": "E",
    "status": "Assigned to Contractor",
    "contractor": "Metro Disposal",
    "rowid": "885043",
    "final_x": "3780531.0707",
    "final_y": "599748.723906",
    "longitude": "-89.7524039382491",
    "latitude": "30.13971413555277",
    "geocoded_column": {
      "latitude": "30.13971413555277",
      "longitude": "-89.7524039382491"
    }
  },
  {
    "service_request": "2022-885042",
    "request_type": "Trash/Recycling",
    "request_reason": "Missed Trash Pick-Up",
    "date_created": "2022-05-21T11:43:09.000",
    "date_modified": "2022-05-21T11:43:10.000",
    "request_status": "Pending",
    "responsible_agency": "Department of Sanitation",
    "final_address": "840 Valence St",
    "address_councildis": "B",
    "status": "Assigned to Contractor",
    "contractor": "Richards Disposal",
    "rowid": "885042",
    "final_x": "3669897.02119",
    "final_y": "518634.810871",
    "longitude": "-90.1051445632408",
    "latitude": "29.920412768731616",
    "geocoded_column": {
      "latitude": "29.920412768731616",
      "longitude": "-90.1051445632408"
    }
  },
  {
    "service_request": "2022-885041",
    "request_type": "Traffic Signals/Signs/Striping/Streetlights",
    "request_reason": "Street Light Knocked Down/Leaning",
    "date_created": "2022-05-21T11:25:49.000",
    "date_modified": "2022-05-21T11:25:50.000",
    "request_status": "Pending",
    "responsible_agency": "Department of Public Works",
    "final_address": "N CLAIBORNE AVE & LOUISA ST",
    "address_councildis": "D",
    "status": "Pending",
    "contractor": "Royal Engineering",
    "rowid": "885041",
    "final_x": "3690029.4",
    "final_y": "537727.98",
    "longitude": "-90.04091653642077",
    "latitude": "29.972303728909132",
    "geocoded_column": {
      "latitude": "29.972303728909132",
      "longitude": "-90.04091653642077"
    }
  },
  {
    "service_request": "2022-885040",
    "request_type": "Traffic Signals/Signs/Striping/Streetlights",
    "request_reason": "Request for Stop Sign",
    "date_created": "2022-05-21T11:20:04.000",
    "date_modified": "2022-05-21T11:20:04.000",
    "request_status": "Pending",
    "responsible_agency": "Department of Public Works",
    "final_address": "4901 Hauck Dr",
    "address_councildis": "E",
    "status": "Pending",
    "rowid": "885040",
    "final_x": "3714566.1877",
    "final_y": "557378.631835",
    "longitude": "-89.96268365305812",
    "latitude": "30.025551656244847",
    "geocoded_column": {
      "latitude": "30.025551656244847",
      "longitude": "-89.96268365305812"
    }
  },
  {
    "service_request": "2022-885039",
    "request_type": "Trash/Recycling",
    "request_reason": "Repair Trash Cart",
    "date_created": "2022-05-21T11:15:28.000",
    "date_modified": "2022-05-21T11:15:29.000",
    "request_status": "Pending",
    "responsible_agency": "Department of Sanitation",
    "final_address": "5831 Abbey Dr",
    "address_councildis": "C",
    "status": "Assigned to Contractor",
    "contractor": "Richards Disposal",
    "rowid": "885039",
    "final_x": "3705268.67102",
    "final_y": "520859.007097",
    "longitude": "-89.99341167409789",
    "latitude": "29.92543864712634",
    "geocoded_column": {
      "latitude": "29.92543864712634",
      "longitude": "-89.99341167409789"
    }
  },
  {
    "service_request": "2022-885038",
    "request_type": "Trash/Recycling",
    "request_reason": "Order Trash Cart",
    "date_created": "2022-05-21T11:04:37.000",
    "date_modified": "2022-05-21T11:04:38.000",
    "request_status": "Pending",
    "responsible_agency": "Department of Sanitation",
    "final_address": "1243 Tricou St",
    "address_councildis": "E",
    "status": "Assigned to Contractor",
    "contractor": "Metro Disposal",
    "rowid": "885038",
    "final_x": "3700434.05904",
    "final_y": "533692.372613",
    "longitude": "-90.00820444457484",
    "latitude": "29.96088046855041",
    "geocoded_column": {
      "latitude": "29.96088046855041",
      "longitude": "-90.00820444457484"
    }
  },
  {
    "service_request": "2022-885037",
    "request_type": "Trash/Recycling",
    "request_reason": "Request a Large Item Pick Up",
    "date_created": "2022-05-21T10:57:07.000",
    "date_modified": "2022-05-21T10:57:08.000",
    "request_status": "Pending",
    "responsible_agency": "Department of Sanitation",
    "final_address": "1507 Napoleon Ave",
    "address_councildis": "B",
    "status": "Assigned to Contractor",
    "contractor": "Richards Disposal",
    "rowid": "885037",
    "final_x": "3670965.18817",
    "final_y": "520661.853625",
    "longitude": "-90.10170407882987",
    "latitude": "29.925954965627486",
    "geocoded_column": {
      "latitude": "29.925954965627486",
      "longitude": "-90.10170407882987"
    }
  },
  {
    "service_request": "2022-885036",
    "request_type": "Traffic Signals/Signs/Striping/Streetlights",
    "request_reason": "Traffic Sign Missing/Damaged",
    "date_created": "2022-05-21T10:45:29.000",
    "date_modified": "2022-05-21T10:45:29.000",
    "request_status": "Pending",
    "responsible_agency": "Department of Public Works",
    "final_address": "701 Canal St",
    "address_councildis": "C",
    "status": "Pending",
    "rowid": "885036",
    "final_x": "3681221.29013",
    "final_y": "530758.078594",
    "longitude": "-90.06897693357314",
    "latitude": "29.953409116160664",
    "geocoded_column": {
      "latitude": "29.953409116160664",
      "longitude": "-90.06897693357314"
    }
  },
  {
    "service_request": "2022-885035",
    "request_type": "Abandoned Vehicles",
    "request_reason": "Abandoned/Junk Vehicles",
    "date_created": "2022-05-21T10:30:04.000",
    "date_modified": "2022-05-21T10:30:04.000",
    "request_status": "Pending",
    "responsible_agency": "Department of Public Works",
    "final_address": "4318 Bienville Ave",
    "address_councildis": "A",
    "status": "Pending",
    "rowid": "885035",
    "final_x": "3670570.77441",
    "final_y": "539639.801418",
    "longitude": "-90.10230551324001",
    "latitude": "29.978149732444468",
    "geocoded_column": {
      "latitude": "29.978149732444468",
      "longitude": "-90.10230551324001"
    }
  },
  {
    "service_request": "2022-885034",
    "request_type": "Trash/Recycling",
    "request_reason": "Dead Animal Pick Up",
    "date_created": "2022-05-21T10:30:01.000",
    "date_modified": "2022-05-21T10:30:01.000",
    "request_status": "Pending",
    "responsible_agency": "Department of Sanitation",
    "final_address": "1001 Opelousas Ave",
    "address_councildis": "C",
    "status": "Assigned to Contractor",
    "contractor": "Richards Disposal",
    "rowid": "885034",
    "final_x": "3688500.29167",
    "final_y": "529016.206208",
    "longitude": "-90.04605480346805",
    "latitude": "29.948396708026674",
    "geocoded_column": {
      "latitude": "29.948396708026674",
      "longitude": "-90.04605480346805"
    }
  },
  {
    "service_request": "2022-885033",
    "request_type": "Property Maintenance",
    "request_reason": "Property Maintenance",
    "date_created": "2022-05-21T10:22:38.000",
    "date_modified": "2022-05-21T10:22:38.000",
    "request_status": "Pending",
    "responsible_agency": "Department of Code Enforcement",
    "final_address": "1347 Annette St",
    "address_councildis": "C",
    "status": "Pending",
    "rowid": "885033",
    "final_x": "3683114.86408",
    "final_y": "536940.20852",
    "longitude": "-90.0627813900836",
    "latitude": "29.970350265518217",
    "geocoded_column": {
      "latitude": "29.970350265518217",
      "longitude": "-90.0627813900836"
    }
  },
  {
    "service_request": "2022-885032",
    "request_type": "Traffic Signals/Signs/Striping/Streetlights",
    "request_reason": "Street Light Outage/Malfunction",
    "date_created": "2022-05-21T10:18:10.000",
    "date_modified": "2022-05-21T10:18:11.000",
    "request_status": "Pending",
    "responsible_agency": "Department of Public Works",
    "final_address": "1127 Cadiz St",
    "address_councildis": "B",
    "status": "Pending",
    "contractor": "Royal Engineering",
    "rowid": "885032",
    "final_x": "3670248.96698",
    "final_y": "519677.172472",
    "longitude": "-90.10399833273442",
    "latitude": "29.923268554753957",
    "geocoded_column": {
      "latitude": "29.923268554753957",
      "longitude": "-90.10399833273442"
    }
  },
  {
    "service_request": "2022-885031",
    "request_type": "Abandoned Vehicles",
    "request_reason": "Abandoned/Junk Vehicles",
    "date_created": "2022-05-21T10:14:24.000",
    "date_modified": "2022-05-21T10:14:25.000",
    "request_status": "Pending",
    "responsible_agency": "Department of Public Works",
    "final_address": "1727 Horace St",
    "address_councildis": "C",
    "status": "Pending",
    "rowid": "885031",
    "final_x": "3696246.71159",
    "final_y": "524859.568764",
    "longitude": "-90.02174649325357",
    "latitude": "29.936725830652907",
    "geocoded_column": {
      "latitude": "29.936725830652907",
      "longitude": "-90.02174649325357"
    }
  },
  {
    "service_request": "2022-885030",
    "request_type": "Traffic Signals/Signs/Striping/Streetlights",
    "request_reason": "Street Light Knocked Down/Leaning",
    "date_created": "2022-05-21T10:14:12.000",
    "date_modified": "2022-05-21T10:14:13.000",
    "request_status": "Pending",
    "responsible_agency": "Department of Public Works",
    "final_address": "3159 N Claiborne Ave",
    "address_councildis": "D",
    "status": "Pending",
    "contractor": "Royal Engineering",
    "rowid": "885030",
    "final_x": "3689912.14646",
    "final_y": "537784.762248",
    "longitude": "-90.04128481993041",
    "latitude": "29.972463496027462",
    "geocoded_column": {
      "latitude": "29.972463496027462",
      "longitude": "-90.04128481993041"
    }
  },
  {
    "service_request": "2022-885029",
    "request_type": "Trash/Recycling",
    "request_reason": "Missed Trash Pick-Up",
    "date_created": "2022-05-21T10:13:35.000",
    "date_modified": "2022-05-21T10:13:35.000",
    "request_status": "Pending",
    "responsible_agency": "Department of Sanitation",
    "final_address": "4730 Pontchartrain Blvd",
    "address_councildis": "A",
    "status": "Assigned to Contractor",
    "contractor": "Richards Disposal",
    "rowid": "885029",
    "final_x": "3667497.33172",
    "final_y": "538483.786121",
    "longitude": "-90.11205149100157",
    "latitude": "29.975061512618705",
    "geocoded_column": {
      "latitude": "29.975061512618705",
      "longitude": "-90.11205149100157"
    }
  },
  {
    "service_request": "2022-885028",
    "request_type": "Traffic Signals/Signs/Striping/Streetlights",
    "request_reason": "Street Light Knocked Down/Leaning",
    "date_created": "2022-05-21T10:09:29.000",
    "date_modified": "2022-05-21T10:09:30.000",
    "request_status": "Pending",
    "responsible_agency": "Department of Public Works",
    "final_address": "3140 N Claiborne Ave",
    "address_councildis": "D",
    "status": "Pending",
    "contractor": "Royal Engineering",
    "rowid": "885028",
    "final_x": "3689801.89795",
    "final_y": "537668.727432",
    "longitude": "-90.0416371341443",
    "latitude": "29.972147859006025",
    "geocoded_column": {
      "latitude": "29.972147859006025",
      "longitude": "-90.0416371341443"
    }
  },
  {
    "service_request": "2022-885026",
    "request_type": "Trash/Recycling",
    "request_reason": "Request a Large Item Pick Up",
    "date_created": "2022-05-21T10:03:16.000",
    "date_modified": "2022-05-21T10:03:17.000",
    "request_status": "Pending",
    "responsible_agency": "Department of Sanitation",
    "final_address": "3363 Desaix Blvd",
    "address_councildis": "D",
    "status": "Assigned to Contractor",
    "contractor": "Metro Disposal",
    "rowid": "885026",
    "final_x": "3677113.79624",
    "final_y": "543737.492366",
    "longitude": "-90.08149891096208",
    "latitude": "29.989222054242916",
    "geocoded_column": {
      "latitude": "29.989222054242916",
      "longitude": "-90.08149891096208"
    }
  },
  {
    "service_request": "2022-885025",
    "request_type": "Trash/Recycling",
    "request_reason": "Missed Trash Pick-Up",
    "date_created": "2022-05-21T09:52:23.000",
    "date_modified": "2022-05-21T09:52:24.000",
    "request_status": "Pending",
    "responsible_agency": "Department of Sanitation",
    "final_address": "4830 Bienville Ave",
    "address_councildis": "A",
    "status": "Assigned to Contractor",
    "contractor": "Richards Disposal",
    "rowid": "885025",
    "final_x": "3669016.62292",
    "final_y": "540777.073035",
    "longitude": "-90.10717565632642",
    "latitude": "29.981322663943338",
    "geocoded_column": {
      "latitude": "29.981322663943338",
      "longitude": "-90.10717565632642"
    }
  },
  {
    "service_request": "2022-885024",
    "request_type": "Trash/Recycling",
    "request_reason": "Replace Trash Cart",
    "date_created": "2022-05-21T09:51:10.000",
    "date_modified": "2022-05-21T09:51:11.000",
    "request_status": "Pending",
    "responsible_agency": "Department of Sanitation",
    "final_address": "4830 Bienville Ave",
    "address_councildis": "A",
    "status": "Assigned to Contractor",
    "contractor": "Richards Disposal",
    "rowid": "885024",
    "final_x": "3669016.62292",
    "final_y": "540777.073035",
    "longitude": "-90.10717565632642",
    "latitude": "29.981322663943338",
    "geocoded_column": {
      "latitude": "29.981322663943338",
      "longitude": "-90.10717565632642"
    }
  },
  {
    "service_request": "2022-885023",
    "request_type": "Property Maintenance",
    "request_reason": "Property Maintenance",
    "date_created": "2022-05-21T09:45:46.000",
    "date_modified": "2022-05-21T09:45:47.000",
    "request_status": "Pending",
    "responsible_agency": "Department of Code Enforcement",
    "final_address": "4751 Evangeline Dr",
    "address_councildis": "E",
    "status": "Pending",
    "rowid": "885023",
    "final_x": "3709166.68203",
    "final_y": "555862.183513",
    "longitude": "-89.9798017671515",
    "latitude": "30.021558505754737",
    "geocoded_column": {
      "latitude": "30.021558505754737",
      "longitude": "-89.9798017671515"
    }
  },
  {
    "service_request": "2022-885022",
    "request_type": "Trash/Recycling",
    "request_reason": "Request a Large Item Pick Up",
    "date_created": "2022-05-21T09:25:38.000",
    "date_modified": "2022-05-21T09:25:39.000",
    "request_status": "Pending",
    "responsible_agency": "Department of Sanitation",
    "final_address": "1613 Spain St",
    "address_councildis": "D",
    "status": "Assigned to Contractor",
    "contractor": "Metro Disposal",
    "rowid": "885022",
    "final_x": "3686007.81455",
    "final_y": "538357.241801",
    "longitude": "-90.05359517242844",
    "latitude": "29.974158090948645",
    "geocoded_column": {
      "latitude": "29.974158090948645",
      "longitude": "-90.05359517242844"
    }
  },
  {
    "service_request": "2022-885021",
    "request_type": "Trash/Recycling",
    "request_reason": "Dead Animal Pick Up",
    "date_created": "2022-05-21T09:19:15.000",
    "date_modified": "2022-05-21T09:19:15.000",
    "request_status": "Pending",
    "responsible_agency": "Department of Sanitation",
    "final_address": "1415 Socrates St",
    "address_councildis": "C",
    "status": "Assigned to Contractor",
    "contractor": "Richards Disposal",
    "rowid": "885021",
    "final_x": "3689786.8918",
    "final_y": "526308.046398",
    "longitude": "-90.04208884413336",
    "latitude": "29.940910387977283",
    "geocoded_column": {
      "latitude": "29.940910387977283",
      "longitude": "-90.04208884413336"
    }
  },
  {
    "service_request": "2022-885020",
    "request_type": "Trash/Recycling",
    "request_reason": "MIssed Recycling Pick-Up",
    "date_created": "2022-05-21T09:09:50.000",
    "date_modified": "2022-05-21T09:09:51.000",
    "request_status": "Pending",
    "responsible_agency": "Department of Sanitation",
    "final_address": "18 Richmond Pl",
    "address_councildis": "A",
    "status": "Assigned to Contractor",
    "contractor": "Richards Disposal",
    "rowid": "885020",
    "final_x": "3666565.54554",
    "final_y": "524105.339644",
    "longitude": "-90.11547697427197",
    "latitude": "29.935552758662038",
    "geocoded_column": {
      "latitude": "29.935552758662038",
      "longitude": "-90.11547697427197"
    }
  },
  {
    "service_request": "2022-885019",
    "request_type": "Trash/Recycling",
    "request_reason": "Request a Large Item Pick Up",
    "date_created": "2022-05-21T09:06:12.000",
    "date_modified": "2022-05-21T09:06:12.000",
    "request_status": "Pending",
    "responsible_agency": "Department of Sanitation",
    "final_address": "12940 N Lake Carmel Dr",
    "address_councildis": "E",
    "status": "Assigned to Contractor",
    "contractor": "Metro Disposal",
    "rowid": "885019",
    "final_x": "3716359.38668",
    "final_y": "568456.782629",
    "longitude": "-89.95659687486014",
    "latitude": "30.05595297888004",
    "geocoded_column": {
      "latitude": "30.05595297888004",
      "longitude": "-89.95659687486014"
    }
  },
  {
    "service_request": "2022-885018",
    "request_type": "Roads/Drainage",
    "request_reason": "Street Subsidence (Sinking)",
    "date_created": "2022-05-21T08:46:48.000",
    "date_modified": "2022-05-21T08:46:48.000",
    "request_status": "Pending",
    "responsible_agency": "Department of Public Works",
    "final_address": "2930 Laurel St",
    "address_councildis": "B",
    "status": "Pending",
    "rowid": "885018",
    "final_x": "3676843.04661",
    "final_y": "519773.046648",
    "longitude": "-90.08318000876423",
    "latitude": "29.92333600300221",
    "geocoded_column": {
      "latitude": "29.92333600300221",
      "longitude": "-90.08318000876423"
    }
  },
  {
    "service_request": "2022-885017",
    "request_type": "Roads/Drainage",
    "request_reason": "Catch Basin - Clogged",
    "date_created": "2022-05-21T08:42:45.000",
    "date_modified": "2022-05-21T08:42:45.000",
    "request_status": "Pending",
    "responsible_agency": "Department of Public Works",
    "final_address": "623 N Alexander St, New Orleans, Louisiana, 70119",
    "address_councildis": "A",
    "status": "Pending",
    "rowid": "885017",
    "final_x": "3671169.66651",
    "final_y": "540783.847947",
    "longitude": "-90.10037511343135",
    "latitude": "29.981277766005682",
    "geocoded_column": {
      "latitude": "29.981277766005682",
      "longitude": "-90.10037511343135"
    }
  },
  {
    "service_request": "2022-885016",
    "request_type": "Abandoned Vehicles",
    "request_reason": "Vehicle Blocking Your Driveway",
    "date_created": "2022-05-21T08:41:57.000",
    "date_modified": "2022-05-21T08:41:57.000",
    "request_status": "Pending",
    "responsible_agency": "Department of Public Works",
    "final_address": "639 N Pierce St, New Orleans, Louisiana, 70119",
    "address_councildis": "A",
    "status": "Pending",
    "rowid": "885016",
    "final_x": "3672772.85441",
    "final_y": "539721.003466",
    "longitude": "-90.09534777442563",
    "latitude": "29.9783077754646",
    "geocoded_column": {
      "latitude": "29.9783077754646",
      "longitude": "-90.09534777442563"
    }
  },
  {
    "service_request": "2022-885015",
    "request_type": "Abandoned Vehicles",
    "request_reason": "Vehicle Blocking Your Driveway",
    "date_created": "2022-05-21T08:40:50.000",
    "date_modified": "2022-05-21T13:27:35.000",
    "request_status": "Pending",
    "responsible_agency": "Department of Public Works",
    "final_address": "639 N Pierce St, New Orleans, Louisiana, 70119",
    "address_councildis": "A",
    "rowid": "885015",
    "final_x": "3672772.85441",
    "final_y": "539721.003466",
    "longitude": "-90.09534777442563",
    "latitude": "29.9783077754646",
    "geocoded_column": {
      "latitude": "29.9783077754646",
      "longitude": "-90.09534777442563"
    }
  },
  {
    "service_request": "2022-885014",
    "request_type": "Trash/Recycling",
    "request_reason": "Illegal Dumping",
    "date_created": "2022-05-21T08:40:01.000",
    "date_modified": "2022-05-21T08:40:01.000",
    "request_status": "Pending",
    "responsible_agency": "Department of Sanitation",
    "final_address": "1109 Valence St",
    "address_councildis": "B",
    "status": "Pending",
    "rowid": "885014",
    "final_x": "3669916.40826",
    "final_y": "519500.204919",
    "longitude": "-90.10505408543676",
    "latitude": "29.92279175660115",
    "geocoded_column": {
      "latitude": "29.92279175660115",
      "longitude": "-90.10505408543676"
    }
  },
  {
    "service_request": "2022-885013",
    "request_type": "Trash/Recycling",
    "request_reason": "Missed Trash Pick-Up",
    "date_created": "2022-05-21T08:26:04.000",
    "date_modified": "2022-05-21T08:26:05.000",
    "request_status": "Pending",
    "responsible_agency": "Department of Sanitation",
    "final_address": "3410 Blair St, New Orleans, Louisiana, 70131",
    "address_councildis": "C",
    "status": "Assigned to Contractor",
    "contractor": "Richards Disposal",
    "rowid": "885013",
    "final_x": "3709452.84824",
    "final_y": "518200.203382",
    "longitude": "-89.98030275854161",
    "latitude": "29.91799266839776",
    "geocoded_column": {
      "latitude": "29.91799266839776",
      "longitude": "-89.98030275854161"
    }
  },
  {
    "service_request": "2022-885012",
    "request_type": "Trash/Recycling",
    "request_reason": "Missed Trash Pick-Up",
    "date_created": "2022-05-21T08:24:59.000",
    "date_modified": "2022-05-21T08:25:00.000",
    "request_status": "Pending",
    "responsible_agency": "Department of Sanitation",
    "final_address": "3410 Blair St, New Orleans, Louisiana, 70131",
    "address_councildis": "C",
    "status": "Assigned to Contractor",
    "contractor": "Richards Disposal",
    "rowid": "885012",
    "final_x": "3709452.84824",
    "final_y": "518200.203382",
    "longitude": "-89.98030275854161",
    "latitude": "29.91799266839776",
    "geocoded_column": {
      "latitude": "29.91799266839776",
      "longitude": "-89.98030275854161"
    }
  },
  {
    "service_request": "2022-885011",
    "request_type": "Trash/Recycling",
    "request_reason": "Replace Trash Cart",
    "date_created": "2022-05-21T08:07:34.000",
    "date_modified": "2022-05-21T08:07:35.000",
    "request_status": "Pending",
    "responsible_agency": "Department of Sanitation",
    "final_address": "8823 Birch St",
    "address_councildis": "A",
    "status": "Assigned to Contractor",
    "contractor": "Richards Disposal",
    "rowid": "885011",
    "final_x": "3660965.55917",
    "final_y": "531237.201986",
    "longitude": "-90.13292039944075",
    "latitude": "29.955325579273133",
    "geocoded_column": {
      "latitude": "29.955325579273133",
      "longitude": "-90.13292039944075"
    }
  },
  {
    "service_request": "2022-885010",
    "request_type": "Taxi Issues",
    "request_reason": "Taxi Compliment",
    "date_created": "2022-05-21T07:44:53.000",
    "date_modified": "2022-05-21T07:44:53.000",
    "request_status": "Pending",
    "responsible_agency": "Ground Transportation Bureau",
    "final_address": "4650 Ray Ave",
    "address_councildis": "E",
    "status": "Pending",
    "rowid": "885010",
    "final_x": "3698719.17424",
    "final_y": "553935.321816",
    "longitude": "-90.01288304967848",
    "latitude": "30.016595567018168",
    "geocoded_column": {
      "latitude": "30.016595567018168",
      "longitude": "-90.01288304967848"
    }
  },
  {
    "service_request": "2022-885009",
    "request_type": "Trash/Recycling",
    "request_reason": "MIssed Recycling Pick-Up",
    "date_created": "2022-05-21T07:42:10.000",
    "date_modified": "2022-05-21T07:42:10.000",
    "request_status": "Pending",
    "responsible_agency": "Department of Sanitation",
    "final_address": "4157 Vincennes Pl, New Orleans, Louisiana, 70125",
    "address_councildis": "B",
    "status": "Assigned to Contractor",
    "contractor": "Richards Disposal",
    "rowid": "885009",
    "final_x": "3668686.81095",
    "final_y": "530875.20589",
    "longitude": "-90.10855164951892",
    "latitude": "29.954105529841357",
    "geocoded_column": {
      "latitude": "29.954105529841357",
      "longitude": "-90.10855164951892"
    }
  },
  {
    "service_request": "2022-885008",
    "request_type": "Parks & Parkways",
    "request_reason": "Tree Stump (removal, grind)",
    "date_created": "2022-05-21T07:16:35.000",
    "date_modified": "2022-05-21T07:16:35.000",
    "request_status": "Pending",
    "responsible_agency": "Department of Parks & Parkway",
    "final_address": "908 First St",
    "address_councildis": "B",
    "status": "Pending",
    "rowid": "885008",
    "final_x": "3678393.44386",
    "final_y": "520936.860473",
    "longitude": "-90.07824574866011",
    "latitude": "29.926489509719314",
    "geocoded_column": {
      "latitude": "29.926489509719314",
      "longitude": "-90.07824574866011"
    }
  },
  {
    "service_request": "2022-885007",
    "request_type": "Trash/Recycling",
    "request_reason": "Missed Trash Pick-Up",
    "date_created": "2022-05-21T07:14:13.000",
    "date_modified": "2022-05-21T07:14:13.000",
    "request_status": "Pending",
    "responsible_agency": "Department of Sanitation",
    "final_address": "908 First St",
    "address_councildis": "B",
    "status": "Assigned to Contractor",
    "contractor": "Richards Disposal",
    "rowid": "885007",
    "final_x": "3678393.44386",
    "final_y": "520936.860473",
    "longitude": "-90.07824574866011",
    "latitude": "29.926489509719314",
    "geocoded_column": {
      "latitude": "29.926489509719314",
      "longitude": "-90.07824574866011"
    }
  },
  {
    "service_request": "2022-885006",
    "request_type": "Property Maintenance",
    "request_reason": "Property Maintenance",
    "date_created": "2022-05-21T06:39:55.000",
    "date_modified": "2022-05-21T06:39:55.000",
    "request_status": "Pending",
    "responsible_agency": "Department of Code Enforcement",
    "final_address": "4966 Music St",
    "address_councildis": "D",
    "status": "Pending",
    "rowid": "885006",
    "final_x": "3685512.44028",
    "final_y": "551377.857813",
    "longitude": "-90.05470079807966",
    "latitude": "30.00997533899598",
    "geocoded_column": {
      "latitude": "30.00997533899598",
      "longitude": "-90.05470079807966"
    }
  },
  {
    "service_request": "2022-885005",
    "request_type": "Parks & Parkways",
    "request_reason": "Request Tree Service (Right of Way/Public Property)",
    "date_created": "2022-05-21T06:29:43.000",
    "date_modified": "2022-05-21T06:29:43.000",
    "request_status": "Pending",
    "responsible_agency": "Department of Parks & Parkway",
    "final_address": "4975 St Roch Ave",
    "address_councildis": "D",
    "status": "Pending",
    "rowid": "885005",
    "final_x": "3685315.14409",
    "final_y": "551416.236181",
    "longitude": "-90.05532277515235",
    "latitude": "30.01008691767716",
    "geocoded_column": {
      "latitude": "30.01008691767716",
      "longitude": "-90.05532277515235"
    }
  },
  {
    "service_request": "2022-885004",
    "request_type": "Traffic Signals/Signs/Striping/Streetlights",
    "request_reason": "Traffic Signal Malfunctioning/Damaged",
    "date_created": "2022-05-21T06:15:42.000",
    "date_modified": "2022-05-21T13:30:37.000",
    "request_status": "Pending",
    "responsible_agency": "Department of Public Works",
    "final_address": "City Park Ave & N Carrollton Ave, New Orleans, Louisiana, 70119",
    "address_councildis": "A",
    "rowid": "885004",
    "final_x": "3673886.2",
    "final_y": "541432.38",
    "longitude": "-90.09177285377343",
    "latitude": "29.982980352541237",
    "geocoded_column": {
      "latitude": "29.982980352541237",
      "longitude": "-90.09177285377343"
    }
  },
  {
    "service_request": "2022-885003",
    "request_type": "Trash/Recycling",
    "request_reason": "Illegal Dumping",
    "date_created": "2022-05-20T22:34:55.000",
    "date_modified": "2022-05-20T22:34:55.000",
    "request_status": "Pending",
    "responsible_agency": "Department of Sanitation",
    "final_address": "2339 N Galvez St",
    "address_councildis": "D",
    "status": "Pending",
    "rowid": "885003",
    "final_x": "3685787.72655",
    "final_y": "540102.804747",
    "longitude": "-90.05422871917304",
    "latitude": "29.978964533432777",
    "geocoded_column": {
      "latitude": "29.978964533432777",
      "longitude": "-90.05422871917304"
    }
  },
  {
    "service_request": "2022-885002",
    "request_type": "Roads/Drainage",
    "request_reason": "Damaged Sidewalk",
    "date_created": "2022-05-20T22:16:57.000",
    "date_modified": "2022-05-20T22:16:57.000",
    "request_status": "Pending",
    "responsible_agency": "Department of Public Works",
    "final_address": "2744 Jasmine St",
    "address_councildis": "D",
    "status": "Pending",
    "rowid": "885002",
    "final_x": "3688036.68406",
    "final_y": "548125.065554",
    "longitude": "-90.04684119516165",
    "latitude": "30.00095365406136",
    "geocoded_column": {
      "latitude": "30.00095365406136",
      "longitude": "-90.04684119516165"
    }
  },
  {
    "service_request": "2022-885000",
    "request_type": "Trash/Recycling",
    "request_reason": "Damaged Caused By Contractor",
    "date_created": "2022-05-20T20:46:29.000",
    "date_modified": "2022-05-20T20:46:30.000",
    "request_status": "Pending",
    "responsible_agency": "Department of Sanitation",
    "final_address": "2628 Octavia St",
    "address_councildis": "A",
    "status": "Assigned to Contractor",
    "contractor": "Richards Disposal",
    "rowid": "885000",
    "final_x": "3667815.90701",
    "final_y": "525293.840445",
    "longitude": "-90.11148954856766",
    "latitude": "29.938784153514366",
    "geocoded_column": {
      "latitude": "29.938784153514366",
      "longitude": "-90.11148954856766"
    }
  },
  {
    "service_request": "2022-884999",
    "request_type": "Trash/Recycling",
    "request_reason": "Missed Trash Pick-Up",
    "date_created": "2022-05-20T20:41:14.000",
    "date_modified": "2022-05-20T20:41:14.000",
    "request_status": "Pending",
    "responsible_agency": "Department of Sanitation",
    "final_address": "2428 Amelia St, New Orleans, Louisiana, 70115",
    "address_councildis": "B",
    "status": "Assigned to Contractor",
    "contractor": "Richards Disposal",
    "rowid": "884999",
    "final_x": "3672355.39527",
    "final_y": "524144.14438",
    "longitude": "-90.09719700726566",
    "latitude": "29.93548898155597",
    "geocoded_column": {
      "latitude": "29.93548898155597",
      "longitude": "-90.09719700726566"
    }
  },
  {
    "service_request": "2022-884998",
    "request_type": "Trash/Recycling",
    "request_reason": "MIssed Recycling Pick-Up",
    "date_created": "2022-05-20T20:38:37.000",
    "date_modified": "2022-05-20T20:38:37.000",
    "request_status": "Pending",
    "responsible_agency": "Department of Sanitation",
    "final_address": "4223 Eden St",
    "address_councildis": "B",
    "status": "Assigned to Contractor",
    "contractor": "Richards Disposal",
    "rowid": "884998",
    "final_x": "3670355.29543",
    "final_y": "530424.39181",
    "longitude": "-90.10329851663387",
    "latitude": "29.952816795574023",
    "geocoded_column": {
      "latitude": "29.952816795574023",
      "longitude": "-90.10329851663387"
    }
  },
  {
    "service_request": "2022-884997",
    "request_type": "Parks & Parkways",
    "request_reason": "Request Tree Service (Right of Way/Public Property)",
    "date_created": "2022-05-20T20:09:05.000",
    "date_modified": "2022-05-20T20:09:05.000",
    "request_status": "Pending",
    "responsible_agency": "Department of Parks & Parkway",
    "final_address": "11111 Whiteside Rd",
    "address_councildis": "E",
    "status": "Pending",
    "rowid": "884997",
    "final_x": "3711692.16338",
    "final_y": "565018.863458",
    "longitude": "-89.97147813654944",
    "latitude": "30.046653460802133",
    "geocoded_column": {
      "latitude": "30.046653460802133",
      "longitude": "-89.97147813654944"
    }
  },
  {
    "service_request": "2022-884995",
    "request_type": "Trash/Recycling",
    "request_reason": "Request a Large Item Pick Up",
    "date_created": "2022-05-20T20:01:40.000",
    "date_modified": "2022-05-20T20:01:40.000",
    "request_status": "Pending",
    "responsible_agency": "Department of Sanitation",
    "final_address": "3117 Milan St",
    "address_councildis": "B",
    "status": "Assigned to Contractor",
    "contractor": "Richards Disposal",
    "rowid": "884995",
    "final_x": "3671080.27924",
    "final_y": "526480.778686",
    "longitude": "-90.10114324040677",
    "latitude": "29.9419517312977",
    "geocoded_column": {
      "latitude": "29.9419517312977",
      "longitude": "-90.10114324040677"
    }
  },
  {
    "service_request": "2022-884994",
    "request_type": "Trash/Recycling",
    "request_reason": "Replace Trash Cart",
    "date_created": "2022-05-20T19:58:28.000",
    "date_modified": "2022-05-20T19:58:29.000",
    "request_status": "Pending",
    "responsible_agency": "Department of Sanitation",
    "final_address": "3117 Milan St",
    "address_councildis": "B",
    "status": "Assigned to Contractor",
    "contractor": "Richards Disposal",
    "rowid": "884994",
    "final_x": "3671080.27924",
    "final_y": "526480.778686",
    "longitude": "-90.10114324040677",
    "latitude": "29.9419517312977",
    "geocoded_column": {
      "latitude": "29.9419517312977",
      "longitude": "-90.10114324040677"
    }
  },
  {
    "service_request": "2022-884993",
    "request_type": "Trash/Recycling",
    "request_reason": "Missed Trash Pick-Up",
    "date_created": "2022-05-20T19:40:17.000",
    "date_modified": "2022-05-20T19:40:17.000",
    "request_status": "Pending",
    "responsible_agency": "Department of Sanitation",
    "final_address": "6034 St Charles Ave",
    "address_councildis": "A",
    "status": "Assigned to Contractor",
    "contractor": "Richards Disposal",
    "rowid": "884993",
    "final_x": "3665407.96992",
    "final_y": "522600.059258",
    "longitude": "-90.11918182093287",
    "latitude": "29.931447495065896",
    "geocoded_column": {
      "latitude": "29.931447495065896",
      "longitude": "-90.11918182093287"
    }
  },
  {
    "service_request": "2022-884992",
    "request_type": "Trash/Recycling",
    "request_reason": "Missed Trash Pick-Up",
    "date_created": "2022-05-20T19:33:31.000",
    "date_modified": "2022-05-20T19:33:32.000",
    "request_status": "Pending",
    "responsible_agency": "Department of Sanitation",
    "final_address": "428 S Hennessey St",
    "address_councildis": "A",
    "status": "Assigned to Contractor",
    "contractor": "Richards Disposal",
    "rowid": "884992",
    "final_x": "3669412.15566",
    "final_y": "537742.064712",
    "longitude": "-90.10602905407805",
    "latitude": "29.972965771650248",
    "geocoded_column": {
      "latitude": "29.972965771650248",
      "longitude": "-90.10602905407805"
    }
  },
  {
    "service_request": "2022-884991",
    "request_type": "Trash/Recycling",
    "request_reason": "Replace Trash Cart",
    "date_created": "2022-05-20T19:32:08.000",
    "date_modified": "2022-05-20T19:32:09.000",
    "request_status": "Pending",
    "responsible_agency": "Department of Sanitation",
    "final_address": "424 S Hennessey St",
    "address_councildis": "A",
    "status": "Assigned to Contractor",
    "contractor": "Richards Disposal",
    "rowid": "884991",
    "final_x": "3669431.8146",
    "final_y": "537756.991752",
    "longitude": "-90.10596646220742",
    "latitude": "29.973006236996117",
    "geocoded_column": {
      "latitude": "29.973006236996117",
      "longitude": "-90.10596646220742"
    }
  },
  {
    "service_request": "2022-884990",
    "request_type": "Trash/Recycling",
    "request_reason": "Repair Trash Cart",
    "date_created": "2022-05-20T19:28:00.000",
    "date_modified": "2022-05-20T19:28:00.000",
    "request_status": "Pending",
    "responsible_agency": "Department of Sanitation",
    "final_address": "4153 Vincennes Pl",
    "address_councildis": "B",
    "status": "Assigned to Contractor",
    "contractor": "Richards Disposal",
    "rowid": "884990",
    "final_x": "3668701.87246",
    "final_y": "530819.415362",
    "longitude": "-90.10850597428482",
    "latitude": "29.95395168150606",
    "geocoded_column": {
      "latitude": "29.95395168150606",
      "longitude": "-90.10850597428482"
    }
  },
  {
    "service_request": "2022-884989",
    "request_type": "Trash/Recycling",
    "request_reason": "MIssed Recycling Pick-Up",
    "date_created": "2022-05-20T19:04:46.000",
    "date_modified": "2022-05-20T19:04:47.000",
    "request_status": "Pending",
    "responsible_agency": "Department of Sanitation",
    "final_address": "8506 Apricot St",
    "address_councildis": "A",
    "status": "Assigned to Contractor",
    "contractor": "Richards Disposal",
    "rowid": "884989",
    "final_x": "3664686.92685",
    "final_y": "533611.932741",
    "longitude": "-90.12109029887758",
    "latitude": "29.961747590287853",
    "geocoded_column": {
      "latitude": "29.961747590287853",
      "longitude": "-90.12109029887758"
    }
  },
  {
    "service_request": "2022-884987",
    "request_type": "Roads/Drainage",
    "request_reason": "Pothole",
    "date_created": "2022-05-20T18:45:57.000",
    "date_modified": "2022-05-20T18:45:57.000",
    "request_status": "Pending",
    "responsible_agency": "Department of Public Works",
    "final_address": "5764 Vermillion Blvd",
    "address_councildis": "D",
    "status": "Pending",
    "rowid": "884987",
    "final_x": "3683008.27304",
    "final_y": "554630.151448",
    "longitude": "-90.06249840578977",
    "latitude": "30.01899455880003",
    "geocoded_column": {
      "latitude": "30.01899455880003",
      "longitude": "-90.06249840578977"
    }
  },
  {
    "service_request": "2022-884986",
    "request_type": "Property Maintenance",
    "request_reason": "Property Maintenance",
    "date_created": "2022-05-20T18:45:56.000",
    "date_modified": "2022-05-20T18:45:56.000",
    "request_status": "Pending",
    "responsible_agency": "Department of Code Enforcement",
    "final_address": "1913 Casa Calvo St",
    "address_councildis": "C",
    "status": "Pending",
    "rowid": "884986",
    "final_x": "3691896.8712",
    "final_y": "524164.881404",
    "longitude": "-90.03550392712869",
    "latitude": "29.934951867401704",
    "geocoded_column": {
      "latitude": "29.934951867401704",
      "longitude": "-90.03550392712869"
    }
  },
  {
    "service_request": "2022-884985",
    "request_type": "Trash/Recycling",
    "request_reason": "Start Trash Service",
    "date_created": "2022-05-20T18:03:26.000",
    "date_modified": "2022-05-20T18:03:27.000",
    "request_status": "Pending",
    "responsible_agency": "Department of Sanitation",
    "final_address": "1240 Jourdan Ave B",
    "address_councildis": "E",
    "status": "Assigned to Contractor",
    "contractor": "Metro Disposal",
    "rowid": "884985",
    "final_x": "3695144.6255",
    "final_y": "535214.876806",
    "longitude": "-90.024852488171",
    "latitude": "29.965233954822857",
    "geocoded_column": {
      "latitude": "29.965233954822857",
      "longitude": "-90.024852488171"
    }
  },
  {
    "service_request": "2022-884984",
    "request_type": "Trash/Recycling",
    "request_reason": "Missed Trash Pick-Up",
    "date_created": "2022-05-20T17:56:06.000",
    "date_modified": "2022-05-20T17:56:06.000",
    "request_status": "Pending",
    "responsible_agency": "Department of Sanitation",
    "final_address": "65 Versailles Blvd",
    "address_councildis": "B",
    "status": "Assigned to Contractor",
    "contractor": "Richards Disposal",
    "rowid": "884984",
    "final_x": "3667786.32353",
    "final_y": "530363.657538",
    "longitude": "-90.11141225974532",
    "latitude": "29.952725374670543",
    "geocoded_column": {
      "latitude": "29.952725374670543",
      "longitude": "-90.11141225974532"
    }
  },
  {
    "service_request": "2022-884983",
    "request_type": "Trash/Recycling",
    "request_reason": "Request a Large Item Pick Up",
    "date_created": "2022-05-20T17:47:16.000",
    "date_modified": "2022-05-20T17:47:17.000",
    "request_status": "Pending",
    "responsible_agency": "Department of Sanitation",
    "final_address": "3511 Pittari Pl",
    "address_councildis": "C",
    "status": "Assigned to Contractor",
    "contractor": "Richards Disposal",
    "rowid": "884983",
    "final_x": "3709554.25259",
    "final_y": "517808.000246",
    "longitude": "-89.97999730490767",
    "latitude": "29.91691095395737",
    "geocoded_column": {
      "latitude": "29.91691095395737",
      "longitude": "-89.97999730490767"
    }
  },
  {
    "service_request": "2022-884982",
    "request_type": "Trash/Recycling",
    "request_reason": "MIssed Recycling Pick-Up",
    "date_created": "2022-05-20T17:46:43.000",
    "date_modified": "2022-05-21T13:31:59.000",
    "request_status": "Pending",
    "responsible_agency": "Department of Sanitation",
    "final_address": "New Orleans,LA",
    "address_councildis": "B",
    "status": "Assigned to Contractor",
    "contractor": "Richards Disposal",
    "rowid": "884982",
    "final_x": "3668453.81758",
    "final_y": "530164.35875",
    "longitude": "-90.10931132798616",
    "latitude": "29.952157778820375",
    "geocoded_column": {
      "latitude": "29.952157778820375",
      "longitude": "-90.10931132798616"
    }
  },
  {
    "service_request": "2022-884981",
    "request_type": "Trash/Recycling",
    "request_reason": "MIssed Recycling Pick-Up",
    "date_created": "2022-05-20T17:42:02.000",
    "date_modified": "2022-05-20T17:42:03.000",
    "request_status": "Pending",
    "responsible_agency": "Department of Sanitation",
    "final_address": "4000 Vincennes Pl",
    "address_councildis": "B",
    "status": "Assigned to Contractor",
    "contractor": "Richards Disposal",
    "rowid": "884981",
    "final_x": "3668346.02958",
    "final_y": "529950.103169",
    "longitude": "-90.10965889813863",
    "latitude": "29.951571811600417",
    "geocoded_column": {
      "latitude": "29.951571811600417",
      "longitude": "-90.10965889813863"
    }
  },
  {
    "service_request": "2022-884980",
    "request_type": "Trash/Recycling",
    "request_reason": "Request a Large Item Pick Up",
    "date_created": "2022-05-20T17:41:39.000",
    "date_modified": "2022-05-20T17:41:39.000",
    "request_status": "Pending",
    "responsible_agency": "Department of Sanitation",
    "final_address": "113 English Turn Dr",
    "address_councildis": "C",
    "status": "Assigned to Contractor",
    "contractor": "Richards Disposal",
    "rowid": "884980",
    "final_x": "3720882.01414",
    "final_y": "512226.095793",
    "longitude": "-89.94445616755196",
    "latitude": "29.901189968481614",
    "geocoded_column": {
      "latitude": "29.901189968481614",
      "longitude": "-89.94445616755196"
    }
  },
  {
    "service_request": "2022-884979",
    "request_type": "Roads/Drainage",
    "request_reason": "Man hole cover issue",
    "date_created": "2022-05-20T17:28:42.000",
    "date_modified": "2022-05-20T17:28:43.000",
    "request_status": "Pending",
    "responsible_agency": "Department of Public Works",
    "final_address": "LOWERLINE ST & PRYTANIA ST",
    "address_councildis": "A",
    "status": "Pending",
    "rowid": "884979",
    "final_x": "3661178.2",
    "final_y": "523085.88",
    "longitude": "-90.13251869204886",
    "latitude": "29.932905910637288",
    "geocoded_column": {
      "latitude": "29.932905910637288",
      "longitude": "-90.13251869204886"
    }
  },
  {
    "service_request": "2022-884978",
    "request_type": "Trash/Recycling",
    "request_reason": "Request a Large Item Pick Up",
    "date_created": "2022-05-20T17:26:35.000",
    "date_modified": "2022-05-20T17:26:35.000",
    "request_status": "Pending",
    "responsible_agency": "Department of Sanitation",
    "final_address": "3520 Rue Nichole",
    "address_councildis": "C",
    "status": "Assigned to Contractor",
    "contractor": "Richards Disposal",
    "rowid": "884978",
    "final_x": "3704061.39492",
    "final_y": "517692.134774",
    "longitude": "-89.99733919785159",
    "latitude": "29.916769606937",
    "geocoded_column": {
      "latitude": "29.916769606937",
      "longitude": "-89.99733919785159"
    }
  },
  {
    "service_request": "2022-884977",
    "request_type": "Trash/Recycling",
    "request_reason": "Request a Large Item Pick Up",
    "date_created": "2022-05-20T17:23:20.000",
    "date_modified": "2022-05-20T17:23:21.000",
    "request_status": "Pending",
    "responsible_agency": "Department of Sanitation",
    "final_address": "126 N Solomon St",
    "address_councildis": "A",
    "status": "Assigned to Contractor",
    "contractor": "Richards Disposal",
    "rowid": "884977",
    "final_x": "3670776.78951",
    "final_y": "538931.177226",
    "longitude": "-90.10167889943484",
    "latitude": "29.976195168490353",
    "geocoded_column": {
      "latitude": "29.976195168490353",
      "longitude": "-90.10167889943484"
    }
  },
  {
    "service_request": "2022-884976",
    "request_type": "Traffic Signals/Signs/Striping/Streetlights",
    "request_reason": "Street Light Outage/Malfunction",
    "date_created": "2022-05-20T17:16:51.000",
    "date_modified": "2022-05-20T17:16:51.000",
    "request_status": "Pending",
    "responsible_agency": "Department of Public Works",
    "final_address": "500 Poydras St",
    "address_councildis": "B",
    "status": "Pending",
    "contractor": "Royal Engineering",
    "rowid": "884976",
    "final_x": "3681397.5229",
    "final_y": "529090.628608",
    "longitude": "-90.06847858556495",
    "latitude": "29.94881884297746",
    "geocoded_column": {
      "latitude": "29.94881884297746",
      "longitude": "-90.06847858556495"
    }
  },
  {
    "service_request": "2022-884975",
    "request_type": "Traffic Signals/Signs/Striping/Streetlights",
    "request_reason": "Street Name Sign Damaged or Missing",
    "date_created": "2022-05-20T17:12:46.000",
    "date_modified": "2022-05-20T17:12:46.000",
    "request_status": "Pending",
    "responsible_agency": "Department of Public Works",
    "final_address": "415 Lafayette St",
    "address_councildis": "B",
    "status": "Pending",
    "rowid": "884975",
    "final_x": "3681702.44482",
    "final_y": "528696.686656",
    "longitude": "-90.06752955775576",
    "latitude": "29.94772637646937",
    "geocoded_column": {
      "latitude": "29.94772637646937",
      "longitude": "-90.06752955775576"
    }
  },
  {
    "service_request": "2022-884974",
    "request_type": "Traffic Signals/Signs/Striping/Streetlights",
    "request_reason": "Street Name Sign Damaged or Missing",
    "date_created": "2022-05-20T17:12:45.000",
    "date_modified": "2022-05-20T17:12:45.000",
    "request_status": "Pending",
    "responsible_agency": "Department of Public Works",
    "final_address": "415 Lafayette St",
    "address_councildis": "B",
    "status": "Pending",
    "rowid": "884974",
    "final_x": "3681702.44482",
    "final_y": "528696.686656",
    "longitude": "-90.06752955775576",
    "latitude": "29.94772637646937",
    "geocoded_column": {
      "latitude": "29.94772637646937",
      "longitude": "-90.06752955775576"
    }
  },
  {
    "service_request": "2022-884973",
    "request_type": "Traffic Signals/Signs/Striping/Streetlights",
    "request_reason": "Disabled Parking Sign ",
    "date_created": "2022-05-20T17:10:59.000",
    "date_modified": "2022-05-20T17:10:59.000",
    "request_status": "Pending",
    "responsible_agency": "Department of Public Works",
    "final_address": "415 Lafayette St",
    "address_councildis": "B",
    "status": "Pending",
    "rowid": "884973",
    "final_x": "3681702.44482",
    "final_y": "528696.686656",
    "longitude": "-90.06752955775576",
    "latitude": "29.94772637646937",
    "geocoded_column": {
      "latitude": "29.94772637646937",
      "longitude": "-90.06752955775576"
    }
  },
  {
    "service_request": "2022-884972",
    "request_type": "Traffic Signals/Signs/Striping/Streetlights",
    "request_reason": "Street Light Outage/Malfunction",
    "date_created": "2022-05-20T17:07:49.000",
    "date_modified": "2022-05-20T17:07:50.000",
    "request_status": "Pending",
    "responsible_agency": "Department of Public Works",
    "final_address": "415 Lafayette St",
    "address_councildis": "B",
    "status": "Pending",
    "contractor": "Royal Engineering",
    "rowid": "884972",
    "final_x": "3681702.44482",
    "final_y": "528696.686656",
    "longitude": "-90.06752955775576",
    "latitude": "29.94772637646937",
    "geocoded_column": {
      "latitude": "29.94772637646937",
      "longitude": "-90.06752955775576"
    }
  },
  {
    "service_request": "2022-884971",
    "request_type": "Traffic Signals/Signs/Striping/Streetlights",
    "request_reason": "Street Light Outage/Malfunction",
    "date_created": "2022-05-20T17:05:23.000",
    "date_modified": "2022-05-20T17:05:23.000",
    "request_status": "Pending",
    "responsible_agency": "Department of Public Works",
    "final_address": "415 Lafayette St",
    "address_councildis": "B",
    "status": "Pending",
    "contractor": "Royal Engineering",
    "rowid": "884971",
    "final_x": "3681702.44482",
    "final_y": "528696.686656",
    "longitude": "-90.06752955775576",
    "latitude": "29.94772637646937",
    "geocoded_column": {
      "latitude": "29.94772637646937",
      "longitude": "-90.06752955775576"
    }
  },
  {
    "service_request": "2022-884970",
    "request_type": "Roads/Drainage",
    "request_reason": "Damaged Sidewalk",
    "date_created": "2022-05-20T16:59:43.000",
    "date_modified": "2022-05-20T16:59:43.000",
    "request_status": "Pending",
    "responsible_agency": "Department of Public Works",
    "final_address": "3908 Perrier St",
    "address_councildis": "B",
    "status": "Pending",
    "rowid": "884970",
    "final_x": "3672672.07105",
    "final_y": "520211.366904",
    "longitude": "-90.09633129364002",
    "latitude": "29.924665713552923",
    "geocoded_column": {
      "latitude": "29.924665713552923",
      "longitude": "-90.09633129364002"
    }
  },
  {
    "service_request": "2022-884969",
    "request_type": "Trash/Recycling",
    "request_reason": "Missed Trash Pick-Up",
    "date_created": "2022-05-20T16:58:58.000",
    "date_modified": "2022-05-20T16:58:59.000",
    "request_status": "Pending",
    "responsible_agency": "Department of Sanitation",
    "final_address": "6220 Freret St",
    "address_councildis": "A",
    "status": "Assigned to Contractor",
    "contractor": "Richards Disposal",
    "rowid": "884969",
    "final_x": "3665733.71892",
    "final_y": "524645.390204",
    "longitude": "-90.11808498670464",
    "latitude": "29.93706200929093",
    "geocoded_column": {
      "latitude": "29.93706200929093",
      "longitude": "-90.11808498670464"
    }
  },
  {
    "service_request": "2022-884968",
    "request_type": "Roads/Drainage",
    "request_reason": "Damaged Sidewalk",
    "date_created": "2022-05-20T16:57:23.000",
    "date_modified": "2022-05-20T16:57:23.000",
    "request_status": "Pending",
    "responsible_agency": "Department of Public Works",
    "final_address": "338 Lafayette St",
    "address_councildis": "B",
    "status": "Pending",
    "rowid": "884968",
    "final_x": "3681851.93512",
    "final_y": "528597.93152",
    "longitude": "-90.0670610041549",
    "latitude": "29.94745029138929",
    "geocoded_column": {
      "latitude": "29.94745029138929",
      "longitude": "-90.0670610041549"
    }
  },
  {
    "service_request": "2022-884967",
    "request_type": "Property Maintenance",
    "request_reason": "Property Maintenance",
    "date_created": "2022-05-20T16:53:53.000",
    "date_modified": "2022-05-20T16:53:53.000",
    "request_status": "Pending",
    "responsible_agency": "Department of Code Enforcement",
    "final_address": "909 Lafayette St",
    "address_councildis": "B",
    "status": "Pending",
    "rowid": "884967",
    "final_x": "3679744.23119",
    "final_y": "529147.754624",
    "longitude": "-90.07369675248621",
    "latitude": "29.949025998571166",
    "geocoded_column": {
      "latitude": "29.949025998571166",
      "longitude": "-90.07369675248621"
    }
  },