[
  {
    "service_request": "2022-954291",
    "request_type": "Trash/Recycling",
    "request_reason": "Order Recycling Cart",
    "date_created": "2022-12-19T00:21:49.000",
    "date_modified": "2022-12-19T00:21:49.000",
    "request_status": "Pending",
    "responsible_agency": "Department of Sanitation",
    "final_address": "4105 General Ogden St",
    "address_councildis": "A",
    "status": "Pending",
    "rowid": "954291",
    "final_x": "3666880.34433",
    "final_y": "537916.664713",
    "longitude": "-90.11401916389497",
    "latitude": "29.973520185992776",
    "geocoded_column": {
      "latitude": "29.973520185992776",
      "longitude": "-90.11401916389497"
    }
  },
  {
    "service_request": "2022-954290",
    "request_type": "Health Related Request",
    "request_reason": "Noise Ordinance Complaint",
    "date_created": "2022-12-19T00:08:50.000",
    "date_modified": "2022-12-19T00:08:50.000",
    "request_status": "Pending",
    "responsible_agency": "Health Department",
    "final_address": "1009 N Claiborne Ave, New Orleans, Louisiana, 70116",
    "address_councildis": "D",
    "status": "Pending",
    "rowid": "954290",
    "final_x": "3680417.66101",
    "final_y": "535635.218886",
    "longitude": "-90.07134484150656",
    "latitude": "29.966843952035386",
    "geocoded_column": {
      "latitude": "29.966843952035386",
      "longitude": "-90.07134484150656"
    }
  },
  {
    "service_request": "2022-954289",
    "request_type": "Traffic Signals/Signs/Striping/Streetlights",
    "request_reason": "Traffic Signal Malfunctioning/Damaged",
    "date_created": "2022-12-18T23:39:28.000",
    "date_modified": "2022-12-18T23:39:29.000",
    "request_status": "Pending",
    "responsible_agency": "Department of Public Works",
    "final_address": "CALLIOPE ST & CONVENTION CENTER BLVD",
    "address_councildis": "B",
    "status": "Pending",
    "rowid": "954289",
    "final_x": "3682809.09",
    "final_y": "525206.83",
    "longitude": "-90.06415749548563",
    "latitude": "29.938096780045118",
    "geocoded_column": {
      "latitude": "29.938096780045118",
      "longitude": "-90.06415749548563"
    }
  },
  {
    "service_request": "2022-954288",
    "request_type": "Health Related Request",
    "request_reason": "Noise Ordinance Complaint",
    "date_created": "2022-12-18T23:28:19.000",
    "date_modified": "2022-12-18T23:28:19.000",
    "request_status": "Pending",
    "responsible_agency": "Health Department",
    "final_address": "239 Decatur St",
    "address_councildis": "C",
    "status": "Pending",
    "rowid": "954288",
    "final_x": "3682195.63317",
    "final_y": "530830.069826",
    "longitude": "-90.06589786183099",
    "latitude": "29.95357746948798",
    "geocoded_column": {
      "latitude": "29.95357746948798",
      "longitude": "-90.06589786183099"
    }
  },
  {
    "service_request": "2022-954287",
    "request_type": "Trash/Recycling",
    "request_reason": "Request a Large Item Pick Up",
    "date_created": "2022-12-18T22:39:01.000",
    "date_modified": "2022-12-18T22:39:02.000",
    "request_status": "Pending",
    "responsible_agency": "Department of Sanitation",
    "final_address": "3116 Cleveland Ave, New Orleans, Louisiana, 70119",
    "address_councildis": "B",
    "status": "Assigned to Contractor",
    "contractor": "Richards Disposal",
    "rowid": "954287",
    "final_x": "3673629.4315",
    "final_y": "535784.785991",
    "longitude": "-90.09277698587567",
    "latitude": "29.967459038374624",
    "geocoded_column": {
      "latitude": "29.967459038374624",
      "longitude": "-90.09277698587567"
    }
  },
  {
    "service_request": "2022-954285",
    "request_type": "Property Maintenance",
    "request_reason": "Property Maintenance",
    "date_created": "2022-12-18T22:35:26.000",
    "date_modified": "2022-12-18T22:35:26.000",
    "request_status": "Pending",
    "responsible_agency": "Department of Code Enforcement",
    "final_address": "5810 Chamberlain Dr",
    "address_councildis": "D",
    "status": "Pending",
    "rowid": "954285",
    "final_x": "3679258.26786",
    "final_y": "553924.250648",
    "longitude": "-90.074371616807",
    "latitude": "30.01716741409558",
    "geocoded_column": {
      "latitude": "30.01716741409558",
      "longitude": "-90.074371616807"
    }
  },
  {
    "service_request": "2022-954284",
    "request_type": "Abandoned Vehicles",
    "request_reason": "Abandoned/Junk Vehicles",
    "date_created": "2022-12-18T21:19:16.000",
    "date_modified": "2022-12-18T21:19:16.000",
    "request_status": "Pending",
    "responsible_agency": "Department of Public Works",
    "final_address": "1659 N Miro St",
    "address_councildis": "D",
    "status": "Pending",
    "rowid": "954284",
    "final_x": "3680779.93442",
    "final_y": "539499.937674",
    "longitude": "-90.07006622768263",
    "latitude": "29.977459619470803",
    "geocoded_column": {
      "latitude": "29.977459619470803",
      "longitude": "-90.07006622768263"
    }
  },
  {
    "service_request": "2022-954283",
    "request_type": "Abandoned Vehicles",
    "request_reason": "Abandoned/Junk Vehicles",
    "date_created": "2022-12-18T21:16:55.000",
    "date_modified": "2022-12-18T21:16:55.000",
    "request_status": "Pending",
    "responsible_agency": "Department of Public Works",
    "final_address": "1668 N Tonti St",
    "address_councildis": "D",
    "status": "Pending",
    "rowid": "954283",
    "final_x": "3680605.56565",
    "final_y": "539750.166346",
    "longitude": "-90.0706082332086",
    "latitude": "29.978152946199305",
    "geocoded_column": {
      "latitude": "29.978152946199305",
      "longitude": "-90.0706082332086"
    }
  },
  {
    "service_request": "2022-954282",
    "request_type": "Trash/Recycling",
    "request_reason": "Missed Trash Pick-Up",
    "date_created": "2022-12-18T21:12:15.000",
    "date_modified": "2022-12-18T21:12:16.000",
    "request_status": "Pending",
    "responsible_agency": "Department of Sanitation",
    "final_address": "9319 Stroelitz St",
    "address_councildis": "A",
    "status": "Assigned to Contractor",
    "contractor": "Richards Disposal",
    "rowid": "954282",
    "final_x": "3664741.75604",
    "final_y": "537938.486537",
    "longitude": "-90.12077257522867",
    "latitude": "29.973642589970037",
    "geocoded_column": {
      "latitude": "29.973642589970037",
      "longitude": "-90.12077257522867"
    }
  },
  {
    "service_request": "2022-954281",
    "request_type": "Trash/Recycling",
    "request_reason": "Request a Large Item Pick Up",
    "date_created": "2022-12-18T20:17:18.000",
    "date_modified": "2022-12-18T20:17:19.000",
    "request_status": "Pending",
    "responsible_agency": "Department of Sanitation",
    "final_address": "1914 Esplanade Ave",
    "address_councildis": "D",
    "status": "Assigned to Contractor",
    "contractor": "Richards Disposal",
    "rowid": "954281",
    "final_x": "3680268.94703",
    "final_y": "537268.72084",
    "longitude": "-90.07175768356318",
    "latitude": "29.971340024340137",
    "geocoded_column": {
      "latitude": "29.971340024340137",
      "longitude": "-90.07175768356318"
    }
  },
  {
    "service_request": "2022-954280",
    "request_type": "Trash/Recycling",
    "request_reason": "Order Trash Cart",
    "date_created": "2022-12-18T19:59:41.000",
    "date_modified": "2022-12-18T19:59:42.000",
    "request_status": "Pending",
    "responsible_agency": "Department of Sanitation",
    "final_address": "3640 Frenchmen St",
    "address_councildis": "D",
    "status": "Assigned to Contractor",
    "contractor": "IV Waste",
    "rowid": "954280",
    "final_x": "3683736.21167",
    "final_y": "546175.908176",
    "longitude": "-90.060495108154",
    "latitude": "29.99572623092519",
    "geocoded_column": {
      "latitude": "29.99572623092519",
      "longitude": "-90.060495108154"
    }
  },
  {
    "service_request": "2022-954279",
    "request_type": "Traffic Signals/Signs/Striping/Streetlights",
    "request_reason": "Street Light Outage/Malfunction",
    "date_created": "2022-12-18T19:45:06.000",
    "date_modified": "2022-12-18T19:45:07.000",
    "request_status": "Pending",
    "responsible_agency": "Department of Public Works",
    "final_address": "828 Mazant St",
    "address_councildis": "C",
    "status": "Pending",
    "contractor": "Legacy Professional Services",
    "rowid": "954279",
    "final_x": "3691848.5647",
    "final_y": "534308.383621",
    "longitude": "-90.03529366551307",
    "latitude": "29.962844499614675",
    "geocoded_column": {
      "latitude": "29.962844499614675",
      "longitude": "-90.03529366551307"
    }
  },
  {
    "service_request": "2022-954278",
    "request_type": "Traffic Signals/Signs/Striping/Streetlights",
    "request_reason": "Traffic Sign Missing/Damaged",
    "date_created": "2022-12-18T19:29:35.000",
    "date_modified": "2022-12-18T19:29:35.000",
    "request_status": "Pending",
    "responsible_agency": "Department of Public Works",
    "final_address": "FRERET ST & VALENCE ST",
    "address_councildis": "B",
    "status": "Pending",
    "rowid": "954278",
    "final_x": "3669428.6",
    "final_y": "523937.68",
    "longitude": "-90.10644392655435",
    "latitude": "29.93500776557353",
    "geocoded_column": {
      "latitude": "29.93500776557353",
      "longitude": "-90.10644392655435"
    }
  },
  {
    "service_request": "2022-954277",
    "request_type": "Abandoned Vehicles",
    "request_reason": "Abandoned/Junk Vehicles",
    "date_created": "2022-12-18T19:27:55.000",
    "date_modified": "2022-12-18T19:27:55.000",
    "request_status": "Pending",
    "responsible_agency": "Department of Public Works",
    "final_address": "4801 Dale St",
    "address_councildis": "E",
    "status": "Pending",
    "rowid": "954277",
    "final_x": "3699541.65815",
    "final_y": "554749.820568",
    "longitude": "-90.01025465176293",
    "latitude": "30.018809041900056",
    "geocoded_column": {
      "latitude": "30.018809041900056",
      "longitude": "-90.01025465176293"
    }
  },
  {
    "service_request": "2022-954276",
    "request_type": "Abandoned Vehicles",
    "request_reason": "Vehicle Blocking Your Driveway",
    "date_created": "2022-12-18T19:24:22.000",
    "date_modified": "2022-12-18T19:24:22.000",
    "request_status": "Pending",
    "responsible_agency": "Department of Public Works",
    "final_address": "230 Decatur St",
    "address_councildis": "C",
    "status": "Pending",
    "rowid": "954276",
    "final_x": "3682256.06159",
    "final_y": "530750.38541",
    "longitude": "-90.06570983800063",
    "latitude": "29.95335652631167",
    "geocoded_column": {
      "latitude": "29.95335652631167",
      "longitude": "-90.06570983800063"
    }
  },
  {
    "service_request": "2022-954275",
    "request_type": "Traffic Signals/Signs/Striping/Streetlights",
    "request_reason": "Street Light Outage/Malfunction",
    "date_created": "2022-12-18T18:47:24.000",
    "date_modified": "2022-12-18T18:47:25.000",
    "request_status": "Pending",
    "responsible_agency": "Department of Public Works",
    "final_address": "3908 S Pin Oak Ave",
    "address_councildis": "C",
    "status": "Pending",
    "contractor": "Legacy Professional Services",
    "rowid": "954275",
    "final_x": "3704888.90027",
    "final_y": "513762.702386",
    "longitude": "-89.99487214705948",
    "latitude": "29.905938460495253",
    "geocoded_column": {
      "latitude": "29.905938460495253",
      "longitude": "-89.99487214705948"
    }
  },
  {
    "service_request": "2022-954274",
    "request_type": "Trash/Recycling",
    "request_reason": "Order Recycling Cart",
    "date_created": "2022-12-18T18:45:37.000",
    "date_modified": "2022-12-18T18:45:37.000",
    "request_status": "Pending",
    "responsible_agency": "Department of Sanitation",
    "final_address": "7410 Devine Ave",
    "address_councildis": "E",
    "status": "Pending",
    "rowid": "954274",
    "final_x": "3705906.00286",
    "final_y": "562462.677215",
    "longitude": "-89.98986002280172",
    "latitude": "30.039812784382832",
    "geocoded_column": {
      "latitude": "30.039812784382832",
      "longitude": "-89.98986002280172"
    }
  },
  {
    "service_request": "2022-954273",
    "request_type": "Traffic Signals/Signs/Striping/Streetlights",
    "request_reason": "Street Light Outage/Malfunction",
    "date_created": "2022-12-18T18:45:17.000",
    "date_modified": "2022-12-18T18:45:17.000",
    "request_status": "Pending",
    "responsible_agency": "Department of Public Works",
    "final_address": "3808 S Pin Oak Ave, New Orleans, Louisiana, 70131",
    "status": "Pending",
    "contractor": "Legacy Professional Services",
    "rowid": "954273",
    "longitude": "0.0",
    "latitude": "0.0",
    "geocoded_column": {
      "latitude": "0.0",
      "longitude": "0.0"
    }
  },
  {
    "service_request": "2022-954272",
    "request_type": "Trash/Recycling",
    "request_reason": "Request a Large Item Pick Up",
    "date_created": "2022-12-18T18:41:52.000",
    "date_modified": "2022-12-18T18:41:52.000",
    "request_status": "Pending",
    "responsible_agency": "Department of Sanitation",
    "final_address": "4828 Laurel St",
    "address_councildis": "B",
    "status": "Assigned to Contractor",
    "contractor": "Richards Disposal",
    "rowid": "954272",
    "final_x": "3669451.27207",
    "final_y": "517847.992758",
    "longitude": "-90.10657817792273",
    "latitude": "29.918262397433253",
    "geocoded_column": {
      "latitude": "29.918262397433253",
      "longitude": "-90.10657817792273"
    }
  },
  {
    "service_request": "2022-954271",
    "request_type": "Trash/Recycling",
    "request_reason": "Request a Large Item Pick Up",
    "date_created": "2022-12-18T18:41:51.000",
    "date_modified": "2022-12-18T18:41:52.000",
    "request_status": "Pending",
    "responsible_agency": "Department of Sanitation",
    "final_address": "4828 Laurel St",
    "address_councildis": "B",
    "status": "Assigned to Contractor",
    "contractor": "Richards Disposal",
    "rowid": "954271",
    "final_x": "3669451.27207",
    "final_y": "517847.992758",
    "longitude": "-90.10657817792273",
    "latitude": "29.918262397433253",
    "geocoded_column": {
      "latitude": "29.918262397433253",
      "longitude": "-90.10657817792273"
    }
  },
  {
    "service_request": "2022-954270",
    "request_type": "Trash/Recycling",
    "request_reason": "Request a Large Item Pick Up",
    "date_created": "2022-12-18T18:35:58.000",
    "date_modified": "2022-12-18T18:35:59.000",
    "request_status": "Pending",
    "responsible_agency": "Department of Sanitation",
    "final_address": "2112 Pleasure St",
    "address_councildis": "D",
    "status": "Assigned to Contractor",
    "contractor": "IV Waste",
    "rowid": "954270",
    "final_x": "3683639.64853",
    "final_y": "545041.168847",
    "longitude": "-90.06083994984641",
    "latitude": "29.99260905118098",
    "geocoded_column": {
      "latitude": "29.99260905118098",
      "longitude": "-90.06083994984641"
    }
  },
  {
    "service_request": "2022-954269",
    "request_type": "Trash/Recycling",
    "request_reason": "Request a Large Item Pick Up",
    "date_created": "2022-12-18T18:33:06.000",
    "date_modified": "2022-12-18T18:33:07.000",
    "request_status": "Pending",
    "responsible_agency": "Department of Sanitation",
    "final_address": "430 Bouny St",
    "address_councildis": "C",
    "status": "Assigned to Contractor",
    "contractor": "Richards Disposal",
    "rowid": "954269",
    "final_x": "3686087.85782",
    "final_y": "529846.815553",
    "longitude": "-90.05364255368967",
    "latitude": "29.950754902048192",
    "geocoded_column": {
      "latitude": "29.950754902048192",
      "longitude": "-90.05364255368967"
    }
  },
  {
    "service_request": "2022-954268",
    "request_type": "Trash/Recycling",
    "request_reason": "Missed Trash Pick-Up",
    "date_created": "2022-12-18T18:25:11.000",
    "date_modified": "2022-12-18T18:25:12.000",
    "request_status": "Pending",
    "responsible_agency": "Department of Sanitation",
    "final_address": "3315 N Miro St",
    "address_councildis": "D",
    "status": "Assigned to Contractor",
    "contractor": "IV Waste",
    "rowid": "954268",
    "final_x": "3691011.4694",
    "final_y": "539966.518091",
    "longitude": "-90.0377350671449",
    "latitude": "29.978428419823864",
    "geocoded_column": {
      "latitude": "29.978428419823864",
      "longitude": "-90.0377350671449"
    }
  },
  {
    "service_request": "2022-954267",
    "request_type": "Trash/Recycling",
    "request_reason": "Missed Trash Pick-Up",
    "date_created": "2022-12-18T18:21:38.000",
    "date_modified": "2022-12-18T18:21:39.000",
    "request_status": "Pending",
    "responsible_agency": "Department of Sanitation",
    "final_address": "4731 Dauphine St",
    "address_councildis": "E",
    "status": "Assigned to Contractor",
    "contractor": "Waste Pro",
    "rowid": "954267",
    "final_x": "3694593.21053",
    "final_y": "533433.713348",
    "longitude": "-90.02665796309971",
    "latitude": "29.960353686717127",
    "geocoded_column": {
      "latitude": "29.960353686717127",
      "longitude": "-90.02665796309971"
    }
  },
  {
    "service_request": "2022-954266",
    "request_type": "Trash/Recycling",
    "request_reason": "Missed Trash Pick-Up",
    "date_created": "2022-12-18T18:19:04.000",
    "date_modified": "2022-12-18T18:20:07.000",
    "request_status": "Pending",
    "responsible_agency": "Department of Sanitation",
    "final_address": "3317 N Miro St",
    "address_councildis": "D",
    "status": "Assigned to Contractor",
    "contractor": "IV Waste",
    "rowid": "954266",
    "final_x": "3691045.66268",
    "final_y": "539944.92289",
    "longitude": "-90.03762784391631",
    "latitude": "29.978367977591876",
    "geocoded_column": {
      "latitude": "29.978367977591876",
      "longitude": "-90.03762784391631"
    }
  },
  {
    "service_request": "2022-954265",
    "request_type": "Trash/Recycling",
    "request_reason": "Order Trash Cart",
    "date_created": "2022-12-18T17:52:40.000",
    "date_modified": "2022-12-18T17:52:41.000",
    "request_status": "Pending",
    "responsible_agency": "Department of Sanitation",
    "final_address": "2316 Martin Luther King, Jr. Blvd",
    "address_councildis": "B",
    "status": "Assigned to Contractor",
    "contractor": "Richards Disposal",
    "rowid": "954265",
    "final_x": "3676782.92065",
    "final_y": "526973.34547",
    "longitude": "-90.0831218147504",
    "latitude": "29.943136274977352",
    "geocoded_column": {
      "latitude": "29.943136274977352",
      "longitude": "-90.0831218147504"
    }
  },
  {
    "service_request": "2022-954264",
    "request_type": "Trash/Recycling",
    "request_reason": "Return Recycling Cart",
    "date_created": "2022-12-18T17:50:11.000",
    "date_modified": "2022-12-18T17:50:11.000",
    "request_status": "Pending",
    "responsible_agency": "Department of Sanitation",
    "final_address": "1129 N Robertson St",
    "address_councildis": "D",
    "status": "Pending",
    "rowid": "954264",
    "final_x": "3681094.77986",
    "final_y": "535755.590151",
    "longitude": "-90.06920230832084",
    "latitude": "29.967154408619052",
    "geocoded_column": {
      "latitude": "29.967154408619052",
      "longitude": "-90.06920230832084"
    }
  },
  {
    "service_request": "2022-954263",
    "request_type": "Trash/Recycling",
    "request_reason": "Replace Trash Cart",
    "date_created": "2022-12-18T17:48:30.000",
    "date_modified": "2022-12-18T17:48:31.000",
    "request_status": "Pending",
    "responsible_agency": "Department of Sanitation",
    "final_address": "1129 N Robertson St",
    "address_councildis": "D",
    "status": "Assigned to Contractor",
    "contractor": "Richards Disposal",
    "rowid": "954263",
    "final_x": "3681094.77986",
    "final_y": "535755.590151",
    "longitude": "-90.06920230832084",
    "latitude": "29.967154408619052",
    "geocoded_column": {
      "latitude": "29.967154408619052",
      "longitude": "-90.06920230832084"
    }
  },
  {
    "service_request": "2022-954262",
    "request_type": "Trash/Recycling",
    "request_reason": "Order Trash Cart",
    "date_created": "2022-12-18T17:46:21.000",
    "date_modified": "2022-12-18T17:46:22.000",
    "request_status": "Pending",
    "responsible_agency": "Department of Sanitation",
    "final_address": "1129 N Robertson St",
    "address_councildis": "D",
    "status": "Assigned to Contractor",
    "contractor": "Richards Disposal",
    "rowid": "954262",
    "final_x": "3681094.77986",
    "final_y": "535755.590151",
    "longitude": "-90.06920230832084",
    "latitude": "29.967154408619052",
    "geocoded_column": {
      "latitude": "29.967154408619052",
      "longitude": "-90.06920230832084"
    }
  },
  {
    "service_request": "2022-954261",
    "request_type": "Abandoned Vehicles",
    "request_reason": "Abandoned/Junk Vehicles",
    "date_created": "2022-12-18T17:30:41.000",
    "date_modified": "2022-12-18T17:30:41.000",
    "request_status": "Pending",
    "responsible_agency": "Department of Public Works",
    "final_address": "1410 Thalia St",
    "address_councildis": "B",
    "status": "Pending",
    "rowid": "954261",
    "final_x": "3679969.49877",
    "final_y": "525375.765245",
    "longitude": "-90.0731164711927",
    "latitude": "29.938647474163314",
    "geocoded_column": {
      "latitude": "29.938647474163314",
      "longitude": "-90.0731164711927"
    }
  },
  {
    "service_request": "2022-954260",
    "request_type": "Abandoned Vehicles",
    "request_reason": "Abandoned/Junk Vehicles",
    "date_created": "2022-12-18T17:30:36.000",
    "date_modified": "2022-12-18T17:30:36.000",
    "request_status": "Pending",
    "responsible_agency": "Department of Public Works",
    "final_address": "1410 Thalia St",
    "address_councildis": "B",
    "status": "Pending",
    "rowid": "954260",
    "final_x": "3679969.49877",
    "final_y": "525375.765245",
    "longitude": "-90.0731164711927",
    "latitude": "29.938647474163314",
    "geocoded_column": {
      "latitude": "29.938647474163314",
      "longitude": "-90.0731164711927"
    }
  },
  {
    "service_request": "2022-954259",
    "request_type": "Trash/Recycling",
    "request_reason": "Request a Large Item Pick Up",
    "date_created": "2022-12-18T17:17:11.000",
    "date_modified": "2022-12-18T17:17:12.000",
    "request_status": "Pending",
    "responsible_agency": "Department of Sanitation",
    "final_address": "609 N Carrollton Ave",
    "address_councildis": "A",
    "status": "Assigned to Contractor",
    "contractor": "Richards Disposal",
    "rowid": "954259",
    "final_x": "3672346.75483",
    "final_y": "539810.187658",
    "longitude": "-90.0966905138842",
    "latitude": "29.978565653202466",
    "geocoded_column": {
      "latitude": "29.978565653202466",
      "longitude": "-90.0966905138842"
    }
  },
  {
    "service_request": "2022-954258",
    "request_type": "Trash/Recycling",
    "request_reason": "Repair Trash Cart",
    "date_created": "2022-12-18T17:04:10.000",
    "date_modified": "2022-12-18T17:04:10.000",
    "request_status": "Pending",
    "responsible_agency": "Department of Sanitation",
    "final_address": "19 Pinehurst Dr",
    "address_councildis": "C",
    "status": "Assigned to Contractor",
    "contractor": "Richards Disposal",
    "rowid": "954258",
    "final_x": "3714976.96607",
    "final_y": "515800.337332",
    "longitude": "-89.96295692734768",
    "latitude": "29.911213368420082",
    "geocoded_column": {
      "latitude": "29.911213368420082",
      "longitude": "-89.96295692734768"
    }
  },
  {
    "service_request": "2022-954257",
    "request_type": "Trash/Recycling",
    "request_reason": "Order Recycling Cart",
    "date_created": "2022-12-18T16:52:22.000",
    "date_modified": "2022-12-18T16:52:22.000",
    "request_status": "Pending",
    "responsible_agency": "Department of Sanitation",
    "final_address": "4746 Sherwood Dr",
    "address_councildis": "E",
    "status": "Pending",
    "rowid": "954257",
    "final_x": "3717929.83173",
    "final_y": "556967.853018",
    "longitude": "-89.95207079271613",
    "latitude": "30.024311116486505",
    "geocoded_column": {
      "latitude": "30.024311116486505",
      "longitude": "-89.95207079271613"
    }
  },
  {
    "service_request": "2022-954256",
    "request_type": "EMS",
    "request_reason": "EMS General",
    "date_created": "2022-12-18T16:47:14.000",
    "date_modified": "2022-12-18T16:47:14.000",
    "request_status": "Pending",
    "responsible_agency": "Emergency Medical Services",
    "final_address": "1874 Mirabeau Ave",
    "address_councildis": "D",
    "status": "Pending",
    "rowid": "954256",
    "final_x": "3681570.34607",
    "final_y": "550434.606612",
    "longitude": "-90.0671882318667",
    "latitude": "30.00750210455384",
    "geocoded_column": {
      "latitude": "30.00750210455384",
      "longitude": "-90.0671882318667"
    }
  },
  {
    "service_request": "2022-954255",
    "request_type": "Property Maintenance",
    "request_reason": "Property Maintenance",
    "date_created": "2022-12-18T16:28:16.000",
    "date_modified": "2022-12-18T16:28:16.000",
    "request_status": "Pending",
    "responsible_agency": "Department of Code Enforcement",
    "final_address": "621 N Murat St",
    "address_councildis": "A",
    "status": "Pending",
    "rowid": "954255",
    "final_x": "3670866.73236",
    "final_y": "540979.575883",
    "longitude": "-90.10132527309715",
    "latitude": "29.98182491063595",
    "geocoded_column": {
      "latitude": "29.98182491063595",
      "longitude": "-90.10132527309715"
    }
  },
  {
    "service_request": "2022-954254",
    "request_type": "Trash/Recycling",
    "request_reason": "Missed Trash Pick-Up",
    "date_created": "2022-12-18T16:23:59.000",
    "date_modified": "2022-12-18T16:24:00.000",
    "request_status": "Pending",
    "responsible_agency": "Department of Sanitation",
    "final_address": "620 N Murat St",
    "address_councildis": "A",
    "status": "Assigned to Contractor",
    "contractor": "Richards Disposal",
    "rowid": "954254",
    "final_x": "3670946.77614",
    "final_y": "540965.483083",
    "longitude": "-90.10107293502566",
    "latitude": "29.981783793556936",
    "geocoded_column": {
      "latitude": "29.981783793556936",
      "longitude": "-90.10107293502566"
    }
  },
  {
    "service_request": "2022-954253",
    "request_type": "Traffic Signals/Signs/Striping/Streetlights",
    "request_reason": "Traffic Signal Malfunctioning/Damaged",
    "date_created": "2022-12-18T16:19:08.000",
    "date_modified": "2022-12-18T16:19:09.000",
    "request_status": "Pending",
    "responsible_agency": "Department of Public Works",
    "final_address": "CANAL ST & CAMP ST & CHARTRES ST",
    "address_councildis": "B",
    "status": "Pending",
    "rowid": "954253",
    "final_x": "3681440.9",
    "final_y": "530424.38",
    "longitude": "-90.06829513253405",
    "latitude": "29.9524848929036",
    "geocoded_column": {
      "latitude": "29.9524848929036",
      "longitude": "-90.06829513253405"
    }
  },
  {
    "service_request": "2022-954252",
    "request_type": "Trash/Recycling",
    "request_reason": "Replace Trash Cart",
    "date_created": "2022-12-18T16:16:14.000",
    "date_modified": "2022-12-18T16:16:15.000",
    "request_status": "Pending",
    "responsible_agency": "Department of Sanitation",
    "final_address": "6319 Rhodes Ave",
    "address_councildis": "C",
    "status": "Assigned to Contractor",
    "contractor": "Richards Disposal",
    "rowid": "954252",
    "final_x": "3707511.24286",
    "final_y": "519335.315959",
    "longitude": "-89.98638917422232",
    "latitude": "29.921176731052455",
    "geocoded_column": {
      "latitude": "29.921176731052455",
      "longitude": "-89.98638917422232"
    }
  },
  {
    "service_request": "2022-954250",
    "request_type": "Parks & Parkways",
    "request_reason": "Request Tree Service (Right of Way/Public Property)",
    "date_created": "2022-12-18T16:00:07.000",
    "date_modified": "2022-12-18T16:00:07.000",
    "request_status": "Pending",
    "responsible_agency": "Department of Parks & Parkway",
    "final_address": "1874 N Roman St",
    "address_councildis": "D",
    "status": "Pending",
    "rowid": "954250",
    "final_x": "3683540.45295",
    "final_y": "538746.979081",
    "longitude": "-90.06137399524636",
    "latitude": "29.97530527385337",
    "geocoded_column": {
      "latitude": "29.97530527385337",
      "longitude": "-90.06137399524636"
    }
  },
  {
    "service_request": "2022-954249",
    "request_type": "Trash/Recycling",
    "request_reason": "Request a Large Item Pick Up",
    "date_created": "2022-12-18T15:57:20.000",
    "date_modified": "2022-12-18T15:57:21.000",
    "request_status": "Pending",
    "responsible_agency": "Department of Sanitation",
    "final_address": "1555 Abundance St",
    "address_councildis": "D",
    "status": "Assigned to Contractor",
    "contractor": "IV Waste",
    "rowid": "954249",
    "final_x": "3679697.34875",
    "final_y": "543329.504334",
    "longitude": "-90.07335239659027",
    "latitude": "29.988022367324636",
    "geocoded_column": {
      "latitude": "29.988022367324636",
      "longitude": "-90.07335239659027"
    }
  },
  {
    "service_request": "2022-954248",
    "request_type": "Trash/Recycling",
    "request_reason": "Dead Animal Pick Up",
    "date_created": "2022-12-18T15:47:44.000",
    "date_modified": "2022-12-18T15:47:45.000",
    "request_status": "Pending",
    "responsible_agency": "Department of Sanitation",
    "final_address": "7511 Sheffield St",
    "address_councildis": "E",
    "status": "Assigned to Contractor",
    "contractor": "Waste Pro",
    "rowid": "954248",
    "final_x": "3699440.82506",
    "final_y": "559841.163421",
    "longitude": "-90.01038751411255",
    "latitude": "30.03281148328883",
    "geocoded_column": {
      "latitude": "30.03281148328883",
      "longitude": "-90.01038751411255"
    }
  },
  {
    "service_request": "2022-954247",
    "request_type": "Traffic Signals/Signs/Striping/Streetlights",
    "request_reason": "Street Light Outage/Malfunction",
    "date_created": "2022-12-18T15:42:43.000",
    "date_modified": "2022-12-18T15:42:44.000",
    "request_status": "Pending",
    "responsible_agency": "Department of Public Works",
    "final_address": "1830 Mardi Gras Blvd",
    "address_councildis": "C",
    "status": "Pending",
    "contractor": "Legacy Professional Services",
    "rowid": "954247",
    "final_x": "3690946.82428",
    "final_y": "525347.245373",
    "longitude": "-90.03846102299066",
    "latitude": "29.938232520342563",
    "geocoded_column": {
      "latitude": "29.938232520342563",
      "longitude": "-90.03846102299066"
    }
  },
  {
    "service_request": "2022-954246",
    "request_type": "Trash/Recycling",
    "request_reason": "Request a Large Item Pick Up",
    "date_created": "2022-12-18T15:39:15.000",
    "date_modified": "2022-12-18T15:39:16.000",
    "request_status": "Pending",
    "responsible_agency": "Department of Sanitation",
    "final_address": "2139 Mediamolle Dr",
    "address_councildis": "C",
    "status": "Assigned to Contractor",
    "contractor": "Richards Disposal",
    "rowid": "954246",
    "final_x": "3699143.68618",
    "final_y": "523432.406651",
    "longitude": "-90.01265259839734",
    "latitude": "29.932710131741107",
    "geocoded_column": {
      "latitude": "29.932710131741107",
      "longitude": "-90.01265259839734"
    }
  },
  {
    "service_request": "2022-954245",
    "request_type": "Trash/Recycling",
    "request_reason": "Order Trash Cart",
    "date_created": "2022-12-18T15:33:49.000",
    "date_modified": "2022-12-18T15:33:50.000",
    "request_status": "Pending",
    "responsible_agency": "Department of Sanitation",
    "final_address": "3019 Lafitte Ave",
    "address_councildis": "A",
    "status": "Assigned to Contractor",
    "contractor": "Richards Disposal",
    "rowid": "954245",
    "final_x": "3675174.96398",
    "final_y": "537231.55028",
    "longitude": "-90.08784649744948",
    "latitude": "29.97139104915883",
    "geocoded_column": {
      "latitude": "29.97139104915883",
      "longitude": "-90.08784649744948"
    }
  },
  {
    "service_request": "2022-954244",
    "request_type": "Trash/Recycling",
    "request_reason": "MIssed Recycling Pick-Up",
    "date_created": "2022-12-18T15:26:37.000",
    "date_modified": "2022-12-18T15:26:38.000",
    "request_status": "Pending",
    "responsible_agency": "Department of Sanitation",
    "final_address": "2920 New Orleans St",
    "address_councildis": "D",
    "status": "Assigned to Contractor",
    "contractor": "IV Waste",
    "rowid": "954244",
    "final_x": "3681788.97058",
    "final_y": "543277.046414",
    "longitude": "-90.06674749143667",
    "latitude": "29.987814719482117",
    "geocoded_column": {
      "latitude": "29.987814719482117",
      "longitude": "-90.06674749143667"
    }
  },
  {
    "service_request": "2022-954242",
    "request_type": "Trash/Recycling",
    "request_reason": "Illegal Dumping",
    "date_created": "2022-12-18T15:20:20.000",
    "date_modified": "2022-12-18T15:20:20.000",
    "request_status": "Pending",
    "responsible_agency": "Department of Sanitation",
    "final_address": "638 S Pierce St",
    "address_councildis": "B",
    "status": "Pending",
    "rowid": "954242",
    "final_x": "3670153.64122",
    "final_y": "536167.536199",
    "longitude": "-90.10374065472077",
    "latitude": "29.968614488100677",
    "geocoded_column": {
      "latitude": "29.968614488100677",
      "longitude": "-90.10374065472077"
    }
  },
  {
    "service_request": "2022-954241",
    "request_type": "Trash/Recycling",
    "request_reason": "Request a Large Item Pick Up",
    "date_created": "2022-12-18T14:53:44.000",
    "date_modified": "2022-12-18T14:53:45.000",
    "request_status": "Pending",
    "responsible_agency": "Department of Sanitation",
    "final_address": "5677 Marcia Ave",
    "address_councildis": "A",
    "status": "Assigned to Contractor",
    "contractor": "IV Waste",
    "rowid": "954241",
    "final_x": "3664973.49658",
    "final_y": "545465.426896",
    "longitude": "-90.11978892272198",
    "latitude": "29.99433239570484",
    "geocoded_column": {
      "latitude": "29.99433239570484",
      "longitude": "-90.11978892272198"
    }
  },
  {
    "service_request": "2022-954240",
    "request_type": "Traffic Signals/Signs/Striping/Streetlights",
    "request_reason": "Street Light Outage/Malfunction",
    "date_created": "2022-12-18T14:53:38.000",
    "date_modified": "2022-12-18T14:53:39.000",
    "request_status": "Pending",
    "responsible_agency": "Department of Public Works",
    "final_address": "1930 Jefferson Ave",
    "address_councildis": "A",
    "status": "Pending",
    "contractor": "Legacy Professional Services",
    "rowid": "954240",
    "final_x": "3667605.01127",
    "final_y": "522876.070971",
    "longitude": "-90.11223671723303",
    "latitude": "29.932142243420362",
    "geocoded_column": {
      "latitude": "29.932142243420362",
      "longitude": "-90.11223671723303"
    }
  },
  {
    "service_request": "2022-954238",
    "request_type": "Trash/Recycling",
    "request_reason": "Order Trash Cart",
    "date_created": "2022-12-18T14:47:49.000",
    "date_modified": "2022-12-18T14:47:49.000",
    "request_status": "Pending",
    "responsible_agency": "Department of Sanitation",
    "final_address": "5677 Marcia Ave",
    "address_councildis": "A",
    "status": "Assigned to Contractor",
    "contractor": "IV Waste",
    "rowid": "954238",
    "final_x": "3664973.49658",
    "final_y": "545465.426896",
    "longitude": "-90.11978892272198",
    "latitude": "29.99433239570484",
    "geocoded_column": {
      "latitude": "29.99433239570484",
      "longitude": "-90.11978892272198"
    }
  },
  {
    "service_request": "2022-954237",
    "request_type": "Trash/Recycling",
    "request_reason": "Replace Recycling Cart",
    "date_created": "2022-12-18T14:37:08.000",
    "date_modified": "2022-12-18T14:37:08.000",
    "request_status": "Pending",
    "responsible_agency": "Department of Sanitation",
    "final_address": "6564 Vicksburg St",
    "address_councildis": "A",
    "status": "Pending",
    "rowid": "954237",
    "final_x": "3669133.93198",
    "final_y": "551180.976469",
    "longitude": "-90.10645329592408",
    "latitude": "30.00992635714015",
    "geocoded_column": {
      "latitude": "30.00992635714015",
      "longitude": "-90.10645329592408"
    }
  },
  {
    "service_request": "2022-954236",
    "request_type": "Trash/Recycling",
    "request_reason": "Request a Large Item Pick Up",
    "date_created": "2022-12-18T14:25:17.000",
    "date_modified": "2022-12-18T14:25:18.000",
    "request_status": "Pending",
    "responsible_agency": "Department of Sanitation",
    "final_address": "8233 Panola St, New Orleans, Louisiana, 70118",
    "address_councildis": "A",
    "status": "Assigned to Contractor",
    "contractor": "Richards Disposal",
    "rowid": "954236",
    "final_x": "3663656.04883",
    "final_y": "531163.287298",
    "longitude": "-90.12442723963439",
    "latitude": "29.95504456069023",
    "geocoded_column": {
      "latitude": "29.95504456069023",
      "longitude": "-90.12442723963439"
    }
  },
  {
    "service_request": "2022-954235",
    "request_type": "Safety & Permits",
    "request_reason": "Licenses & Permits",
    "date_created": "2022-12-18T14:13:41.000",
    "date_modified": "2022-12-18T14:13:41.000",
    "request_status": "Pending",
    "responsible_agency": "Safety and Permits",
    "status": "Pending",
    "rowid": "954235",
    "longitude": "0.0",
    "latitude": "0.0",
    "geocoded_column": {
      "latitude": "0.0",
      "longitude": "0.0"
    }
  },
  {
    "service_request": "2022-954234",
    "request_type": "Roads/Drainage",
    "request_reason": "Street Subsidence (Sinking)",
    "date_created": "2022-12-18T13:57:50.000",
    "date_modified": "2022-12-18T13:57:50.000",
    "request_status": "Pending",
    "responsible_agency": "Department of Public Works",
    "final_address": "7318 Birch St",
    "address_councildis": "A",
    "status": "Pending",
    "rowid": "954234",
    "final_x": "3664561.797",
    "final_y": "527894.023295",
    "longitude": "-90.12167637435167",
    "latitude": "29.946028834804604",
    "geocoded_column": {
      "latitude": "29.946028834804604",
      "longitude": "-90.12167637435167"
    }
  },
  {
    "service_request": "2022-954233",
    "request_type": "Property Maintenance",
    "request_reason": "Property Maintenance",
    "date_created": "2022-12-18T13:56:53.000",
    "date_modified": "2022-12-18T13:56:53.000",
    "request_status": "Pending",
    "responsible_agency": "Department of Code Enforcement",
    "final_address": "2837 Milan St",
    "address_councildis": "B",
    "status": "Pending",
    "rowid": "954233",
    "final_x": "3671183.03867",
    "final_y": "525465.503805",
    "longitude": "-90.10085328448618",
    "latitude": "29.93915701639153",
    "geocoded_column": {
      "latitude": "29.93915701639153",
      "longitude": "-90.10085328448618"
    }
  },
  {
    "service_request": "2022-954232",
    "request_type": "Property Maintenance",
    "request_reason": "Property Maintenance",
    "date_created": "2022-12-18T13:49:49.000",
    "date_modified": "2022-12-18T13:49:49.000",
    "request_status": "Pending",
    "responsible_agency": "Department of Code Enforcement",
    "final_address": "201 Fairfax Pl",
    "address_councildis": "C",
    "status": "Pending",
    "rowid": "954232",
    "final_x": "3706050.75531",
    "final_y": "517360.152181",
    "longitude": "-89.99107227844776",
    "latitude": "29.915792841230783",
    "geocoded_column": {
      "latitude": "29.915792841230783",
      "longitude": "-89.99107227844776"
    }
  },
  {
    "service_request": "2022-954231",
    "request_type": "Trash/Recycling",
    "request_reason": "Request a Large Item Pick Up",
    "date_created": "2022-12-18T13:29:48.000",
    "date_modified": "2022-12-18T13:29:49.000",
    "request_status": "Pending",
    "responsible_agency": "Department of Sanitation",
    "final_address": "1343 Mandeville St",
    "address_councildis": "C",
    "status": "Assigned to Contractor",
    "contractor": "IV Waste",
    "rowid": "954231",
    "final_x": "3685724.65615",
    "final_y": "537445.552008",
    "longitude": "-90.05452158476533",
    "latitude": "29.971659955257234",
    "geocoded_column": {
      "latitude": "29.971659955257234",
      "longitude": "-90.05452158476533"
    }
  },
  {
    "service_request": "2022-954230",
    "request_type": "Trash/Recycling",
    "request_reason": "Order Recycling Cart",
    "date_created": "2022-12-18T13:28:44.000",
    "date_modified": "2022-12-18T13:28:44.000",
    "request_status": "Pending",
    "responsible_agency": "Department of Sanitation",
    "final_address": "7335 Read Blvd",
    "address_councildis": "E",
    "status": "Pending",
    "rowid": "954230",
    "final_x": "3709364.55403",
    "final_y": "563131.372128",
    "longitude": "-89.9789050526887",
    "latitude": "30.041539475891415",
    "geocoded_column": {
      "latitude": "30.041539475891415",
      "longitude": "-89.9789050526887"
    }
  },
  {
    "service_request": "2022-954229",
    "request_type": "Trash/Recycling",
    "request_reason": "Illegal Dumping",
    "date_created": "2022-12-18T13:02:14.000",
    "date_modified": "2022-12-18T13:02:14.000",
    "request_status": "Pending",
    "responsible_agency": "Department of Sanitation",
    "final_address": "1724 Laharpe St",
    "address_councildis": "D",
    "status": "Pending",
    "rowid": "954229",
    "final_x": "3681486.90594",
    "final_y": "537795.022152",
    "longitude": "-90.06789284365074",
    "latitude": "29.972750242593428",
    "geocoded_column": {
      "latitude": "29.972750242593428",
      "longitude": "-90.06789284365074"
    }
  },
  {
    "service_request": "2022-954228",
    "request_type": "Trash/Recycling",
    "request_reason": "Illegal Dumping",
    "date_created": "2022-12-18T13:00:50.000",
    "date_modified": "2022-12-18T13:00:50.000",
    "request_status": "Pending",
    "responsible_agency": "Department of Sanitation",
    "final_address": "1724 Laharpe St",
    "address_councildis": "D",
    "status": "Pending",
    "rowid": "954228",
    "final_x": "3681486.90594",
    "final_y": "537795.022152",
    "longitude": "-90.06789284365074",
    "latitude": "29.972750242593428",
    "geocoded_column": {
      "latitude": "29.972750242593428",
      "longitude": "-90.06789284365074"
    }
  },
  {
    "service_request": "2022-954227",
    "request_type": "Trash/Recycling",
    "request_reason": "MIssed Recycling Pick-Up",
    "date_created": "2022-12-18T12:52:45.000",
    "date_modified": "2022-12-18T12:52:46.000",
    "request_status": "Pending",
    "responsible_agency": "Department of Sanitation",
    "final_address": "430 Hillary St, New Orleans, Louisiana, 70118",
    "address_councildis": "A",
    "status": "Assigned to Contractor",
    "contractor": "Richards Disposal",
    "rowid": "954227",
    "final_x": "3661542.0471",
    "final_y": "525300.958141",
    "longitude": "-90.13129668991279",
    "latitude": "29.938986187107357",
    "geocoded_column": {
      "latitude": "29.938986187107357",
      "longitude": "-90.13129668991279"
    }
  },
  {
    "service_request": "2022-954226",
    "request_type": "Traffic Signals/Signs/Striping/Streetlights",
    "request_reason": "Traffic Signal Malfunctioning/Damaged",
    "date_created": "2022-12-18T12:52:16.000",
    "date_modified": "2022-12-18T12:52:16.000",
    "request_status": "Pending",
    "responsible_agency": "Department of Public Works",
    "final_address": "6732 Chef Menteur Hwy",
    "address_councildis": "E",
    "status": "Pending",
    "rowid": "954226",
    "final_x": "3699804.42672",
    "final_y": "551894.634838",
    "longitude": "-90.00952862669574",
    "latitude": "30.01095001791387",
    "geocoded_column": {
      "latitude": "30.01095001791387",
      "longitude": "-90.00952862669574"
    }
  },
  {
    "service_request": "2022-954225",
    "request_type": "Property Maintenance",
    "request_reason": "Property Maintenance",
    "date_created": "2022-12-18T12:50:20.000",
    "date_modified": "2022-12-18T12:50:20.000",
    "request_status": "Pending",
    "responsible_agency": "Department of Code Enforcement",
    "final_address": "6105 Louisville St",
    "address_councildis": "A",
    "status": "Pending",
    "rowid": "954225",
    "final_x": "3667865.49703",
    "final_y": "548103.047506",
    "longitude": "-90.1105645277798",
    "latitude": "30.001500407301382",
    "geocoded_column": {
      "latitude": "30.001500407301382",
      "longitude": "-90.1105645277798"
    }
  },
  {
    "service_request": "2022-954224",
    "request_type": "Trash/Recycling",
    "request_reason": "Repair Trash Cart",
    "date_created": "2022-12-18T12:01:22.000",
    "date_modified": "2022-12-18T12:01:22.000",
    "request_status": "Pending",
    "responsible_agency": "Department of Sanitation",
    "final_address": "2008 Milan St",
    "address_councildis": "B",
    "status": "Assigned to Contractor",
    "contractor": "Richards Disposal",
    "rowid": "954224",
    "final_x": "3671392.90279",
    "final_y": "522519.984698",
    "longitude": "-90.1002907869365",
    "latitude": "29.931051581963143",
    "geocoded_column": {
      "latitude": "29.931051581963143",
      "longitude": "-90.1002907869365"
    }
  },
  {
    "service_request": "2022-954223",
    "request_type": "Trash/Recycling",
    "request_reason": "Order Recycling Cart",
    "date_created": "2022-12-18T12:00:09.000",
    "date_modified": "2022-12-18T12:00:09.000",
    "request_status": "Pending",
    "responsible_agency": "Department of Sanitation",
    "final_address": "2701 Hudson Pl",
    "address_councildis": "C",
    "status": "Pending",
    "rowid": "954223",
    "final_x": "3703326.9882",
    "final_y": "520894.817849",
    "longitude": "-89.99953960127331",
    "latitude": "29.925599404395772",
    "geocoded_column": {
      "latitude": "29.925599404395772",
      "longitude": "-89.99953960127331"
    }
  },
  {
    "service_request": "2022-954222",
    "request_type": "Trash/Recycling",
    "request_reason": "MIssed Recycling Pick-Up",
    "date_created": "2022-12-18T11:47:39.000",
    "date_modified": "2022-12-18T11:47:40.000",
    "request_status": "Pending",
    "responsible_agency": "Department of Sanitation",
    "final_address": "3122 Hamilton St",
    "address_councildis": "A",
    "status": "Assigned to Contractor",
    "contractor": "Richards Disposal",
    "rowid": "954222",
    "final_x": "3664036.48359",
    "final_y": "535942.806919",
    "longitude": "-90.12306655849386",
    "latitude": "29.96817563412154",
    "geocoded_column": {
      "latitude": "29.96817563412154",
      "longitude": "-90.12306655849386"
    }
  },
  {
    "service_request": "2022-954221",
    "request_type": "Trash/Recycling",
    "request_reason": "Missed Trash Pick-Up",
    "date_created": "2022-12-18T11:37:05.000",
    "date_modified": "2022-12-18T11:37:06.000",
    "request_status": "Pending",
    "responsible_agency": "Department of Sanitation",
    "final_address": "PALMETTO ST & CHERRY ST",
    "address_councildis": "A",
    "status": "Assigned to Contractor",
    "contractor": "Richards Disposal",
    "rowid": "954221",
    "final_x": "3664991.7",
    "final_y": "537977.18",
    "longitude": "-90.1199819013071",
    "latitude": "29.973741708965985",
    "geocoded_column": {
      "latitude": "29.973741708965985",
      "longitude": "-90.1199819013071"
    }
  },
  {
    "service_request": "2022-954220",
    "request_type": "Trash/Recycling",
    "request_reason": "Missed Trash Pick-Up",
    "date_created": "2022-12-18T11:23:36.000",
    "date_modified": "2022-12-18T11:23:37.000",
    "request_status": "Pending",
    "responsible_agency": "Department of Sanitation",
    "final_address": "8424 Palm St",
    "address_councildis": "A",
    "status": "Assigned to Contractor",
    "contractor": "Richards Disposal",
    "rowid": "954220",
    "final_x": "3666746.05044",
    "final_y": "535500.307398",
    "longitude": "-90.11452446730776",
    "latitude": "29.96687993598926",
    "geocoded_column": {
      "latitude": "29.96687993598926",
      "longitude": "-90.11452446730776"
    }
  },
  {
    "service_request": "2022-954219",
    "request_type": "Trash/Recycling",
    "request_reason": "Request a Large Item Pick Up",
    "date_created": "2022-12-18T11:03:45.000",
    "date_modified": "2022-12-18T11:03:46.000",
    "request_status": "Pending",
    "responsible_agency": "Department of Sanitation",
    "final_address": "1530 St Mary St",
    "address_councildis": "B",
    "status": "Assigned to Contractor",
    "contractor": "Richards Disposal",
    "rowid": "954219",
    "final_x": "3678532.7981",
    "final_y": "524104.797052",
    "longitude": "-90.07769626048625",
    "latitude": "29.935196100216665",
    "geocoded_column": {
      "latitude": "29.935196100216665",
      "longitude": "-90.07769626048625"
    }
  },
  {
    "service_request": "2022-954218",
    "request_type": "Trash/Recycling",
    "request_reason": "Order Recycling Cart",
    "date_created": "2022-12-18T10:56:29.000",
    "date_modified": "2022-12-18T10:56:29.000",
    "request_status": "Pending",
    "responsible_agency": "Department of Sanitation",
    "final_address": "2824 Tecumseh St,New Orleans,La 70126",
    "address_councildis": "D",
    "status": "Pending",
    "rowid": "954218",
    "final_x": "3688859.27843",
    "final_y": "547487.512338",
    "longitude": "-90.04426522067223",
    "latitude": "29.999175193832365",
    "geocoded_column": {
      "latitude": "29.999175193832365",
      "longitude": "-90.04426522067223"
    }
  },
  {
    "service_request": "2022-954217",
    "request_type": "Trash/Recycling",
    "request_reason": "Request a Large Item Pick Up",
    "date_created": "2022-12-18T10:54:08.000",
    "date_modified": "2022-12-18T10:54:09.000",
    "request_status": "Pending",
    "responsible_agency": "Department of Sanitation",
    "final_address": "7513 Jonlee Dr",
    "address_councildis": "E",
    "status": "Assigned to Contractor",
    "contractor": "Waste Pro",
    "rowid": "954217",
    "final_x": "3717540.93407",
    "final_y": "570052.753063",
    "longitude": "-89.95280148188189",
    "latitude": "30.060302148714964",
    "geocoded_column": {
      "latitude": "30.060302148714964",
      "longitude": "-89.95280148188189"
    }
  },
  {
    "service_request": "2022-954216",
    "request_type": "Abandoned Vehicles",
    "request_reason": "Vehicle Blocking Your Driveway",
    "date_created": "2022-12-18T10:38:47.000",
    "date_modified": "2022-12-18T10:38:47.000",
    "request_status": "Pending",
    "responsible_agency": "Department of Public Works",
    "final_address": "1930 Bienville St, New Orleans, Louisiana, 70112",
    "status": "Pending",
    "rowid": "954216",
    "longitude": "0.0",
    "latitude": "0.0",
    "geocoded_column": {
      "latitude": "0.0",
      "longitude": "0.0"
    }
  },
  {
    "service_request": "2022-954215",
    "request_type": "Trash/Recycling",
    "request_reason": "Order Recycling Cart",
    "date_created": "2022-12-18T10:20:59.000",
    "date_modified": "2022-12-18T10:20:59.000",
    "request_status": "Pending",
    "responsible_agency": "Department of Sanitation",
    "final_address": "234 Bellaire Dr",
    "address_councildis": "A",
    "status": "Pending",
    "rowid": "954215",
    "final_x": "3663841.31015",
    "final_y": "541010.861195",
    "longitude": "-90.12351393896459",
    "latitude": "29.982116766044076",
    "geocoded_column": {
      "latitude": "29.982116766044076",
      "longitude": "-90.12351393896459"
    }
  },
  {
    "service_request": "2022-954214",
    "request_type": "Roads/Drainage",
    "request_reason": "Pothole",
    "date_created": "2022-12-18T10:15:31.000",
    "date_modified": "2022-12-18T10:15:31.000",
    "request_status": "Pending",
    "responsible_agency": "Department of Public Works",
    "final_address": "5010 Constance St",
    "address_councildis": "B",
    "status": "Pending",
    "rowid": "954214",
    "final_x": "3668528.86842",
    "final_y": "518180.822262",
    "longitude": "-90.10947849856062",
    "latitude": "29.919204695724737",
    "geocoded_column": {
      "latitude": "29.919204695724737",
      "longitude": "-90.10947849856062"
    }
  },
  {
    "service_request": "2022-954213",
    "request_type": "Roads/Drainage",
    "request_reason": "Pothole",
    "date_created": "2022-12-18T10:11:04.000",
    "date_modified": "2022-12-18T10:11:04.000",
    "request_status": "Pending",
    "responsible_agency": "Department of Public Works",
    "final_address": "1610 Elysian Fields Ave",
    "address_councildis": "D",
    "status": "Pending",
    "rowid": "954213",
    "final_x": "3684733.38421",
    "final_y": "538263.167113",
    "longitude": "-90.0576234182711",
    "latitude": "29.973938494169122",
    "geocoded_column": {
      "latitude": "29.973938494169122",
      "longitude": "-90.0576234182711"
    }
  },
  {
    "service_request": "2022-954212",
    "request_type": "Trash/Recycling",
    "request_reason": "Request a Large Item Pick Up",
    "date_created": "2022-12-18T09:58:09.000",
    "date_modified": "2022-12-18T09:58:10.000",
    "request_status": "Pending",
    "responsible_agency": "Department of Sanitation",
    "final_address": "823 N Alexander St",
    "address_councildis": "A",
    "status": "Assigned to Contractor",
    "contractor": "Richards Disposal",
    "rowid": "954212",
    "final_x": "3671655.04571",
    "final_y": "541419.81326",
    "longitude": "-90.09882042003532",
    "latitude": "29.983012083575773",
    "geocoded_column": {
      "latitude": "29.983012083575773",
      "longitude": "-90.09882042003532"
    }
  },
  {
    "service_request": "2022-954211",
    "request_type": "Abandoned Vehicles",
    "request_reason": "Vehicle Blocking Your Driveway",
    "date_created": "2022-12-18T09:40:38.000",
    "date_modified": "2022-12-18T09:40:38.000",
    "request_status": "Pending",
    "responsible_agency": "Department of Public Works",
    "final_address": "2800 St Ann St",
    "address_councildis": "A",
    "status": "Pending",
    "rowid": "954211",
    "final_x": "3676430.1323",
    "final_y": "537554.225672",
    "longitude": "-90.08387138106754",
    "latitude": "29.972240722494263",
    "geocoded_column": {
      "latitude": "29.972240722494263",
      "longitude": "-90.08387138106754"
    }
  },
  {
    "service_request": "2022-954210",
    "request_type": "Abandoned Vehicles",
    "request_reason": "Abandoned/Junk Vehicles",
    "date_created": "2022-12-18T09:32:48.000",
    "date_modified": "2022-12-18T09:32:48.000",
    "request_status": "Pending",
    "responsible_agency": "Department of Public Works",
    "final_address": "1668 N Tonti St",
    "address_councildis": "D",
    "status": "Pending",
    "rowid": "954210",
    "final_x": "3680605.56565",
    "final_y": "539750.166346",
    "longitude": "-90.0706082332086",
    "latitude": "29.978152946199305",
    "geocoded_column": {
      "latitude": "29.978152946199305",
      "longitude": "-90.0706082332086"
    }
  },
  {
    "service_request": "2022-954209",
    "request_type": "Trash/Recycling",
    "request_reason": "Illegal Dumping",
    "date_created": "2022-12-18T09:21:25.000",
    "date_modified": "2022-12-18T09:21:25.000",
    "request_status": "Pending",
    "responsible_agency": "Department of Sanitation",
    "final_address": "1660 N Tonti St",
    "address_councildis": "D",
    "status": "Pending",
    "rowid": "954209",
    "final_x": "3680561.82703",
    "final_y": "539688.439626",
    "longitude": "-90.07074852350748",
    "latitude": "29.977984544417247",
    "geocoded_column": {
      "latitude": "29.977984544417247",
      "longitude": "-90.07074852350748"
    }
  },
  {
    "service_request": "2022-954208",
    "request_type": "Trash/Recycling",
    "request_reason": "Illegal Dumping",
    "date_created": "2022-12-18T09:19:36.000",
    "date_modified": "2022-12-18T09:19:36.000",
    "request_status": "Pending",
    "responsible_agency": "Department of Sanitation",
    "final_address": "1660 N Tonti St",
    "address_councildis": "D",
    "status": "Pending",
    "rowid": "954208",
    "final_x": "3680561.82703",
    "final_y": "539688.439626",
    "longitude": "-90.07074852350748",
    "latitude": "29.977984544417247",
    "geocoded_column": {
      "latitude": "29.977984544417247",
      "longitude": "-90.07074852350748"
    }
  },
  {
    "service_request": "2022-954207",
    "request_type": "Property Maintenance",
    "request_reason": "Property Maintenance",
    "date_created": "2022-12-18T09:17:17.000",
    "date_modified": "2022-12-18T09:17:17.000",
    "request_status": "Pending",
    "responsible_agency": "Department of Code Enforcement",
    "final_address": "1660 N Tonti St",
    "address_councildis": "D",
    "status": "Pending",
    "rowid": "954207",
    "final_x": "3680561.82703",
    "final_y": "539688.439626",
    "longitude": "-90.07074852350748",
    "latitude": "29.977984544417247",
    "geocoded_column": {
      "latitude": "29.977984544417247",
      "longitude": "-90.07074852350748"
    }
  },
  {
    "service_request": "2022-954206",
    "request_type": "Trash/Recycling",
    "request_reason": "Missed Trash Pick-Up",
    "date_created": "2022-12-18T09:07:22.000",
    "date_modified": "2022-12-18T09:07:23.000",
    "request_status": "Pending",
    "responsible_agency": "Department of Sanitation",
    "final_address": "4304 Fontainebleau Dr",
    "address_councildis": "A",
    "status": "Assigned to Contractor",
    "contractor": "Richards Disposal",
    "rowid": "954206",
    "final_x": "3669389.07457",
    "final_y": "529328.471809",
    "longitude": "-90.10638647495766",
    "latitude": "29.949831859141877",
    "geocoded_column": {
      "latitude": "29.949831859141877",
      "longitude": "-90.10638647495766"
    }
  },
  {
    "service_request": "2022-954205",
    "request_type": "Abandoned Vehicles",
    "request_reason": "Abandoned/Junk Vehicles",
    "date_created": "2022-12-18T08:36:11.000",
    "date_modified": "2022-12-18T08:36:11.000",
    "request_status": "Pending",
    "responsible_agency": "Department of Public Works",
    "final_address": "211 S Cortez St",
    "address_councildis": "A",
    "status": "Pending",
    "rowid": "954205",
    "final_x": "3671720.75259",
    "final_y": "537199.852616",
    "longitude": "-90.09875649380542",
    "latitude": "29.971406677870977",
    "geocoded_column": {
      "latitude": "29.971406677870977",
      "longitude": "-90.09875649380542"
    }
  },
  {
    "service_request": "2022-954204",
    "request_type": "Traffic Signals/Signs/Striping/Streetlights",
    "request_reason": "Traffic Signal Malfunctioning/Damaged",
    "date_created": "2022-12-18T08:35:06.000",
    "date_modified": "2022-12-18T08:35:06.000",
    "request_status": "Pending",
    "responsible_agency": "Department of Public Works",
    "final_address": "101 Allen Toussaint Blvd",
    "address_councildis": "D",
    "status": "Pending",
    "rowid": "954204",
    "final_x": "3667078.52308",
    "final_y": "555294.448409",
    "longitude": "-90.11280867210165",
    "latitude": "30.02129731128112",
    "geocoded_column": {
      "latitude": "30.02129731128112",
      "longitude": "-90.11280867210165"
    }
  },
  {
    "service_request": "2022-954203",
    "request_type": "Trash/Recycling",
    "request_reason": "Request a Large Item Pick Up",
    "date_created": "2022-12-18T08:31:03.000",
    "date_modified": "2022-12-18T08:31:03.000",
    "request_status": "Pending",
    "responsible_agency": "Department of Sanitation",
    "final_address": "6043 Curran Rd",
    "address_councildis": "E",
    "status": "Assigned to Contractor",
    "contractor": "Waste Pro",
    "rowid": "954203",
    "final_x": "3695489.02902",
    "final_y": "558979.470556",
    "longitude": "-90.0229066167093",
    "latitude": "30.03056701997726",
    "geocoded_column": {
      "latitude": "30.03056701997726",
      "longitude": "-90.0229066167093"
    }
  },
  {
    "service_request": "2022-954202",
    "request_type": "Trash/Recycling",
    "request_reason": "Missed Trash Pick-Up",
    "date_created": "2022-12-18T08:29:27.000",
    "date_modified": "2022-12-18T08:29:27.000",
    "request_status": "Pending",
    "responsible_agency": "Department of Sanitation",
    "final_address": "4761 Sherwood Dr",
    "address_councildis": "E",
    "status": "Assigned to Contractor",
    "contractor": "Waste Pro",
    "rowid": "954202",
    "final_x": "3718066.68351",
    "final_y": "556995.856154",
    "longitude": "-89.95163730424949",
    "latitude": "30.024383577185148",
    "geocoded_column": {
      "latitude": "30.024383577185148",
      "longitude": "-89.95163730424949"
    }
  },
  {
    "service_request": "2022-954201",
    "request_type": "Trash/Recycling",
    "request_reason": "Order Recycling Cart",
    "date_created": "2022-12-18T08:27:10.000",
    "date_modified": "2022-12-18T08:27:10.000",
    "request_status": "Pending",
    "responsible_agency": "Department of Sanitation",
    "final_address": "6910 Coventry St",
    "address_councildis": "E",
    "status": "Pending",
    "rowid": "954201",
    "final_x": "3698862.77258",
    "final_y": "559708.312605",
    "longitude": "-90.01221904013947",
    "latitude": "30.032464533113558",
    "geocoded_column": {
      "latitude": "30.032464533113558",
      "longitude": "-90.01221904013947"
    }
  },
  {
    "service_request": "2022-954200",
    "request_type": "Traffic Signals/Signs/Striping/Streetlights",
    "request_reason": "Street Light Knocked Down/Leaning",
    "date_created": "2022-12-18T08:25:58.000",
    "date_modified": "2022-12-18T08:25:59.000",
    "request_status": "Pending",
    "responsible_agency": "Department of Public Works",
    "final_address": "6910 Coventry St",
    "address_councildis": "E",
    "status": "Pending",
    "contractor": "Legacy Professional Services",
    "rowid": "954200",
    "final_x": "3698862.77258",
    "final_y": "559708.312605",
    "longitude": "-90.01221904013947",
    "latitude": "30.032464533113558",
    "geocoded_column": {
      "latitude": "30.032464533113558",
      "longitude": "-90.01221904013947"
    }
  },
  {
    "service_request": "2022-954198",
    "request_type": "Abandoned Vehicles",
    "request_reason": "Vehicle Blocking Your Driveway",
    "date_created": "2022-12-18T08:02:18.000",
    "date_modified": "2022-12-18T08:02:18.000",
    "request_status": "Pending",
    "responsible_agency": "Department of Public Works",
    "final_address": "1930 Bienville Ave",
    "address_councildis": "B",
    "status": "Pending",
    "rowid": "954198",
    "final_x": "3678042.1188",
    "final_y": "533964.375813",
    "longitude": "-90.07890456978272",
    "latitude": "29.96232142777804",
    "geocoded_column": {
      "latitude": "29.96232142777804",
      "longitude": "-90.07890456978272"
    }
  },
  {
    "service_request": "2022-954197",
    "request_type": "Trash/Recycling",
    "request_reason": "Missed Trash Pick-Up",
    "date_created": "2022-12-18T07:06:14.000",
    "date_modified": "2022-12-18T07:06:15.000",
    "request_status": "Pending",
    "responsible_agency": "Department of Sanitation",
    "final_address": "5620 Hurst St",
    "address_councildis": "A",
    "status": "Assigned to Contractor",
    "contractor": "Richards Disposal",
    "rowid": "954197",
    "final_x": "3666489.06477",
    "final_y": "521550.081721",
    "longitude": "-90.11580414254337",
    "latitude": "29.92852884688342",
    "geocoded_column": {
      "latitude": "29.92852884688342",
      "longitude": "-90.11580414254337"
    }
  },
  {
    "service_request": "2022-954196",
    "request_type": "Roads/Drainage",
    "request_reason": "Catch Basin - Clogged",
    "date_created": "2022-12-18T05:46:10.000",
    "date_modified": "2022-12-18T05:46:10.000",
    "request_status": "Pending",
    "responsible_agency": "Department of Public Works",
    "final_address": "4600 S Carrollton Ave",
    "address_councildis": "A",
    "status": "Pending",
    "rowid": "954196",
    "final_x": "3670699.83188",
    "final_y": "537699.072712",
    "longitude": "-90.10196377310788",
    "latitude": "29.97280957135734",
    "geocoded_column": {
      "latitude": "29.97280957135734",
      "longitude": "-90.10196377310788"
    }
  },
  {
    "service_request": "2022-954195",
    "request_type": "Trash/Recycling",
    "request_reason": "Missed Trash Pick-Up",
    "date_created": "2022-12-18T04:57:47.000",
    "date_modified": "2022-12-18T04:57:47.000",
    "request_status": "Pending",
    "responsible_agency": "Department of Sanitation",
    "final_address": "1028 N Robertson St",
    "address_councildis": "C",
    "status": "Assigned to Contractor",
    "contractor": "Richards Disposal",
    "rowid": "954195",
    "final_x": "3680931.70927",
    "final_y": "535434.347974",
    "longitude": "-90.06972847391418",
    "latitude": "29.96627604857366",
    "geocoded_column": {
      "latitude": "29.96627604857366",
      "longitude": "-90.06972847391418"
    }
  },
  {
    "service_request": "2022-954194",
    "request_type": "Health Related Request",
    "request_reason": "Noise Ordinance Complaint",
    "date_created": "2022-12-18T02:13:39.000",
    "date_modified": "2022-12-18T02:13:40.000",
    "request_status": "Pending",
    "responsible_agency": "Health Department",
    "final_address": "3160 Dauphine St",
    "address_councildis": "C",
    "status": "Pending",
    "rowid": "954194",
    "final_x": "3689174.41283",
    "final_y": "534701.19015",
    "longitude": "-90.04372430952675",
    "latitude": "29.96400760647777",
    "geocoded_column": {
      "latitude": "29.96400760647777",
      "longitude": "-90.04372430952675"
    }
  },
  {
    "service_request": "2022-954193",
    "request_type": "Trash/Recycling",
    "request_reason": "Illegal Dumping",
    "date_created": "2022-12-18T00:08:42.000",
    "date_modified": "2022-12-18T00:08:42.000",
    "request_status": "Pending",
    "responsible_agency": "Department of Sanitation",
    "final_address": "2432 Dumaine St",
    "address_councildis": "D",
    "status": "Pending",
    "rowid": "954193",
    "final_x": "3678019.8285",
    "final_y": "536817.822216",
    "longitude": "-90.07887631013025",
    "latitude": "29.97016810518361",
    "geocoded_column": {
      "latitude": "29.97016810518361",
      "longitude": "-90.07887631013025"
    }
  },
  {
    "service_request": "2022-954192",
    "request_type": "Property Maintenance",
    "request_reason": "Property Maintenance",
    "date_created": "2022-12-18T00:02:43.000",
    "date_modified": "2022-12-18T00:02:43.000",
    "request_status": "Pending",
    "responsible_agency": "Department of Code Enforcement",
    "final_address": "2432 Dumaine St",
    "address_councildis": "D",
    "status": "Pending",
    "rowid": "954192",
    "final_x": "3678019.8285",
    "final_y": "536817.822216",
    "longitude": "-90.07887631013025",
    "latitude": "29.97016810518361",
    "geocoded_column": {
      "latitude": "29.97016810518361",
      "longitude": "-90.07887631013025"
    }
  },
  {
    "service_request": "2022-954191",
    "request_type": "Trash/Recycling",
    "request_reason": "Missed Trash Pick-Up",
    "date_created": "2022-12-17T22:27:33.000",
    "date_modified": "2022-12-17T22:27:33.000",
    "request_status": "Pending",
    "responsible_agency": "Department of Sanitation",
    "final_address": "10301 Willow Dr",
    "address_councildis": "C",
    "status": "Assigned to Contractor",
    "contractor": "Richards Disposal",
    "rowid": "954191",
    "final_x": "3722473.40767",
    "final_y": "516700.422005",
    "longitude": "-89.93926212627677",
    "latitude": "29.913439630372576",
    "geocoded_column": {
      "latitude": "29.913439630372576",
      "longitude": "-89.93926212627677"
    }
  },
  {
    "service_request": "2022-954190",
    "request_type": "Trash/Recycling",
    "request_reason": "Missed Trash Pick-Up",
    "date_created": "2022-12-17T22:24:36.000",
    "date_modified": "2022-12-17T22:24:37.000",
    "request_status": "Pending",
    "responsible_agency": "Department of Sanitation",
    "final_address": "10301 Willow Dr",
    "address_councildis": "C",
    "status": "Assigned to Contractor",
    "contractor": "Richards Disposal",
    "rowid": "954190",
    "final_x": "3722473.40767",
    "final_y": "516700.422005",
    "longitude": "-89.93926212627677",
    "latitude": "29.913439630372576",
    "geocoded_column": {
      "latitude": "29.913439630372576",
      "longitude": "-89.93926212627677"
    }
  },
  {
    "service_request": "2022-954189",
    "request_type": "Property Maintenance",
    "request_reason": "Property Maintenance",
    "date_created": "2022-12-17T21:30:34.000",
    "date_modified": "2022-12-17T21:30:34.000",
    "request_status": "Pending",
    "responsible_agency": "Department of Code Enforcement",
    "final_address": "9701 Lake Forest Blvd Ste 116",
    "address_councildis": "E",
    "status": "Pending",
    "rowid": "954189",
    "final_x": "3708893.37048",
    "final_y": "559076.94838",
    "longitude": "-89.980545426907",
    "latitude": "30.03040672354622",
    "geocoded_column": {
      "latitude": "30.03040672354622",
      "longitude": "-89.980545426907"
    }
  },
  {
    "service_request": "2022-954188",
    "request_type": "Trash/Recycling",
    "request_reason": "Request a Large Item Pick Up",
    "date_created": "2022-12-17T21:17:56.000",
    "date_modified": "2022-12-17T21:17:57.000",
    "request_status": "Pending",
    "responsible_agency": "Department of Sanitation",
    "final_address": "512 Emerald St",
    "address_councildis": "D",
    "status": "Assigned to Contractor",
    "contractor": "IV Waste",
    "rowid": "954188",
    "final_x": "3668238.27841",
    "final_y": "554995.74332",
    "longitude": "-90.10915423766393",
    "latitude": "30.020441959764312",
    "geocoded_column": {
      "latitude": "30.020441959764312",
      "longitude": "-90.10915423766393"
    }
  },
  {
    "service_request": "2022-954187",
    "request_type": "Property Maintenance",
    "request_reason": "Property Maintenance",
    "date_created": "2022-12-17T21:03:56.000",
    "date_modified": "2022-12-17T21:03:56.000",
    "request_status": "Pending",
    "responsible_agency": "Department of Code Enforcement",
    "final_address": "9701 Lake Forest Blvd Ste 116",
    "address_councildis": "E",
    "status": "Pending",
    "rowid": "954187",
    "final_x": "3708893.37048",
    "final_y": "559076.94838",
    "longitude": "-89.980545426907",
    "latitude": "30.03040672354622",
    "geocoded_column": {
      "latitude": "30.03040672354622",
      "longitude": "-89.980545426907"
    }
  },
  {
    "service_request": "2022-954185",
    "request_type": "Abandoned Vehicles",
    "request_reason": "Abandoned/Junk Vehicles",
    "date_created": "2022-12-17T20:47:07.000",
    "date_modified": "2022-12-17T20:47:07.000",
    "request_status": "Pending",
    "responsible_agency": "Department of Public Works",
    "final_address": "2816 Grand Route St John St",
    "address_councildis": "A",
    "status": "Pending",
    "rowid": "954185",
    "final_x": "3678123.0404",
    "final_y": "540211.625611",
    "longitude": "-90.07843297496319",
    "latitude": "29.97949679021069",
    "geocoded_column": {
      "latitude": "29.97949679021069",
      "longitude": "-90.07843297496319"
    }
  },
  {
    "service_request": "2022-954184",
    "request_type": "Trash/Recycling",
    "request_reason": "Illegal Dumping",
    "date_created": "2022-12-17T20:38:50.000",
    "date_modified": "2022-12-17T20:38:50.000",
    "request_status": "Pending",
    "responsible_agency": "Department of Sanitation",
    "final_address": "1874 N Roman St",
    "address_councildis": "D",
    "status": "Pending",
    "rowid": "954184",
    "final_x": "3683540.45295",
    "final_y": "538746.979081",
    "longitude": "-90.06137399524636",
    "latitude": "29.97530527385337",
    "geocoded_column": {
      "latitude": "29.97530527385337",
      "longitude": "-90.06137399524636"
    }
  },
  {
    "service_request": "2022-954183",
    "request_type": "Abandoned Vehicles",
    "request_reason": "Abandoned/Junk Vehicles",
    "date_created": "2022-12-17T20:28:36.000",
    "date_modified": "2022-12-17T20:28:36.000",
    "request_status": "Pending",
    "responsible_agency": "Department of Public Works",
    "final_address": "3540 Bacchus Dr",
    "address_councildis": "C",
    "status": "Pending",
    "rowid": "954183",
    "final_x": "3710167.05649",
    "final_y": "517619.155894",
    "longitude": "-89.9780701076541",
    "latitude": "29.91637178241267",
    "geocoded_column": {
      "latitude": "29.91637178241267",
      "longitude": "-89.9780701076541"
    }
  },
  {
    "service_request": "2022-954182",
    "request_type": "Traffic Signals/Signs/Striping/Streetlights",
    "request_reason": "Street Light Outage/Malfunction",
    "date_created": "2022-12-17T19:34:22.000",
    "date_modified": "2022-12-17T19:34:23.000",
    "request_status": "Pending",
    "responsible_agency": "Department of Public Works",
    "final_address": "DWYER RD & FOCH RD",
    "address_councildis": "D",
    "status": "Pending",
    "contractor": "Legacy Professional Services",
    "rowid": "954182",
    "final_x": "3697095.5",
    "final_y": "554958.78",
    "longitude": "-90.01797601992021",
    "latitude": "30.019461038544044",
    "geocoded_column": {
      "latitude": "30.019461038544044",
      "longitude": "-90.01797601992021"
    }
  },
  {
    "service_request": "2022-954181",
    "request_type": "Traffic Signals/Signs/Striping/Streetlights",
    "request_reason": "Street Light Outage/Malfunction",
    "date_created": "2022-12-17T19:30:33.000",
    "date_modified": "2022-12-17T19:30:34.000",
    "request_status": "Pending",
    "responsible_agency": "Department of Public Works",
    "final_address": "6139 S Laverne St",
    "address_councildis": "D",
    "status": "Pending",
    "contractor": "Legacy Professional Services",
    "rowid": "954181",
    "final_x": "3696755.56759",
    "final_y": "555463.878041",
    "longitude": "-90.01903178094749",
    "latitude": "30.02086059219807",
    "geocoded_column": {
      "latitude": "30.02086059219807",
      "longitude": "-90.01903178094749"
    }
  },
  {
    "service_request": "2022-954180",
    "request_type": "Traffic Signals/Signs/Striping/Streetlights",
    "request_reason": "Street Light Outage/Malfunction",
    "date_created": "2022-12-17T19:22:53.000",
    "date_modified": "2022-12-17T19:22:54.000",
    "request_status": "Pending",
    "responsible_agency": "Department of Public Works",
    "final_address": "109 Lark St",
    "address_councildis": "D",
    "status": "Pending",
    "contractor": "Legacy Professional Services",
    "rowid": "954180",
    "final_x": "3674864.29409",
    "final_y": "556196.748954",
    "longitude": "-90.08817677621316",
    "latitude": "30.023547979881883",
    "geocoded_column": {
      "latitude": "30.023547979881883",
      "longitude": "-90.08817677621316"
    }
  },
  {
    "service_request": "2022-954179",
    "request_type": "Roads/Drainage",
    "request_reason": "Street Flooding / Drainage",
    "date_created": "2022-12-17T18:29:15.000",
    "date_modified": "2022-12-17T18:29:15.000",
    "request_status": "Pending",
    "responsible_agency": "Department of Public Works",
    "final_address": "4831 Major Dr",
    "address_councildis": "E",
    "status": "Pending",
    "rowid": "954179",
    "final_x": "3718233.81119",
    "final_y": "557453.036187",
    "longitude": "-89.95109179082704",
    "latitude": "30.025635097091758",
    "geocoded_column": {
      "latitude": "30.025635097091758",
      "longitude": "-89.95109179082704"
    }
  },
  {
    "service_request": "2022-954178",
    "request_type": "Trash/Recycling",
    "request_reason": "Missed Trash Pick-Up",
    "date_created": "2022-12-17T18:28:19.000",
    "date_modified": "2022-12-17T18:28:20.000",
    "request_status": "Pending",
    "responsible_agency": "Department of Sanitation",
    "final_address": "5006 N Galvez St",
    "address_councildis": "E",
    "status": "Assigned to Contractor",
    "contractor": "Waste Pro",
    "rowid": "954178",
    "final_x": "3697065.836",
    "final_y": "537903.945161",
    "longitude": "-90.01868800928291",
    "latitude": "29.972567466573878",
    "geocoded_column": {
      "latitude": "29.972567466573878",
      "longitude": "-90.01868800928291"
    }
  },
  {
    "service_request": "2022-954177",
    "request_type": "Property Maintenance",
    "request_reason": "Property Maintenance",
    "date_created": "2022-12-17T18:15:56.000",
    "date_modified": "2022-12-17T18:15:56.000",
    "request_status": "Pending",
    "responsible_agency": "Department of Code Enforcement",
    "final_address": "2339 Wisteria St",
    "address_councildis": "D",
    "status": "Pending",
    "rowid": "954177",
    "final_x": "3685514.40201",
    "final_y": "548299.07157",
    "longitude": "-90.05480313428542",
    "latitude": "30.001509733565157",
    "geocoded_column": {
      "latitude": "30.001509733565157",
      "longitude": "-90.05480313428542"
    }
  },
  {
    "service_request": "2022-954176",
    "request_type": "Trash/Recycling",
    "request_reason": "Missed Trash Pick-Up",
    "date_created": "2022-12-17T17:51:25.000",
    "date_modified": "2022-12-17T17:51:26.000",
    "request_status": "Pending",
    "responsible_agency": "Department of Sanitation",
    "final_address": "134 N Alexander St",
    "address_councildis": "A",
    "status": "Assigned to Contractor",
    "contractor": "Richards Disposal",
    "rowid": "954176",
    "final_x": "3670253.93831",
    "final_y": "539432.27457",
    "longitude": "-90.10331323336244",
    "latitude": "29.97758845966334",
    "geocoded_column": {
      "latitude": "29.97758845966334",
      "longitude": "-90.10331323336244"
    }
  },
  {
    "service_request": "2022-954175",
    "request_type": "Trash/Recycling",
    "request_reason": "Order Recycling Cart",
    "date_created": "2022-12-17T17:48:44.000",
    "date_modified": "2022-12-17T17:48:44.000",
    "request_status": "Pending",
    "responsible_agency": "Department of Sanitation",
    "final_address": "1204 Louisa St",
    "address_councildis": "C",
    "status": "Pending",
    "rowid": "954175",
    "final_x": "3689631.52099",
    "final_y": "536284.680007",
    "longitude": "-90.04222446334778",
    "latitude": "29.96834749536938",
    "geocoded_column": {
      "latitude": "29.96834749536938",
      "longitude": "-90.04222446334778"
    }
  },
  {
    "service_request": "2022-954174",
    "request_type": "Trash/Recycling",
    "request_reason": "Missed Trash Pick-Up",
    "date_created": "2022-12-17T17:41:26.000",
    "date_modified": "2022-12-17T17:41:27.000",
    "request_status": "Pending",
    "responsible_agency": "Department of Sanitation",
    "final_address": "1126 Toledano St",
    "address_councildis": "B",
    "status": "Assigned to Contractor",
    "contractor": "Richards Disposal",
    "rowid": "954174",
    "final_x": "3675269.11201",
    "final_y": "519990.102584",
    "longitude": "-90.08814088655272",
    "latitude": "29.923979961040057",
    "geocoded_column": {
      "latitude": "29.923979961040057",
      "longitude": "-90.08814088655272"
    }
  },
  {
    "service_request": "2022-954173",
    "request_type": "Trash/Recycling",
    "request_reason": "Request a Large Item Pick Up",
    "date_created": "2022-12-17T17:40:31.000",
    "date_modified": "2022-12-17T17:40:32.000",
    "request_status": "Pending",
    "responsible_agency": "Department of Sanitation",
    "final_address": "2029 Mediamolle Dr",
    "address_councildis": "C",
    "status": "Assigned to Contractor",
    "contractor": "Richards Disposal",
    "rowid": "954173",
    "final_x": "3699192.52669",
    "final_y": "523825.370555",
    "longitude": "-90.01248411354189",
    "latitude": "29.933789098597618",
    "geocoded_column": {
      "latitude": "29.933789098597618",
      "longitude": "-90.01248411354189"
    }
  },
  {
    "service_request": "2022-954172",
    "request_type": "Roads/Drainage",
    "request_reason": "Debris in Roadway",
    "date_created": "2022-12-17T17:35:14.000",
    "date_modified": "2022-12-17T17:35:14.000",
    "request_status": "Pending",
    "responsible_agency": "Department of Public Works",
    "final_address": "7418 Panola St",
    "address_councildis": "A",
    "status": "Pending",
    "rowid": "954172",
    "final_x": "3665312.52928",
    "final_y": "529543.357761",
    "longitude": "-90.11925087064895",
    "latitude": "29.950542122023393",
    "geocoded_column": {
      "latitude": "29.950542122023393",
      "longitude": "-90.11925087064895"
    }
  },
  {
    "service_request": "2022-954171",
    "request_type": "Abandoned Vehicles",
    "request_reason": "Abandoned/Junk Vehicles",
    "date_created": "2022-12-17T17:34:24.000",
    "date_modified": "2022-12-17T17:34:24.000",
    "request_status": "Pending",
    "responsible_agency": "Department of Public Works",
    "final_address": "6032 Pontchartrain Blvd",
    "address_councildis": "A",
    "status": "Pending",
    "rowid": "954171",
    "final_x": "3666007.17191",
    "final_y": "547731.897106",
    "longitude": "-90.1164476307213",
    "latitude": "30.000534268656992",
    "geocoded_column": {
      "latitude": "30.000534268656992",
      "longitude": "-90.1164476307213"
    }
  },
  {
    "service_request": "2022-954170",
    "request_type": "Abandoned Vehicles",
    "request_reason": "Abandoned/Junk Vehicles",
    "date_created": "2022-12-17T17:28:22.000",
    "date_modified": "2022-12-17T17:28:22.000",
    "request_status": "Pending",
    "responsible_agency": "Department of Public Works",
    "final_address": "606 S Telemachus St",
    "address_councildis": "B",
    "status": "Pending",
    "rowid": "954170",
    "final_x": "3671163.51777",
    "final_y": "535711.476615",
    "longitude": "-90.10056689653231",
    "latitude": "29.967330640740638",
    "geocoded_column": {
      "latitude": "29.967330640740638",
      "longitude": "-90.10056689653231"
    }
  },
  {
    "service_request": "2022-954168",
    "request_type": "Trash/Recycling",
    "request_reason": "Request a Large Item Pick Up",
    "date_created": "2022-12-17T16:52:29.000",
    "date_modified": "2022-12-17T16:52:30.000",
    "request_status": "Pending",
    "responsible_agency": "Department of Sanitation",
    "final_address": "1523 Prentiss Ave",
    "address_councildis": "D",
    "status": "Assigned to Contractor",
    "contractor": "IV Waste",
    "rowid": "954168",
    "final_x": "3678575.78811",
    "final_y": "553530.335703",
    "longitude": "-90.07654162636561",
    "latitude": "30.016104891135104",
    "geocoded_column": {
      "latitude": "30.016104891135104",
      "longitude": "-90.07654162636561"
    }
  },
  {
    "service_request": "2022-954167",
    "request_type": "Trash/Recycling",
    "request_reason": "MIssed Recycling Pick-Up",
    "date_created": "2022-12-17T16:37:23.000",
    "date_modified": "2022-12-17T16:37:23.000",
    "request_status": "Pending",
    "responsible_agency": "Department of Sanitation",
    "final_address": "2413 Pine St",
    "address_councildis": "A",
    "status": "Assigned to Contractor",
    "contractor": "Richards Disposal",
    "rowid": "954167",
    "final_x": "3666489.41543",
    "final_y": "530344.983042",
    "longitude": "-90.11550795703805",
    "latitude": "29.95271199058998",
    "geocoded_column": {
      "latitude": "29.95271199058998",
      "longitude": "-90.11550795703805"
    }
  },
  {
    "service_request": "2022-954166",
    "request_type": "Roads/Drainage",
    "request_reason": "Street Flooding / Drainage",
    "date_created": "2022-12-17T16:35:48.000",
    "date_modified": "2022-12-17T16:35:48.000",
    "request_status": "Pending",
    "responsible_agency": "Department of Public Works",
    "final_address": "2402 Nashville Ave",
    "address_councildis": "A",
    "status": "Pending",
    "rowid": "954166",
    "final_x": "3666986.72295",
    "final_y": "524949.710461",
    "longitude": "-90.11411894468853",
    "latitude": "29.937862192531444",
    "geocoded_column": {
      "latitude": "29.937862192531444",
      "longitude": "-90.11411894468853"
    }
  },
  {
    "service_request": "2022-954165",
    "request_type": "Property Maintenance",
    "request_reason": "Property Maintenance",
    "date_created": "2022-12-17T16:24:56.000",
    "date_modified": "2022-12-17T16:24:56.000",
    "request_status": "Pending",
    "responsible_agency": "Department of Code Enforcement",
    "final_address": "1230 Webster St",
    "address_councildis": "A",
    "status": "Pending",
    "rowid": "954165",
    "final_x": "3664644.86144",
    "final_y": "520985.489017",
    "longitude": "-90.12164477183418",
    "latitude": "29.927030148205866",
    "geocoded_column": {
      "latitude": "29.927030148205866",
      "longitude": "-90.12164477183418"
    }
  },
  {
    "service_request": "2022-954164",
    "request_type": "Trash/Recycling",
    "request_reason": "MIssed Recycling Pick-Up",
    "date_created": "2022-12-17T16:19:28.000",
    "date_modified": "2022-12-17T16:19:29.000",
    "request_status": "Pending",
    "responsible_agency": "Department of Sanitation",
    "final_address": "2407 Pine St",
    "address_councildis": "A",
    "status": "Assigned to Contractor",
    "contractor": "Richards Disposal",
    "rowid": "954164",
    "final_x": "3666466.93844",
    "final_y": "530309.306434",
    "longitude": "-90.1155801267763",
    "latitude": "29.952614548386784",
    "geocoded_column": {
      "latitude": "29.952614548386784",
      "longitude": "-90.1155801267763"
    }
  },
  {
    "service_request": "2022-954163",
    "request_type": "Roads/Drainage",
    "request_reason": "Catch Basin - Broken/Damage",
    "date_created": "2022-12-17T16:16:16.000",
    "date_modified": "2022-12-17T16:16:16.000",
    "request_status": "Pending",
    "responsible_agency": "Department of Public Works",
    "final_address": "2402 Nashville Ave",
    "address_councildis": "A",
    "status": "Pending",
    "rowid": "954163",
    "final_x": "3666986.72295",
    "final_y": "524949.710461",
    "longitude": "-90.11411894468853",
    "latitude": "29.937862192531444",
    "geocoded_column": {
      "latitude": "29.937862192531444",
      "longitude": "-90.11411894468853"
    }
  },
  {
    "service_request": "2022-954162",
    "request_type": "Trash/Recycling",
    "request_reason": "Missed Trash Pick-Up",
    "date_created": "2022-12-17T16:14:55.000",
    "date_modified": "2022-12-17T16:14:56.000",
    "request_status": "Pending",
    "responsible_agency": "Department of Sanitation",
    "final_address": "1020 Arabella St",
    "address_councildis": "A",
    "status": "Assigned to Contractor",
    "contractor": "Richards Disposal",
    "rowid": "954162",
    "final_x": "3665967.98631",
    "final_y": "519758.070008",
    "longitude": "-90.11750910782675",
    "latitude": "29.9236165940433",
    "geocoded_column": {
      "latitude": "29.9236165940433",
      "longitude": "-90.11750910782675"
    }
  },
  {
    "service_request": "2022-954161",
    "request_type": "Abandoned Vehicles",
    "request_reason": "Abandoned/Junk Vehicles",
    "date_created": "2022-12-17T16:11:16.000",
    "date_modified": "2022-12-17T16:11:16.000",
    "request_status": "Pending",
    "responsible_agency": "Department of Public Works",
    "final_address": "202 River Oaks Dr",
    "address_councildis": "C",
    "status": "Pending",
    "rowid": "954161",
    "final_x": "3701643.91985",
    "final_y": "523274.555899",
    "longitude": "-90.0047653958975",
    "latitude": "29.932196622170288",
    "geocoded_column": {
      "latitude": "29.932196622170288",
      "longitude": "-90.0047653958975"
    }
  },
  {
    "service_request": "2022-954160",
    "request_type": "Abandoned Vehicles",
    "request_reason": "Abandoned/Junk Vehicles",
    "date_created": "2022-12-17T16:10:43.000",
    "date_modified": "2022-12-17T16:10:43.000",
    "request_status": "Pending",
    "responsible_agency": "Department of Public Works",
    "final_address": "202 River Oaks Dr",
    "address_councildis": "C",
    "status": "Pending",
    "rowid": "954160",
    "final_x": "3701643.91985",
    "final_y": "523274.555899",
    "longitude": "-90.0047653958975",
    "latitude": "29.932196622170288",
    "geocoded_column": {
      "latitude": "29.932196622170288",
      "longitude": "-90.0047653958975"
    }
  },
  {
    "service_request": "2022-954159",
    "request_type": "Abandoned Vehicles",
    "request_reason": "Abandoned/Junk Vehicles",
    "date_created": "2022-12-17T16:09:07.000",
    "date_modified": "2022-12-17T16:09:07.000",
    "request_status": "Pending",
    "responsible_agency": "Department of Public Works",
    "final_address": "202 River Oaks Dr",
    "address_councildis": "C",
    "status": "Pending",
    "rowid": "954159",
    "final_x": "3701643.91985",
    "final_y": "523274.555899",
    "longitude": "-90.0047653958975",
    "latitude": "29.932196622170288",
    "geocoded_column": {
      "latitude": "29.932196622170288",
      "longitude": "-90.0047653958975"
    }
  },
  {
    "service_request": "2022-954158",
    "request_type": "Trash/Recycling",
    "request_reason": "MIssed Recycling Pick-Up",
    "date_created": "2022-12-17T16:08:36.000",
    "date_modified": "2022-12-17T16:08:37.000",
    "request_status": "Pending",
    "responsible_agency": "Department of Sanitation",
    "final_address": "2419 Pine St",
    "address_councildis": "A",
    "status": "Assigned to Contractor",
    "contractor": "Richards Disposal",
    "rowid": "954158",
    "final_x": "3666513.23841",
    "final_y": "530377.849218",
    "longitude": "-90.11543163142738",
    "latitude": "29.952801665642045",
    "geocoded_column": {
      "latitude": "29.952801665642045",
      "longitude": "-90.11543163142738"
    }
  },
  {
    "service_request": "2022-954157",
    "request_type": "Trash/Recycling",
    "request_reason": "Missed Trash Pick-Up",
    "date_created": "2022-12-17T16:00:22.000",
    "date_modified": "2022-12-17T16:00:23.000",
    "request_status": "Pending",
    "responsible_agency": "Department of Sanitation",
    "final_address": "4520 St. Peter Street",
    "address_councildis": "A",
    "status": "Assigned to Contractor",
    "contractor": "Richards Disposal",
    "rowid": "954157",
    "final_x": "3670820.27169",
    "final_y": "541183.6507",
    "longitude": "-90.1014650886643",
    "latitude": "29.98238742033833",
    "geocoded_column": {
      "latitude": "29.98238742033833",
      "longitude": "-90.1014650886643"
    }
  },
  {
    "service_request": "2022-954156",
    "request_type": "Abandoned Vehicles",
    "request_reason": "Vehicle Blocking Your Driveway",
    "date_created": "2022-12-17T15:56:03.000",
    "date_modified": "2022-12-17T15:56:03.000",
    "request_status": "Pending",
    "responsible_agency": "Department of Public Works",
    "final_address": "1930 Bienville Ave",
    "address_councildis": "B",
    "status": "Pending",
    "rowid": "954156",
    "final_x": "3678042.1188",
    "final_y": "533964.375813",
    "longitude": "-90.07890456978272",
    "latitude": "29.96232142777804",
    "geocoded_column": {
      "latitude": "29.96232142777804",
      "longitude": "-90.07890456978272"
    }
  },
  {
    "service_request": "2022-954155",
    "request_type": "Abandoned Vehicles",
    "request_reason": "Abandoned/Junk Vehicles",
    "date_created": "2022-12-17T15:48:05.000",
    "date_modified": "2022-12-17T15:48:05.000",
    "request_status": "Pending",
    "responsible_agency": "Department of Public Works",
    "final_address": "822 N Rocheblave St",
    "address_councildis": "D",
    "status": "Pending",
    "rowid": "954155",
    "final_x": "3677883.6973",
    "final_y": "536744.913544",
    "longitude": "-90.0793087467444",
    "latitude": "29.969971728511258",
    "geocoded_column": {
      "latitude": "29.969971728511258",
      "longitude": "-90.0793087467444"
    }
  },
  {
    "service_request": "2022-954154",
    "request_type": "Trash/Recycling",
    "request_reason": "Start Trash Service",
    "date_created": "2022-12-17T15:46:09.000",
    "date_modified": "2022-12-17T15:46:10.000",
    "request_status": "Pending",
    "responsible_agency": "Department of Sanitation",
    "final_address": "1701 S Salcedo St",
    "address_councildis": "B",
    "status": "Assigned to Contractor",
    "contractor": "Richards Disposal",
    "rowid": "954154",
    "final_x": "3670155.82746",
    "final_y": "530477.185026",
    "longitude": "-90.10392656090347",
    "latitude": "29.952967845765897",
    "geocoded_column": {
      "latitude": "29.952967845765897",
      "longitude": "-90.10392656090347"
    }
  },
  {
    "service_request": "2022-954153",
    "request_type": "Abandoned Vehicles",
    "request_reason": "Abandoned/Junk Vehicles",
    "date_created": "2022-12-17T15:44:20.000",
    "date_modified": "2022-12-17T15:44:20.000",
    "request_status": "Pending",
    "responsible_agency": "Department of Public Works",
    "final_address": "97 Columbus St",
    "address_councildis": "D",
    "status": "Pending",
    "rowid": "954153",
    "final_x": "3679078.36866",
    "final_y": "539311.334474",
    "longitude": "-90.07544688181954",
    "latitude": "29.97699249809123",
    "geocoded_column": {
      "latitude": "29.97699249809123",
      "longitude": "-90.07544688181954"
    }
  },
  {
    "service_request": "2022-954152",
    "request_type": "Property Maintenance",
    "request_reason": "Property Maintenance",
    "date_created": "2022-12-17T15:44:07.000",
    "date_modified": "2022-12-17T15:44:07.000",
    "request_status": "Pending",
    "responsible_agency": "Department of Code Enforcement",
    "final_address": "829 N Rocheblave St",
    "address_councildis": "D",
    "status": "Pending",
    "rowid": "954152",
    "final_x": "3677838.00046",
    "final_y": "536820.659528",
    "longitude": "-90.07945044421399",
    "latitude": "29.970181379144364",
    "geocoded_column": {
      "latitude": "29.970181379144364",
      "longitude": "-90.07945044421399"
    }
  },
  {
    "service_request": "2022-954151",
    "request_type": "Abandoned Vehicles",
    "request_reason": "Abandoned/Junk Vehicles",
    "date_created": "2022-12-17T15:43:21.000",
    "date_modified": "2022-12-17T15:43:21.000",
    "request_status": "Pending",
    "responsible_agency": "Department of Public Works",
    "final_address": "97 Columbus St",
    "address_councildis": "D",
    "status": "Pending",
    "rowid": "954151",
    "final_x": "3679078.36866",
    "final_y": "539311.334474",
    "longitude": "-90.07544688181954",
    "latitude": "29.97699249809123",
    "geocoded_column": {
      "latitude": "29.97699249809123",
      "longitude": "-90.07544688181954"
    }
  },
  {
    "service_request": "2022-954150",
    "request_type": "Trash/Recycling",
    "request_reason": "MIssed Recycling Pick-Up",
    "date_created": "2022-12-17T15:39:08.000",
    "date_modified": "2022-12-17T15:39:09.000",
    "request_status": "Pending",
    "responsible_agency": "Department of Sanitation",
    "final_address": "1525 Dufossat St",
    "address_councildis": "B",
    "status": "Assigned to Contractor",
    "contractor": "Richards Disposal",
    "rowid": "954150",
    "final_x": "3668161.69364",
    "final_y": "520678.110521",
    "longitude": "-90.11055336688219",
    "latitude": "29.926082227758133",
    "geocoded_column": {
      "latitude": "29.926082227758133",
      "longitude": "-90.11055336688219"
    }
  },
  {
    "service_request": "2022-954149",
    "request_type": "Property Maintenance",
    "request_reason": "Property Maintenance",
    "date_created": "2022-12-17T15:37:48.000",
    "date_modified": "2022-12-17T15:37:48.000",
    "request_status": "Pending",
    "responsible_agency": "Department of Code Enforcement",
    "final_address": "1204 Marigny St",
    "address_councildis": "C",
    "status": "Pending",
    "rowid": "954149",
    "final_x": "3685355.26345",
    "final_y": "536769.296008",
    "longitude": "-90.05571199408973",
    "latitude": "29.969811817318355",
    "geocoded_column": {
      "latitude": "29.969811817318355",
      "longitude": "-90.05571199408973"
    }
  },
  {
    "service_request": "2022-954148",
    "request_type": "Trash/Recycling",
    "request_reason": "Missed Trash Pick-Up",
    "date_created": "2022-12-17T15:34:58.000",
    "date_modified": "2022-12-17T15:34:59.000",
    "request_status": "Pending",
    "responsible_agency": "Department of Sanitation",
    "final_address": "2811 Second Street ",
    "address_councildis": "B",
    "status": "Assigned to Contractor",
    "contractor": "Richards Disposal",
    "rowid": "954148",
    "final_x": "3674355.18094",
    "final_y": "526715.680958",
    "longitude": "-90.09079562606486",
    "latitude": "29.942500394186364",
    "geocoded_column": {
      "latitude": "29.942500394186364",
      "longitude": "-90.09079562606486"
    }
  },
  {
    "service_request": "2022-954147",
    "request_type": "Trash/Recycling",
    "request_reason": "Order Recycling Cart",
    "date_created": "2022-12-17T15:31:38.000",
    "date_modified": "2022-12-17T15:31:38.000",
    "request_status": "Pending",
    "responsible_agency": "Department of Sanitation",
    "final_address": "820 Third St",
    "address_councildis": "B",
    "status": "Pending",
    "rowid": "954147",
    "final_x": "3678048.17557",
    "final_y": "520382.047928",
    "longitude": "-90.07935483193874",
    "latitude": "29.924974350024783",
    "geocoded_column": {
      "latitude": "29.924974350024783",
      "longitude": "-90.07935483193874"
    }
  },
  {
    "service_request": "2022-954146",
    "request_type": "Trash/Recycling",
    "request_reason": "Missed Trash Pick-Up",
    "date_created": "2022-12-17T14:57:23.000",
    "date_modified": "2022-12-17T14:57:24.000",
    "request_status": "Pending",
    "responsible_agency": "Department of Sanitation",
    "final_address": "315 N Bernadotte St",
    "address_councildis": "A",
    "status": "Assigned to Contractor",
    "contractor": "Richards Disposal",
    "rowid": "954146",
    "final_x": "3669346.87566",
    "final_y": "540857.626891",
    "longitude": "-90.1061298391489",
    "latitude": "29.9815344382555",
    "geocoded_column": {
      "latitude": "29.9815344382555",
      "longitude": "-90.1061298391489"
    }
  },