[
  {
    "service_request": "2025-1192952",
    "request_type": "Health Related Request",
    "request_reason": "Noise Ordinance Complaint",
    "date_created": "2025-05-17T23:09:59.000",
    "date_modified": "2025-05-17T23:10:01.000",
    "request_status": "Pending",
    "responsible_agency": "Health Department",
    "final_address": "600 N Broad St",
    "address_councildis": "D",
    "status": "Pending",
    "rowid": "1192952",
    "final_x": "3676514.68328",
    "final_y": "536431.051079",
    "longitude": "-90.0836430411453",
    "latitude": "29.969149839828454",
    "geocoded_column": {
      "latitude": "29.969149839828454",
      "longitude": "-90.0836430411453"
    }
  },
  {
    "service_request": "2025-1192951",
    "request_type": "Streetlights",
    "request_reason": "Streetlight Outage/Malfunction",
    "date_created": "2025-05-17T22:17:08.000",
    "date_modified": "2025-05-17T22:17:11.000",
    "request_status": "Pending",
    "responsible_agency": "Department of Public Works",
    "final_address": "1907 Bordeaux St",
    "address_councildis": "B",
    "status": "Pending",
    "contractor": "Legacy Professional Services",
    "rowid": "1192951",
    "final_x": "3669299.35937",
    "final_y": "521891.38489",
    "longitude": "-90.1069210833639",
    "latitude": "29.929384913943508",
    "geocoded_column": {
      "latitude": "29.929384913943508",
      "longitude": "-90.1069210833639"
    }
  },
  {
    "service_request": "2025-1192950",
    "request_type": "Property Maintenance",
    "request_reason": "Property Maintenance",
    "date_created": "2025-05-17T22:13:47.000",
    "date_modified": "2025-05-17T22:13:48.000",
    "request_status": "Pending",
    "responsible_agency": "Department of Code Enforcement",
    "final_address": "4828 Thalia St",
    "address_councildis": "B",
    "status": "Pending",
    "rowid": "1192950",
    "final_x": "3669000.28314",
    "final_y": "532149.146499",
    "longitude": "-90.10751879448752",
    "latitude": "29.95759923050415",
    "geocoded_column": {
      "latitude": "29.95759923050415",
      "longitude": "-90.10751879448752"
    }
  },
  {
    "service_request": "2025-1192949",
    "request_type": "Property Maintenance",
    "request_reason": "Property Maintenance",
    "date_created": "2025-05-17T22:13:46.000",
    "date_modified": "2025-05-17T22:13:48.000",
    "request_status": "Pending",
    "responsible_agency": "Department of Code Enforcement",
    "final_address": "4828 Thalia St",
    "address_councildis": "B",
    "status": "Pending",
    "rowid": "1192949",
    "final_x": "3669000.28314",
    "final_y": "532149.146499",
    "longitude": "-90.10751879448752",
    "latitude": "29.95759923050415",
    "geocoded_column": {
      "latitude": "29.95759923050415",
      "longitude": "-90.10751879448752"
    }
  },
  {
    "service_request": "2025-1192948",
    "request_type": "Streetlights",
    "request_reason": "Streetlight Outage/Malfunction",
    "date_created": "2025-05-17T22:10:02.000",
    "date_modified": "2025-05-17T22:10:04.000",
    "request_status": "Pending",
    "responsible_agency": "Department of Public Works",
    "final_address": "1907 Bordeaux St",
    "address_councildis": "B",
    "status": "Pending",
    "contractor": "Legacy Professional Services",
    "rowid": "1192948",
    "final_x": "3669299.35937",
    "final_y": "521891.38489",
    "longitude": "-90.1069210833639",
    "latitude": "29.929384913943508",
    "geocoded_column": {
      "latitude": "29.929384913943508",
      "longitude": "-90.1069210833639"
    }
  },
  {
    "service_request": "2025-1192947",
    "request_type": "Streetlights",
    "request_reason": "Streetlight Outage/Malfunction",
    "date_created": "2025-05-17T20:44:25.000",
    "date_modified": "2025-05-17T20:44:28.000",
    "request_status": "Pending",
    "responsible_agency": "Department of Public Works",
    "final_address": "925 Seventh St",
    "address_councildis": "B",
    "status": "Pending",
    "contractor": "Legacy Professional Services",
    "rowid": "1192947",
    "final_x": "3676695.80661",
    "final_y": "519969.184824",
    "longitude": "-90.08363803773199",
    "latitude": "29.923879735947164",
    "geocoded_column": {
      "latitude": "29.923879735947164",
      "longitude": "-90.08363803773199"
    }
  },
  {
    "service_request": "2025-1192946",
    "request_type": "Trash/Recycling",
    "request_reason": "Order Recycling Cart",
    "date_created": "2025-05-17T20:20:25.000",
    "date_modified": "2025-05-17T20:20:28.000",
    "request_status": "Pending",
    "responsible_agency": "Department of Sanitation",
    "final_address": "2201 St Ann St",
    "address_councildis": "D",
    "status": "Pending",
    "rowid": "1192946",
    "final_x": "3678569.51432",
    "final_y": "536019.228167",
    "longitude": "-90.0771679934144",
    "latitude": "29.967955685938623",
    "geocoded_column": {
      "latitude": "29.967955685938623",
      "longitude": "-90.0771679934144"
    }
  },
  {
    "service_request": "2025-1192945",
    "request_type": "Utility Poles",
    "request_reason": "Wires Sagging/Hanging Low",
    "date_created": "2025-05-17T19:45:37.000",
    "date_modified": "2025-05-17T19:45:41.000",
    "request_status": "Pending",
    "responsible_agency": "Utility Company Collective",
    "final_address": "6708 General Diaz St",
    "address_councildis": "A",
    "status": "Pending",
    "rowid": "1192945",
    "final_x": "3669853.10087",
    "final_y": "552041.413206",
    "longitude": "-90.10415201236218",
    "latitude": "30.012271062486946",
    "geocoded_column": {
      "latitude": "30.012271062486946",
      "longitude": "-90.10415201236218"
    }
  },
  {
    "service_request": "2025-1192944",
    "request_type": "General Services",
    "request_reason": "General Service Request",
    "date_created": "2025-05-17T19:38:33.000",
    "date_modified": "2025-05-17T19:38:35.000",
    "request_status": "Pending",
    "responsible_agency": "Orleans Parish Communication District",
    "final_address": "7709 Hickman St",
    "address_councildis": "E",
    "status": "Pending",
    "rowid": "1192944",
    "final_x": "3706086.26865",
    "final_y": "563572.810336",
    "longitude": "-89.98924917839862",
    "latitude": "30.042859397730165",
    "geocoded_column": {
      "latitude": "30.042859397730165",
      "longitude": "-89.98924917839862"
    }
  },
  {
    "service_request": "2025-1192943",
    "request_type": "Street and Traffic Signs",
    "request_reason": "Stop Sign Missing or Damaged",
    "date_created": "2025-05-17T19:33:42.000",
    "date_modified": "2025-05-17T19:33:45.000",
    "request_status": "Pending",
    "responsible_agency": "Department of Public Works",
    "final_address": "7709 Hickman St",
    "address_councildis": "E",
    "status": "Pending",
    "rowid": "1192943",
    "final_x": "3706086.26865",
    "final_y": "563572.810336",
    "longitude": "-89.98924917839862",
    "latitude": "30.042859397730165",
    "geocoded_column": {
      "latitude": "30.042859397730165",
      "longitude": "-89.98924917839862"
    }
  },
  {
    "service_request": "2025-1192942",
    "request_type": "Trash/Recycling",
    "request_reason": "Order Second Trash Cart",
    "date_created": "2025-05-17T19:07:16.000",
    "date_modified": "2025-05-17T19:07:18.000",
    "request_status": "Pending",
    "responsible_agency": "Department of Sanitation",
    "final_address": "6822 Bellaire Dr",
    "address_councildis": "A",
    "status": "Assigned to Contractor",
    "contractor": "IV Waste",
    "rowid": "1192942",
    "final_x": "3664558.00256",
    "final_y": "553587.523287",
    "longitude": "-90.12082992629965",
    "latitude": "30.016677448312674",
    "geocoded_column": {
      "latitude": "30.016677448312674",
      "longitude": "-90.12082992629965"
    }
  },
  {
    "service_request": "2025-1192941",
    "request_type": "Safety & Permits",
    "request_reason": "Licenses & Permits",
    "date_created": "2025-05-17T19:06:20.000",
    "date_modified": "2025-05-17T19:06:22.000",
    "request_status": "Pending",
    "responsible_agency": "Safety and Permits",
    "final_address": "3209 N Robertson St",
    "address_councildis": "D",
    "status": "Pending",
    "rowid": "1192941",
    "final_x": "3690066.42697",
    "final_y": "537353.898312",
    "longitude": "-90.04081292574263",
    "latitude": "29.971273987797172",
    "geocoded_column": {
      "latitude": "29.971273987797172",
      "longitude": "-90.04081292574263"
    }
  },
  {
    "service_request": "2025-1192940",
    "request_type": "Trash/Recycling",
    "request_reason": "Replace Trash Cart",
    "date_created": "2025-05-17T18:36:12.000",
    "date_modified": "2025-05-17T18:36:13.000",
    "request_status": "Pending",
    "responsible_agency": "Department of Sanitation",
    "final_address": "6664 General Diaz St",
    "address_councildis": "A",
    "status": "Assigned to Contractor",
    "contractor": "IV Waste",
    "rowid": "1192940",
    "final_x": "3669861.88852",
    "final_y": "551763.181525",
    "longitude": "-90.10413367832712",
    "latitude": "30.011505764213233",
    "geocoded_column": {
      "latitude": "30.011505764213233",
      "longitude": "-90.10413367832712"
    }
  },
  {
    "service_request": "2025-1192939",
    "request_type": "Trash/Recycling",
    "request_reason": "Request a Large Item Pick Up",
    "date_created": "2025-05-17T17:59:04.000",
    "date_modified": "2025-05-17T17:59:06.000",
    "request_status": "Pending",
    "responsible_agency": "Department of Sanitation",
    "final_address": "2325 Esplanade Ave",
    "address_councildis": "D",
    "status": "Assigned to Contractor",
    "contractor": "IV Waste",
    "rowid": "1192939",
    "final_x": "3679171.06427",
    "final_y": "538261.594889",
    "longitude": "-90.07519052292756",
    "latitude": "29.974103278013565",
    "geocoded_column": {
      "latitude": "29.974103278013565",
      "longitude": "-90.07519052292756"
    }
  },
  {
    "service_request": "2025-1192938",
    "request_type": "Trash/Recycling",
    "request_reason": "Replace Trash Cart",
    "date_created": "2025-05-17T17:07:44.000",
    "date_modified": "2025-05-17T17:07:45.000",
    "request_status": "Pending",
    "responsible_agency": "Department of Sanitation",
    "final_address": "528 S Rocheblave St",
    "address_councildis": "B",
    "status": "Assigned to Contractor",
    "contractor": "IV Waste",
    "rowid": "1192938",
    "final_x": "3675055.8987",
    "final_y": "533026.620484",
    "longitude": "-90.08836680911038",
    "latitude": "29.95983247010194",
    "geocoded_column": {
      "latitude": "29.95983247010194",
      "longitude": "-90.08836680911038"
    }
  },
  {
    "service_request": "2025-1192937",
    "request_type": "Trash/Recycling",
    "request_reason": "Request a Large Item Pick Up",
    "date_created": "2025-05-17T17:00:41.000",
    "date_modified": "2025-05-17T17:00:43.000",
    "request_status": "Pending",
    "responsible_agency": "Department of Sanitation",
    "final_address": "818 Forstall St",
    "address_councildis": "E",
    "status": "Assigned to Contractor",
    "contractor": "Waste Pro",
    "rowid": "1192937",
    "final_x": "3695944.00099",
    "final_y": "533256.231748",
    "longitude": "-90.02239887965176",
    "latitude": "29.95982325034701",
    "geocoded_column": {
      "latitude": "29.95982325034701",
      "longitude": "-90.02239887965176"
    }
  },
  {
    "service_request": "2025-1192936",
    "request_type": "Street and Traffic Signs",
    "request_reason": "Street Name Sign Damaged or Missing",
    "date_created": "2025-05-17T16:49:15.000",
    "date_modified": "2025-05-17T16:49:17.000",
    "request_status": "Pending",
    "responsible_agency": "Department of Public Works",
    "final_address": "N RAMPART ST & ROSALIE ALY",
    "address_councildis": "C",
    "status": "Pending",
    "rowid": "1192936",
    "final_x": "3689854.2",
    "final_y": "535331.48",
    "longitude": "-90.04155517136076",
    "latitude": "29.965719628525783",
    "geocoded_column": {
      "latitude": "29.965719628525783",
      "longitude": "-90.04155517136076"
    }
  },
  {
    "service_request": "2025-1192935",
    "request_type": "Street and Traffic Signs",
    "request_reason": "Street Name Sign Damaged or Missing",
    "date_created": "2025-05-17T16:48:20.000",
    "date_modified": "2025-05-17T16:48:21.000",
    "request_status": "Pending",
    "responsible_agency": "Department of Public Works",
    "final_address": "N RAMPART ST & MARTINIQUE ALY",
    "address_councildis": "C",
    "status": "Pending",
    "rowid": "1192935",
    "final_x": "3689223.3",
    "final_y": "535486.28",
    "longitude": "-90.04354202170948",
    "latitude": "29.96616481633613",
    "geocoded_column": {
      "latitude": "29.96616481633613",
      "longitude": "-90.04354202170948"
    }
  },
  {
    "service_request": "2025-1192934",
    "request_type": "Street and Traffic Signs",
    "request_reason": "One Way Sign Missing or Damaged",
    "date_created": "2025-05-17T16:47:38.000",
    "date_modified": "2025-05-17T16:47:40.000",
    "request_status": "Pending",
    "responsible_agency": "Department of Public Works",
    "final_address": "600 Homer Plessy Way",
    "address_councildis": "C",
    "status": "Pending",
    "rowid": "1192934",
    "final_x": "3687617.87401",
    "final_y": "534643.03943",
    "longitude": "-90.04864176409292",
    "latitude": "29.963895789933158",
    "geocoded_column": {
      "latitude": "29.963895789933158",
      "longitude": "-90.04864176409292"
    }
  },
  {
    "service_request": "2025-1192933",
    "request_type": "Street and Traffic Signs",
    "request_reason": "Street Name Sign Damaged or Missing",
    "date_created": "2025-05-17T16:40:57.000",
    "date_modified": "2025-05-17T16:41:00.000",
    "request_status": "Pending",
    "responsible_agency": "Department of Public Works",
    "final_address": "ST CLAUDE AVE & MARIGNY ST",
    "address_councildis": "C",
    "status": "Pending",
    "rowid": "1192933",
    "final_x": "3685418.8",
    "final_y": "536338.88",
    "longitude": "-90.05552649856524",
    "latitude": "29.968626374846288",
    "geocoded_column": {
      "latitude": "29.968626374846288",
      "longitude": "-90.05552649856524"
    }
  },
  {
    "service_request": "2025-1192932",
    "request_type": "Abandoned Vehicles",
    "request_reason": "Vehicle Blocking Your Driveway",
    "date_created": "2025-05-17T16:34:18.000",
    "date_modified": "2025-05-17T16:34:21.000",
    "request_status": "Pending",
    "responsible_agency": "Department of Public Works",
    "final_address": "216 N Alexander St, New Orleans, Louisiana, 70119",
    "address_councildis": "A",
    "status": "Pending",
    "rowid": "1192932",
    "final_x": "3670386.58151",
    "final_y": "539609.107786",
    "longitude": "-90.10288830267929",
    "latitude": "29.978070775273608",
    "geocoded_column": {
      "latitude": "29.978070775273608",
      "longitude": "-90.10288830267929"
    }
  },
  {
    "service_request": "2025-1192931",
    "request_type": "Street and Traffic Signs",
    "request_reason": "Street Name Sign Damaged or Missing",
    "date_created": "2025-05-17T16:22:25.000",
    "date_modified": "2025-05-17T16:22:28.000",
    "request_status": "Pending",
    "responsible_agency": "Department of Public Works",
    "final_address": "FELICIANA ST & ST CLAUDE AVE",
    "address_councildis": "C",
    "status": "Pending",
    "rowid": "1192931",
    "final_x": "3688748.3",
    "final_y": "536136.38",
    "longitude": "-90.0450189739516",
    "latitude": "29.967967057139397",
    "geocoded_column": {
      "latitude": "29.967967057139397",
      "longitude": "-90.0450189739516"
    }
  },
  {
    "service_request": "2025-1192930",
    "request_type": "Street and Traffic Signs",
    "request_reason": "Street Name Sign Damaged or Missing",
    "date_created": "2025-05-17T16:18:30.000",
    "date_modified": "2025-05-17T16:18:31.000",
    "request_status": "Pending",
    "responsible_agency": "Department of Public Works",
    "final_address": "2539 Banks St",
    "address_councildis": "B",
    "status": "Pending",
    "rowid": "1192930",
    "final_x": "3675198.63086",
    "final_y": "533781.363589",
    "longitude": "-90.08789018739895",
    "latitude": "29.961903495163675",
    "geocoded_column": {
      "latitude": "29.961903495163675",
      "longitude": "-90.08789018739895"
    }
  },
  {
    "service_request": "2025-1192929",
    "request_type": "Trash/Recycling",
    "request_reason": "Replace Trash Cart",
    "date_created": "2025-05-17T16:17:01.000",
    "date_modified": "2025-05-17T16:17:03.000",
    "request_status": "Pending",
    "responsible_agency": "Department of Sanitation",
    "final_address": "7 Everglades Dr",
    "address_councildis": "C",
    "status": "Assigned to Contractor",
    "contractor": "Richards Disposal",
    "rowid": "1192929",
    "final_x": "3700180.08624",
    "final_y": "516760.801717",
    "longitude": "-90.00962409920072",
    "latitude": "29.91433262162182",
    "geocoded_column": {
      "latitude": "29.91433262162182",
      "longitude": "-90.00962409920072"
    }
  },
  {
    "service_request": "2025-1192928",
    "request_type": "Roads and Streets",
    "request_reason": "Sidewalk Damaged or Missing",
    "date_created": "2025-05-17T16:14:53.000",
    "date_modified": "2025-05-17T16:14:56.000",
    "request_status": "Pending",
    "responsible_agency": "Department of Public Works",
    "final_address": "2539 Banks St",
    "address_councildis": "B",
    "status": "Pending",
    "rowid": "1192928",
    "final_x": "3675198.63086",
    "final_y": "533781.363589",
    "longitude": "-90.08789018739895",
    "latitude": "29.961903495163675",
    "geocoded_column": {
      "latitude": "29.961903495163675",
      "longitude": "-90.08789018739895"
    }
  },
  {
    "service_request": "2025-1192927",
    "request_type": "Street and Traffic Signs",
    "request_reason": "Street Name Sign Damaged or Missing",
    "date_created": "2025-05-17T16:02:14.000",
    "date_modified": "2025-05-17T16:02:20.000",
    "request_status": "Pending",
    "responsible_agency": "Department of Public Works",
    "final_address": "ST CLAUDE AVE & FRANKLIN AVE",
    "address_councildis": "C",
    "status": "Pending",
    "rowid": "1192927",
    "final_x": "3687068.7",
    "final_y": "536547.68",
    "longitude": "-90.05030865196827",
    "latitude": "29.96914980739771",
    "geocoded_column": {
      "latitude": "29.96914980739771",
      "longitude": "-90.05030865196827"
    }
  },
  {
    "service_request": "2025-1192926",
    "request_type": "Street and Traffic Signs",
    "request_reason": "Street Name Sign Damaged or Missing",
    "date_created": "2025-05-17T16:01:17.000",
    "date_modified": "2025-05-17T16:01:19.000",
    "request_status": "Pending",
    "responsible_agency": "Department of Public Works",
    "final_address": "URQUHART ST & FRANKLIN AVE",
    "address_councildis": "C",
    "status": "Pending",
    "rowid": "1192926",
    "final_x": "3687310.7",
    "final_y": "537195.98",
    "longitude": "-90.04952146141835",
    "latitude": "29.970924952679518",
    "geocoded_column": {
      "latitude": "29.970924952679518",
      "longitude": "-90.04952146141835"
    }
  },
  {
    "service_request": "2025-1192925",
    "request_type": "Trash/Recycling",
    "request_reason": "Order Recycling Cart",
    "date_created": "2025-05-17T15:57:42.000",
    "date_modified": "2025-05-17T15:57:44.000",
    "request_status": "Pending",
    "responsible_agency": "Department of Sanitation",
    "final_address": "848 Ida St",
    "address_councildis": "A",
    "status": "Pending",
    "rowid": "1192925",
    "final_x": "3673143.60404",
    "final_y": "540394.270731",
    "longitude": "-90.09415381440876",
    "latitude": "29.980148011184806",
    "geocoded_column": {
      "latitude": "29.980148011184806",
      "longitude": "-90.09415381440876"
    }
  },
  {
    "service_request": "2025-1192924",
    "request_type": "Street and Traffic Signs",
    "request_reason": "Street Name Sign Damaged or Missing",
    "date_created": "2025-05-17T15:56:42.000",
    "date_modified": "2025-05-17T15:56:43.000",
    "request_status": "Pending",
    "responsible_agency": "Department of Public Works",
    "final_address": "FRANKLIN AVE & ALMONASTER AVE",
    "address_councildis": "D",
    "status": "Pending",
    "rowid": "1192924",
    "final_x": "3687663.6",
    "final_y": "539306.98",
    "longitude": "-90.04833219611189",
    "latitude": "29.976718584122636",
    "geocoded_column": {
      "latitude": "29.976718584122636",
      "longitude": "-90.04833219611189"
    }
  },
  {
    "service_request": "2025-1192923",
    "request_type": "Property Maintenance",
    "request_reason": "Property Maintenance",
    "date_created": "2025-05-17T15:52:42.000",
    "date_modified": "2025-05-17T15:52:44.000",
    "request_status": "Pending",
    "responsible_agency": "Department of Code Enforcement",
    "final_address": "2119 Painters St",
    "address_councildis": "D",
    "status": "Pending",
    "rowid": "1192923",
    "final_x": "3687285.21398",
    "final_y": "540378.998283",
    "longitude": "-90.04948931867493",
    "latitude": "29.97967791856881",
    "geocoded_column": {
      "latitude": "29.97967791856881",
      "longitude": "-90.04948931867493"
    }
  },
  {
    "service_request": "2025-1192922",
    "request_type": "Trash/Recycling",
    "request_reason": "Repair Trash Cart",
    "date_created": "2025-05-17T15:50:20.000",
    "date_modified": "2025-05-17T15:50:21.000",
    "request_status": "Pending",
    "responsible_agency": "Department of Sanitation",
    "final_address": "8233 Pritchard Pl",
    "address_councildis": "A",
    "status": "Assigned to Contractor",
    "contractor": "IV Waste",
    "rowid": "1192922",
    "final_x": "3665623.5145",
    "final_y": "533335.086148",
    "longitude": "-90.11814196660848",
    "latitude": "29.960959074384633",
    "geocoded_column": {
      "latitude": "29.960959074384633",
      "longitude": "-90.11814196660848"
    }
  },
  {
    "service_request": "2025-1192921",
    "request_type": "Street and Traffic Signs",
    "request_reason": "Street Name Sign Damaged or Missing",
    "date_created": "2025-05-17T15:50:11.000",
    "date_modified": "2025-05-17T15:50:12.000",
    "request_status": "Pending",
    "responsible_agency": "Department of Public Works",
    "final_address": "N TONTI ST & PAINTERS ST",
    "address_councildis": "D",
    "status": "Pending",
    "rowid": "1192921",
    "final_x": "3687211.2",
    "final_y": "540926.58",
    "longitude": "-90.04970370967698",
    "latitude": "29.98118585462902",
    "geocoded_column": {
      "latitude": "29.98118585462902",
      "longitude": "-90.04970370967698"
    }
  },
  {
    "service_request": "2025-1192920",
    "request_type": "Roads and Streets",
    "request_reason": "Street Subsidence (Sinking)",
    "date_created": "2025-05-17T15:47:39.000",
    "date_modified": "2025-05-17T15:47:41.000",
    "request_status": "Pending",
    "responsible_agency": "Department of Public Works",
    "final_address": "4000 BLK MacArthur Blvd",
    "address_councildis": "C",
    "status": "Pending",
    "rowid": "1192920",
    "final_x": "3698541.34402",
    "final_y": "520403.695857",
    "longitude": "-90.01466416781396",
    "latitude": "29.924401293651332",
    "geocoded_column": {
      "latitude": "29.924401293651332",
      "longitude": "-90.01466416781396"
    }
  },
  {
    "service_request": "2025-1192919",
    "request_type": "Trash/Recycling",
    "request_reason": "Request a Large Item Pick Up",
    "date_created": "2025-05-17T15:21:38.000",
    "date_modified": "2025-05-17T15:21:40.000",
    "request_status": "Pending",
    "responsible_agency": "Department of Sanitation",
    "final_address": "1903 Dauphine St",
    "address_councildis": "C",
    "status": "Assigned to Contractor",
    "contractor": "IV Waste",
    "rowid": "1192919",
    "final_x": "3683999.46121",
    "final_y": "535165.231814",
    "longitude": "-90.06005002943763",
    "latitude": "29.965442693359314",
    "geocoded_column": {
      "latitude": "29.965442693359314",
      "longitude": "-90.06005002943763"
    }
  },
  {
    "service_request": "2025-1192918",
    "request_type": "Trash/Recycling",
    "request_reason": "Order Second Trash Cart",
    "date_created": "2025-05-17T15:09:52.000",
    "date_modified": "2025-05-17T15:09:54.000",
    "request_status": "Pending",
    "responsible_agency": "Department of Sanitation",
    "final_address": "4827 Perelli Dr",
    "address_councildis": "E",
    "status": "Assigned to Contractor",
    "contractor": "Waste Pro",
    "rowid": "1192918",
    "final_x": "3711749.13342",
    "final_y": "556547.779226",
    "longitude": "-89.97161625344437",
    "latitude": "30.023359493352544",
    "geocoded_column": {
      "latitude": "30.023359493352544",
      "longitude": "-89.97161625344437"
    }
  },
  {
    "service_request": "2025-1192917",
    "request_type": "Trash/Recycling",
    "request_reason": "Request a Large Item Pick Up",
    "date_created": "2025-05-17T15:07:30.000",
    "date_modified": "2025-05-17T15:07:32.000",
    "request_status": "Pending",
    "responsible_agency": "Department of Sanitation",
    "final_address": "20033 Victory Rd, New Orleans, Louisiana, 70129",
    "address_councildis": "E",
    "status": "Assigned to Contractor",
    "contractor": "Waste Pro",
    "rowid": "1192917",
    "final_x": "3756204.82326",
    "final_y": "573907.880682",
    "longitude": "-89.83042976679712",
    "latitude": "30.069564456786853",
    "geocoded_column": {
      "latitude": "30.069564456786853",
      "longitude": "-89.83042976679712"
    }
  },
  {
    "service_request": "2025-1192916",
    "request_type": "Trash/Recycling",
    "request_reason": "Order Trash Cart",
    "date_created": "2025-05-17T14:59:01.000",
    "date_modified": "2025-05-17T14:59:04.000",
    "request_status": "Pending",
    "responsible_agency": "Department of Sanitation",
    "final_address": "1939 Upperline St",
    "address_councildis": "B",
    "status": "Assigned to Contractor",
    "contractor": "IV Waste",
    "rowid": "1192916",
    "final_x": "3669149.93748",
    "final_y": "522100.136506",
    "longitude": "-90.10738573127077",
    "latitude": "29.92996331090935",
    "geocoded_column": {
      "latitude": "29.92996331090935",
      "longitude": "-90.10738573127077"
    }
  },
  {
    "service_request": "2025-1192915",
    "request_type": "Street and Traffic Signs",
    "request_reason": "Stop Sign Missing or Damaged",
    "date_created": "2025-05-17T14:53:49.000",
    "date_modified": "2025-05-17T14:53:51.000",
    "request_status": "Pending",
    "responsible_agency": "Department of Public Works",
    "final_address": "5201 Canal Blvd",
    "address_councildis": "A",
    "status": "Pending",
    "rowid": "1192915",
    "final_x": "3668099.38842",
    "final_y": "542064.352268",
    "longitude": "-90.1100293050557",
    "latitude": "29.98488920224858",
    "geocoded_column": {
      "latitude": "29.98488920224858",
      "longitude": "-90.1100293050557"
    }
  },
  {
    "service_request": "2025-1192914",
    "request_type": "Abandoned Vehicles",
    "request_reason": "Abandoned/Junk Vehicles",
    "date_created": "2025-05-17T14:52:44.000",
    "date_modified": "2025-05-17T14:52:46.000",
    "request_status": "Pending",
    "responsible_agency": "Department of Public Works",
    "final_address": "4474 Lafaye St",
    "address_councildis": "D",
    "status": "Pending",
    "rowid": "1192914",
    "final_x": "3687469.0877",
    "final_y": "549511.468691",
    "longitude": "-90.04858516529343",
    "latitude": "30.00478326951397",
    "geocoded_column": {
      "latitude": "30.00478326951397",
      "longitude": "-90.04858516529343"
    }
  },
  {
    "service_request": "2025-1192913",
    "request_type": "Abandoned Vehicles",
    "request_reason": "Abandoned/Junk Vehicles",
    "date_created": "2025-05-17T14:50:19.000",
    "date_modified": "2025-05-17T14:50:21.000",
    "request_status": "Pending",
    "responsible_agency": "Department of Public Works",
    "final_address": "4474 Lafaye St",
    "address_councildis": "D",
    "status": "Pending",
    "rowid": "1192913",
    "final_x": "3687469.0877",
    "final_y": "549511.468691",
    "longitude": "-90.04858516529343",
    "latitude": "30.00478326951397",
    "geocoded_column": {
      "latitude": "30.00478326951397",
      "longitude": "-90.04858516529343"
    }
  },
  {
    "service_request": "2025-1192912",
    "request_type": "Property Maintenance",
    "request_reason": "Property Maintenance",
    "date_created": "2025-05-17T14:48:27.000",
    "date_modified": "2025-05-17T14:48:28.000",
    "request_status": "Pending",
    "responsible_agency": "Department of Code Enforcement",
    "final_address": "3435 Upperline St",
    "address_councildis": "B",
    "status": "Pending",
    "rowid": "1192912",
    "final_x": "3669327.65684",
    "final_y": "527686.614655",
    "longitude": "-90.10663589884156",
    "latitude": "29.945319095464626",
    "geocoded_column": {
      "latitude": "29.945319095464626",
      "longitude": "-90.10663589884156"
    }
  },
  {
    "service_request": "2025-1192911",
    "request_type": "Traffic Signals",
    "request_reason": "Traffic Signal Malfunctioning or Damaged",
    "date_created": "2025-05-17T14:45:24.000",
    "date_modified": "2025-05-17T14:45:26.000",
    "request_status": "Pending",
    "responsible_agency": "Department of Public Works",
    "final_address": "7301 Crowder Blvd",
    "address_councildis": "E",
    "status": "Pending",
    "rowid": "1192911",
    "final_x": "3703781.6154",
    "final_y": "561158.039902",
    "longitude": "-89.99662179289489",
    "latitude": "30.036293860614613",
    "geocoded_column": {
      "latitude": "30.036293860614613",
      "longitude": "-89.99662179289489"
    }
  },
  {
    "service_request": "2025-1192910",
    "request_type": "Abandoned Vehicles",
    "request_reason": "Abandoned/Junk Vehicles",
    "date_created": "2025-05-17T14:38:50.000",
    "date_modified": "2025-05-17T14:38:51.000",
    "request_status": "Pending",
    "responsible_agency": "Department of Public Works",
    "final_address": "4474 Lafaye St",
    "address_councildis": "D",
    "status": "Pending",
    "rowid": "1192910",
    "final_x": "3687469.0877",
    "final_y": "549511.468691",
    "longitude": "-90.04858516529343",
    "latitude": "30.00478326951397",
    "geocoded_column": {
      "latitude": "30.00478326951397",
      "longitude": "-90.04858516529343"
    }
  },
  {
    "service_request": "2025-1192909",
    "request_type": "Street and Traffic Signs",
    "request_reason": "Street Name Sign Damaged or Missing",
    "date_created": "2025-05-17T14:27:49.000",
    "date_modified": "2025-05-17T14:27:50.000",
    "request_status": "Pending",
    "responsible_agency": "Department of Public Works",
    "final_address": "PAINTERS ST & FLORIDA AVE",
    "address_councildis": "D",
    "status": "Pending",
    "rowid": "1192909",
    "final_x": "3687092.6",
    "final_y": "542400.28",
    "longitude": "-90.05002617106759",
    "latitude": "29.98524165954654",
    "geocoded_column": {
      "latitude": "29.98524165954654",
      "longitude": "-90.05002617106759"
    }
  },
  {
    "service_request": "2025-1192908",
    "request_type": "Abandoned Vehicles",
    "request_reason": "Abandoned/Junk Vehicles",
    "date_created": "2025-05-17T14:24:02.000",
    "date_modified": "2025-05-17T14:24:04.000",
    "request_status": "Pending",
    "responsible_agency": "Department of Public Works",
    "final_address": "4474 Lafaye St",
    "address_councildis": "D",
    "status": "Pending",
    "rowid": "1192908",
    "final_x": "3687469.0877",
    "final_y": "549511.468691",
    "longitude": "-90.04858516529343",
    "latitude": "30.00478326951397",
    "geocoded_column": {
      "latitude": "30.00478326951397",
      "longitude": "-90.04858516529343"
    }
  },
  {
    "service_request": "2025-1192907",
    "request_type": "Abandoned Vehicles",
    "request_reason": "Abandoned/Junk Vehicles",
    "date_created": "2025-05-17T14:15:27.000",
    "date_modified": "2025-05-17T14:15:29.000",
    "request_status": "Pending",
    "responsible_agency": "Department of Public Works",
    "final_address": "4474 Lafaye St",
    "address_councildis": "D",
    "status": "Pending",
    "rowid": "1192907",
    "final_x": "3687469.0877",
    "final_y": "549511.468691",
    "longitude": "-90.04858516529343",
    "latitude": "30.00478326951397",
    "geocoded_column": {
      "latitude": "30.00478326951397",
      "longitude": "-90.04858516529343"
    }
  },
  {
    "service_request": "2025-1192906",
    "request_type": "Roads and Streets",
    "request_reason": "Pothole",
    "date_created": "2025-05-17T14:06:06.000",
    "date_modified": "2025-05-17T14:06:10.000",
    "request_status": "Pending",
    "responsible_agency": "Department of Public Works",
    "final_address": "5516 Wingate Dr",
    "address_councildis": "D",
    "status": "Pending",
    "rowid": "1192906",
    "final_x": "3681314.02076",
    "final_y": "553275.696023",
    "longitude": "-90.06789890999057",
    "latitude": "30.015321858409916",
    "geocoded_column": {
      "latitude": "30.015321858409916",
      "longitude": "-90.06789890999057"
    }
  },
  {
    "service_request": "2025-1192905",
    "request_type": "Street and Traffic Signs",
    "request_reason": "Street Name Sign Damaged or Missing",
    "date_created": "2025-05-17T14:03:19.000",
    "date_modified": "2025-05-17T14:03:21.000",
    "request_status": "Pending",
    "responsible_agency": "Department of Public Works",
    "final_address": "FLORIDA AVE & SPAIN ST",
    "address_councildis": "D",
    "status": "Pending",
    "rowid": "1192905",
    "final_x": "3685628.6",
    "final_y": "542684.88",
    "longitude": "-90.05464029357049",
    "latitude": "29.986069211674128",
    "geocoded_column": {
      "latitude": "29.986069211674128",
      "longitude": "-90.05464029357049"
    }
  },
  {
    "service_request": "2025-1192904",
    "request_type": "Property Maintenance",
    "request_reason": "Property Maintenance",
    "date_created": "2025-05-17T14:02:16.000",
    "date_modified": "2025-05-17T14:02:17.000",
    "request_status": "Pending",
    "responsible_agency": "Department of Code Enforcement",
    "final_address": "2536 Spain St",
    "address_councildis": "D",
    "status": "Pending",
    "rowid": "1192904",
    "final_x": "3685647.6621",
    "final_y": "541873.655052",
    "longitude": "-90.05460867896082",
    "latitude": "29.983838045499404",
    "geocoded_column": {
      "latitude": "29.983838045499404",
      "longitude": "-90.05460867896082"
    }
  },
  {
    "service_request": "2025-1192903",
    "request_type": "Trash/Recycling",
    "request_reason": "Illegal Dumping",
    "date_created": "2025-05-17T14:00:11.000",
    "date_modified": "2025-05-17T14:00:12.000",
    "request_status": "Pending",
    "responsible_agency": "Department of Sanitation",
    "final_address": "I 10 E & LAW ST",
    "address_councildis": "D",
    "status": "Pending",
    "rowid": "1192903",
    "final_x": "3685958.1",
    "final_y": "541929.88",
    "longitude": "-90.053626168049",
    "latitude": "29.98398311466914",
    "geocoded_column": {
      "latitude": "29.98398311466914",
      "longitude": "-90.053626168049"
    }
  },
  {
    "service_request": "2025-1192902",
    "request_type": "Street and Traffic Signs",
    "request_reason": "Street Name Sign Damaged or Missing",
    "date_created": "2025-05-17T13:58:22.000",
    "date_modified": "2025-05-17T13:58:24.000",
    "request_status": "Pending",
    "responsible_agency": "Department of Public Works",
    "final_address": "N DORGENOIS ST & ST ROCH AVE",
    "address_councildis": "D",
    "status": "Pending",
    "rowid": "1192902",
    "final_x": "3686037.4",
    "final_y": "541574.38",
    "longitude": "-90.05338823898683",
    "latitude": "29.983003180050623",
    "geocoded_column": {
      "latitude": "29.983003180050623",
      "longitude": "-90.05338823898683"
    }
  },
  {
    "service_request": "2025-1192901",
    "request_type": "Abandoned Vehicles",
    "request_reason": "Abandoned/Junk Vehicles",
    "date_created": "2025-05-17T13:48:55.000",
    "date_modified": "2025-05-17T13:48:57.000",
    "request_status": "Pending",
    "responsible_agency": "Department of Public Works",
    "final_address": "714 Third St",
    "address_councildis": "B",
    "status": "Pending",
    "rowid": "1192901",
    "final_x": "3678285.5213",
    "final_y": "520006.47436",
    "longitude": "-90.07861859064549",
    "latitude": "29.923934500463133",
    "geocoded_column": {
      "latitude": "29.923934500463133",
      "longitude": "-90.07861859064549"
    }
  },
  {
    "service_request": "2025-1192900",
    "request_type": "Abandoned Vehicles",
    "request_reason": "Abandoned/Junk Vehicles",
    "date_created": "2025-05-17T13:45:18.000",
    "date_modified": "2025-05-17T13:45:22.000",
    "request_status": "Pending",
    "responsible_agency": "Department of Public Works",
    "final_address": "714 Third St",
    "address_councildis": "B",
    "status": "Pending",
    "rowid": "1192900",
    "final_x": "3678285.5213",
    "final_y": "520006.47436",
    "longitude": "-90.07861859064549",
    "latitude": "29.923934500463133",
    "geocoded_column": {
      "latitude": "29.923934500463133",
      "longitude": "-90.07861859064549"
    }
  },
  {
    "service_request": "2025-1192899",
    "request_type": "Trash/Recycling",
    "request_reason": "Request a Large Item Pick Up",
    "date_created": "2025-05-17T13:37:07.000",
    "date_modified": "2025-05-17T13:37:09.000",
    "request_status": "Pending",
    "responsible_agency": "Department of Sanitation",
    "final_address": "2418 Chippewa St",
    "address_councildis": "B",
    "status": "Assigned to Contractor",
    "contractor": "IV Waste",
    "rowid": "1192899",
    "final_x": "3678778.9373",
    "final_y": "520147.720376",
    "longitude": "-90.07705616462398",
    "latitude": "29.924308015391386",
    "geocoded_column": {
      "latitude": "29.924308015391386",
      "longitude": "-90.07705616462398"
    }
  },
  {
    "service_request": "2025-1192898",
    "request_type": "Abandoned Vehicles",
    "request_reason": "Abandoned/Junk Vehicles",
    "date_created": "2025-05-17T13:35:46.000",
    "date_modified": "2025-05-17T13:35:48.000",
    "request_status": "Pending",
    "responsible_agency": "Department of Public Works",
    "final_address": "1519 N Dorgenois St",
    "address_councildis": "D",
    "status": "Pending",
    "rowid": "1192898",
    "final_x": "3679173.85007",
    "final_y": "539367.881162",
    "longitude": "-90.07514335991245",
    "latitude": "29.977145099460692",
    "geocoded_column": {
      "latitude": "29.977145099460692",
      "longitude": "-90.07514335991245"
    }
  },
  {
    "service_request": "2025-1192897",
    "request_type": "Drainage",
    "request_reason": "Street Flooding",
    "date_created": "2025-05-17T13:18:01.000",
    "date_modified": "2025-05-17T13:18:04.000",
    "request_status": "Pending",
    "responsible_agency": "Sewerage & Water Board",
    "final_address": "2622 Jena St",
    "address_councildis": "B",
    "status": "Pending",
    "rowid": "1192897",
    "final_x": "3670041.91694",
    "final_y": "524522.565244",
    "longitude": "-90.1044878823283",
    "latitude": "29.936597940198514",
    "geocoded_column": {
      "latitude": "29.936597940198514",
      "longitude": "-90.1044878823283"
    }
  },
  {
    "service_request": "2025-1192896",
    "request_type": "Trash/Recycling",
    "request_reason": "Request a Large Item Pick Up",
    "date_created": "2025-05-17T13:11:05.000",
    "date_modified": "2025-05-17T13:11:07.000",
    "request_status": "Pending",
    "responsible_agency": "Department of Sanitation",
    "final_address": "7191 Queensway Dr",
    "address_councildis": "E",
    "status": "Assigned to Contractor",
    "contractor": "Waste Pro",
    "rowid": "1192896",
    "final_x": "3718776.74316",
    "final_y": "570077.507687",
    "longitude": "-89.94889424304824",
    "latitude": "30.06032921603417",
    "geocoded_column": {
      "latitude": "30.06032921603417",
      "longitude": "-89.94889424304824"
    }
  },
  {
    "service_request": "2025-1192895",
    "request_type": "General Services",
    "request_reason": "General Service Request",
    "date_created": "2025-05-17T13:06:40.000",
    "date_modified": "2025-05-17T13:06:42.000",
    "request_status": "Pending",
    "responsible_agency": "Orleans Parish Communication District",
    "final_address": "New Orleans,LA",
    "status": "Pending",
    "rowid": "1192895",
    "longitude": "0.0",
    "latitude": "0.0",
    "geocoded_column": {
      "latitude": "0.0",
      "longitude": "0.0"
    }
  },
  {
    "service_request": "2025-1192894",
    "request_type": "Street and Traffic Signs",
    "request_reason": "Street Name Sign Damaged or Missing",
    "date_created": "2025-05-17T12:56:00.000",
    "date_modified": "2025-05-17T12:56:02.000",
    "request_status": "Pending",
    "responsible_agency": "Department of Public Works",
    "final_address": "DAUPHINE ST & FRANKLIN AVE",
    "address_councildis": "C",
    "status": "Pending",
    "rowid": "1192894",
    "final_x": "3686837.9",
    "final_y": "535362.78",
    "longitude": "-90.05107940813805",
    "latitude": "29.96589884901767",
    "geocoded_column": {
      "latitude": "29.96589884901767",
      "longitude": "-90.05107940813805"
    }
  },
  {
    "service_request": "2025-1192893",
    "request_type": "Street and Traffic Signs",
    "request_reason": "Street Name Sign Damaged or Missing",
    "date_created": "2025-05-17T12:55:16.000",
    "date_modified": "2025-05-17T12:55:17.000",
    "request_status": "Pending",
    "responsible_agency": "Department of Public Works",
    "final_address": "FRANKLIN AVE & ROYAL ST",
    "address_councildis": "C",
    "status": "Pending",
    "rowid": "1192893",
    "final_x": "3686740.2",
    "final_y": "534969.68",
    "longitude": "-90.0514018293789",
    "latitude": "29.96482096642151",
    "geocoded_column": {
      "latitude": "29.96482096642151",
      "longitude": "-90.0514018293789"
    }
  },
  {
    "service_request": "2025-1192892",
    "request_type": "Street and Traffic Signs",
    "request_reason": "Street Name Sign Damaged or Missing",
    "date_created": "2025-05-17T12:54:35.000",
    "date_modified": "2025-05-17T12:54:37.000",
    "request_status": "Pending",
    "responsible_agency": "Department of Public Works",
    "final_address": "DECATUR ST & PORT ST",
    "address_councildis": "C",
    "status": "Pending",
    "rowid": "1192892",
    "final_x": "3686883.9",
    "final_y": "534294.08",
    "longitude": "-90.05097191213028",
    "latitude": "29.96295887943343",
    "geocoded_column": {
      "latitude": "29.96295887943343",
      "longitude": "-90.05097191213028"
    }
  },
  {
    "service_request": "2025-1192891",
    "request_type": "Street and Traffic Signs",
    "request_reason": "Street Name Sign Damaged or Missing",
    "date_created": "2025-05-17T12:53:31.000",
    "date_modified": "2025-05-17T12:53:33.000",
    "request_status": "Pending",
    "responsible_agency": "Department of Public Works",
    "final_address": "DECATUR ST & FRANKLIN AVE",
    "address_councildis": "C",
    "status": "Pending",
    "rowid": "1192891",
    "final_x": "3686556.4",
    "final_y": "534269.28",
    "longitude": "-90.05200698997285",
    "latitude": "29.962900761999617",
    "geocoded_column": {
      "latitude": "29.962900761999617",
      "longitude": "-90.05200698997285"
    }
  },
  {
    "service_request": "2025-1192890",
    "request_type": "Street and Traffic Signs",
    "request_reason": "Street Name Sign Damaged or Missing",
    "date_created": "2025-05-17T12:52:28.000",
    "date_modified": "2025-05-17T12:52:30.000",
    "request_status": "Pending",
    "responsible_agency": "Department of Public Works",
    "final_address": "DECATUR ST & PORT ST",
    "address_councildis": "C",
    "status": "Pending",
    "rowid": "1192890",
    "final_x": "3686883.9",
    "final_y": "534294.08",
    "longitude": "-90.05097191213028",
    "latitude": "29.96295887943343",
    "geocoded_column": {
      "latitude": "29.96295887943343",
      "longitude": "-90.05097191213028"
    }
  },
  {
    "service_request": "2025-1192889",
    "request_type": "Abandoned Vehicles",
    "request_reason": "Abandoned/Junk Vehicles",
    "date_created": "2025-05-17T12:45:44.000",
    "date_modified": "2025-05-17T12:45:46.000",
    "request_status": "Pending",
    "responsible_agency": "Department of Public Works",
    "final_address": "4900 Tynecastle Dr",
    "address_councildis": "E",
    "status": "Pending",
    "rowid": "1192889",
    "final_x": "3718364.94245",
    "final_y": "557812.424027",
    "longitude": "-89.9506637362056",
    "latitude": "30.026618919545214",
    "geocoded_column": {
      "latitude": "30.026618919545214",
      "longitude": "-89.9506637362056"
    }
  },
  {
    "service_request": "2025-1192888",
    "request_type": "Trash/Recycling",
    "request_reason": "Request a Large Item Pick Up",
    "date_created": "2025-05-17T12:36:56.000",
    "date_modified": "2025-05-17T12:36:58.000",
    "request_status": "Pending",
    "responsible_agency": "Department of Sanitation",
    "final_address": "3062 St Ann St",
    "address_councildis": "A",
    "status": "Assigned to Contractor",
    "contractor": "IV Waste",
    "rowid": "1192888",
    "final_x": "3675478.11182",
    "final_y": "538272.029577",
    "longitude": "-90.08685336624555",
    "latitude": "29.974242948689565",
    "geocoded_column": {
      "latitude": "29.974242948689565",
      "longitude": "-90.08685336624555"
    }
  },
  {
    "service_request": "2025-1192887",
    "request_type": "Trash/Recycling",
    "request_reason": "Request a Large Item Pick Up",
    "date_created": "2025-05-17T12:36:36.000",
    "date_modified": "2025-05-17T12:36:38.000",
    "request_status": "Pending",
    "responsible_agency": "Department of Sanitation",
    "final_address": "2113 Josephine St",
    "address_councildis": "B",
    "status": "Assigned to Contractor",
    "contractor": "IV Waste",
    "rowid": "1192887",
    "final_x": "3676707.17633",
    "final_y": "525565.108669",
    "longitude": "-90.08340945885618",
    "latitude": "29.93926636028515",
    "geocoded_column": {
      "latitude": "29.93926636028515",
      "longitude": "-90.08340945885618"
    }
  },
  {
    "service_request": "2025-1192886",
    "request_type": "Safety & Permits",
    "request_reason": "Construction permit",
    "date_created": "2025-05-17T12:16:42.000",
    "date_modified": "2025-05-17T12:16:44.000",
    "request_status": "Pending",
    "responsible_agency": "Safety and Permits",
    "final_address": "3501 Octavia St",
    "address_councildis": "A",
    "status": "Pending",
    "rowid": "1192886",
    "final_x": "3668632.47297",
    "final_y": "528378.351104",
    "longitude": "-90.10880748213752",
    "latitude": "29.947241591717965",
    "geocoded_column": {
      "latitude": "29.947241591717965",
      "longitude": "-90.10880748213752"
    }
  },
  {
    "service_request": "2025-1192885",
    "request_type": "Trash/Recycling",
    "request_reason": "Request a Large Item Pick Up",
    "date_created": "2025-05-17T12:16:40.000",
    "date_modified": "2025-05-17T12:16:42.000",
    "request_status": "Pending",
    "responsible_agency": "Department of Sanitation",
    "final_address": "4725 Banks St",
    "address_councildis": "A",
    "status": "Assigned to Contractor",
    "contractor": "IV Waste",
    "rowid": "1192885",
    "final_x": "3668252.12263",
    "final_y": "539075.558474",
    "longitude": "-90.10964769849264",
    "latitude": "29.9766665454641",
    "geocoded_column": {
      "latitude": "29.9766665454641",
      "longitude": "-90.10964769849264"
    }
  },
  {
    "service_request": "2025-1192884",
    "request_type": "Roads and Streets",
    "request_reason": "Pothole",
    "date_created": "2025-05-17T12:03:28.000",
    "date_modified": "2025-05-17T12:03:30.000",
    "request_status": "Pending",
    "responsible_agency": "Department of Public Works",
    "final_address": "2500 BLK Jefferson Ave",
    "address_councildis": "A",
    "status": "Pending",
    "rowid": "1192884",
    "final_x": "3668082.03978",
    "final_y": "524824.5338",
    "longitude": "-90.11066514501218",
    "latitude": "29.93748590528278",
    "geocoded_column": {
      "latitude": "29.93748590528278",
      "longitude": "-90.11066514501218"
    }
  },
  {
    "service_request": "2025-1192883",
    "request_type": "General Services",
    "request_reason": "General Service Request",
    "date_created": "2025-05-17T11:59:56.000",
    "date_modified": "2025-05-17T11:59:59.000",
    "request_status": "Pending",
    "responsible_agency": "Orleans Parish Communication District",
    "final_address": "514 David St",
    "address_councildis": "A",
    "status": "Pending",
    "rowid": "1192883",
    "final_x": "3671940.61844",
    "final_y": "539743.45057",
    "longitude": "-90.09797551815768",
    "latitude": "29.978394194975806",
    "geocoded_column": {
      "latitude": "29.978394194975806",
      "longitude": "-90.09797551815768"
    }
  },
  {
    "service_request": "2025-1192882",
    "request_type": "Trash/Recycling",
    "request_reason": "Request a Large Item Pick Up",
    "date_created": "2025-05-17T11:43:17.000",
    "date_modified": "2025-05-17T11:43:19.000",
    "request_status": "Pending",
    "responsible_agency": "Department of Sanitation",
    "final_address": "2038 Burdette St",
    "address_councildis": "A",
    "status": "Assigned to Contractor",
    "contractor": "IV Waste",
    "rowid": "1192882",
    "final_x": "3664875.56365",
    "final_y": "529950.391873",
    "longitude": "-90.1206169859957",
    "latitude": "29.95167405748589",
    "geocoded_column": {
      "latitude": "29.95167405748589",
      "longitude": "-90.1206169859957"
    }
  },
  {
    "service_request": "2025-1192881",
    "request_type": "Trash/Recycling",
    "request_reason": "Request a Large Item Pick Up",
    "date_created": "2025-05-17T11:39:27.000",
    "date_modified": "2025-05-17T11:39:29.000",
    "request_status": "Pending",
    "responsible_agency": "Department of Sanitation",
    "final_address": "2038 Burdette St",
    "address_councildis": "A",
    "status": "Assigned to Contractor",
    "contractor": "IV Waste",
    "rowid": "1192881",
    "final_x": "3664875.56365",
    "final_y": "529950.391873",
    "longitude": "-90.1206169859957",
    "latitude": "29.95167405748589",
    "geocoded_column": {
      "latitude": "29.95167405748589",
      "longitude": "-90.1206169859957"
    }
  },
  {
    "service_request": "2025-1192880",
    "request_type": "Streetlights",
    "request_reason": "Streetlight Outage/Malfunction",
    "date_created": "2025-05-17T11:07:45.000",
    "date_modified": "2025-05-17T11:07:47.000",
    "request_status": "Pending",
    "responsible_agency": "Department of Public Works",
    "final_address": "1501 Elysian Fields Ave",
    "address_councildis": "C",
    "status": "Pending",
    "contractor": "Legacy Professional Services",
    "rowid": "1192880",
    "final_x": "3684995.32988",
    "final_y": "537819.510024",
    "longitude": "-90.05681174642541",
    "latitude": "29.972710570462148",
    "geocoded_column": {
      "latitude": "29.972710570462148",
      "longitude": "-90.05681174642541"
    }
  },
  {
    "service_request": "2025-1192879",
    "request_type": "Drainage",
    "request_reason": "Ditch and Culvert Maintenance",
    "date_created": "2025-05-17T11:03:34.000",
    "date_modified": "2025-05-17T11:03:36.000",
    "request_status": "Pending",
    "responsible_agency": "Department of Public Works",
    "final_address": "2242 Dante St",
    "address_councildis": "A",
    "status": "Pending",
    "rowid": "1192879",
    "final_x": "3664011.71616",
    "final_y": "531762.832899",
    "longitude": "-90.12328417801407",
    "latitude": "29.956682793575826",
    "geocoded_column": {
      "latitude": "29.956682793575826",
      "longitude": "-90.12328417801407"
    }
  },
  {
    "service_request": "2025-1192878",
    "request_type": "Trash/Recycling",
    "request_reason": "Request a Large Item Pick Up",
    "date_created": "2025-05-17T10:57:15.000",
    "date_modified": "2025-05-17T10:57:17.000",
    "request_status": "Pending",
    "responsible_agency": "Department of Sanitation",
    "final_address": "1725 Delachaise St",
    "address_councildis": "B",
    "status": "Assigned to Contractor",
    "contractor": "IV Waste",
    "rowid": "1192878",
    "final_x": "3673621.01499",
    "final_y": "521958.910842",
    "longitude": "-90.0932760907818",
    "latitude": "29.929442693780985",
    "geocoded_column": {
      "latitude": "29.929442693780985",
      "longitude": "-90.0932760907818"
    }
  },
  {
    "service_request": "2025-1192877",
    "request_type": "Trash/Recycling",
    "request_reason": "Replace Trash Cart",
    "date_created": "2025-05-17T10:45:58.000",
    "date_modified": "2025-05-17T10:46:01.000",
    "request_status": "Pending",
    "responsible_agency": "Department of Sanitation",
    "final_address": "823 Marengo St",
    "address_councildis": "B",
    "status": "Assigned to Contractor",
    "contractor": "IV Waste",
    "rowid": "1192877",
    "final_x": "3672233.4107",
    "final_y": "518715.276983",
    "longitude": "-90.09776692487519",
    "latitude": "29.92056495800624",
    "geocoded_column": {
      "latitude": "29.92056495800624",
      "longitude": "-90.09776692487519"
    }
  },
  {
    "service_request": "2025-1192876",
    "request_type": "Trash/Recycling",
    "request_reason": "Replace Trash Cart",
    "date_created": "2025-05-17T10:43:59.000",
    "date_modified": "2025-05-17T10:44:01.000",
    "request_status": "Pending",
    "responsible_agency": "Department of Sanitation",
    "final_address": "823 Marengo St",
    "address_councildis": "B",
    "status": "Assigned to Contractor",
    "contractor": "IV Waste",
    "rowid": "1192876",
    "final_x": "3672233.4107",
    "final_y": "518715.276983",
    "longitude": "-90.09776692487519",
    "latitude": "29.92056495800624",
    "geocoded_column": {
      "latitude": "29.92056495800624",
      "longitude": "-90.09776692487519"
    }
  },
  {
    "service_request": "2025-1192875",
    "request_type": "Trash/Recycling",
    "request_reason": "Missed Trash Pick-Up",
    "date_created": "2025-05-17T10:40:22.000",
    "date_modified": "2025-05-17T11:38:51.000",
    "case_close_date": "2025-05-17T06:38:49.000",
    "request_status": "Closed",
    "responsible_agency": "Department of Sanitation",
    "final_address": "1529 Broadway St, New Orleans, Louisiana, 70118",
    "address_councildis": "A",
    "status": "Invalid Request",
    "contractor": "IV Waste",
    "contractor_action": "Invalid",
    "rowid": "1192875",
    "final_x": "3664957.86624",
    "final_y": "527558.311295",
    "longitude": "-90.12043706353326",
    "latitude": "29.945094212731664",
    "geocoded_column": {
      "latitude": "29.945094212731664",
      "longitude": "-90.12043706353326"
    }
  },
  {
    "service_request": "2025-1192874",
    "request_type": "Roads and Streets",
    "request_reason": "Pothole",
    "date_created": "2025-05-17T10:34:11.000",
    "date_modified": "2025-05-17T10:34:13.000",
    "request_status": "Pending",
    "responsible_agency": "Department of Public Works",
    "final_address": "220 S St Patrick St",
    "address_councildis": "A",
    "status": "Pending",
    "rowid": "1192874",
    "final_x": "3668761.08289",
    "final_y": "539315.531914",
    "longitude": "-90.10803213454084",
    "latitude": "29.977311436311158",
    "geocoded_column": {
      "latitude": "29.977311436311158",
      "longitude": "-90.10803213454084"
    }
  },
  {
    "service_request": "2025-1192873",
    "request_type": "Trash/Recycling",
    "request_reason": "Start Trash Service",
    "date_created": "2025-05-17T10:28:14.000",
    "date_modified": "2025-05-17T10:28:16.000",
    "request_status": "Pending",
    "responsible_agency": "Department of Sanitation",
    "final_address": "7840 Windward Ct",
    "address_councildis": "E",
    "status": "Assigned to Contractor",
    "contractor": "Waste Pro",
    "rowid": "1192873",
    "final_x": "3715217.0453",
    "final_y": "570164.196135",
    "longitude": "-89.96014289498085",
    "latitude": "30.06068535166173",
    "geocoded_column": {
      "latitude": "30.06068535166173",
      "longitude": "-89.96014289498085"
    }
  },
  {
    "service_request": "2025-1192872",
    "request_type": "Trash/Recycling",
    "request_reason": "Replace Trash Cart",
    "date_created": "2025-05-17T10:12:45.000",
    "date_modified": "2025-05-17T10:12:47.000",
    "request_status": "Pending",
    "responsible_agency": "Department of Sanitation",
    "final_address": "618 Cherokee St",
    "address_councildis": "A",
    "status": "Assigned to Contractor",
    "contractor": "IV Waste",
    "rowid": "1192872",
    "final_x": "3662235.856",
    "final_y": "525570.743101",
    "longitude": "-90.12909729109715",
    "latitude": "29.939707978807796",
    "geocoded_column": {
      "latitude": "29.939707978807796",
      "longitude": "-90.12909729109715"
    }
  },
  {
    "service_request": "2025-1192871",
    "request_type": "Trash/Recycling",
    "request_reason": "Replace Trash Cart",
    "date_created": "2025-05-17T09:54:01.000",
    "date_modified": "2025-05-17T09:54:03.000",
    "request_status": "Pending",
    "responsible_agency": "Department of Sanitation",
    "final_address": "3766 Preston Pl",
    "address_councildis": "C",
    "status": "Assigned to Contractor",
    "contractor": "Richards Disposal",
    "rowid": "1192871",
    "final_x": "3708294.67755",
    "final_y": "517092.210165",
    "longitude": "-89.98399962158388",
    "latitude": "29.914983625950814",
    "geocoded_column": {
      "latitude": "29.914983625950814",
      "longitude": "-89.98399962158388"
    }
  },
  {
    "service_request": "2025-1192870",
    "request_type": "Trash/Recycling",
    "request_reason": "Replace Trash Cart",
    "date_created": "2025-05-17T09:41:59.000",
    "date_modified": "2025-05-17T09:42:01.000",
    "request_status": "Pending",
    "responsible_agency": "Department of Sanitation",
    "final_address": "1208 N Miro St",
    "address_councildis": "D",
    "status": "Assigned to Contractor",
    "contractor": "IV Waste",
    "rowid": "1192870",
    "final_x": "3679278.66434",
    "final_y": "537416.286472",
    "longitude": "-90.07488001782122",
    "latitude": "29.97177572164487",
    "geocoded_column": {
      "latitude": "29.97177572164487",
      "longitude": "-90.07488001782122"
    }
  },
  {
    "service_request": "2025-1192869",
    "request_type": "Healthy Homes",
    "request_reason": "Healthy Homes",
    "date_created": "2025-05-17T09:34:39.000",
    "date_modified": "2025-05-17T09:34:40.000",
    "request_status": "Pending",
    "responsible_agency": "Department of Code Enforcement",
    "final_address": "930 St Ann St",
    "address_councildis": "C",
    "status": "Pending",
    "rowid": "1192869",
    "final_x": "3681979.71829",
    "final_y": "533332.012868",
    "longitude": "-90.06649228630259",
    "latitude": "29.960463527198293",
    "geocoded_column": {
      "latitude": "29.960463527198293",
      "longitude": "-90.06649228630259"
    }
  },
  {
    "service_request": "2025-1192868",
    "request_type": "Trash/Recycling",
    "request_reason": "Request a Large Item Pick Up",
    "date_created": "2025-05-17T09:28:37.000",
    "date_modified": "2025-05-17T09:28:40.000",
    "request_status": "Pending",
    "responsible_agency": "Department of Sanitation",
    "final_address": "724 N Salcedo St",
    "address_councildis": "A",
    "status": "Assigned to Contractor",
    "contractor": "IV Waste",
    "rowid": "1192868",
    "final_x": "3675608.28725",
    "final_y": "538044.193801",
    "longitude": "-90.08645007154601",
    "latitude": "29.97361258368972",
    "geocoded_column": {
      "latitude": "29.97361258368972",
      "longitude": "-90.08645007154601"
    }
  },
  {
    "service_request": "2025-1192867",
    "request_type": "Trash/Recycling",
    "request_reason": "Request a Large Item Pick Up",
    "date_created": "2025-05-17T09:15:52.000",
    "date_modified": "2025-05-17T09:15:55.000",
    "request_status": "Pending",
    "responsible_agency": "Department of Sanitation",
    "final_address": "204 N Clark St",
    "address_councildis": "B",
    "status": "Assigned to Contractor",
    "contractor": "IV Waste",
    "rowid": "1192867",
    "final_x": "3673197.70126",
    "final_y": "537371.008264",
    "longitude": "-90.09408622368255",
    "latitude": "29.971833459258498",
    "geocoded_column": {
      "latitude": "29.971833459258498",
      "longitude": "-90.09408622368255"
    }
  },
  {
    "service_request": "2025-1192866",
    "request_type": "Trash/Recycling",
    "request_reason": "Request a Large Item Pick Up",
    "date_created": "2025-05-17T09:06:49.000",
    "date_modified": "2025-05-17T09:06:51.000",
    "request_status": "Pending",
    "responsible_agency": "Department of Sanitation",
    "final_address": "1020 Toledano St",
    "address_councildis": "B",
    "status": "Assigned to Contractor",
    "contractor": "IV Waste",
    "rowid": "1192866",
    "final_x": "3675446.386",
    "final_y": "519593.525112",
    "longitude": "-90.08759490515976",
    "latitude": "29.92288420247195",
    "geocoded_column": {
      "latitude": "29.92288420247195",
      "longitude": "-90.08759490515976"
    }
  },
  {
    "service_request": "2025-1192865",
    "request_type": "Trash/Recycling",
    "request_reason": "Order Recycling Cart",
    "date_created": "2025-05-17T08:59:07.000",
    "date_modified": "2025-05-17T08:59:09.000",
    "request_status": "Pending",
    "responsible_agency": "Department of Sanitation",
    "final_address": "3430 Bienville Ave",
    "address_councildis": "B",
    "status": "Pending",
    "rowid": "1192865",
    "final_x": "3673371.61659",
    "final_y": "537511.879368",
    "longitude": "-90.09353215706241",
    "latitude": "29.97221563401953",
    "geocoded_column": {
      "latitude": "29.97221563401953",
      "longitude": "-90.09353215706241"
    }
  },
  {
    "service_request": "2025-1192864",
    "request_type": "Trash/Recycling",
    "request_reason": "Order Recycling Cart",
    "date_created": "2025-05-17T08:46:29.000",
    "date_modified": "2025-05-17T08:46:31.000",
    "request_status": "Pending",
    "responsible_agency": "Department of Sanitation",
    "final_address": "927 Nashville Ave",
    "address_councildis": "A",
    "status": "Pending",
    "rowid": "1192864",
    "final_x": "3665705.84352",
    "final_y": "519509.694775",
    "longitude": "-90.11834491278498",
    "latitude": "29.922941285922118",
    "geocoded_column": {
      "latitude": "29.922941285922118",
      "longitude": "-90.11834491278498"
    }
  },
  {
    "service_request": "2025-1192863",
    "request_type": "Streetlights",
    "request_reason": "Streetlight Outage/Malfunction",
    "date_created": "2025-05-17T08:37:58.000",
    "date_modified": "2025-05-17T08:38:00.000",
    "request_status": "Pending",
    "responsible_agency": "Department of Public Works",
    "final_address": "6050 Charlotte Dr",
    "address_councildis": "D",
    "status": "Pending",
    "contractor": "Legacy Professional Services",
    "rowid": "1192863",
    "final_x": "3679781.06165",
    "final_y": "554869.407832",
    "longitude": "-90.07268694656463",
    "latitude": "30.019750448405752",
    "geocoded_column": {
      "latitude": "30.019750448405752",
      "longitude": "-90.07268694656463"
    }
  },
  {
    "service_request": "2025-1192862",
    "request_type": "Trash/Recycling",
    "request_reason": "Replace Recycling Cart",
    "date_created": "2025-05-17T08:19:59.000",
    "date_modified": "2025-05-17T08:20:02.000",
    "request_status": "Pending",
    "responsible_agency": "Department of Sanitation",
    "final_address": "6050 Charlotte Dr",
    "address_councildis": "D",
    "status": "Pending",
    "rowid": "1192862",
    "final_x": "3679781.06165",
    "final_y": "554869.407832",
    "longitude": "-90.07268694656463",
    "latitude": "30.019750448405752",
    "geocoded_column": {
      "latitude": "30.019750448405752",
      "longitude": "-90.07268694656463"
    }
  },
  {
    "service_request": "2025-1192861",
    "request_type": "Trash/Recycling",
    "request_reason": "Request a Large Item Pick Up",
    "date_created": "2025-05-17T07:44:51.000",
    "date_modified": "2025-05-17T07:44:54.000",
    "request_status": "Pending",
    "responsible_agency": "Department of Sanitation",
    "final_address": "4920 Gilbert St",
    "address_councildis": "E",
    "status": "Assigned to Contractor",
    "contractor": "Waste Pro",
    "rowid": "1192861",
    "final_x": "3729348.70637",
    "final_y": "562621.733216",
    "longitude": "-89.915768784021",
    "latitude": "30.039473522618636",
    "geocoded_column": {
      "latitude": "30.039473522618636",
      "longitude": "-89.915768784021"
    }
  },
  {
    "service_request": "2025-1192860",
    "request_type": "Streetlights",
    "request_reason": "Streetlight Knocked Down/Leaning",
    "date_created": "2025-05-17T06:59:22.000",
    "date_modified": "2025-05-17T06:59:24.000",
    "request_status": "Pending",
    "responsible_agency": "Department of Public Works",
    "final_address": "601 Poydras St",
    "address_councildis": "B",
    "status": "Pending",
    "contractor": "Legacy Professional Services",
    "rowid": "1192860",
    "final_x": "3680938.01679",
    "final_y": "529396.806657",
    "longitude": "-90.06991878324561",
    "latitude": "29.94967466888167",
    "geocoded_column": {
      "latitude": "29.94967466888167",
      "longitude": "-90.06991878324561"
    }
  },
  {
    "service_request": "2025-1192859",
    "request_type": "Roads and Streets",
    "request_reason": "Pothole",
    "date_created": "2025-05-17T06:42:58.000",
    "date_modified": "2025-05-17T06:43:00.000",
    "request_status": "Pending",
    "responsible_agency": "Department of Public Works",
    "final_address": "18 W Park Pl",
    "address_councildis": "A",
    "status": "Pending",
    "rowid": "1192859",
    "final_x": "3670117.60206",
    "final_y": "543765.082126",
    "longitude": "-90.10359696627691",
    "latitude": "29.98950622741276",
    "geocoded_column": {
      "latitude": "29.98950622741276",
      "longitude": "-90.10359696627691"
    }
  },
  {
    "service_request": "2025-1192858",
    "request_type": "Healthy Homes",
    "request_reason": "Healthy Homes",
    "date_created": "2025-05-17T06:41:54.000",
    "date_modified": "2025-05-17T06:41:55.000",
    "request_status": "Pending",
    "responsible_agency": "Department of Code Enforcement",
    "final_address": "811 Jewel St",
    "address_councildis": "D",
    "status": "Pending",
    "rowid": "1192858",
    "final_x": "3670495.59553",
    "final_y": "556050.141209",
    "longitude": "-90.10198598074199",
    "latitude": "30.02327467255748",
    "geocoded_column": {
      "latitude": "30.02327467255748",
      "longitude": "-90.10198598074199"
    }
  },
  {
    "service_request": "2025-1192857",
    "request_type": "Healthy Homes",
    "request_reason": "Healthy Homes",
    "date_created": "2025-05-17T06:32:43.000",
    "date_modified": "2025-05-17T06:32:45.000",
    "request_status": "Pending",
    "responsible_agency": "Department of Code Enforcement",
    "final_address": "811 Jewel St",
    "address_councildis": "D",
    "status": "Pending",
    "rowid": "1192857",
    "final_x": "3670495.59553",
    "final_y": "556050.141209",
    "longitude": "-90.10198598074199",
    "latitude": "30.02327467255748",
    "geocoded_column": {
      "latitude": "30.02327467255748",
      "longitude": "-90.10198598074199"
    }
  },
  {
    "service_request": "2025-1192856",
    "request_type": "Trash/Recycling",
    "request_reason": "Request a Large Item Pick Up",
    "date_created": "2025-05-16T23:36:20.000",
    "date_modified": "2025-05-16T23:36:22.000",
    "request_status": "Pending",
    "responsible_agency": "Department of Sanitation",
    "final_address": "1339 Tennessee St",
    "address_councildis": "E",
    "status": "Assigned to Contractor",
    "contractor": "Waste Pro",
    "rowid": "1192856",
    "final_x": "3696054.26774",
    "final_y": "535322.558022",
    "longitude": "-90.02197600846553",
    "latitude": "29.965501446335917",
    "geocoded_column": {
      "latitude": "29.965501446335917",
      "longitude": "-90.02197600846553"
    }
  },
  {
    "service_request": "2025-1192855",
    "request_type": "Property Maintenance",
    "request_reason": "Property Maintenance",
    "date_created": "2025-05-16T23:08:18.000",
    "date_modified": "2025-05-16T23:08:20.000",
    "request_status": "Pending",
    "responsible_agency": "Department of Code Enforcement",
    "final_address": "2119 First St",
    "address_councildis": "B",
    "status": "Pending",
    "rowid": "1192855",
    "final_x": "3675898.58254",
    "final_y": "524861.556092",
    "longitude": "-90.08598647401125",
    "latitude": "29.937356049948256",
    "geocoded_column": {
      "latitude": "29.937356049948256",
      "longitude": "-90.08598647401125"
    }
  },
  {
    "service_request": "2025-1192854",
    "request_type": "Abandoned Vehicles",
    "request_reason": "Abandoned/Junk Vehicles",
    "date_created": "2025-05-16T22:16:06.000",
    "date_modified": "2025-05-16T22:16:09.000",
    "request_status": "Pending",
    "responsible_agency": "Department of Public Works",
    "final_address": "2222 St Bernard Ave",
    "address_councildis": "D",
    "status": "Pending",
    "rowid": "1192854",
    "final_x": "3680963.65755",
    "final_y": "539990.235467",
    "longitude": "-90.0694688885408",
    "latitude": "29.978802197275876",
    "geocoded_column": {
      "latitude": "29.978802197275876",
      "longitude": "-90.0694688885408"
    }
  },
  {
    "service_request": "2025-1192853",
    "request_type": "Streetlights",
    "request_reason": "Streetlight Outage/Malfunction",
    "date_created": "2025-05-16T22:04:28.000",
    "date_modified": "2025-05-16T22:04:30.000",
    "request_status": "Pending",
    "responsible_agency": "Department of Public Works",
    "final_address": "2920 Gravier St",
    "address_councildis": "B",
    "status": "Pending",
    "contractor": "Legacy Professional Services",
    "rowid": "1192853",
    "final_x": "3672982.33006",
    "final_y": "533821.633733",
    "longitude": "-90.0948875552595",
    "latitude": "29.962080276554573",
    "geocoded_column": {
      "latitude": "29.962080276554573",
      "longitude": "-90.0948875552595"
    }
  },
  {
    "service_request": "2025-1192852",
    "request_type": "Streetlights",
    "request_reason": "Streetlight Outage/Malfunction",
    "date_created": "2025-05-16T21:55:59.000",
    "date_modified": "2025-05-16T21:56:01.000",
    "request_status": "Pending",
    "responsible_agency": "Department of Public Works",
    "final_address": "2920 Gravier St",
    "address_councildis": "B",
    "status": "Pending",
    "contractor": "Legacy Professional Services",
    "rowid": "1192852",
    "final_x": "3672982.33006",
    "final_y": "533821.633733",
    "longitude": "-90.0948875552595",
    "latitude": "29.962080276554573",
    "geocoded_column": {
      "latitude": "29.962080276554573",
      "longitude": "-90.0948875552595"
    }
  },
  {
    "service_request": "2025-1192851",
    "request_type": "Streetlights",
    "request_reason": "Streetlight Outage/Malfunction",
    "date_created": "2025-05-16T21:40:00.000",
    "date_modified": "2025-05-16T21:40:01.000",
    "request_status": "Pending",
    "responsible_agency": "Department of Public Works",
    "final_address": "7340 Canterbury St",
    "address_councildis": "E",
    "status": "Pending",
    "contractor": "Legacy Professional Services",
    "rowid": "1192851",
    "final_x": "3698803.2554",
    "final_y": "559243.028124",
    "longitude": "-90.01242406766383",
    "latitude": "30.031187066897726",
    "geocoded_column": {
      "latitude": "30.031187066897726",
      "longitude": "-90.01242406766383"
    }
  },
  {
    "service_request": "2025-1192850",
    "request_type": "Drainage",
    "request_reason": "Catch Basin Clogged",
    "date_created": "2025-05-16T21:34:59.000",
    "date_modified": "2025-05-16T21:35:01.000",
    "request_status": "Pending",
    "responsible_agency": "Sewerage & Water Board",
    "final_address": "7340 Canterbury St",
    "address_councildis": "E",
    "status": "Pending",
    "rowid": "1192850",
    "final_x": "3698803.2554",
    "final_y": "559243.028124",
    "longitude": "-90.01242406766383",
    "latitude": "30.031187066897726",
    "geocoded_column": {
      "latitude": "30.031187066897726",
      "longitude": "-90.01242406766383"
    }
  },
  {
    "service_request": "2025-1192849",
    "request_type": "Trash/Recycling",
    "request_reason": "Repair Recycling Cart",
    "date_created": "2025-05-16T21:06:40.000",
    "date_modified": "2025-05-16T21:06:43.000",
    "request_status": "Pending",
    "responsible_agency": "Department of Sanitation",
    "final_address": "1500 Holiday Pl",
    "address_councildis": "C",
    "status": "Pending",
    "rowid": "1192849",
    "final_x": "3699028.41776",
    "final_y": "525659.740605",
    "longitude": "-90.0129354624615",
    "latitude": "29.938838180578593",
    "geocoded_column": {
      "latitude": "29.938838180578593",
      "longitude": "-90.0129354624615"
    }
  },
  {
    "service_request": "2025-1192848",
    "request_type": "Mosquito, Termite & Rodent Control",
    "request_reason": "Mosquito Complaint",
    "date_created": "2025-05-16T20:31:43.000",
    "date_modified": "2025-05-16T20:31:45.000",
    "request_status": "Pending",
    "responsible_agency": "Mosquito, Termite & Rodent Control Board",
    "final_address": "2418 Dumaine St",
    "address_councildis": "D",
    "status": "Pending",
    "rowid": "1192848",
    "final_x": "3678086.95854",
    "final_y": "536764.568904",
    "longitude": "-90.0786661479204",
    "latitude": "29.970019655795546",
    "geocoded_column": {
      "latitude": "29.970019655795546",
      "longitude": "-90.0786661479204"
    }
  },
  {
    "service_request": "2025-1192847",
    "request_type": "General Services",
    "request_reason": "General Service Request",
    "date_created": "2025-05-16T20:21:26.000",
    "date_modified": "2025-05-16T20:21:28.000",
    "request_status": "Pending",
    "responsible_agency": "Orleans Parish Communication District",
    "final_address": "4914 Tchoupitoulas St",
    "address_councildis": "B",
    "status": "Pending",
    "rowid": "1192847",
    "final_x": "3668811.20033",
    "final_y": "517178.510005",
    "longitude": "-90.10862113304385",
    "latitude": "29.91644035774569",
    "geocoded_column": {
      "latitude": "29.91644035774569",
      "longitude": "-90.10862113304385"
    }
  },
  {
    "service_request": "2025-1192846",
    "request_type": "Streetlights",
    "request_reason": "Streetlight Outage/Malfunction",
    "date_created": "2025-05-16T19:45:50.000",
    "date_modified": "2025-05-16T19:45:52.000",
    "request_status": "Pending",
    "responsible_agency": "Department of Public Works",
    "final_address": "1515 Pauger St",
    "address_councildis": "C",
    "status": "Pending",
    "contractor": "Legacy Professional Services",
    "rowid": "1192846",
    "final_x": "3683979.27637",
    "final_y": "535267.566726",
    "longitude": "-90.06011018120037",
    "latitude": "29.965724695782818",
    "geocoded_column": {
      "latitude": "29.965724695782818",
      "longitude": "-90.06011018120037"
    }
  },
  {
    "service_request": "2025-1192845",
    "request_type": "Trash/Recycling",
    "request_reason": "Request a Large Item Pick Up",
    "date_created": "2025-05-16T19:38:15.000",
    "date_modified": "2025-05-16T19:38:17.000",
    "request_status": "Pending",
    "responsible_agency": "Department of Sanitation",
    "final_address": "5800 BLK Vicksburg St",
    "address_councildis": "A",
    "status": "Assigned to Contractor",
    "contractor": "IV Waste",
    "rowid": "1192845",
    "final_x": "3668776.0443",
    "final_y": "546257.78096",
    "longitude": "-90.10775036300961",
    "latitude": "29.9963998136668",
    "geocoded_column": {
      "latitude": "29.9963998136668",
      "longitude": "-90.10775036300961"
    }
  },
  {
    "service_request": "2025-1192844",
    "request_type": "Abandoned Vehicles",
    "request_reason": "Abandoned/Junk Vehicles",
    "date_created": "2025-05-16T19:14:47.000",
    "date_modified": "2025-05-16T19:14:49.000",
    "request_status": "Pending",
    "responsible_agency": "Department of Public Works",
    "final_address": "14000 BLK Michoud Blvd",
    "address_councildis": "E",
    "status": "Pending",
    "rowid": "1192844",
    "final_x": "3725803.03622",
    "final_y": "571580.117782",
    "longitude": "-89.92662643066525",
    "latitude": "30.064225459965307",
    "geocoded_column": {
      "latitude": "30.064225459965307",
      "longitude": "-89.92662643066525"
    }
  },
  {
    "service_request": "2025-1192843",
    "request_type": "Abandoned Vehicles",
    "request_reason": "Abandoned/Junk Vehicles",
    "date_created": "2025-05-16T18:35:22.000",
    "date_modified": "2025-05-16T18:35:24.000",
    "request_status": "Pending",
    "responsible_agency": "Department of Public Works",
    "final_address": "1016 Antonine St",
    "address_councildis": "B",
    "status": "Pending",
    "rowid": "1192843",
    "final_x": "3673907.83649",
    "final_y": "518987.091127",
    "longitude": "-90.09247224136851",
    "latitude": "29.921262607118717",
    "geocoded_column": {
      "latitude": "29.921262607118717",
      "longitude": "-90.09247224136851"
    }
  },
  {
    "service_request": "2025-1192842",
    "request_type": "Trash/Recycling",
    "request_reason": "Replace Trash Cart",
    "date_created": "2025-05-16T17:48:21.000",
    "date_modified": "2025-05-16T17:48:23.000",
    "request_status": "Pending",
    "responsible_agency": "Department of Sanitation",
    "final_address": "1413 Clouet St",
    "address_councildis": "C",
    "status": "Assigned to Contractor",
    "contractor": "IV Waste",
    "rowid": "1192842",
    "final_x": "3689343.58268",
    "final_y": "537218.27764",
    "longitude": "-90.0431005843698",
    "latitude": "29.970923478882305",
    "geocoded_column": {
      "latitude": "29.970923478882305",
      "longitude": "-90.0431005843698"
    }
  },
  {
    "service_request": "2025-1192841",
    "request_type": "Streetlights",
    "request_reason": "Streetlight Outage/Malfunction",
    "date_created": "2025-05-16T17:40:46.000",
    "date_modified": "2025-05-16T17:40:48.000",
    "request_status": "Pending",
    "responsible_agency": "Department of Public Works",
    "final_address": "1743 Oriole St",
    "address_councildis": "D",
    "status": "Pending",
    "contractor": "Legacy Professional Services",
    "rowid": "1192841",
    "final_x": "3678604.58971",
    "final_y": "558325.92406",
    "longitude": "-90.0762844009739",
    "latitude": "30.02929014330944",
    "geocoded_column": {
      "latitude": "30.02929014330944",
      "longitude": "-90.0762844009739"
    }
  },
  {
    "service_request": "2025-1192840",
    "request_type": "Traffic Safety",
    "request_reason": "Request for Traffic Calming due to Speeding",
    "date_created": "2025-05-16T17:24:43.000",
    "date_modified": "2025-05-16T17:24:45.000",
    "request_status": "Pending",
    "responsible_agency": "Department of Public Works",
    "final_address": "4400 BLK Saint Claude Ave",
    "address_councildis": "C",
    "status": "Pending",
    "rowid": "1192840",
    "final_x": "3693189.27172",
    "final_y": "534953.642479",
    "longitude": "-90.03103674332621",
    "latitude": "29.96457690462313",
    "geocoded_column": {
      "latitude": "29.96457690462313",
      "longitude": "-90.03103674332621"
    }
  },
  {
    "service_request": "2025-1192839",
    "request_type": "Drainage",
    "request_reason": "Catch Basin Clogged",
    "date_created": "2025-05-16T17:21:26.000",
    "date_modified": "2025-05-16T17:21:28.000",
    "request_status": "Pending",
    "responsible_agency": "Sewerage & Water Board",
    "final_address": "2200 BLK Saint Ann St",
    "address_councildis": "D",
    "status": "Pending",
    "rowid": "1192839",
    "final_x": "3678430.97906",
    "final_y": "536071.17174",
    "longitude": "-90.07760369489134",
    "latitude": "29.96810268831551",
    "geocoded_column": {
      "latitude": "29.96810268831551",
      "longitude": "-90.07760369489134"
    }
  },
  {
    "service_request": "2025-1192838",
    "request_type": "Trash/Recycling",
    "request_reason": "Repair Recycling Cart",
    "date_created": "2025-05-16T17:21:22.000",
    "date_modified": "2025-05-16T17:21:24.000",
    "request_status": "Pending",
    "responsible_agency": "Department of Sanitation",
    "final_address": "7210 Cove Dr",
    "address_councildis": "E",
    "status": "Pending",
    "rowid": "1192838",
    "final_x": "3700053.53424",
    "final_y": "558896.431836",
    "longitude": "-90.0084858298527",
    "latitude": "30.030194371207465",
    "geocoded_column": {
      "latitude": "30.030194371207465",
      "longitude": "-90.0084858298527"
    }
  },
  {
    "service_request": "2025-1192837",
    "request_type": "Trash/Recycling",
    "request_reason": "Order Recycling Cart",
    "date_created": "2025-05-16T17:16:19.000",
    "date_modified": "2025-05-16T17:16:21.000",
    "request_status": "Pending",
    "responsible_agency": "Department of Sanitation",
    "final_address": "813 Opelousas Ave",
    "address_councildis": "C",
    "status": "Pending",
    "rowid": "1192837",
    "final_x": "3687950.49782",
    "final_y": "529037.03456",
    "longitude": "-90.04778998852017",
    "latitude": "29.948470950943662",
    "geocoded_column": {
      "latitude": "29.948470950943662",
      "longitude": "-90.04778998852017"
    }
  },
  {
    "service_request": "2025-1192836",
    "request_type": "Property Maintenance",
    "request_reason": "Property Maintenance",
    "date_created": "2025-05-16T17:01:17.000",
    "date_modified": "2025-05-16T17:01:20.000",
    "request_status": "Pending",
    "responsible_agency": "Department of Code Enforcement",
    "final_address": "2020 Philip St",
    "address_councildis": "B",
    "status": "Pending",
    "rowid": "1192836",
    "final_x": "3676239.07854",
    "final_y": "524657.234812",
    "longitude": "-90.08491853269489",
    "latitude": "29.936784037096935",
    "geocoded_column": {
      "latitude": "29.936784037096935",
      "longitude": "-90.08491853269489"
    }
  },
  {
    "service_request": "2025-1192835",
    "request_type": "Trash/Recycling",
    "request_reason": "Start Trash Service",
    "date_created": "2025-05-16T17:00:26.000",
    "date_modified": "2025-05-16T17:00:29.000",
    "request_status": "Pending",
    "responsible_agency": "Department of Sanitation",
    "final_address": "4901 Lurline St",
    "address_councildis": "E",
    "status": "Assigned to Contractor",
    "contractor": "Waste Pro",
    "rowid": "1192835",
    "final_x": "3711945.88126",
    "final_y": "557051.916186",
    "longitude": "-89.97097563861615",
    "latitude": "30.02473924094829",
    "geocoded_column": {
      "latitude": "30.02473924094829",
      "longitude": "-89.97097563861615"
    }
  },
  {
    "service_request": "2025-1192834",
    "request_type": "Trash/Recycling",
    "request_reason": "Order Trash Cart",
    "date_created": "2025-05-16T16:50:28.000",
    "date_modified": "2025-05-16T16:50:30.000",
    "request_status": "Pending",
    "responsible_agency": "Department of Sanitation",
    "final_address": "4901 Lurline St",
    "address_councildis": "E",
    "status": "Assigned to Contractor",
    "contractor": "Waste Pro",
    "rowid": "1192834",
    "final_x": "3711945.88126",
    "final_y": "557051.916186",
    "longitude": "-89.97097563861615",
    "latitude": "30.02473924094829",
    "geocoded_column": {
      "latitude": "30.02473924094829",
      "longitude": "-89.97097563861615"
    }
  },
  {
    "service_request": "2025-1192833",
    "request_type": "Trash/Recycling",
    "request_reason": "Order Trash Cart",
    "date_created": "2025-05-16T16:47:49.000",
    "date_modified": "2025-05-16T16:47:50.000",
    "request_status": "Pending",
    "responsible_agency": "Department of Sanitation",
    "final_address": "518 Lyons St",
    "address_councildis": "B",
    "status": "Assigned to Contractor",
    "contractor": "IV Waste",
    "rowid": "1192833",
    "final_x": "3669319.79322",
    "final_y": "517420.719606",
    "longitude": "-90.10700762122674",
    "latitude": "29.917091400810925",
    "geocoded_column": {
      "latitude": "29.917091400810925",
      "longitude": "-90.10700762122674"
    }
  },
  {
    "service_request": "2025-1192832",
    "request_type": "Trash/Recycling",
    "request_reason": "Repair Trash Cart",
    "date_created": "2025-05-16T16:46:52.000",
    "date_modified": "2025-05-16T16:46:54.000",
    "request_status": "Pending",
    "responsible_agency": "Department of Sanitation",
    "final_address": "518 Lyons St",
    "address_councildis": "B",
    "status": "Assigned to Contractor",
    "contractor": "IV Waste",
    "rowid": "1192832",
    "final_x": "3669319.79322",
    "final_y": "517420.719606",
    "longitude": "-90.10700762122674",
    "latitude": "29.917091400810925",
    "geocoded_column": {
      "latitude": "29.917091400810925",
      "longitude": "-90.10700762122674"
    }
  },
  {
    "service_request": "2025-1192831",
    "request_type": "Trash/Recycling",
    "request_reason": "Request a Large Item Pick Up",
    "date_created": "2025-05-16T16:29:42.000",
    "date_modified": "2025-05-16T16:29:44.000",
    "request_status": "Pending",
    "responsible_agency": "Department of Sanitation",
    "final_address": "1923 Arts St",
    "address_councildis": "D",
    "status": "Assigned to Contractor",
    "contractor": "IV Waste",
    "rowid": "1192831",
    "final_x": "3686992.75087",
    "final_y": "539625.509514",
    "longitude": "-90.05043967819564",
    "latitude": "29.977615097300866",
    "geocoded_column": {
      "latitude": "29.977615097300866",
      "longitude": "-90.05043967819564"
    }
  },
  {
    "service_request": "2025-1192830",
    "request_type": "Trash/Recycling",
    "request_reason": "Illegal Dumping",
    "date_created": "2025-05-16T16:28:35.000",
    "date_modified": "2025-05-16T16:28:37.000",
    "request_status": "Pending",
    "responsible_agency": "Department of Sanitation",
    "final_address": "4201 Hamilton St",
    "address_councildis": "A",
    "status": "Pending",
    "rowid": "1192830",
    "final_x": "3666577.53332",
    "final_y": "538621.644233",
    "longitude": "-90.11495183404223",
    "latitude": "29.975467500722594",
    "geocoded_column": {
      "latitude": "29.975467500722594",
      "longitude": "-90.11495183404223"
    }
  },
  {
    "service_request": "2025-1192829",
    "request_type": "Trash/Recycling",
    "request_reason": "Request a Large Item Pick Up",
    "date_created": "2025-05-16T16:25:13.000",
    "date_modified": "2025-05-16T16:25:16.000",
    "request_status": "Pending",
    "responsible_agency": "Department of Sanitation",
    "final_address": "13450 Dwyer Blvd",
    "address_councildis": "E",
    "status": "Assigned to Contractor",
    "contractor": "Waste Pro",
    "rowid": "1192829",
    "final_x": "3725793.79609",
    "final_y": "561816.455967",
    "longitude": "-89.92703443047101",
    "latitude": "30.037379789364266",
    "geocoded_column": {
      "latitude": "30.037379789364266",
      "longitude": "-89.92703443047101"
    }
  },
  {
    "service_request": "2025-1192828",
    "request_type": "Trash/Recycling",
    "request_reason": "Missed Trash Pick-Up",
    "date_created": "2025-05-16T16:21:06.000",
    "date_modified": "2025-05-16T16:21:07.000",
    "request_status": "Pending",
    "responsible_agency": "Department of Sanitation",
    "final_address": "10810 Roger Dr Apt A",
    "address_councildis": "E",
    "status": "Assigned to Contractor",
    "contractor": "Waste Pro",
    "rowid": "1192828",
    "final_x": "3711731.75128",
    "final_y": "563046.672352",
    "longitude": "-89.97142710417532",
    "latitude": "30.041229435420597",
    "geocoded_column": {
      "latitude": "30.041229435420597",
      "longitude": "-89.97142710417532"
    }
  },
  {
    "service_request": "2025-1192827",
    "request_type": "Trash/Recycling",
    "request_reason": "Illegal Dumping",
    "date_created": "2025-05-16T16:20:42.000",
    "date_modified": "2025-05-16T16:20:44.000",
    "request_status": "Pending",
    "responsible_agency": "Department of Sanitation",
    "final_address": "3400 BLK Kabel Dr",
    "address_councildis": "C",
    "status": "Pending",
    "rowid": "1192827",
    "final_x": "3700568.12015",
    "final_y": "518507.15339",
    "longitude": "-90.00833560216205",
    "latitude": "29.91912216129469",
    "geocoded_column": {
      "latitude": "29.91912216129469",
      "longitude": "-90.00833560216205"
    }
  },
  {
    "service_request": "2025-1192826",
    "request_type": "Trash/Recycling",
    "request_reason": "Request a Large Item Pick Up",
    "date_created": "2025-05-16T16:14:46.000",
    "date_modified": "2025-05-16T16:14:48.000",
    "request_status": "Pending",
    "responsible_agency": "Department of Sanitation",
    "final_address": "2501 St Roch Ave",
    "address_councildis": "D",
    "status": "Assigned to Contractor",
    "contractor": "IV Waste",
    "rowid": "1192826",
    "final_x": "3686161.6285",
    "final_y": "541625.292428",
    "longitude": "-90.05299406596846",
    "latitude": "29.98313935499864",
    "geocoded_column": {
      "latitude": "29.98313935499864",
      "longitude": "-90.05299406596846"
    }
  },
  {
    "service_request": "2025-1192825",
    "request_type": "Property Maintenance",
    "request_reason": "Property Maintenance",
    "date_created": "2025-05-16T16:14:39.000",
    "date_modified": "2025-05-16T16:14:41.000",
    "request_status": "Pending",
    "responsible_agency": "Department of Code Enforcement",
    "final_address": "1411 Terpsichore St",
    "address_councildis": "B",
    "status": "Pending",
    "rowid": "1192825",
    "final_x": "3679759.99829",
    "final_y": "524896.670076",
    "longitude": "-90.07379451290134",
    "latitude": "29.937336454973533",
    "geocoded_column": {
      "latitude": "29.937336454973533",
      "longitude": "-90.07379451290134"
    }
  },
  {
    "service_request": "2025-1192824",
    "request_type": "Road Striping",
    "request_reason": "Lane Striping or other Pavement Markings",
    "date_created": "2025-05-16T16:11:49.000",
    "date_modified": "2025-05-16T16:11:51.000",
    "request_status": "Pending",
    "responsible_agency": "Department of Public Works",
    "final_address": "1128 City Park Ave",
    "address_councildis": "A",
    "status": "Pending",
    "rowid": "1192824",
    "final_x": "3673266.73947",
    "final_y": "541458.925324",
    "longitude": "-90.09372852236545",
    "latitude": "29.983071784436344",
    "geocoded_column": {
      "latitude": "29.983071784436344",
      "longitude": "-90.09372852236545"
    }
  },
  {
    "service_request": "2025-1192823",
    "request_type": "Roads and Streets",
    "request_reason": "Pothole",
    "date_created": "2025-05-16T16:11:38.000",
    "date_modified": "2025-05-16T16:11:39.000",
    "request_status": "Pending",
    "responsible_agency": "Department of Public Works",
    "final_address": "7520 Shubrick Ave",
    "address_councildis": "E",
    "status": "Pending",
    "rowid": "1192823",
    "final_x": "3706888.1482",
    "final_y": "563371.669792",
    "longitude": "-89.98672240562287",
    "latitude": "30.042280453526917",
    "geocoded_column": {
      "latitude": "30.042280453526917",
      "longitude": "-89.98672240562287"
    }
  },
  {
    "service_request": "2025-1192822",
    "request_type": "Trash/Recycling",
    "request_reason": "Request a Large Item Pick Up",
    "date_created": "2025-05-16T16:11:37.000",
    "date_modified": "2025-05-16T16:11:38.000",
    "request_status": "Pending",
    "responsible_agency": "Department of Sanitation",
    "final_address": "2501 Urquhart St",
    "address_councildis": "C",
    "status": "Assigned to Contractor",
    "contractor": "IV Waste",
    "rowid": "1192822",
    "final_x": "3687188.68137",
    "final_y": "537268.328392",
    "longitude": "-90.04990425174077",
    "latitude": "29.971127643955974",
    "geocoded_column": {
      "latitude": "29.971127643955974",
      "longitude": "-90.04990425174077"
    }
  },
  {
    "service_request": "2025-1192821",
    "request_type": "Streetlights",
    "request_reason": "Streetlight Outage/Malfunction",
    "date_created": "2025-05-16T16:08:31.000",
    "date_modified": "2025-05-16T16:08:33.000",
    "request_status": "Pending",
    "responsible_agency": "Department of Public Works",
    "final_address": "711 Louisiana Ave",
    "address_councildis": "B",
    "status": "Pending",
    "contractor": "Legacy Professional Services",
    "rowid": "1192821",
    "final_x": "3675700.93614",
    "final_y": "518310.591926",
    "longitude": "-90.08683544390725",
    "latitude": "29.919348936807538",
    "geocoded_column": {
      "latitude": "29.919348936807538",
      "longitude": "-90.08683544390725"
    }
  },
  {
    "service_request": "2025-1192820",
    "request_type": "Drainage",
    "request_reason": "Catch Basin Clogged",
    "date_created": "2025-05-16T16:07:34.000",
    "date_modified": "2025-05-16T16:07:36.000",
    "request_status": "Pending",
    "responsible_agency": "Sewerage & Water Board",
    "final_address": "5911 General Diaz St",
    "address_councildis": "A",
    "status": "Pending",
    "rowid": "1192820",
    "final_x": "3669541.41556",
    "final_y": "546627.178193",
    "longitude": "-90.10532009233876",
    "latitude": "29.99739299650508",
    "geocoded_column": {
      "latitude": "29.99739299650508",
      "longitude": "-90.10532009233876"
    }
  },
  {
    "service_request": "2025-1192819",
    "request_type": "Property Maintenance",
    "request_reason": "Property Maintenance",
    "date_created": "2025-05-16T16:07:16.000",
    "date_modified": "2025-05-16T16:07:17.000",
    "request_status": "Pending",
    "responsible_agency": "Department of Code Enforcement",
    "final_address": "5612 Hawthorne Pl",
    "address_councildis": "A",
    "status": "Pending",
    "rowid": "1192819",
    "final_x": "3667788.35476",
    "final_y": "544735.861455",
    "longitude": "-90.11092170963295",
    "latitude": "29.992244068560925",
    "geocoded_column": {
      "latitude": "29.992244068560925",
      "longitude": "-90.11092170963295"
    }
  },
  {
    "service_request": "2025-1192818",
    "request_type": "Drainage",
    "request_reason": "Catch Basin Clogged",
    "date_created": "2025-05-16T16:06:46.000",
    "date_modified": "2025-05-16T16:06:48.000",
    "request_status": "Pending",
    "responsible_agency": "Sewerage & Water Board",
    "final_address": "5911 General Diaz St",
    "address_councildis": "A",
    "status": "Pending",
    "rowid": "1192818",
    "final_x": "3669541.41556",
    "final_y": "546627.178193",
    "longitude": "-90.10532009233876",
    "latitude": "29.99739299650508",
    "geocoded_column": {
      "latitude": "29.99739299650508",
      "longitude": "-90.10532009233876"
    }
  },
  {
    "service_request": "2025-1192817",
    "request_type": "Street and Traffic Signs",
    "request_reason": "Additional Signage Request",
    "date_created": "2025-05-16T16:04:24.000",
    "date_modified": "2025-05-16T16:04:25.000",
    "request_status": "Pending",
    "responsible_agency": "Department of Public Works",
    "final_address": "5978 General Diaz St",
    "address_councildis": "A",
    "status": "Pending",
    "rowid": "1192817",
    "final_x": "3669423.63694",
    "final_y": "547133.175761",
    "longitude": "-90.10567502644442",
    "latitude": "29.998787784854745",
    "geocoded_column": {
      "latitude": "29.998787784854745",
      "longitude": "-90.10567502644442"
    }
  },
  {
    "service_request": "2025-1192816",
    "request_type": "Parks & Parkways",
    "request_reason": "Request Tree Service (Right of Way/Public Property)",
    "date_created": "2025-05-16T16:04:16.000",
    "date_modified": "2025-05-16T16:04:18.000",
    "request_status": "Pending",
    "responsible_agency": "Department of Parks & Parkway",
    "final_address": "4415 Franklin Ave",
    "address_councildis": "D",
    "status": "Pending",
    "rowid": "1192816",
    "final_x": "3687010.61558",
    "final_y": "549050.464403",
    "longitude": "-90.05004987803369",
    "latitude": "30.003529801847364",
    "geocoded_column": {
      "latitude": "30.003529801847364",
      "longitude": "-90.05004987803369"
    }
  },
  {
    "service_request": "2025-1192815",
    "request_type": "Trash/Recycling",
    "request_reason": "Order Trash Cart",
    "date_created": "2025-05-16T15:57:05.000",
    "date_modified": "2025-05-16T15:57:39.000",
    "request_status": "Pending",
    "responsible_agency": "Department of Sanitation",
    "final_address": "1643 N Roman St",
    "address_councildis": "D",
    "status": "Assigned to Contractor",
    "contractor": "IV Waste",
    "rowid": "1192815",
    "final_x": "3681970.42575",
    "final_y": "538870.576393",
    "longitude": "-90.06632823959646",
    "latitude": "29.975692952056633",
    "geocoded_column": {
      "latitude": "29.975692952056633",
      "longitude": "-90.06632823959646"
    }
  },
  {
    "service_request": "2025-1192814",
    "request_type": "Streetlights",
    "request_reason": "Streetlight Outage/Malfunction",
    "date_created": "2025-05-16T15:55:07.000",
    "date_modified": "2025-05-16T15:55:09.000",
    "request_status": "Pending",
    "responsible_agency": "Department of Public Works",
    "final_address": "5919 General Diaz St",
    "address_councildis": "A",
    "status": "Pending",
    "contractor": "Legacy Professional Services",
    "rowid": "1192814",
    "final_x": "3669547.29812",
    "final_y": "546693.402641",
    "longitude": "-90.10529926740287",
    "latitude": "29.99757491746909",
    "geocoded_column": {
      "latitude": "29.99757491746909",
      "longitude": "-90.10529926740287"
    }
  },
  {
    "service_request": "2025-1192813",
    "request_type": "Trash/Recycling",
    "request_reason": "Request a Large Item Pick Up",
    "date_created": "2025-05-16T15:54:49.000",
    "date_modified": "2025-05-16T15:54:51.000",
    "request_status": "Pending",
    "responsible_agency": "Department of Sanitation",
    "final_address": "834 Thayer St",
    "address_councildis": "C",
    "status": "Assigned to Contractor",
    "contractor": "Richards Disposal",
    "rowid": "1192813",
    "final_x": "3689501.93833",
    "final_y": "528364.866048",
    "longitude": "-90.04291535931469",
    "latitude": "29.946574766283405",
    "geocoded_column": {
      "latitude": "29.946574766283405",
      "longitude": "-90.04291535931469"
    }
  },