[
  {
    "service_request": "2026-1282431",
    "request_type": "Streetlights",
    "request_reason": "Streetlight Outage/Malfunction",
    "date_created": "2026-05-18T23:19:14.000",
    "date_modified": "2026-05-18T23:19:15.000",
    "request_status": "Pending",
    "responsible_agency": "Department of Public Works",
    "final_address": "3017 N Prieur St",
    "address_councildis": "D",
    "status": "Pending",
    "rowid": "1282431",
    "final_x": "3689360.79401",
    "final_y": "539186.908426",
    "longitude": "-90.04297621584928",
    "latitude": "29.976335986081608",
    "geocoded_column": {
      "latitude": "29.976335986081608",
      "longitude": "-90.04297621584928"
    }
  },
  {
    "service_request": "2026-1282430",
    "request_type": "Trash/Recycling",
    "request_reason": "Replace Trash Cart",
    "date_created": "2026-05-18T23:16:02.000",
    "date_modified": "2026-05-18T23:16:04.000",
    "request_status": "Pending",
    "responsible_agency": "Department of Sanitation",
    "final_address": "510 Passera Ct",
    "address_councildis": "A",
    "status": "Assigned to Contractor",
    "contractor": "IV Waste",
    "rowid": "1282430",
    "final_x": "3670569.72615",
    "final_y": "540746.442379",
    "longitude": "-90.10227127280247",
    "latitude": "29.981192650275013",
    "geocoded_column": {
      "latitude": "29.981192650275013",
      "longitude": "-90.10227127280247"
    }
  },
  {
    "service_request": "2026-1282429",
    "request_type": "Property Maintenance",
    "request_reason": "Property Maintenance",
    "date_created": "2026-05-18T22:47:37.000",
    "date_modified": "2026-05-18T22:47:39.000",
    "request_status": "Pending",
    "responsible_agency": "Department of Code Enforcement",
    "final_address": "1014 Marais St",
    "address_councildis": "C",
    "status": "Pending",
    "rowid": "1282429",
    "final_x": "3681349.20706",
    "final_y": "534963.96967",
    "longitude": "-90.06842642267318",
    "latitude": "29.964970003314217",
    "geocoded_column": {
      "latitude": "29.964970003314217",
      "longitude": "-90.06842642267318"
    }
  },
  {
    "service_request": "2026-1282428",
    "request_type": "Property Maintenance",
    "request_reason": "Property Maintenance",
    "date_created": "2026-05-18T22:42:18.000",
    "date_modified": "2026-05-18T22:42:21.000",
    "request_status": "Pending",
    "responsible_agency": "Department of Code Enforcement",
    "final_address": "1300 BLK Saint Philip St",
    "address_councildis": "C",
    "status": "Pending",
    "rowid": "1282428",
    "final_x": "3681360.03094",
    "final_y": "534780.867562",
    "longitude": "-90.0683986247731",
    "latitude": "29.964466206685554",
    "geocoded_column": {
      "latitude": "29.964466206685554",
      "longitude": "-90.0683986247731"
    }
  },
  {
    "service_request": "2026-1282427",
    "request_type": "Property Maintenance",
    "request_reason": "Property Maintenance",
    "date_created": "2026-05-18T22:38:38.000",
    "date_modified": "2026-05-18T22:38:40.000",
    "request_status": "Pending",
    "responsible_agency": "Department of Code Enforcement",
    "final_address": "1024 Marais St",
    "address_councildis": "C",
    "status": "Pending",
    "rowid": "1282427",
    "final_x": "3681390.58844",
    "final_y": "535011.752198",
    "longitude": "-90.0682940769423",
    "latitude": "29.965100132744567",
    "geocoded_column": {
      "latitude": "29.965100132744567",
      "longitude": "-90.0682940769423"
    }
  },
  {
    "service_request": "2026-1282426",
    "request_type": "Trash/Recycling",
    "request_reason": "Order Recycling Cart",
    "date_created": "2026-05-18T22:36:45.000",
    "date_modified": "2026-05-18T22:36:46.000",
    "request_status": "Pending",
    "responsible_agency": "Department of Sanitation",
    "final_address": "604 Valence St",
    "address_councildis": "B",
    "status": "Pending",
    "rowid": "1282426",
    "final_x": "3669995.53428",
    "final_y": "517700.377462",
    "longitude": "-90.10486522549918",
    "latitude": "29.917840468507542",
    "geocoded_column": {
      "latitude": "29.917840468507542",
      "longitude": "-90.10486522549918"
    }
  },
  {
    "service_request": "2026-1282425",
    "request_type": "Property Maintenance",
    "request_reason": "Property Maintenance",
    "date_created": "2026-05-18T22:36:06.000",
    "date_modified": "2026-05-18T22:36:08.000",
    "request_status": "Pending",
    "responsible_agency": "Department of Code Enforcement",
    "final_address": "1032 Marais St",
    "address_councildis": "C",
    "status": "Pending",
    "rowid": "1282425",
    "final_x": "3681423.88642",
    "final_y": "535056.338758",
    "longitude": "-90.06818736924095",
    "latitude": "29.965221719633817",
    "geocoded_column": {
      "latitude": "29.965221719633817",
      "longitude": "-90.06818736924095"
    }
  },
  {
    "service_request": "2026-1282424",
    "request_type": "Drainage",
    "request_reason": "Catch Basin Not Draining",
    "date_created": "2026-05-18T22:30:49.000",
    "date_modified": "2026-05-18T22:30:51.000",
    "request_status": "Pending",
    "responsible_agency": "Sewerage & Water Board",
    "final_address": "1300 BLK Saint Philip St",
    "address_councildis": "C",
    "status": "Pending",
    "rowid": "1282424",
    "final_x": "3681360.03094",
    "final_y": "534780.867562",
    "longitude": "-90.0683986247731",
    "latitude": "29.964466206685554",
    "geocoded_column": {
      "latitude": "29.964466206685554",
      "longitude": "-90.0683986247731"
    }
  },
  {
    "service_request": "2026-1282423",
    "request_type": "Trash/Recycling",
    "request_reason": "Request a Large Item Pick Up",
    "date_created": "2026-05-18T22:02:46.000",
    "date_modified": "2026-05-18T22:02:48.000",
    "request_status": "Pending",
    "responsible_agency": "Department of Sanitation",
    "final_address": "3745 Octavia St",
    "address_councildis": "B",
    "status": "Assigned to Contractor",
    "contractor": "IV Waste",
    "rowid": "1282423",
    "final_x": "3668796.23809",
    "final_y": "529291.579457",
    "longitude": "-90.10825958407526",
    "latitude": "29.949747858777258",
    "geocoded_column": {
      "latitude": "29.949747858777258",
      "longitude": "-90.10825958407526"
    }
  },
  {
    "service_request": "2026-1282422",
    "request_type": "Trash/Recycling",
    "request_reason": "Illegal Dumping",
    "date_created": "2026-05-18T21:45:37.000",
    "date_modified": "2026-05-18T21:45:38.000",
    "request_status": "Pending",
    "responsible_agency": "Department of Sanitation",
    "final_address": "820 Nunez St",
    "address_councildis": "C",
    "status": "Pending",
    "rowid": "1282422",
    "final_x": "3686986.41186",
    "final_y": "528510.747904",
    "longitude": "-90.05085260193374",
    "latitude": "29.94705354792499",
    "geocoded_column": {
      "latitude": "29.94705354792499",
      "longitude": "-90.05085260193374"
    }
  },
  {
    "service_request": "2026-1282421",
    "request_type": "Streetlights",
    "request_reason": "New Streetlight Request",
    "date_created": "2026-05-18T21:10:51.000",
    "date_modified": "2026-05-18T21:10:52.000",
    "request_status": "Pending",
    "responsible_agency": "Department of Public Works",
    "final_address": "1200 BLK Saint Philip St",
    "address_councildis": "C",
    "status": "Pending",
    "rowid": "1282421",
    "final_x": "3681608.30013",
    "final_y": "534588.225231",
    "longitude": "-90.06762133008787",
    "latitude": "29.963928967845668",
    "geocoded_column": {
      "latitude": "29.963928967845668",
      "longitude": "-90.06762133008787"
    }
  },
  {
    "service_request": "2026-1282420",
    "request_type": "Trash/Recycling",
    "request_reason": "Request a Large Item Pick Up",
    "date_created": "2026-05-18T21:00:56.000",
    "date_modified": "2026-05-18T21:00:58.000",
    "request_status": "Pending",
    "responsible_agency": "Department of Sanitation",
    "final_address": "7921 Windward Ct",
    "address_councildis": "E",
    "status": "Assigned to Contractor",
    "contractor": "Waste Pro",
    "rowid": "1282420",
    "final_x": "3715158.56837",
    "final_y": "570386.961447",
    "longitude": "-89.96031929922889",
    "latitude": "30.061299790914955",
    "geocoded_column": {
      "latitude": "30.061299790914955",
      "longitude": "-89.96031929922889"
    }
  },
  {
    "service_request": "2026-1282419",
    "request_type": "Mosquito, Termite & Rodent Control",
    "request_reason": "Termite Complaint",
    "date_created": "2026-05-18T20:44:31.000",
    "date_modified": "2026-05-18T20:44:34.000",
    "request_status": "Pending",
    "responsible_agency": "Mosquito, Termite & Rodent Control Board",
    "final_address": "3520 Wall Blvd",
    "address_councildis": "C",
    "status": "Pending",
    "rowid": "1282419",
    "final_x": "3697077.99722",
    "final_y": "523880.31174",
    "longitude": "-90.01915755801801",
    "latitude": "29.93400702139722",
    "geocoded_column": {
      "latitude": "29.93400702139722",
      "longitude": "-90.01915755801801"
    }
  },
  {
    "service_request": "2026-1282418",
    "request_type": "Alley Ways",
    "request_reason": "Alley Way Issues",
    "date_created": "2026-05-18T20:16:15.000",
    "date_modified": "2026-05-18T20:16:16.000",
    "request_status": "Pending",
    "responsible_agency": "Department of Public Works",
    "final_address": "1 Heritage Ln",
    "address_councildis": "C",
    "status": "Pending",
    "rowid": "1282418",
    "final_x": "3696143.89104",
    "final_y": "520203.977272",
    "longitude": "-90.02223927705046",
    "latitude": "29.92392778287831",
    "geocoded_column": {
      "latitude": "29.92392778287831",
      "longitude": "-90.02223927705046"
    }
  },
  {
    "service_request": "2026-1282417",
    "request_type": "Streetlights",
    "request_reason": "Streetlight Outage/Malfunction",
    "date_created": "2026-05-18T20:16:08.000",
    "date_modified": "2026-05-18T20:16:12.000",
    "request_status": "Pending",
    "responsible_agency": "Department of Public Works",
    "final_address": "7711 Willow St",
    "address_councildis": "A",
    "status": "Pending",
    "rowid": "1282417",
    "final_x": "3663465.30733",
    "final_y": "528004.216767",
    "longitude": "-90.12513471309991",
    "latitude": "29.94636366759979",
    "geocoded_column": {
      "latitude": "29.94636366759979",
      "longitude": "-90.12513471309991"
    }
  },
  {
    "service_request": "2026-1282416",
    "request_type": "Property Maintenance",
    "request_reason": "Property Maintenance",
    "date_created": "2026-05-18T20:01:29.000",
    "date_modified": "2026-05-18T20:01:31.000",
    "request_status": "Pending",
    "responsible_agency": "Department of Code Enforcement",
    "final_address": "2013 Alabo St",
    "address_councildis": "E",
    "status": "Pending",
    "rowid": "1282416",
    "final_x": "3699885.14647",
    "final_y": "537022.768648",
    "longitude": "-90.009816320341",
    "latitude": "29.97005530646294",
    "geocoded_column": {
      "latitude": "29.97005530646294",
      "longitude": "-90.009816320341"
    }
  },
  {
    "service_request": "2026-1282415",
    "request_type": "Abandoned Vehicles",
    "request_reason": "Abandoned/Junk Vehicles",
    "date_created": "2026-05-18T19:33:46.000",
    "date_modified": "2026-05-18T19:33:48.000",
    "request_status": "Pending",
    "responsible_agency": "Department of Public Works",
    "final_address": "625 Lowerline St",
    "address_councildis": "A",
    "status": "Pending",
    "rowid": "1282415",
    "final_x": "3662696.29882",
    "final_y": "525189.753853",
    "longitude": "-90.12765625785514",
    "latitude": "29.938647065437827",
    "geocoded_column": {
      "latitude": "29.938647065437827",
      "longitude": "-90.12765625785514"
    }
  },
  {
    "service_request": "2026-1282414",
    "request_type": "Property Maintenance",
    "request_reason": "Property Maintenance",
    "date_created": "2026-05-18T19:20:18.000",
    "date_modified": "2026-05-18T19:20:21.000",
    "request_status": "Pending",
    "responsible_agency": "Department of Code Enforcement",
    "final_address": "4211 General Ogden St",
    "address_councildis": "A",
    "status": "Pending",
    "rowid": "1282414",
    "final_x": "3667201.54285",
    "final_y": "538137.479305",
    "longitude": "-90.11299732059337",
    "latitude": "29.974117950169365",
    "geocoded_column": {
      "latitude": "29.974117950169365",
      "longitude": "-90.11299732059337"
    }
  },
  {
    "service_request": "2026-1282413",
    "request_type": "Abandoned Vehicles",
    "request_reason": "Abandoned/Junk Vehicles",
    "date_created": "2026-05-18T19:07:22.000",
    "date_modified": "2026-05-18T19:07:23.000",
    "request_status": "Pending",
    "responsible_agency": "Department of Public Works",
    "final_address": "3324 Esplanade Ave",
    "address_councildis": "A",
    "status": "Pending",
    "rowid": "1282413",
    "final_x": "3675835.08366",
    "final_y": "540681.332235",
    "longitude": "-90.08564310986975",
    "latitude": "29.98085702211278",
    "geocoded_column": {
      "latitude": "29.98085702211278",
      "longitude": "-90.08564310986975"
    }
  },
  {
    "service_request": "2026-1282412",
    "request_type": "Trash/Recycling",
    "request_reason": "Order Recycling Cart",
    "date_created": "2026-05-18T19:06:53.000",
    "date_modified": "2026-05-18T19:06:54.000",
    "request_status": "Pending",
    "responsible_agency": "Department of Sanitation",
    "final_address": "0 BLK Charlotte Dr",
    "address_councildis": "D",
    "status": "Pending",
    "rowid": "1282412",
    "final_x": "3680306.04421",
    "final_y": "551384.304171",
    "longitude": "-90.07114947197744",
    "latitude": "30.010151784319163",
    "geocoded_column": {
      "latitude": "30.010151784319163",
      "longitude": "-90.07114947197744"
    }
  },
  {
    "service_request": "2026-1282411",
    "request_type": "Mosquito, Termite & Rodent Control",
    "request_reason": "Termite Complaint",
    "date_created": "2026-05-18T19:04:12.000",
    "date_modified": "2026-05-18T19:04:14.000",
    "request_status": "Pending",
    "responsible_agency": "Mosquito, Termite & Rodent Control Board",
    "final_address": "608 French St",
    "address_councildis": "A",
    "status": "Pending",
    "rowid": "1282411",
    "final_x": "3668314.18708",
    "final_y": "548557.964627",
    "longitude": "-90.10913171402845",
    "latitude": "30.002738098206525",
    "geocoded_column": {
      "latitude": "30.002738098206525",
      "longitude": "-90.10913171402845"
    }
  },
  {
    "service_request": "2026-1282410",
    "request_type": "Trash/Recycling",
    "request_reason": "Replace Trash Cart",
    "date_created": "2026-05-18T18:50:15.000",
    "date_modified": "2026-05-18T18:50:17.000",
    "request_status": "Pending",
    "responsible_agency": "Department of Sanitation",
    "final_address": "2622 Joseph St",
    "address_councildis": "A",
    "status": "Assigned to Contractor",
    "contractor": "IV Waste",
    "rowid": "1282410",
    "final_x": "3667531.99335",
    "final_y": "525646.392125",
    "longitude": "-90.112374038536",
    "latitude": "29.939761878748268",
    "geocoded_column": {
      "latitude": "29.939761878748268",
      "longitude": "-90.112374038536"
    }
  },
  {
    "service_request": "2026-1282409",
    "request_type": "Trash/Recycling",
    "request_reason": "Request a Large Item Pick Up",
    "date_created": "2026-05-18T18:47:19.000",
    "date_modified": "2026-05-18T18:47:20.000",
    "request_status": "Pending",
    "responsible_agency": "Department of Sanitation",
    "final_address": "4759 Lurline St",
    "address_councildis": "E",
    "status": "Assigned to Contractor",
    "contractor": "Waste Pro",
    "rowid": "1282409",
    "final_x": "3712038.38482",
    "final_y": "556254.998938",
    "longitude": "-89.97071329104347",
    "latitude": "30.022545007831443",
    "geocoded_column": {
      "latitude": "30.022545007831443",
      "longitude": "-89.97071329104347"
    }
  },
  {
    "service_request": "2026-1282408",
    "request_type": "General Services",
    "request_reason": "General Service Request",
    "date_created": "2026-05-18T18:47:03.000",
    "date_modified": "2026-05-18T18:47:04.000",
    "request_status": "Pending",
    "responsible_agency": "Orleans Parish Communication District",
    "final_address": "13245 St Helena Pl",
    "address_councildis": "E",
    "status": "Pending",
    "rowid": "1282408",
    "final_x": "3727033.43232",
    "final_y": "564208.263457",
    "longitude": "-89.92302391922969",
    "latitude": "30.04391437581324",
    "geocoded_column": {
      "latitude": "30.04391437581324",
      "longitude": "-89.92302391922969"
    }
  },
  {
    "service_request": "2026-1282407",
    "request_type": "Street and Traffic Signs",
    "request_reason": "Traffic or Parking Sign Damaged or Missing",
    "date_created": "2026-05-18T18:45:28.000",
    "date_modified": "2026-05-18T18:45:29.000",
    "request_status": "Pending",
    "responsible_agency": "Department of Public Works",
    "final_address": "1661 Octavia St",
    "address_councildis": "A",
    "status": "Pending",
    "rowid": "1282407",
    "final_x": "3667234.7225",
    "final_y": "522219.920954",
    "longitude": "-90.1134277393968",
    "latitude": "29.930348884994224",
    "geocoded_column": {
      "latitude": "29.930348884994224",
      "longitude": "-90.1134277393968"
    }
  },
  {
    "service_request": "2026-1282406",
    "request_type": "Streetlights",
    "request_reason": "Streetlight Knocked Down/Leaning",
    "date_created": "2026-05-18T18:43:06.000",
    "date_modified": "2026-05-18T18:43:09.000",
    "request_status": "Pending",
    "responsible_agency": "Department of Public Works",
    "final_address": "831 Newton St",
    "address_councildis": "C",
    "status": "Pending",
    "rowid": "1282406",
    "final_x": "3687962.18748",
    "final_y": "527903.915903",
    "longitude": "-90.04779321866125",
    "latitude": "29.945354900719874",
    "geocoded_column": {
      "latitude": "29.945354900719874",
      "longitude": "-90.04779321866125"
    }
  },
  {
    "service_request": "2026-1282405",
    "request_type": "General Services",
    "request_reason": "General Service Request",
    "date_created": "2026-05-18T18:11:23.000",
    "date_modified": "2026-05-18T18:11:25.000",
    "request_status": "Pending",
    "responsible_agency": "Orleans Parish Communication District",
    "final_address": "0 BLK Agriculture Pl",
    "address_councildis": "D",
    "status": "Pending",
    "rowid": "1282405",
    "final_x": "3689891.40135",
    "final_y": "543419.290574",
    "longitude": "-90.04114966127275",
    "latitude": "29.987957086684915",
    "geocoded_column": {
      "latitude": "29.987957086684915",
      "longitude": "-90.04114966127275"
    }
  },
  {
    "service_request": "2026-1282404",
    "request_type": "Roads and Streets",
    "request_reason": "Sidewalk Damaged or Missing",
    "date_created": "2026-05-18T18:10:32.000",
    "date_modified": "2026-05-18T18:10:34.000",
    "request_status": "Pending",
    "responsible_agency": "Department of Public Works",
    "final_address": "3433 St Charles Ave",
    "address_councildis": "B",
    "status": "Pending",
    "rowid": "1282404",
    "final_x": "3673901.88628",
    "final_y": "521482.018937",
    "longitude": "-90.09240573435686",
    "latitude": "29.928123033945557",
    "geocoded_column": {
      "latitude": "29.928123033945557",
      "longitude": "-90.09240573435686"
    }
  },
  {
    "service_request": "2026-1282403",
    "request_type": "Trash/Recycling",
    "request_reason": "Return Trash Cart",
    "date_created": "2026-05-18T18:07:06.000",
    "date_modified": "2026-05-18T18:07:09.000",
    "request_status": "Pending",
    "responsible_agency": "Department of Sanitation",
    "final_address": "4113 Willow St",
    "address_councildis": "B",
    "status": "Assigned to Contractor",
    "contractor": "IV Waste",
    "rowid": "1282403",
    "final_x": "3671423.46331",
    "final_y": "525578.953661",
    "longitude": "-90.10009037758992",
    "latitude": "29.93946185372187",
    "geocoded_column": {
      "latitude": "29.93946185372187",
      "longitude": "-90.10009037758992"
    }
  },
  {
    "service_request": "2026-1282402",
    "request_type": "General Services",
    "request_reason": "General Service Request",
    "date_created": "2026-05-18T18:06:18.000",
    "date_modified": "2026-05-18T18:06:21.000",
    "request_status": "Pending",
    "responsible_agency": "Orleans Parish Communication District",
    "final_address": "0 BLK Agriculture Pl",
    "address_councildis": "D",
    "status": "Pending",
    "rowid": "1282402",
    "final_x": "3689891.40135",
    "final_y": "543419.290574",
    "longitude": "-90.04114966127275",
    "latitude": "29.987957086684915",
    "geocoded_column": {
      "latitude": "29.987957086684915",
      "longitude": "-90.04114966127275"
    }
  },
  {
    "service_request": "2026-1282401",
    "request_type": "Trash/Recycling",
    "request_reason": "Replace Trash Cart",
    "date_created": "2026-05-18T18:00:04.000",
    "date_modified": "2026-05-18T18:00:07.000",
    "request_status": "Pending",
    "responsible_agency": "Department of Sanitation",
    "final_address": "1528 Dante St",
    "address_councildis": "A",
    "status": "Assigned to Contractor",
    "contractor": "IV Waste",
    "rowid": "1282401",
    "final_x": "3662267.32083",
    "final_y": "529856.196289",
    "longitude": "-90.12885572998651",
    "latitude": "29.95149069600359",
    "geocoded_column": {
      "latitude": "29.95149069600359",
      "longitude": "-90.12885572998651"
    }
  },
  {
    "service_request": "2026-1282400",
    "request_type": "Trash/Recycling",
    "request_reason": "Order Second Trash Cart",
    "date_created": "2026-05-18T17:49:50.000",
    "date_modified": "2026-05-18T17:49:52.000",
    "request_status": "Pending",
    "responsible_agency": "Department of Sanitation",
    "final_address": "615 Filmore Ave",
    "address_councildis": "A",
    "status": "Assigned to Contractor",
    "contractor": "IV Waste",
    "rowid": "1282400",
    "final_x": "3668644.56494",
    "final_y": "552124.981334",
    "longitude": "-90.10796749446133",
    "latitude": "30.01253643746281",
    "geocoded_column": {
      "latitude": "30.01253643746281",
      "longitude": "-90.10796749446133"
    }
  },
  {
    "service_request": "2026-1282399",
    "request_type": "Abandoned Vehicles",
    "request_reason": "Abandoned/Junk Vehicles",
    "date_created": "2026-05-18T17:41:32.000",
    "date_modified": "2026-05-18T17:41:34.000",
    "request_status": "Pending",
    "responsible_agency": "Department of Public Works",
    "final_address": "1515 N Rocheblave St",
    "address_councildis": "D",
    "status": "Pending",
    "rowid": "1282399",
    "final_x": "3679564.91746",
    "final_y": "539067.04801",
    "longitude": "-90.07391868515039",
    "latitude": "29.976306099190207",
    "geocoded_column": {
      "latitude": "29.976306099190207",
      "longitude": "-90.07391868515039"
    }
  },
  {
    "service_request": "2026-1282398",
    "request_type": "Trash/Recycling",
    "request_reason": "Replace Trash Cart",
    "date_created": "2026-05-18T17:31:49.000",
    "date_modified": "2026-05-18T17:31:52.000",
    "request_status": "Pending",
    "responsible_agency": "Department of Sanitation",
    "final_address": "1423 Pine St",
    "address_councildis": "A",
    "status": "Assigned to Contractor",
    "contractor": "IV Waste",
    "rowid": "1282398",
    "final_x": "3664494.86317",
    "final_y": "527364.868863",
    "longitude": "-90.12190537170652",
    "latitude": "29.944575776135945",
    "geocoded_column": {
      "latitude": "29.944575776135945",
      "longitude": "-90.12190537170652"
    }
  },
  {
    "service_request": "2026-1282397",
    "request_type": "Trash/Recycling",
    "request_reason": "Request a Large Item Pick Up",
    "date_created": "2026-05-18T17:30:50.000",
    "date_modified": "2026-05-18T17:30:53.000",
    "request_status": "Pending",
    "responsible_agency": "Department of Sanitation",
    "final_address": "1932 Allen Toussaint Blvd",
    "address_councildis": "D",
    "status": "Assigned to Contractor",
    "contractor": "IV Waste",
    "rowid": "1282397",
    "final_x": "3681748.06159",
    "final_y": "555498.584729",
    "longitude": "-90.0664498922029",
    "latitude": "30.021420803561615",
    "geocoded_column": {
      "latitude": "30.021420803561615",
      "longitude": "-90.0664498922029"
    }
  },
  {
    "service_request": "2026-1282396",
    "request_type": "Traffic Signals",
    "request_reason": "Traffic Signal Malfunctioning or Damaged",
    "date_created": "2026-05-18T17:16:22.000",
    "date_modified": "2026-05-18T17:16:24.000",
    "request_status": "Pending",
    "responsible_agency": "Department of Public Works",
    "final_address": "BROADWAY ST & S CLAIBORNE AVE",
    "address_councildis": "A",
    "status": "Pending",
    "rowid": "1282396",
    "final_x": "3666401.6",
    "final_y": "529792.58",
    "longitude": "-90.11580377358062",
    "latitude": "29.951195627974403",
    "geocoded_column": {
      "latitude": "29.951195627974403",
      "longitude": "-90.11580377358062"
    }
  },
  {
    "service_request": "2026-1282395",
    "request_type": "Trash/Recycling",
    "request_reason": "Replace Recycling Cart",
    "date_created": "2026-05-18T17:16:04.000",
    "date_modified": "2026-05-18T17:16:06.000",
    "request_status": "Pending",
    "responsible_agency": "Department of Sanitation",
    "final_address": "4810 Annunciation St",
    "address_councildis": "B",
    "status": "Pending",
    "rowid": "1282395",
    "final_x": "3669586.07175",
    "final_y": "517557.591542",
    "longitude": "-90.10616250363387",
    "latitude": "29.917459916704114",
    "geocoded_column": {
      "latitude": "29.917459916704114",
      "longitude": "-90.10616250363387"
    }
  },
  {
    "service_request": "2026-1282394",
    "request_type": "Trash/Recycling",
    "request_reason": "Replace Trash Cart",
    "date_created": "2026-05-18T17:13:36.000",
    "date_modified": "2026-05-18T17:13:39.000",
    "request_status": "Pending",
    "responsible_agency": "Department of Sanitation",
    "final_address": "4810 Annunciation St",
    "address_councildis": "B",
    "status": "Assigned to Contractor",
    "contractor": "IV Waste",
    "rowid": "1282394",
    "final_x": "3669586.07175",
    "final_y": "517557.591542",
    "longitude": "-90.10616250363387",
    "latitude": "29.917459916704114",
    "geocoded_column": {
      "latitude": "29.917459916704114",
      "longitude": "-90.10616250363387"
    }
  },
  {
    "service_request": "2026-1282393",
    "request_type": "Trash/Recycling",
    "request_reason": "Repair Trash Cart",
    "date_created": "2026-05-18T17:12:35.000",
    "date_modified": "2026-05-18T17:12:38.000",
    "request_status": "Pending",
    "responsible_agency": "Department of Sanitation",
    "final_address": "4808 Annunciation St",
    "address_councildis": "B",
    "status": "Assigned to Contractor",
    "contractor": "IV Waste",
    "rowid": "1282393",
    "final_x": "3669600.65511",
    "final_y": "517555.924854",
    "longitude": "-90.1061165283908",
    "latitude": "29.917454904371787",
    "geocoded_column": {
      "latitude": "29.917454904371787",
      "longitude": "-90.1061165283908"
    }
  },
  {
    "service_request": "2026-1282392",
    "request_type": "Trash/Recycling",
    "request_reason": "Request a Large Item Pick Up",
    "date_created": "2026-05-18T17:00:35.000",
    "date_modified": "2026-05-18T17:00:37.000",
    "request_status": "Pending",
    "responsible_agency": "Department of Sanitation",
    "final_address": "6136 Marshal Foch St",
    "address_councildis": "A",
    "status": "Assigned to Contractor",
    "contractor": "IV Waste",
    "rowid": "1282392",
    "final_x": "3669846.69178",
    "final_y": "548195.571538",
    "longitude": "-90.10430259026877",
    "latitude": "30.001696534195297",
    "geocoded_column": {
      "latitude": "30.001696534195297",
      "longitude": "-90.10430259026877"
    }
  },
  {
    "service_request": "2026-1282391",
    "request_type": "Trash/Recycling",
    "request_reason": "Request a Large Item Pick Up",
    "date_created": "2026-05-18T16:57:28.000",
    "date_modified": "2026-05-18T16:57:29.000",
    "request_status": "Pending",
    "responsible_agency": "Department of Sanitation",
    "final_address": "714 General Taylor St",
    "address_councildis": "B",
    "status": "Assigned to Contractor",
    "contractor": "IV Waste",
    "rowid": "1282391",
    "final_x": "3673206.82408",
    "final_y": "518388.905782",
    "longitude": "-90.09470544215564",
    "latitude": "29.91963864384742",
    "geocoded_column": {
      "latitude": "29.91963864384742",
      "longitude": "-90.09470544215564"
    }
  },
  {
    "service_request": "2026-1282390",
    "request_type": "Trash/Recycling",
    "request_reason": "Order Trash Cart",
    "date_created": "2026-05-18T16:53:31.000",
    "date_modified": "2026-05-18T16:53:34.000",
    "request_status": "Pending",
    "responsible_agency": "Department of Sanitation",
    "final_address": "1200 Baronne St",
    "address_councildis": "B",
    "status": "Assigned to Contractor",
    "contractor": "IV Waste",
    "rowid": "1282390",
    "final_x": "3678958.17986",
    "final_y": "526781.195902",
    "longitude": "-90.07626063507188",
    "latitude": "29.942542487712537",
    "geocoded_column": {
      "latitude": "29.942542487712537",
      "longitude": "-90.07626063507188"
    }
  },
  {
    "service_request": "2026-1282389",
    "request_type": "Property Maintenance",
    "request_reason": "Property Maintenance",
    "date_created": "2026-05-18T16:47:42.000",
    "date_modified": "2026-05-18T16:47:43.000",
    "request_status": "Pending",
    "responsible_agency": "Department of Code Enforcement",
    "final_address": "4437 Gawain Dr",
    "address_councildis": "E",
    "status": "Pending",
    "rowid": "1282389",
    "final_x": "3707301.30641",
    "final_y": "553665.659863",
    "longitude": "-89.98577742359072",
    "latitude": "30.01557937210517",
    "geocoded_column": {
      "latitude": "30.01557937210517",
      "longitude": "-89.98577742359072"
    }
  },
  {
    "service_request": "2026-1282388",
    "request_type": "Trash/Recycling",
    "request_reason": "Request a Large Item Pick Up",
    "date_created": "2026-05-18T16:45:53.000",
    "date_modified": "2026-05-18T16:45:54.000",
    "request_status": "Pending",
    "responsible_agency": "Department of Sanitation",
    "final_address": "8722 Morrison Rd",
    "address_councildis": "E",
    "status": "Assigned to Contractor",
    "contractor": "Waste Pro",
    "rowid": "1282388",
    "final_x": "3705293.6691",
    "final_y": "561544.252255",
    "longitude": "-89.99182915285628",
    "latitude": "30.0373072045616",
    "geocoded_column": {
      "latitude": "30.0373072045616",
      "longitude": "-89.99182915285628"
    }
  },
  {
    "service_request": "2026-1282387",
    "request_type": "Trash/Recycling",
    "request_reason": "Request a Large Item Pick Up",
    "date_created": "2026-05-18T16:45:35.000",
    "date_modified": "2026-05-18T16:45:36.000",
    "request_status": "Pending",
    "responsible_agency": "Department of Sanitation",
    "final_address": "11511 Curran Rd",
    "address_councildis": "E",
    "status": "Assigned to Contractor",
    "contractor": "Waste Pro",
    "rowid": "1282387",
    "final_x": "3711862.33381",
    "final_y": "567076.805732",
    "longitude": "-89.97086297566489",
    "latitude": "30.052306405878277",
    "geocoded_column": {
      "latitude": "30.052306405878277",
      "longitude": "-89.97086297566489"
    }
  },
  {
    "service_request": "2026-1282386",
    "request_type": "Trash/Recycling",
    "request_reason": "Order Recycling Cart",
    "date_created": "2026-05-18T16:44:31.000",
    "date_modified": "2026-05-18T16:44:33.000",
    "request_status": "Pending",
    "responsible_agency": "Department of Sanitation",
    "final_address": "3222 Burdette St",
    "address_councildis": "B",
    "status": "Pending",
    "rowid": "1282386",
    "final_x": "3667706.01793",
    "final_y": "533067.85242",
    "longitude": "-90.11157478596589",
    "latitude": "29.96016337784612",
    "geocoded_column": {
      "latitude": "29.96016337784612",
      "longitude": "-90.11157478596589"
    }
  },
  {
    "service_request": "2026-1282385",
    "request_type": "Streetlights",
    "request_reason": "Streetlight Outage/Malfunction",
    "date_created": "2026-05-18T16:39:32.000",
    "date_modified": "2026-05-18T16:39:35.000",
    "request_status": "Pending",
    "responsible_agency": "Department of Public Works",
    "final_address": "1500 BLK Broadway St",
    "address_councildis": "A",
    "status": "Pending",
    "rowid": "1282385",
    "final_x": "3664870.33295",
    "final_y": "527513.531703",
    "longitude": "-90.12071493074303",
    "latitude": "29.94497363068999",
    "geocoded_column": {
      "latitude": "29.94497363068999",
      "longitude": "-90.12071493074303"
    }
  },
  {
    "service_request": "2026-1282384",
    "request_type": "Streetlights",
    "request_reason": "Streetlight Outage/Malfunction",
    "date_created": "2026-05-18T16:34:09.000",
    "date_modified": "2026-05-18T16:34:11.000",
    "request_status": "Pending",
    "responsible_agency": "Department of Public Works",
    "final_address": "200 BLK Finland Pl",
    "address_councildis": "C",
    "status": "Pending",
    "rowid": "1282384",
    "final_x": "3706346.92159",
    "final_y": "520741.499643",
    "longitude": "-89.99001234972833",
    "latitude": "29.925080828550747",
    "geocoded_column": {
      "latitude": "29.925080828550747",
      "longitude": "-89.99001234972833"
    }
  },
  {
    "service_request": "2026-1282383",
    "request_type": "Trash/Recycling",
    "request_reason": "Request a Large Item Pick Up",
    "date_created": "2026-05-18T16:31:14.000",
    "date_modified": "2026-05-18T16:31:16.000",
    "request_status": "Pending",
    "responsible_agency": "Department of Sanitation",
    "final_address": "4777 Sherwood Dr",
    "address_councildis": "E",
    "status": "Assigned to Contractor",
    "contractor": "Waste Pro",
    "rowid": "1282383",
    "final_x": "3718054.77657",
    "final_y": "557114.948378",
    "longitude": "-89.95167039002837",
    "latitude": "30.02471142799496",
    "geocoded_column": {
      "latitude": "30.02471142799496",
      "longitude": "-89.95167039002837"
    }
  },
  {
    "service_request": "2026-1282382",
    "request_type": "General Services",
    "request_reason": "General Service Request",
    "date_created": "2026-05-18T16:28:58.000",
    "date_modified": "2026-05-18T16:29:00.000",
    "request_status": "Pending",
    "responsible_agency": "Orleans Parish Communication District",
    "final_address": "1120 Aline St",
    "address_councildis": "B",
    "status": "Pending",
    "rowid": "1282382",
    "final_x": "3674367.12769",
    "final_y": "519529.734327",
    "longitude": "-90.09100388912645",
    "latitude": "29.92274101754247",
    "geocoded_column": {
      "latitude": "29.92274101754247",
      "longitude": "-90.09100388912645"
    }
  },
  {
    "service_request": "2026-1282381",
    "request_type": "Trash/Recycling",
    "request_reason": "Order Recycling Cart",
    "date_created": "2026-05-18T16:28:49.000",
    "date_modified": "2026-05-18T16:28:52.000",
    "request_status": "Pending",
    "responsible_agency": "Department of Sanitation",
    "final_address": "0 BLK Alice Ct",
    "address_councildis": "E",
    "status": "Pending",
    "rowid": "1282381",
    "final_x": "3696830.85368",
    "final_y": "533835.980016",
    "longitude": "-90.01957742212986",
    "latitude": "29.961389424106756",
    "geocoded_column": {
      "latitude": "29.961389424106756",
      "longitude": "-90.01957742212986"
    }
  },
  {
    "service_request": "2026-1282380",
    "request_type": "General Services",
    "request_reason": "General Service Request",
    "date_created": "2026-05-18T16:26:01.000",
    "date_modified": "2026-05-18T16:26:02.000",
    "request_status": "Pending",
    "responsible_agency": "Orleans Parish Communication District",
    "final_address": "3210 Gravier St",
    "address_councildis": "B",
    "status": "Pending",
    "rowid": "1282380",
    "final_x": "3672187.92769",
    "final_y": "534175.720965",
    "longitude": "-90.09738410181727",
    "latitude": "29.963077482958436",
    "geocoded_column": {
      "latitude": "29.963077482958436",
      "longitude": "-90.09738410181727"
    }
  },
  {
    "service_request": "2026-1282379",
    "request_type": "Trash/Recycling",
    "request_reason": "Request a Large Item Pick Up",
    "date_created": "2026-05-18T16:25:56.000",
    "date_modified": "2026-05-18T16:25:58.000",
    "request_status": "Pending",
    "responsible_agency": "Department of Sanitation",
    "final_address": "7508 Woodbine Dr",
    "address_councildis": "E",
    "status": "Assigned to Contractor",
    "contractor": "Waste Pro",
    "rowid": "1282379",
    "final_x": "3702084.77405",
    "final_y": "560978.70339",
    "longitude": "-90.00199069507187",
    "latitude": "30.035855074734155",
    "geocoded_column": {
      "latitude": "30.035855074734155",
      "longitude": "-90.00199069507187"
    }
  },
  {
    "service_request": "2026-1282378",
    "request_type": "Trash/Recycling",
    "request_reason": "Request a Large Item Pick Up",
    "date_created": "2026-05-18T16:23:48.000",
    "date_modified": "2026-05-18T16:23:51.000",
    "request_status": "Pending",
    "responsible_agency": "Department of Sanitation",
    "final_address": "8001 Dorsett Dr",
    "address_councildis": "E",
    "status": "Assigned to Contractor",
    "contractor": "Waste Pro",
    "rowid": "1282378",
    "final_x": "3712177.52773",
    "final_y": "568383.820133",
    "longitude": "-89.96981759215178",
    "latitude": "30.055889853788432",
    "geocoded_column": {
      "latitude": "30.055889853788432",
      "longitude": "-89.96981759215178"
    }
  },
  {
    "service_request": "2026-1282377",
    "request_type": "General Services",
    "request_reason": "General Service Request",
    "date_created": "2026-05-18T16:22:03.000",
    "date_modified": "2026-05-18T16:22:04.000",
    "request_status": "Pending",
    "responsible_agency": "Orleans Parish Communication District",
    "final_address": "9039 S Claiborne Ave",
    "address_councildis": "A",
    "status": "Pending",
    "rowid": "1282377",
    "final_x": "3662337.84154",
    "final_y": "533960.992901",
    "longitude": "-90.12849677585886",
    "latitude": "29.96277551797062",
    "geocoded_column": {
      "latitude": "29.96277551797062",
      "longitude": "-90.12849677585886"
    }
  },
  {
    "service_request": "2026-1282376",
    "request_type": "Trash/Recycling",
    "request_reason": "Request a Large Item Pick Up",
    "date_created": "2026-05-18T16:21:54.000",
    "date_modified": "2026-05-18T16:21:56.000",
    "request_status": "Pending",
    "responsible_agency": "Department of Sanitation",
    "final_address": "4901 St Claude Ave",
    "address_councildis": "E",
    "status": "Assigned to Contractor",
    "contractor": "Waste Pro",
    "rowid": "1282376",
    "final_x": "3695450.80278",
    "final_y": "534510.073349",
    "longitude": "-90.02391103584407",
    "latitude": "29.963286377728334",
    "geocoded_column": {
      "latitude": "29.963286377728334",
      "longitude": "-90.02391103584407"
    }
  },
  {
    "service_request": "2026-1282375",
    "request_type": "Property Maintenance",
    "request_reason": "Property Maintenance",
    "date_created": "2026-05-18T16:21:43.000",
    "date_modified": "2026-05-18T16:21:45.000",
    "request_status": "Pending",
    "responsible_agency": "Department of Code Enforcement",
    "final_address": "1769 N Dupre St",
    "address_councildis": "D",
    "status": "Pending",
    "rowid": "1282375",
    "final_x": "3679283.09256",
    "final_y": "541664.488012",
    "longitude": "-90.07471866345537",
    "latitude": "29.98345667261922",
    "geocoded_column": {
      "latitude": "29.98345667261922",
      "longitude": "-90.07471866345537"
    }
  },
  {
    "service_request": "2026-1282374",
    "request_type": "Property Maintenance",
    "request_reason": "Property Maintenance",
    "date_created": "2026-05-18T16:17:37.000",
    "date_modified": "2026-05-18T16:17:38.000",
    "request_status": "Pending",
    "responsible_agency": "Department of Code Enforcement",
    "final_address": "7441 Symmes Ave",
    "address_councildis": "E",
    "status": "Pending",
    "rowid": "1282374",
    "final_x": "3708147.2291",
    "final_y": "564225.139617",
    "longitude": "-89.98271146389747",
    "latitude": "30.044586408895626",
    "geocoded_column": {
      "latitude": "30.044586408895626",
      "longitude": "-89.98271146389747"
    }
  },
  {
    "service_request": "2026-1282373",
    "request_type": "Trash/Recycling",
    "request_reason": "Request a Large Item Pick Up",
    "date_created": "2026-05-18T16:17:14.000",
    "date_modified": "2026-05-18T16:17:17.000",
    "request_status": "Pending",
    "responsible_agency": "Department of Sanitation",
    "final_address": "938 Lizardi St",
    "address_councildis": "E",
    "status": "Assigned to Contractor",
    "contractor": "Waste Pro",
    "rowid": "1282373",
    "final_x": "3696358.43664",
    "final_y": "533644.163205",
    "longitude": "-90.02107616217594",
    "latitude": "29.96087688072732",
    "geocoded_column": {
      "latitude": "29.96087688072732",
      "longitude": "-90.02107616217594"
    }
  },
  {
    "service_request": "2026-1282372",
    "request_type": "Trash/Recycling",
    "request_reason": "Request a Large Item Pick Up",
    "date_created": "2026-05-18T16:12:20.000",
    "date_modified": "2026-05-18T16:12:22.000",
    "request_status": "Pending",
    "responsible_agency": "Department of Sanitation",
    "final_address": "621 Franklin Ave",
    "address_councildis": "C",
    "status": "Assigned to Contractor",
    "contractor": "IV Waste",
    "rowid": "1282372",
    "final_x": "3686738.68508",
    "final_y": "534799.206022",
    "longitude": "-90.05141263618002",
    "latitude": "29.96435226874111",
    "geocoded_column": {
      "latitude": "29.96435226874111",
      "longitude": "-90.05141263618002"
    }
  },
  {
    "service_request": "2026-1282371",
    "request_type": "Trash/Recycling",
    "request_reason": "Request a Large Item Pick Up",
    "date_created": "2026-05-18T16:08:40.000",
    "date_modified": "2026-05-18T16:08:42.000",
    "request_status": "Pending",
    "responsible_agency": "Department of Sanitation",
    "final_address": "622 Sixth St",
    "address_councildis": "B",
    "status": "Assigned to Contractor",
    "contractor": "IV Waste",
    "rowid": "1282371",
    "final_x": "3677481.72488",
    "final_y": "519191.314423",
    "longitude": "-90.08118400819649",
    "latitude": "29.921717251841617",
    "geocoded_column": {
      "latitude": "29.921717251841617",
      "longitude": "-90.08118400819649"
    }
  },
  {
    "service_request": "2026-1282370",
    "request_type": "Trash/Recycling",
    "request_reason": "Request a Large Item Pick Up",
    "date_created": "2026-05-18T16:06:12.000",
    "date_modified": "2026-05-18T16:06:13.000",
    "request_status": "Pending",
    "responsible_agency": "Department of Sanitation",
    "final_address": "10841 Roger Dr",
    "address_councildis": "E",
    "status": "Assigned to Contractor",
    "contractor": "Waste Pro",
    "rowid": "1282370",
    "final_x": "3711812.37182",
    "final_y": "563244.70224",
    "longitude": "-89.97116487729235",
    "latitude": "30.04177130309243",
    "geocoded_column": {
      "latitude": "30.04177130309243",
      "longitude": "-89.97116487729235"
    }
  },
  {
    "service_request": "2026-1282369",
    "request_type": "Trash/Recycling",
    "request_reason": "Request a Large Item Pick Up",
    "date_created": "2026-05-18T16:06:09.000",
    "date_modified": "2026-05-18T16:06:11.000",
    "request_status": "Pending",
    "responsible_agency": "Department of Sanitation",
    "final_address": "404 Vallette St",
    "address_councildis": "C",
    "status": "Assigned to Contractor",
    "contractor": "Richards Disposal",
    "rowid": "1282369",
    "final_x": "3687583.72489",
    "final_y": "530284.558337",
    "longitude": "-90.04890388722292",
    "latitude": "29.951912523944806",
    "geocoded_column": {
      "latitude": "29.951912523944806",
      "longitude": "-90.04890388722292"
    }
  },
  {
    "service_request": "2026-1282368",
    "request_type": "Trash/Recycling",
    "request_reason": "Request a Large Item Pick Up",
    "date_created": "2026-05-18T16:04:47.000",
    "date_modified": "2026-05-18T16:04:49.000",
    "request_status": "Pending",
    "responsible_agency": "Department of Sanitation",
    "final_address": "10830 Roger Dr",
    "address_councildis": "E",
    "status": "Assigned to Contractor",
    "contractor": "Waste Pro",
    "rowid": "1282368",
    "final_x": "3711821.88101",
    "final_y": "563150.568032",
    "longitude": "-89.97113836173169",
    "latitude": "30.041512160991395",
    "geocoded_column": {
      "latitude": "30.041512160991395",
      "longitude": "-89.97113836173169"
    }
  },
  {
    "service_request": "2026-1282367",
    "request_type": "Parks & Grass Service",
    "request_reason": "Request Grass Cutting Service (City Owned Property)",
    "date_created": "2026-05-18T16:04:24.000",
    "date_modified": "2026-05-18T16:04:25.000",
    "request_status": "Pending",
    "responsible_agency": "Department of Parks & Parkways",
    "final_address": "3311 Republic St",
    "address_councildis": "D",
    "status": "Pending",
    "rowid": "1282367",
    "final_x": "3680563.56994",
    "final_y": "544585.020175",
    "longitude": "-90.07057258713847",
    "latitude": "29.991448374990494",
    "geocoded_column": {
      "latitude": "29.991448374990494",
      "longitude": "-90.07057258713847"
    }
  },
  {
    "service_request": "2026-1282366",
    "request_type": "Trash/Recycling",
    "request_reason": "Illegal Dumping",
    "date_created": "2026-05-18T16:04:14.000",
    "date_modified": "2026-05-18T16:04:17.000",
    "request_status": "Pending",
    "responsible_agency": "Department of Sanitation",
    "final_address": "4400 BLK Crowder Blvd",
    "address_councildis": "E",
    "status": "Pending",
    "rowid": "1282366",
    "final_x": "3706638.01516",
    "final_y": "553282.698012",
    "longitude": "-89.98788730984796",
    "latitude": "30.014547806539007",
    "geocoded_column": {
      "latitude": "30.014547806539007",
      "longitude": "-89.98788730984796"
    }
  },
  {
    "service_request": "2026-1282365",
    "request_type": "Trash/Recycling",
    "request_reason": "Request a Large Item Pick Up",
    "date_created": "2026-05-18T16:04:01.000",
    "date_modified": "2026-05-18T16:04:02.000",
    "request_status": "Pending",
    "responsible_agency": "Department of Sanitation",
    "final_address": "2716 Comet St",
    "address_councildis": "C",
    "status": "Assigned to Contractor",
    "contractor": "Richards Disposal",
    "rowid": "1282365",
    "final_x": "3699864.72349",
    "final_y": "520911.669433",
    "longitude": "-90.01046822815259",
    "latitude": "29.925756103072064",
    "geocoded_column": {
      "latitude": "29.925756103072064",
      "longitude": "-90.01046822815259"
    }
  },
  {
    "service_request": "2026-1282364",
    "request_type": "Trash/Recycling",
    "request_reason": "Request a Large Item Pick Up",
    "date_created": "2026-05-18T16:03:39.000",
    "date_modified": "2026-05-18T16:03:40.000",
    "request_status": "Pending",
    "responsible_agency": "Department of Sanitation",
    "final_address": "1438 Broadway St",
    "address_councildis": "A",
    "status": "Assigned to Contractor",
    "contractor": "IV Waste",
    "rowid": "1282364",
    "final_x": "3664686.22605",
    "final_y": "527371.095039",
    "longitude": "-90.12130097221295",
    "latitude": "29.94458733169715",
    "geocoded_column": {
      "latitude": "29.94458733169715",
      "longitude": "-90.12130097221295"
    }
  },
  {
    "service_request": "2026-1282363",
    "request_type": "Trash/Recycling",
    "request_reason": "Request a Large Item Pick Up",
    "date_created": "2026-05-18T16:03:27.000",
    "date_modified": "2026-05-18T16:03:29.000",
    "request_status": "Pending",
    "responsible_agency": "Department of Sanitation",
    "final_address": "10831 Roger Dr",
    "address_councildis": "E",
    "status": "Assigned to Contractor",
    "contractor": "Waste Pro",
    "rowid": "1282363",
    "final_x": "3711772.6405",
    "final_y": "563210.325664",
    "longitude": "-89.97129173317326",
    "latitude": "30.041678079963134",
    "geocoded_column": {
      "latitude": "30.041678079963134",
      "longitude": "-89.97129173317326"
    }
  },
  {
    "service_request": "2026-1282362",
    "request_type": "Trash/Recycling",
    "request_reason": "Request a Large Item Pick Up",
    "date_created": "2026-05-18T16:02:35.000",
    "date_modified": "2026-05-18T16:02:36.000",
    "request_status": "Pending",
    "responsible_agency": "Department of Sanitation",
    "final_address": "7633 Lady Gray St",
    "address_councildis": "E",
    "status": "Assigned to Contractor",
    "contractor": "Waste Pro",
    "rowid": "1282362",
    "final_x": "3709967.17003",
    "final_y": "565367.27581",
    "longitude": "-89.97691693632764",
    "latitude": "30.047667714060427",
    "geocoded_column": {
      "latitude": "30.047667714060427",
      "longitude": "-89.97691693632764"
    }
  },
  {
    "service_request": "2026-1282361",
    "request_type": "Trash/Recycling",
    "request_reason": "Request a Large Item Pick Up",
    "date_created": "2026-05-18T16:02:15.000",
    "date_modified": "2026-05-18T16:02:17.000",
    "request_status": "Pending",
    "responsible_agency": "Department of Sanitation",
    "final_address": "2718 Marais St",
    "address_councildis": "C",
    "status": "Assigned to Contractor",
    "contractor": "IV Waste",
    "rowid": "1282361",
    "final_x": "3687651.88617",
    "final_y": "536668.245575",
    "longitude": "-90.04846264328555",
    "latitude": "29.969463352236183",
    "geocoded_column": {
      "latitude": "29.969463352236183",
      "longitude": "-90.04846264328555"
    }
  },
  {
    "service_request": "2026-1282360",
    "request_type": "Trash/Recycling",
    "request_reason": "Request a Large Item Pick Up",
    "date_created": "2026-05-18T16:02:08.000",
    "date_modified": "2026-05-18T16:02:09.000",
    "request_status": "Pending",
    "responsible_agency": "Department of Sanitation",
    "final_address": "4813 N Prieur St",
    "address_councildis": "E",
    "status": "Assigned to Contractor",
    "contractor": "Waste Pro",
    "rowid": "1282360",
    "final_x": "3696033.38966",
    "final_y": "537480.183624",
    "longitude": "-90.02196396034705",
    "latitude": "29.971434804509936",
    "geocoded_column": {
      "latitude": "29.971434804509936",
      "longitude": "-90.02196396034705"
    }
  },
  {
    "service_request": "2026-1282359",
    "request_type": "Trash/Recycling",
    "request_reason": "Request a Large Item Pick Up",
    "date_created": "2026-05-18T16:02:02.000",
    "date_modified": "2026-05-18T16:02:04.000",
    "request_status": "Pending",
    "responsible_agency": "Department of Sanitation",
    "final_address": "1208 Hillary St",
    "address_councildis": "A",
    "status": "Assigned to Contractor",
    "contractor": "IV Waste",
    "rowid": "1282359",
    "final_x": "3663335.54336",
    "final_y": "527266.528319",
    "longitude": "-90.1255689756006",
    "latitude": "29.94433902233611",
    "geocoded_column": {
      "latitude": "29.94433902233611",
      "longitude": "-90.1255689756006"
    }
  },
  {
    "service_request": "2026-1282358",
    "request_type": "Trash/Recycling",
    "request_reason": "Request a Large Item Pick Up",
    "date_created": "2026-05-18T16:01:21.000",
    "date_modified": "2026-05-18T16:01:23.000",
    "request_status": "Pending",
    "responsible_agency": "Department of Sanitation",
    "final_address": "11001 Roger Dr",
    "address_councildis": "E",
    "status": "Assigned to Contractor",
    "contractor": "Waste Pro",
    "rowid": "1282358",
    "final_x": "3712149.17496",
    "final_y": "563485.914208",
    "longitude": "-89.97009139558035",
    "latitude": "30.04242352553014",
    "geocoded_column": {
      "latitude": "30.04242352553014",
      "longitude": "-89.97009139558035"
    }
  },
  {
    "service_request": "2026-1282357",
    "request_type": "Trash/Recycling",
    "request_reason": "Request a Large Item Pick Up",
    "date_created": "2026-05-18T16:00:34.000",
    "date_modified": "2026-05-18T16:00:36.000",
    "request_status": "Pending",
    "responsible_agency": "Department of Sanitation",
    "final_address": "7617 Oak St",
    "address_councildis": "A",
    "status": "Assigned to Contractor",
    "contractor": "IV Waste",
    "rowid": "1282357",
    "final_x": "3663217.64551",
    "final_y": "527288.093887",
    "longitude": "-90.12594049724188",
    "latitude": "29.944401737220215",
    "geocoded_column": {
      "latitude": "29.944401737220215",
      "longitude": "-90.12594049724188"
    }
  },
  {
    "service_request": "2026-1282356",
    "request_type": "Trash/Recycling",
    "request_reason": "Request a Large Item Pick Up",
    "date_created": "2026-05-18T15:57:28.000",
    "date_modified": "2026-05-18T15:57:30.000",
    "request_status": "Pending",
    "responsible_agency": "Department of Sanitation",
    "final_address": "2720 Fern St",
    "address_councildis": "A",
    "status": "Assigned to Contractor",
    "contractor": "IV Waste",
    "rowid": "1282356",
    "final_x": "3666263.60679",
    "final_y": "532004.109315",
    "longitude": "-90.1161653133288",
    "latitude": "29.95728064344723",
    "geocoded_column": {
      "latitude": "29.95728064344723",
      "longitude": "-90.1161653133288"
    }
  },
  {
    "service_request": "2026-1282355",
    "request_type": "Trash/Recycling",
    "request_reason": "Request a Large Item Pick Up",
    "date_created": "2026-05-18T15:57:17.000",
    "date_modified": "2026-05-18T15:57:20.000",
    "request_status": "Pending",
    "responsible_agency": "Department of Sanitation",
    "final_address": "7327 Hickman St",
    "address_councildis": "E",
    "status": "Assigned to Contractor",
    "contractor": "Waste Pro",
    "rowid": "1282355",
    "final_x": "3706593.72663",
    "final_y": "562656.691296",
    "longitude": "-89.98767942047823",
    "latitude": "30.04032405698312",
    "geocoded_column": {
      "latitude": "30.04032405698312",
      "longitude": "-89.98767942047823"
    }
  },
  {
    "service_request": "2026-1282354",
    "request_type": "Parks & Grass Service",
    "request_reason": "Request Grass Cutting Service (City Owned Property)",
    "date_created": "2026-05-18T15:57:16.000",
    "date_modified": "2026-05-18T15:57:17.000",
    "request_status": "Pending",
    "responsible_agency": "Department of Parks & Parkways",
    "final_address": "GENERAL MEYER AVE & TROPIC DR",
    "address_councildis": "C",
    "status": "Pending",
    "rowid": "1282354",
    "final_x": "3699470.7",
    "final_y": "524523.58",
    "longitude": "-90.01158051287548",
    "latitude": "29.935700112515903",
    "geocoded_column": {
      "latitude": "29.935700112515903",
      "longitude": "-90.01158051287548"
    }
  },
  {
    "service_request": "2026-1282353",
    "request_type": "Roads and Streets",
    "request_reason": "Pothole",
    "date_created": "2026-05-18T15:55:58.000",
    "date_modified": "2026-05-18T15:56:01.000",
    "request_status": "Pending",
    "responsible_agency": "Department of Public Works",
    "final_address": "N CARROLLTON AVE & ORLEANS AVE",
    "address_councildis": "A",
    "status": "Pending",
    "rowid": "1282353",
    "final_x": "3672801.3",
    "final_y": "540117.48",
    "longitude": "-90.09524440248875",
    "latitude": "29.979397105626184",
    "geocoded_column": {
      "latitude": "29.979397105626184",
      "longitude": "-90.09524440248875"
    }
  },
  {
    "service_request": "2026-1282352",
    "request_type": "Trash/Recycling",
    "request_reason": "Illegal Dumping",
    "date_created": "2026-05-18T15:54:29.000",
    "date_modified": "2026-05-18T15:54:30.000",
    "request_status": "Pending",
    "responsible_agency": "Department of Sanitation",
    "final_address": "CHEF MENTEUR HWY & LURLINE ST",
    "address_councildis": "E",
    "status": "Pending",
    "rowid": "1282352",
    "final_x": "3712124.4",
    "final_y": "554588.48",
    "longitude": "-89.97050413602334",
    "latitude": "30.017959921708243",
    "geocoded_column": {
      "latitude": "30.017959921708243",
      "longitude": "-89.97050413602334"
    }
  },
  {
    "service_request": "2026-1282351",
    "request_type": "Abandoned Vehicles",
    "request_reason": "Abandoned/Junk Vehicles",
    "date_created": "2026-05-18T15:52:46.000",
    "date_modified": "2026-05-18T15:52:48.000",
    "request_status": "Pending",
    "responsible_agency": "Department of Public Works",
    "final_address": "N CLAIBORNE AVE & INDEPENDENCE ST",
    "address_councildis": "D",
    "status": "Pending",
    "rowid": "1282351",
    "final_x": "3691423.6",
    "final_y": "537386.08",
    "longitude": "-90.03652565020944",
    "latitude": "29.97132031165849",
    "geocoded_column": {
      "latitude": "29.97132031165849",
      "longitude": "-90.03652565020944"
    }
  },
  {
    "service_request": "2026-1282350",
    "request_type": "Trash/Recycling",
    "request_reason": "Repair Trash Cart",
    "date_created": "2026-05-18T15:51:53.000",
    "date_modified": "2026-05-18T15:51:54.000",
    "request_status": "Pending",
    "responsible_agency": "Department of Sanitation",
    "final_address": "5861 Louisville St",
    "address_councildis": "A",
    "status": "Assigned to Contractor",
    "contractor": "IV Waste",
    "rowid": "1282350",
    "final_x": "3667713.43668",
    "final_y": "546426.759313",
    "longitude": "-90.11110138879833",
    "latitude": "29.996895654527673",
    "geocoded_column": {
      "latitude": "29.996895654527673",
      "longitude": "-90.11110138879833"
    }
  },
  {
    "service_request": "2026-1282349",
    "request_type": "Trash/Recycling",
    "request_reason": "Request a Large Item Pick Up",
    "date_created": "2026-05-18T15:50:16.000",
    "date_modified": "2026-05-18T15:50:17.000",
    "request_status": "Pending",
    "responsible_agency": "Department of Sanitation",
    "final_address": "720 Broadway St",
    "address_councildis": "A",
    "status": "Assigned to Contractor",
    "contractor": "IV Waste",
    "rowid": "1282349",
    "final_x": "3663273.38944",
    "final_y": "525251.914813",
    "longitude": "-90.125832244385",
    "latitude": "29.93880127895122",
    "geocoded_column": {
      "latitude": "29.93880127895122",
      "longitude": "-90.125832244385"
    }
  },
  {
    "service_request": "2026-1282348",
    "request_type": "Trash/Recycling",
    "request_reason": "Request a Large Item Pick Up",
    "date_created": "2026-05-18T15:49:51.000",
    "date_modified": "2026-05-18T15:49:52.000",
    "request_status": "Pending",
    "responsible_agency": "Department of Sanitation",
    "final_address": "2867 Maurepas St",
    "address_councildis": "A",
    "status": "Assigned to Contractor",
    "contractor": "IV Waste",
    "rowid": "1282348",
    "final_x": "3677879.33704",
    "final_y": "540747.750027",
    "longitude": "-90.07918415432896",
    "latitude": "29.980978283502093",
    "geocoded_column": {
      "latitude": "29.980978283502093",
      "longitude": "-90.07918415432896"
    }
  },
  {
    "service_request": "2026-1282347",
    "request_type": "Trash/Recycling",
    "request_reason": "Request a Large Item Pick Up",
    "date_created": "2026-05-18T15:45:38.000",
    "date_modified": "2026-05-18T15:49:31.000",
    "request_status": "Pending",
    "responsible_agency": "Department of Sanitation",
    "final_address": "430 S Olympia St, New Orleans, Louisiana, 70119",
    "address_councildis": "A",
    "status": "Assigned to Contractor",
    "contractor": "IV Waste",
    "rowid": "1282347",
    "final_x": "3668543.10759",
    "final_y": "538422.142921",
    "longitude": "-90.10875072995879",
    "latitude": "29.97486132459917",
    "geocoded_column": {
      "latitude": "29.97486132459917",
      "longitude": "-90.10875072995879"
    }
  },
  {
    "service_request": "2026-1282346",
    "request_type": "Trash/Recycling",
    "request_reason": "Request a Large Item Pick Up",
    "date_created": "2026-05-18T15:45:29.000",
    "date_modified": "2026-05-18T15:45:31.000",
    "request_status": "Pending",
    "responsible_agency": "Department of Sanitation",
    "final_address": "315 Warrington Dr",
    "address_councildis": "D",
    "status": "Assigned to Contractor",
    "contractor": "IV Waste",
    "rowid": "1282346",
    "final_x": "3682029.75016",
    "final_y": "547826.732434",
    "longitude": "-90.06582798239857",
    "latitude": "30.000317420734813",
    "geocoded_column": {
      "latitude": "30.000317420734813",
      "longitude": "-90.06582798239857"
    }
  },
  {
    "service_request": "2026-1282345",
    "request_type": "Property Maintenance",
    "request_reason": "Property Maintenance",
    "date_created": "2026-05-18T15:45:19.000",
    "date_modified": "2026-05-18T15:45:21.000",
    "request_status": "Pending",
    "responsible_agency": "Department of Code Enforcement",
    "final_address": "7814 Lady Gray St",
    "address_councildis": "E",
    "status": "Pending",
    "rowid": "1282345",
    "final_x": "3709482.88632",
    "final_y": "566004.408739",
    "longitude": "-89.97842371793797",
    "latitude": "30.049435327232203",
    "geocoded_column": {
      "latitude": "30.049435327232203",
      "longitude": "-89.97842371793797"
    }
  },
  {
    "service_request": "2026-1282343",
    "request_type": "Trash/Recycling",
    "request_reason": "Illegal Dumping",
    "date_created": "2026-05-18T15:45:18.000",
    "date_modified": "2026-05-18T15:45:20.000",
    "request_status": "Pending",
    "responsible_agency": "Department of Sanitation",
    "final_address": "4437 Gawain Dr",
    "address_councildis": "E",
    "status": "Pending",
    "rowid": "1282343",
    "final_x": "3707301.30641",
    "final_y": "553665.659863",
    "longitude": "-89.98577742359072",
    "latitude": "30.01557937210517",
    "geocoded_column": {
      "latitude": "30.01557937210517",
      "longitude": "-89.98577742359072"
    }
  },
  {
    "service_request": "2026-1282344",
    "request_type": "Trash/Recycling",
    "request_reason": "Request a Large Item Pick Up",
    "date_created": "2026-05-18T15:45:18.000",
    "date_modified": "2026-05-18T15:45:19.000",
    "request_status": "Pending",
    "responsible_agency": "Department of Sanitation",
    "final_address": "5511 Pasteur Blvd",
    "address_councildis": "D",
    "status": "Assigned to Contractor",
    "contractor": "IV Waste",
    "rowid": "1282344",
    "final_x": "3683004.76258",
    "final_y": "553091.712919",
    "longitude": "-90.0625634066686",
    "latitude": "30.014764522130058",
    "geocoded_column": {
      "latitude": "30.014764522130058",
      "longitude": "-90.0625634066686"
    }
  },
  {
    "service_request": "2026-1282342",
    "request_type": "Trash/Recycling",
    "request_reason": "Request a Large Item Pick Up",
    "date_created": "2026-05-18T15:43:56.000",
    "date_modified": "2026-05-18T15:43:57.000",
    "request_status": "Pending",
    "responsible_agency": "Department of Sanitation",
    "final_address": "4600 Charlene Dr",
    "address_councildis": "E",
    "status": "Assigned to Contractor",
    "contractor": "Waste Pro",
    "rowid": "1282342",
    "final_x": "3707946.48107",
    "final_y": "554518.318872",
    "longitude": "-89.98370725416333",
    "latitude": "30.017902975729307",
    "geocoded_column": {
      "latitude": "30.017902975729307",
      "longitude": "-89.98370725416333"
    }
  },
  {
    "service_request": "2026-1282341",
    "request_type": "Trash/Recycling",
    "request_reason": "Request a Large Item Pick Up",
    "date_created": "2026-05-18T15:43:30.000",
    "date_modified": "2026-05-18T15:43:31.000",
    "request_status": "Pending",
    "responsible_agency": "Department of Sanitation",
    "final_address": "1302 France St",
    "address_councildis": "D",
    "status": "Assigned to Contractor",
    "contractor": "IV Waste",
    "rowid": "1282341",
    "final_x": "3692540.38326",
    "final_y": "535938.683335",
    "longitude": "-90.03305057790203",
    "latitude": "29.967305682212604",
    "geocoded_column": {
      "latitude": "29.967305682212604",
      "longitude": "-90.03305057790203"
    }
  },
  {
    "service_request": "2026-1282340",
    "request_type": "Roads and Streets",
    "request_reason": "Pothole",
    "date_created": "2026-05-18T15:40:38.000",
    "date_modified": "2026-05-18T15:40:40.000",
    "request_status": "Pending",
    "responsible_agency": "Department of Public Works",
    "final_address": "4320 Prytania St",
    "address_councildis": "B",
    "status": "Pending",
    "rowid": "1282340",
    "final_x": "3671125.541",
    "final_y": "520295.7486",
    "longitude": "-90.10121031805423",
    "latitude": "29.924943553464438",
    "geocoded_column": {
      "latitude": "29.924943553464438",
      "longitude": "-90.10121031805423"
    }
  },
  {
    "service_request": "2026-1282339",
    "request_type": "Trash/Recycling",
    "request_reason": "Start Trash Service",
    "date_created": "2026-05-18T15:39:27.000",
    "date_modified": "2026-05-18T15:39:28.000",
    "request_status": "Pending",
    "responsible_agency": "Department of Sanitation",
    "final_address": "1608 Lisbon St",
    "address_councildis": "D",
    "status": "Assigned to Contractor",
    "contractor": "IV Waste",
    "rowid": "1282339",
    "final_x": "3679045.60219",
    "final_y": "556085.701338",
    "longitude": "-90.07496855410672",
    "latitude": "30.023117040768604",
    "geocoded_column": {
      "latitude": "30.023117040768604",
      "longitude": "-90.07496855410672"
    }
  },
  {
    "service_request": "2026-1282338",
    "request_type": "Trash/Recycling",
    "request_reason": "Request a Large Item Pick Up",
    "date_created": "2026-05-18T15:38:08.000",
    "date_modified": "2026-05-18T15:38:10.000",
    "request_status": "Pending",
    "responsible_agency": "Department of Sanitation",
    "final_address": "5921 Marais St",
    "address_councildis": "E",
    "status": "Assigned to Contractor",
    "contractor": "Waste Pro",
    "rowid": "1282338",
    "final_x": "3699186.54999",
    "final_y": "533855.162757",
    "longitude": "-90.0121378897826",
    "latitude": "29.96136769388578",
    "geocoded_column": {
      "latitude": "29.96136769388578",
      "longitude": "-90.0121378897826"
    }
  },
  {
    "service_request": "2026-1282337",
    "request_type": "Property Maintenance",
    "request_reason": "Property Maintenance",
    "date_created": "2026-05-18T15:36:36.000",
    "date_modified": "2026-05-18T15:39:29.000",
    "request_status": "Pending",
    "responsible_agency": "Department of Code Enforcement",
    "final_address": "1841 Marigny St",
    "address_councildis": "D",
    "status": "Pending",
    "rowid": "1282337",
    "final_x": "3685219.73186",
    "final_y": "539238.095626",
    "longitude": "-90.056053104105",
    "latitude": "29.97660430888172",
    "geocoded_column": {
      "latitude": "29.97660430888172",
      "longitude": "-90.056053104105"
    }
  },
  {
    "service_request": "2026-1282336",
    "request_type": "Trash/Recycling",
    "request_reason": "Illegal Dumping",
    "date_created": "2026-05-18T15:34:53.000",
    "date_modified": "2026-05-18T15:34:55.000",
    "request_status": "Pending",
    "responsible_agency": "Department of Sanitation",
    "final_address": "7901 Drum St",
    "address_councildis": "E",
    "status": "Pending",
    "rowid": "1282336",
    "final_x": "3700078.14052",
    "final_y": "561398.016414",
    "longitude": "-90.00831666321551",
    "latitude": "30.037071977059423",
    "geocoded_column": {
      "latitude": "30.037071977059423",
      "longitude": "-90.00831666321551"
    }
  },
  {
    "service_request": "2026-1282335",
    "request_type": "Trash/Recycling",
    "request_reason": "Request a Large Item Pick Up",
    "date_created": "2026-05-18T15:34:48.000",
    "date_modified": "2026-05-18T15:34:50.000",
    "request_status": "Pending",
    "responsible_agency": "Department of Sanitation",
    "final_address": "7851 Arcadia Ln",
    "address_councildis": "E",
    "status": "Assigned to Contractor",
    "contractor": "Waste Pro",
    "rowid": "1282335",
    "final_x": "3711942.15717",
    "final_y": "567781.825892",
    "longitude": "-89.97058417825644",
    "latitude": "30.054242314300815",
    "geocoded_column": {
      "latitude": "30.054242314300815",
      "longitude": "-89.97058417825644"
    }
  },
  {
    "service_request": "2026-1282334",
    "request_type": "Trash/Recycling",
    "request_reason": "Order Trash Cart",
    "date_created": "2026-05-18T15:33:07.000",
    "date_modified": "2026-05-18T15:33:09.000",
    "request_status": "Pending",
    "responsible_agency": "Department of Sanitation",
    "final_address": "136 S Broad St",
    "address_councildis": "B",
    "status": "Assigned to Contractor",
    "contractor": "IV Waste",
    "rowid": "1282334",
    "final_x": "3675174.29973",
    "final_y": "534754.140806",
    "longitude": "-90.08793363350685",
    "latitude": "29.964579032013017",
    "geocoded_column": {
      "latitude": "29.964579032013017",
      "longitude": "-90.08793363350685"
    }
  },
  {
    "service_request": "2026-1282333",
    "request_type": "Trash/Recycling",
    "request_reason": "Order Trash Cart",
    "date_created": "2026-05-18T15:33:02.000",
    "date_modified": "2026-05-18T15:33:03.000",
    "request_status": "Pending",
    "responsible_agency": "Department of Sanitation",
    "final_address": "2659 Cleveland Ave",
    "address_councildis": "B",
    "status": "Assigned to Contractor",
    "contractor": "IV Waste",
    "rowid": "1282333",
    "final_x": "3675184.94472",
    "final_y": "534744.400902",
    "longitude": "-90.0879003516742",
    "latitude": "29.9645519324253",
    "geocoded_column": {
      "latitude": "29.9645519324253",
      "longitude": "-90.0879003516742"
    }
  },
  {
    "service_request": "2026-1282332",
    "request_type": "Trash/Recycling",
    "request_reason": "Request a Large Item Pick Up",
    "date_created": "2026-05-18T15:31:15.000",
    "date_modified": "2026-05-18T15:31:18.000",
    "request_status": "Pending",
    "responsible_agency": "Department of Sanitation",
    "final_address": "4883 Redwood St",
    "address_councildis": "E",
    "status": "Assigned to Contractor",
    "contractor": "Waste Pro",
    "rowid": "1282332",
    "final_x": "3712473.55531",
    "final_y": "557047.99721",
    "longitude": "-89.96930844198974",
    "latitude": "30.02471120407597",
    "geocoded_column": {
      "latitude": "30.02471120407597",
      "longitude": "-89.96930844198974"
    }
  },
  {
    "service_request": "2026-1282331",
    "request_type": "Trash/Recycling",
    "request_reason": "Request a Large Item Pick Up",
    "date_created": "2026-05-18T15:30:14.000",
    "date_modified": "2026-05-18T15:30:15.000",
    "request_status": "Pending",
    "responsible_agency": "Department of Sanitation",
    "final_address": "2411 Joseph St",
    "address_councildis": "A",
    "status": "Assigned to Contractor",
    "contractor": "IV Waste",
    "rowid": "1282331",
    "final_x": "3667488.84308",
    "final_y": "524927.914428",
    "longitude": "-90.1125344378349",
    "latitude": "29.93778756011509",
    "geocoded_column": {
      "latitude": "29.93778756011509",
      "longitude": "-90.1125344378349"
    }
  },
  {
    "service_request": "2026-1282330",
    "request_type": "Trash/Recycling",
    "request_reason": "Request a Large Item Pick Up",
    "date_created": "2026-05-18T15:24:10.000",
    "date_modified": "2026-05-18T15:24:11.000",
    "request_status": "Pending",
    "responsible_agency": "Department of Sanitation",
    "final_address": "4944 Nottingham Dr",
    "address_councildis": "E",
    "status": "Assigned to Contractor",
    "contractor": "Waste Pro",
    "rowid": "1282330",
    "final_x": "3716220.01317",
    "final_y": "557858.229403",
    "longitude": "-89.95743966340213",
    "latitude": "30.02681585890228",
    "geocoded_column": {
      "latitude": "30.02681585890228",
      "longitude": "-89.95743966340213"
    }
  },
  {
    "service_request": "2026-1282329",
    "request_type": "Trash/Recycling",
    "request_reason": "Request a Large Item Pick Up",
    "date_created": "2026-05-18T15:22:26.000",
    "date_modified": "2026-05-18T15:22:28.000",
    "request_status": "Pending",
    "responsible_agency": "Department of Sanitation",
    "final_address": "5908 Louisville St",
    "address_councildis": "A",
    "status": "Assigned to Contractor",
    "contractor": "IV Waste",
    "rowid": "1282329",
    "final_x": "3667636.07783",
    "final_y": "546788.693585",
    "longitude": "-90.11133356914668",
    "latitude": "29.997893117781658",
    "geocoded_column": {
      "latitude": "29.997893117781658",
      "longitude": "-90.11133356914668"
    }
  },
  {
    "service_request": "2026-1282328",
    "request_type": "Trash/Recycling",
    "request_reason": "Illegal Dumping",
    "date_created": "2026-05-18T15:21:53.000",
    "date_modified": "2026-05-18T15:23:51.000",
    "request_status": "Pending",
    "responsible_agency": "Department of Sanitation",
    "final_address": "8500 Dinkins St",
    "address_councildis": "E",
    "status": "Pending",
    "rowid": "1282328",
    "final_x": "3703519.58468",
    "final_y": "562757.352288",
    "longitude": "-89.9973909292627",
    "latitude": "30.040699743954047",
    "geocoded_column": {
      "latitude": "30.040699743954047",
      "longitude": "-89.9973909292627"
    }
  },
  {
    "service_request": "2026-1282327",
    "request_type": "Streetlights",
    "request_reason": "Streetlight Outage/Malfunction",
    "date_created": "2026-05-18T15:21:03.000",
    "date_modified": "2026-05-18T15:21:04.000",
    "request_status": "Pending",
    "responsible_agency": "Department of Public Works",
    "final_address": "6200 BLK Pitt St",
    "address_councildis": "A",
    "status": "Pending",
    "rowid": "1282327",
    "final_x": "3664388.64986",
    "final_y": "521536.93342",
    "longitude": "-90.1224351725495",
    "latitude": "29.92855389408883",
    "geocoded_column": {
      "latitude": "29.92855389408883",
      "longitude": "-90.1224351725495"
    }
  },
  {
    "service_request": "2026-1282326",
    "request_type": "Roads and Streets",
    "request_reason": "Pothole",
    "date_created": "2026-05-18T15:19:32.000",
    "date_modified": "2026-05-18T15:19:33.000",
    "request_status": "Pending",
    "responsible_agency": "Department of Public Works",
    "final_address": "WALES ST & LAMB RD",
    "address_councildis": "E",
    "status": "Pending",
    "rowid": "1282326",
    "final_x": "3696725.0",
    "final_y": "560008.88",
    "longitude": "-90.01896363469118",
    "latitude": "30.03335857682752",
    "geocoded_column": {
      "latitude": "30.03335857682752",
      "longitude": "-90.01896363469118"
    }
  },
  {
    "service_request": "2026-1282325",
    "request_type": "Trash/Recycling",
    "request_reason": "Request a Large Item Pick Up",
    "date_created": "2026-05-18T15:16:35.000",
    "date_modified": "2026-05-18T15:16:37.000",
    "request_status": "Pending",
    "responsible_agency": "Department of Sanitation",
    "final_address": "1567 Webster St",
    "address_councildis": "A",
    "status": "Assigned to Contractor",
    "contractor": "IV Waste",
    "rowid": "1282325",
    "final_x": "3665339.81588",
    "final_y": "522538.505914",
    "longitude": "-90.11939903453282",
    "latitude": "29.931280228433447",
    "geocoded_column": {
      "latitude": "29.931280228433447",
      "longitude": "-90.11939903453282"
    }
  },
  {
    "service_request": "2026-1282324",
    "request_type": "Trash/Recycling",
    "request_reason": "Return Trash Cart",
    "date_created": "2026-05-18T15:14:25.000",
    "date_modified": "2026-05-18T15:14:27.000",
    "request_status": "Pending",
    "responsible_agency": "Department of Sanitation",
    "final_address": "2069 Halsey Ave",
    "address_councildis": "C",
    "status": "Assigned to Contractor",
    "contractor": "Richards Disposal",
    "rowid": "1282324",
    "final_x": "3697678.58659",
    "final_y": "523135.174267",
    "longitude": "-90.0172885500346",
    "latitude": "29.931939196057957",
    "geocoded_column": {
      "latitude": "29.931939196057957",
      "longitude": "-90.0172885500346"
    }
  },
  {
    "service_request": "2026-1282323",
    "request_type": "Trash/Recycling",
    "request_reason": "Missed Trash Pick-Up",
    "date_created": "2026-05-18T15:12:35.000",
    "date_modified": "2026-05-18T15:12:37.000",
    "request_status": "Pending",
    "responsible_agency": "Department of Sanitation",
    "final_address": "2069 Halsey Ave",
    "address_councildis": "C",
    "status": "Assigned to Contractor",
    "contractor": "Richards Disposal",
    "rowid": "1282323",
    "final_x": "3697678.58659",
    "final_y": "523135.174267",
    "longitude": "-90.0172885500346",
    "latitude": "29.931939196057957",
    "geocoded_column": {
      "latitude": "29.931939196057957",
      "longitude": "-90.0172885500346"
    }
  },
  {
    "service_request": "2026-1282322",
    "request_type": "Trash/Recycling",
    "request_reason": "Damaged Caused By Contractor",
    "date_created": "2026-05-18T15:12:32.000",
    "date_modified": "2026-05-18T15:12:34.000",
    "request_status": "Pending",
    "responsible_agency": "Department of Sanitation",
    "final_address": "3001 Americus St",
    "address_councildis": "C",
    "status": "Assigned to Contractor",
    "contractor": "Richards Disposal",
    "rowid": "1282322",
    "final_x": "3695151.36394",
    "final_y": "524397.133628",
    "longitude": "-90.02522120607533",
    "latitude": "29.935488722427646",
    "geocoded_column": {
      "latitude": "29.935488722427646",
      "longitude": "-90.02522120607533"
    }
  },
  {
    "service_request": "2026-1282321",
    "request_type": "Abandoned Vehicles",
    "request_reason": "Abandoned/Junk Vehicles",
    "date_created": "2026-05-18T15:11:33.000",
    "date_modified": "2026-05-18T15:11:38.000",
    "request_status": "Pending",
    "responsible_agency": "Department of Public Works",
    "final_address": "515 Bermuda St",
    "address_councildis": "C",
    "status": "Pending",
    "rowid": "1282321",
    "final_x": "3686760.01756",
    "final_y": "530055.893633",
    "longitude": "-90.05151283594871",
    "latitude": "29.95130913709022",
    "geocoded_column": {
      "latitude": "29.95130913709022",
      "longitude": "-90.05151283594871"
    }
  },
  {
    "service_request": "2026-1282320",
    "request_type": "Trash/Recycling",
    "request_reason": "Request a Large Item Pick Up",
    "date_created": "2026-05-18T15:10:29.000",
    "date_modified": "2026-05-18T15:10:31.000",
    "request_status": "Pending",
    "responsible_agency": "Department of Sanitation",
    "final_address": "7919 Alabama St",
    "address_councildis": "D",
    "status": "Assigned to Contractor",
    "contractor": "Waste Pro",
    "rowid": "1282320",
    "final_x": "3694679.92746",
    "final_y": "559505.366429",
    "longitude": "-90.02544441060382",
    "latitude": "30.032038450860746",
    "geocoded_column": {
      "latitude": "30.032038450860746",
      "longitude": "-90.02544441060382"
    }
  },
  {
    "service_request": "2026-1282319",
    "request_type": "Abandoned Vehicles",
    "request_reason": "Abandoned/Junk Vehicles",
    "date_created": "2026-05-18T15:08:38.000",
    "date_modified": "2026-05-18T15:08:40.000",
    "request_status": "Pending",
    "responsible_agency": "Department of Public Works",
    "final_address": "7601 Afton Dr",
    "address_councildis": "E",
    "status": "Pending",
    "rowid": "1282319",
    "final_x": "3704879.96939",
    "final_y": "562746.924512",
    "longitude": "-89.99309207352958",
    "latitude": "30.04062739031631",
    "geocoded_column": {
      "latitude": "30.04062739031631",
      "longitude": "-89.99309207352958"
    }
  },
  {
    "service_request": "2026-1282318",
    "request_type": "Property Maintenance",
    "request_reason": "Property Maintenance",
    "date_created": "2026-05-18T15:06:10.000",
    "date_modified": "2026-05-18T15:06:12.000",
    "request_status": "Pending",
    "responsible_agency": "Department of Code Enforcement",
    "final_address": "1022 Charbonnet St",
    "address_councildis": "E",
    "status": "Pending",
    "rowid": "1282318",
    "final_x": "3698519.33866",
    "final_y": "533388.295108",
    "longitude": "-90.01426178596165",
    "latitude": "29.960105110637656",
    "geocoded_column": {
      "latitude": "29.960105110637656",
      "longitude": "-90.01426178596165"
    }
  },
  {
    "service_request": "2026-1282317",
    "request_type": "Streetlights",
    "request_reason": "Streetlight Outage/Malfunction",
    "date_created": "2026-05-18T15:05:31.000",
    "date_modified": "2026-05-18T15:05:32.000",
    "request_status": "Pending",
    "responsible_agency": "Department of Public Works",
    "final_address": "5200 BLK N Prieur St",
    "address_councildis": "E",
    "status": "Pending",
    "rowid": "1282317",
    "final_x": "3697502.64269",
    "final_y": "537078.574909",
    "longitude": "-90.01733844032988",
    "latitude": "29.970284207353615",
    "geocoded_column": {
      "latitude": "29.970284207353615",
      "longitude": "-90.01733844032988"
    }
  },
  {
    "service_request": "2026-1282316",
    "request_type": "Trash/Recycling",
    "request_reason": "Request a Large Item Pick Up",
    "date_created": "2026-05-18T15:04:09.000",
    "date_modified": "2026-05-18T15:04:11.000",
    "request_status": "Pending",
    "responsible_agency": "Department of Sanitation",
    "final_address": "7541 W Sandy Cove Dr",
    "address_councildis": "E",
    "status": "Assigned to Contractor",
    "contractor": "Waste Pro",
    "rowid": "1282316",
    "final_x": "3715640.52031",
    "final_y": "569152.879142",
    "longitude": "-89.95884266423397",
    "latitude": "30.05789068683771",
    "geocoded_column": {
      "latitude": "30.05789068683771",
      "longitude": "-89.95884266423397"
    }
  },
  {
    "service_request": "2026-1282315",
    "request_type": "Trash/Recycling",
    "request_reason": "Order Second Trash Cart",
    "date_created": "2026-05-18T15:00:17.000",
    "date_modified": "2026-05-18T15:00:27.000",
    "request_status": "Pending",
    "responsible_agency": "Department of Sanitation",
    "final_address": "2118 Prytania St",
    "address_councildis": "B",
    "status": "Assigned to Contractor",
    "contractor": "IV Waste",
    "rowid": "1282315",
    "final_x": "3678146.97288",
    "final_y": "523399.771003",
    "longitude": "-90.0789386765184",
    "latitude": "29.933269129915693",
    "geocoded_column": {
      "latitude": "29.933269129915693",
      "longitude": "-90.0789386765184"
    }
  },
  {
    "service_request": "2026-1282314",
    "request_type": "Abandoned Vehicles",
    "request_reason": "Abandoned/Junk Vehicles",
    "date_created": "2026-05-18T14:58:56.000",
    "date_modified": "2026-05-18T14:58:58.000",
    "request_status": "Pending",
    "responsible_agency": "Department of Public Works",
    "final_address": "625 Lowerline St",
    "address_councildis": "A",
    "status": "Pending",
    "rowid": "1282314",
    "final_x": "3662696.29882",
    "final_y": "525189.753853",
    "longitude": "-90.12765625785514",
    "latitude": "29.938647065437827",
    "geocoded_column": {
      "latitude": "29.938647065437827",
      "longitude": "-90.12765625785514"
    }
  },
  {
    "service_request": "2026-1282313",
    "request_type": "Property Maintenance",
    "request_reason": "Property Maintenance",
    "date_created": "2026-05-18T14:58:25.000",
    "date_modified": "2026-05-18T14:58:27.000",
    "request_status": "Pending",
    "responsible_agency": "Department of Code Enforcement",
    "final_address": "1114 Cadiz St",
    "address_councildis": "B",
    "status": "Pending",
    "rowid": "1282313",
    "final_x": "3670184.70298",
    "final_y": "519581.656952",
    "longitude": "-90.1042044245664",
    "latitude": "29.923007813084876",
    "geocoded_column": {
      "latitude": "29.923007813084876",
      "longitude": "-90.1042044245664"
    }
  },
  {
    "service_request": "2026-1282312",
    "request_type": "Trash/Recycling",
    "request_reason": "Order Recycling Cart",
    "date_created": "2026-05-18T14:58:10.000",
    "date_modified": "2026-05-18T14:58:12.000",
    "request_status": "Pending",
    "responsible_agency": "Department of Sanitation",
    "final_address": "6511 S Claiborne Ave",
    "address_councildis": "A",
    "status": "Pending",
    "rowid": "1282312",
    "final_x": "3666787.61857",
    "final_y": "528985.805568",
    "longitude": "-90.1146120081786",
    "latitude": "29.948965976484548",
    "geocoded_column": {
      "latitude": "29.948965976484548",
      "longitude": "-90.1146120081786"
    }
  },
  {
    "service_request": "2026-1282311",
    "request_type": "Streetlights",
    "request_reason": "Streetlight Outage/Malfunction",
    "date_created": "2026-05-18T14:57:36.000",
    "date_modified": "2026-05-18T14:57:38.000",
    "request_status": "Pending",
    "responsible_agency": "Department of Public Works",
    "final_address": "7700 Hansbrough Ave",
    "address_councildis": "E",
    "status": "Pending",
    "rowid": "1282311",
    "final_x": "3707493.02878",
    "final_y": "564647.866017",
    "longitude": "-89.98476329655885",
    "latitude": "30.04576992422749",
    "geocoded_column": {
      "latitude": "30.04576992422749",
      "longitude": "-89.98476329655885"
    }
  },
  {
    "service_request": "2026-1282310",
    "request_type": "Trash/Recycling",
    "request_reason": "Request a Large Item Pick Up",
    "date_created": "2026-05-18T14:57:34.000",
    "date_modified": "2026-05-18T14:57:36.000",
    "request_status": "Pending",
    "responsible_agency": "Department of Sanitation",
    "final_address": "2230 S Lopez St",
    "address_councildis": "B",
    "status": "Assigned to Contractor",
    "contractor": "IV Waste",
    "rowid": "1282310",
    "final_x": "3669015.02798",
    "final_y": "528947.394816",
    "longitude": "-90.1075803874844",
    "latitude": "29.948795029559555",
    "geocoded_column": {
      "latitude": "29.948795029559555",
      "longitude": "-90.1075803874844"
    }
  },
  {
    "service_request": "2026-1282309",
    "request_type": "Trash/Recycling",
    "request_reason": "Illegal Dumping",
    "date_created": "2026-05-18T14:56:45.000",
    "date_modified": "2026-05-18T14:56:46.000",
    "request_status": "Pending",
    "responsible_agency": "Department of Sanitation",
    "final_address": "CANAL ST & N CLAIBORNE AVE & S CLAIBORNE AVE",
    "address_councildis": "B",
    "status": "Pending",
    "rowid": "1282309",
    "final_x": "3678370.6",
    "final_y": "532873.28",
    "longitude": "-90.07790502374995",
    "latitude": "29.959311391496197",
    "geocoded_column": {
      "latitude": "29.959311391496197",
      "longitude": "-90.07790502374995"
    }
  },
  {
    "service_request": "2026-1282308",
    "request_type": "Abandoned Vehicles",
    "request_reason": "Abandoned/Junk Vehicles",
    "date_created": "2026-05-18T14:56:18.000",
    "date_modified": "2026-05-18T14:56:19.000",
    "request_status": "Pending",
    "responsible_agency": "Department of Public Works",
    "final_address": "700 BLK Governor Nicholls St",
    "address_councildis": "C",
    "status": "Pending",
    "rowid": "1282308",
    "final_x": "3683512.33537",
    "final_y": "534018.780503",
    "longitude": "-90.06162853000062",
    "latitude": "29.96230522169289",
    "geocoded_column": {
      "latitude": "29.96230522169289",
      "longitude": "-90.06162853000062"
    }
  },
  {
    "service_request": "2026-1282307",
    "request_type": "Tree Service",
    "request_reason": "Tree Trim",
    "date_created": "2026-05-18T14:56:16.000",
    "date_modified": "2026-05-18T14:58:43.000",
    "request_status": "Pending",
    "responsible_agency": "Department of Parks & Parkways",
    "final_address": "734 Brooklyn Ave",
    "address_councildis": "C",
    "status": "Pending",
    "rowid": "1282307",
    "final_x": "3686166.92732",
    "final_y": "528729.52",
    "longitude": "-90.0534322990359",
    "latitude": "29.94768029149764",
    "geocoded_column": {
      "latitude": "29.94768029149764",
      "longitude": "-90.0534322990359"
    }
  },
  {
    "service_request": "2026-1282306",
    "request_type": "Drainage",
    "request_reason": "Drainage Manhole Cover Missing or Damaged",
    "date_created": "2026-05-18T14:55:47.000",
    "date_modified": "2026-05-18T14:55:50.000",
    "request_status": "Pending",
    "responsible_agency": "Sewerage & Water Board",
    "final_address": "3 Heritage Ln Unit 11",
    "address_councildis": "C",
    "status": "Pending",
    "rowid": "1282306",
    "final_x": "3696083.75869",
    "final_y": "520250.663224",
    "longitude": "-90.0224274063232",
    "latitude": "29.924058045144346",
    "geocoded_column": {
      "latitude": "29.924058045144346",
      "longitude": "-90.0224274063232"
    }
  },
  {
    "service_request": "2026-1282305",
    "request_type": "Trash/Recycling",
    "request_reason": "Damaged Caused By Contractor",
    "date_created": "2026-05-18T14:53:52.000",
    "date_modified": "2026-05-18T14:53:54.000",
    "request_status": "Pending",
    "responsible_agency": "Department of Sanitation",
    "final_address": "1501 Kabel Dr",
    "address_councildis": "C",
    "status": "Assigned to Contractor",
    "contractor": "Richards Disposal",
    "rowid": "1282305",
    "final_x": "3700660.51549",
    "final_y": "522336.66329",
    "longitude": "-90.00790413609374",
    "latitude": "29.929649058142722",
    "geocoded_column": {
      "latitude": "29.929649058142722",
      "longitude": "-90.00790413609374"
    }
  },
  {
    "service_request": "2026-1282304",
    "request_type": "Streetlights",
    "request_reason": "Streetlight Outage/Malfunction",
    "date_created": "2026-05-18T14:53:13.000",
    "date_modified": "2026-05-18T14:53:14.000",
    "request_status": "Pending",
    "responsible_agency": "Department of Public Works",
    "final_address": "300 BLK Camp St",
    "address_councildis": "B",
    "status": "Pending",
    "rowid": "1282304",
    "final_x": "3681194.80621",
    "final_y": "529583.231304",
    "longitude": "-90.06910148804963",
    "latitude": "29.95017948603555",
    "geocoded_column": {
      "latitude": "29.95017948603555",
      "longitude": "-90.06910148804963"
    }
  },
  {
    "service_request": "2026-1282303",
    "request_type": "Trash/Recycling",
    "request_reason": "Damaged Caused By Contractor",
    "date_created": "2026-05-18T14:50:04.000",
    "date_modified": "2026-05-18T14:50:06.000",
    "request_status": "Pending",
    "responsible_agency": "Department of Sanitation",
    "final_address": "6226 Fleur-De-Lis Dr",
    "address_councildis": "A",
    "status": "Assigned to Contractor",
    "contractor": "IV Waste",
    "rowid": "1282303",
    "final_x": "3665166.97876",
    "final_y": "549260.117075",
    "longitude": "-90.11905070588452",
    "latitude": "30.004760854816762",
    "geocoded_column": {
      "latitude": "30.004760854816762",
      "longitude": "-90.11905070588452"
    }
  },
  {
    "service_request": "2026-1282302",
    "request_type": "Trash/Recycling",
    "request_reason": "Order Trash Cart",
    "date_created": "2026-05-18T14:49:38.000",
    "date_modified": "2026-05-18T14:49:40.000",
    "request_status": "Pending",
    "responsible_agency": "Department of Sanitation",
    "final_address": "924 N Derbigny St",
    "address_councildis": "C",
    "status": "Assigned to Contractor",
    "contractor": "IV Waste",
    "rowid": "1282302",
    "final_x": "3680067.03093",
    "final_y": "535561.84359",
    "longitude": "-90.07245468049317",
    "latitude": "29.96665280882663",
    "geocoded_column": {
      "latitude": "29.96665280882663",
      "longitude": "-90.07245468049317"
    }
  },
  {
    "service_request": "2026-1282301",
    "request_type": "Streetlights",
    "request_reason": "Streetlight Outage/Malfunction",
    "date_created": "2026-05-18T14:46:17.000",
    "date_modified": "2026-05-18T14:46:18.000",
    "request_status": "Pending",
    "responsible_agency": "Department of Public Works",
    "final_address": "1300 Bienville St Apt A",
    "address_councildis": "C",
    "status": "Pending",
    "rowid": "1282301",
    "final_x": "3680030.59995",
    "final_y": "532494.132548",
    "longitude": "-90.0726763148027",
    "latitude": "29.958218750375796",
    "geocoded_column": {
      "latitude": "29.958218750375796",
      "longitude": "-90.0726763148027"
    }
  },
  {
    "service_request": "2026-1282300",
    "request_type": "Roads and Streets",
    "request_reason": "Sidewalk Damaged or Missing",
    "date_created": "2026-05-18T14:45:11.000",
    "date_modified": "2026-05-18T14:45:12.000",
    "request_status": "Pending",
    "responsible_agency": "Department of Public Works",
    "final_address": "927 Desire St",
    "address_councildis": "C",
    "status": "Pending",
    "rowid": "1282300",
    "final_x": "3690070.83388",
    "final_y": "535132.51783",
    "longitude": "-90.04087813886792",
    "latitude": "29.965165835105722",
    "geocoded_column": {
      "latitude": "29.965165835105722",
      "longitude": "-90.04087813886792"
    }
  },
  {
    "service_request": "2026-1282299",
    "request_type": "Property Maintenance",
    "request_reason": "Property Maintenance",
    "date_created": "2026-05-18T14:43:14.000",
    "date_modified": "2026-05-18T14:43:15.000",
    "request_status": "Pending",
    "responsible_agency": "Department of Code Enforcement",
    "final_address": "7310 Voyageur Dr",
    "address_councildis": "E",
    "status": "Pending",
    "rowid": "1282299",
    "final_x": "3726295.22925",
    "final_y": "569161.087782",
    "longitude": "-89.92516456422425",
    "latitude": "30.05755752907608",
    "geocoded_column": {
      "latitude": "30.05755752907608",
      "longitude": "-89.92516456422425"
    }
  },
  {
    "service_request": "2026-1282298",
    "request_type": "Trash/Recycling",
    "request_reason": "Request a Large Item Pick Up",
    "date_created": "2026-05-18T14:42:33.000",
    "date_modified": "2026-05-18T14:42:34.000",
    "request_status": "Pending",
    "responsible_agency": "Department of Sanitation",
    "final_address": "1327 Esplanade Ave",
    "address_councildis": "C",
    "status": "Assigned to Contractor",
    "contractor": "IV Waste",
    "rowid": "1282298",
    "final_x": "3682006.594",
    "final_y": "536079.828679",
    "longitude": "-90.0663114712774",
    "latitude": "29.968018261421562",
    "geocoded_column": {
      "latitude": "29.968018261421562",
      "longitude": "-90.0663114712774"
    }
  },
  {
    "service_request": "2026-1282297",
    "request_type": "Tree Service",
    "request_reason": "Tree Trim",
    "date_created": "2026-05-18T14:39:48.000",
    "date_modified": "2026-05-18T14:39:49.000",
    "request_status": "Pending",
    "responsible_agency": "Department of Parks & Parkways",
    "final_address": "2335 St Roch Ave",
    "address_councildis": "D",
    "status": "Pending",
    "rowid": "1282297",
    "final_x": "3686190.62524",
    "final_y": "541127.909708",
    "longitude": "-90.0529200344699",
    "latitude": "29.98177083749868",
    "geocoded_column": {
      "latitude": "29.98177083749868",
      "longitude": "-90.0529200344699"
    }
  },
  {
    "service_request": "2026-1282296",
    "request_type": "Abandoned Vehicles",
    "request_reason": "Abandoned/Junk Vehicles",
    "date_created": "2026-05-18T14:39:03.000",
    "date_modified": "2026-05-18T14:39:04.000",
    "request_status": "Pending",
    "responsible_agency": "Department of Public Works",
    "final_address": "1000 BLK Saint Andrew St",
    "address_councildis": "B",
    "status": "Pending",
    "rowid": "1282296",
    "final_x": "3679632.35658",
    "final_y": "522441.47623",
    "longitude": "-90.07428265642591",
    "latitude": "29.930589338172332",
    "geocoded_column": {
      "latitude": "29.930589338172332",
      "longitude": "-90.07428265642591"
    }
  },
  {
    "service_request": "2026-1282295",
    "request_type": "Abandoned Vehicles",
    "request_reason": "Abandoned/Junk Vehicles",
    "date_created": "2026-05-18T14:34:04.000",
    "date_modified": "2026-05-18T14:34:06.000",
    "request_status": "Pending",
    "responsible_agency": "Department of Public Works",
    "final_address": "4631 Virgilian St",
    "address_councildis": "D",
    "status": "Pending",
    "rowid": "1282295",
    "final_x": "3697612.4376",
    "final_y": "553206.959959",
    "longitude": "-90.01640629565112",
    "latitude": "30.01462786884776",
    "geocoded_column": {
      "latitude": "30.01462786884776",
      "longitude": "-90.01640629565112"
    }
  },
  {
    "service_request": "2026-1282294",
    "request_type": "Trash/Recycling",
    "request_reason": "Order Trash Cart",
    "date_created": "2026-05-18T14:32:01.000",
    "date_modified": "2026-05-18T14:33:43.000",
    "request_status": "Pending",
    "responsible_agency": "Department of Sanitation",
    "final_address": "6009 Marigny St",
    "address_councildis": "D",
    "status": "Assigned to Contractor",
    "contractor": "IV Waste",
    "rowid": "1282294",
    "final_x": "3683947.51452",
    "final_y": "555081.626521",
    "longitude": "-90.059514877121",
    "latitude": "30.02020727299363",
    "geocoded_column": {
      "latitude": "30.02020727299363",
      "longitude": "-90.059514877121"
    }
  },
  {
    "service_request": "2026-1282293",
    "request_type": "Trash/Recycling",
    "request_reason": "Order Trash Cart",
    "date_created": "2026-05-18T14:31:10.000",
    "date_modified": "2026-05-18T14:31:12.000",
    "request_status": "Pending",
    "responsible_agency": "Department of Sanitation",
    "final_address": "4104 St Claude Ave",
    "address_councildis": "C",
    "status": "Assigned to Contractor",
    "contractor": "IV Waste",
    "rowid": "1282293",
    "final_x": "3692157.07817",
    "final_y": "535182.196998",
    "longitude": "-90.03428813989402",
    "latitude": "29.965237565872332",
    "geocoded_column": {
      "latitude": "29.965237565872332",
      "longitude": "-90.03428813989402"
    }
  },