[
  {
    "service_request": "2025-1239224",
    "request_type": "Abandoned Vehicles",
    "request_reason": "Abandoned/Junk Vehicles",
    "date_created": "2025-11-10T23:01:28.000",
    "date_modified": "2025-11-10T23:01:30.000",
    "request_status": "Pending",
    "responsible_agency": "Department of Public Works",
    "final_address": "2034 Chestnut St",
    "address_councildis": "B",
    "status": "Pending",
    "rowid": "1239224",
    "final_x": "3678840.2491",
    "final_y": "522959.196923",
    "longitude": "-90.07676529977032",
    "latitude": "29.93203680885889",
    "geocoded_column": {
      "latitude": "29.93203680885889",
      "longitude": "-90.07676529977032"
    }
  },
  {
    "service_request": "2025-1239223",
    "request_type": "Streetlights",
    "request_reason": "Streetlight Outage/Malfunction",
    "date_created": "2025-11-10T22:34:44.000",
    "date_modified": "2025-11-10T22:34:46.000",
    "request_status": "Pending",
    "responsible_agency": "Department of Public Works",
    "final_address": "2037 Independence St",
    "address_councildis": "D",
    "status": "Pending",
    "rowid": "1239223",
    "final_x": "3691908.97942",
    "final_y": "539184.17697",
    "longitude": "-90.03492841245694",
    "latitude": "29.976249326323657",
    "geocoded_column": {
      "latitude": "29.976249326323657",
      "longitude": "-90.03492841245694"
    }
  },
  {
    "service_request": "2025-1239222",
    "request_type": "General Services",
    "request_reason": "General Service Request",
    "date_created": "2025-11-10T22:19:03.000",
    "date_modified": "2025-11-10T22:19:05.000",
    "request_status": "Pending",
    "responsible_agency": "Orleans Parish Communication District",
    "final_address": "436 S Telemachus St",
    "address_councildis": "B",
    "status": "Pending",
    "rowid": "1239222",
    "final_x": "3671453.13089",
    "final_y": "536162.855687",
    "longitude": "-90.09963694441683",
    "latitude": "29.968563211025145",
    "geocoded_column": {
      "latitude": "29.968563211025145",
      "longitude": "-90.09963694441683"
    }
  },
  {
    "service_request": "2025-1239221",
    "request_type": "Trash/Recycling",
    "request_reason": "Request a Large Item Pick Up",
    "date_created": "2025-11-10T21:42:12.000",
    "date_modified": "2025-11-10T21:42:15.000",
    "request_status": "Pending",
    "responsible_agency": "Department of Sanitation",
    "final_address": "6112 Todd Pl",
    "address_councildis": "E",
    "status": "Assigned to Contractor",
    "contractor": "Waste Pro",
    "rowid": "1239221",
    "final_x": "3699440.80426",
    "final_y": "532646.273476",
    "longitude": "-90.011379046051",
    "latitude": "29.958035615330015",
    "geocoded_column": {
      "latitude": "29.958035615330015",
      "longitude": "-90.011379046051"
    }
  },
  {
    "service_request": "2025-1239220",
    "request_type": "Trash/Recycling",
    "request_reason": "Request a Large Item Pick Up",
    "date_created": "2025-11-10T21:31:43.000",
    "date_modified": "2025-11-10T21:31:46.000",
    "request_status": "Pending",
    "responsible_agency": "Department of Sanitation",
    "final_address": "7601 Berg Rd",
    "address_councildis": "E",
    "status": "Assigned to Contractor",
    "contractor": "Waste Pro",
    "rowid": "1239220",
    "final_x": "3712142.36107",
    "final_y": "566511.358755",
    "longitude": "-89.96999916537659",
    "latitude": "30.050742498190353",
    "geocoded_column": {
      "latitude": "30.050742498190353",
      "longitude": "-89.96999916537659"
    }
  },
  {
    "service_request": "2025-1239219",
    "request_type": "Streetlights",
    "request_reason": "Streetlight Outage/Malfunction",
    "date_created": "2025-11-10T21:11:49.000",
    "date_modified": "2025-11-10T21:11:54.000",
    "request_status": "Pending",
    "responsible_agency": "Department of Public Works",
    "final_address": "4434 Werner Dr",
    "address_councildis": "E",
    "status": "Pending",
    "rowid": "1239219",
    "final_x": "3704901.54673",
    "final_y": "553553.408727",
    "longitude": "-89.99336365206071",
    "latitude": "30.015348106790473",
    "geocoded_column": {
      "latitude": "30.015348106790473",
      "longitude": "-89.99336365206071"
    }
  },
  {
    "service_request": "2025-1239218",
    "request_type": "Healthy Homes",
    "request_reason": "Healthy Homes",
    "date_created": "2025-11-10T21:06:03.000",
    "date_modified": "2025-11-10T21:06:05.000",
    "request_status": "Pending",
    "responsible_agency": "Department of Code Enforcement",
    "final_address": "6076 Warrington Dr",
    "address_councildis": "D",
    "status": "Pending",
    "rowid": "1239218",
    "final_x": "3680623.53231",
    "final_y": "555335.627161",
    "longitude": "-90.07000877341511",
    "latitude": "30.02100686863961",
    "geocoded_column": {
      "latitude": "30.02100686863961",
      "longitude": "-90.07000877341511"
    }
  },
  {
    "service_request": "2025-1239217",
    "request_type": "Trash/Recycling",
    "request_reason": "Request a Large Item Pick Up",
    "date_created": "2025-11-10T20:35:37.000",
    "date_modified": "2025-11-10T20:35:38.000",
    "request_status": "Pending",
    "responsible_agency": "Department of Sanitation",
    "final_address": "7890 Means Ave",
    "address_councildis": "E",
    "status": "Assigned to Contractor",
    "contractor": "Waste Pro",
    "rowid": "1239217",
    "final_x": "3707593.2003",
    "final_y": "565482.809186",
    "longitude": "-89.98441564231584",
    "latitude": "30.048062441752617",
    "geocoded_column": {
      "latitude": "30.048062441752617",
      "longitude": "-89.98441564231584"
    }
  },
  {
    "service_request": "2025-1239216",
    "request_type": "Streetlights",
    "request_reason": "Streetlight Outage/Malfunction",
    "date_created": "2025-11-10T19:43:03.000",
    "date_modified": "2025-11-10T19:43:07.000",
    "request_status": "Pending",
    "responsible_agency": "Department of Public Works",
    "final_address": "323 32Nd St",
    "address_councildis": "A",
    "status": "Pending",
    "rowid": "1239216",
    "final_x": "3665088.41223",
    "final_y": "550796.076949",
    "longitude": "-90.11924750010266",
    "latitude": "30.008986501490984",
    "geocoded_column": {
      "latitude": "30.008986501490984",
      "longitude": "-90.11924750010266"
    }
  },
  {
    "service_request": "2025-1239215",
    "request_type": "Trash/Recycling",
    "request_reason": "Request a Large Item Pick Up",
    "date_created": "2025-11-10T19:27:32.000",
    "date_modified": "2025-11-10T19:27:34.000",
    "request_status": "Pending",
    "responsible_agency": "Department of Sanitation",
    "final_address": "1504 Prytania St",
    "address_councildis": "B",
    "status": "Assigned to Contractor",
    "contractor": "IV Waste",
    "rowid": "1239215",
    "final_x": "3679639.51215",
    "final_y": "525166.466109",
    "longitude": "-90.0741655354196",
    "latitude": "29.93808194596031",
    "geocoded_column": {
      "latitude": "29.93808194596031",
      "longitude": "-90.0741655354196"
    }
  },
  {
    "service_request": "2025-1239214",
    "request_type": "Trash/Recycling",
    "request_reason": "Request a Large Item Pick Up",
    "date_created": "2025-11-10T19:20:14.000",
    "date_modified": "2025-11-10T19:20:17.000",
    "request_status": "Pending",
    "responsible_agency": "Department of Sanitation",
    "final_address": "1504 Prytania St",
    "address_councildis": "B",
    "status": "Assigned to Contractor",
    "contractor": "IV Waste",
    "rowid": "1239214",
    "final_x": "3679639.51215",
    "final_y": "525166.466109",
    "longitude": "-90.0741655354196",
    "latitude": "29.93808194596031",
    "geocoded_column": {
      "latitude": "29.93808194596031",
      "longitude": "-90.0741655354196"
    }
  },
  {
    "service_request": "2025-1239213",
    "request_type": "Trash/Recycling",
    "request_reason": "Request a Large Item Pick Up",
    "date_created": "2025-11-10T18:51:59.000",
    "date_modified": "2025-11-10T18:52:02.000",
    "request_status": "Pending",
    "responsible_agency": "Department of Sanitation",
    "final_address": "4701 Corinne St",
    "address_councildis": "E",
    "status": "Assigned to Contractor",
    "contractor": "Waste Pro",
    "rowid": "1239213",
    "final_x": "3715135.18879",
    "final_y": "556634.356314",
    "longitude": "-89.96091387921038",
    "latitude": "30.02348646674156",
    "geocoded_column": {
      "latitude": "30.02348646674156",
      "longitude": "-89.96091387921038"
    }
  },
  {
    "service_request": "2025-1239211",
    "request_type": "Trash/Recycling",
    "request_reason": "Order Recycling Cart",
    "date_created": "2025-11-10T17:53:13.000",
    "date_modified": "2025-11-10T17:53:15.000",
    "request_status": "Pending",
    "responsible_agency": "Department of Sanitation",
    "final_address": "1619 New York St, New Orleans, Louisiana, 70122",
    "address_councildis": "D",
    "status": "Pending",
    "rowid": "1239211",
    "final_x": "3679145.72463",
    "final_y": "555979.908825",
    "longitude": "-90.0746558611159",
    "latitude": "30.022823126227024",
    "geocoded_column": {
      "latitude": "30.022823126227024",
      "longitude": "-90.0746558611159"
    }
  },
  {
    "service_request": "2025-1239210",
    "request_type": "Drainage",
    "request_reason": "Catch Basin Not Draining",
    "date_created": "2025-11-10T17:42:29.000",
    "date_modified": "2025-11-10T17:42:31.000",
    "request_status": "Pending",
    "responsible_agency": "Sewerage & Water Board",
    "final_address": "5323 Cartier Ave",
    "address_councildis": "D",
    "status": "Pending",
    "rowid": "1239210",
    "final_x": "3677747.75579",
    "final_y": "551683.414805",
    "longitude": "-90.07922171287423",
    "latitude": "30.011051469397568",
    "geocoded_column": {
      "latitude": "30.011051469397568",
      "longitude": "-90.07922171287423"
    }
  },
  {
    "service_request": "2025-1239209",
    "request_type": "Drainage",
    "request_reason": "Catch Basin Not Draining",
    "date_created": "2025-11-10T17:39:12.000",
    "date_modified": "2025-11-10T17:39:14.000",
    "request_status": "Pending",
    "responsible_agency": "Sewerage & Water Board",
    "final_address": "5323 Cartier Ave",
    "address_councildis": "D",
    "status": "Pending",
    "rowid": "1239209",
    "final_x": "3677747.75579",
    "final_y": "551683.414805",
    "longitude": "-90.07922171287423",
    "latitude": "30.011051469397568",
    "geocoded_column": {
      "latitude": "30.011051469397568",
      "longitude": "-90.07922171287423"
    }
  },
  {
    "service_request": "2025-1239208",
    "request_type": "Parks & Parkways",
    "request_reason": "Request Tree Service (Right of Way/Public Property)",
    "date_created": "2025-11-10T17:35:25.000",
    "date_modified": "2025-11-10T17:35:26.000",
    "request_status": "Pending",
    "responsible_agency": "Department of Parks & Parkway",
    "final_address": "2840 Upperline St",
    "address_councildis": "B",
    "status": "Pending",
    "rowid": "1239208",
    "final_x": "3669167.16276",
    "final_y": "525275.172157",
    "longitude": "-90.10722410175507",
    "latitude": "29.93869313298901",
    "geocoded_column": {
      "latitude": "29.93869313298901",
      "longitude": "-90.10722410175507"
    }
  },
  {
    "service_request": "2025-1239207",
    "request_type": "Trash/Recycling",
    "request_reason": "Request a Large Item Pick Up",
    "date_created": "2025-11-10T17:35:21.000",
    "date_modified": "2025-11-10T17:35:22.000",
    "request_status": "Pending",
    "responsible_agency": "Department of Sanitation",
    "final_address": "3535 Delachaise St",
    "address_councildis": "B",
    "status": "Assigned to Contractor",
    "contractor": "IV Waste",
    "rowid": "1239207",
    "final_x": "3671350.74715",
    "final_y": "527966.850495",
    "longitude": "-90.10023882279336",
    "latitude": "29.946029943611165",
    "geocoded_column": {
      "latitude": "29.946029943611165",
      "longitude": "-90.10023882279336"
    }
  },
  {
    "service_request": "2025-1239206",
    "request_type": "Abandoned Vehicles",
    "request_reason": "Abandoned/Junk Vehicles",
    "date_created": "2025-11-10T17:29:13.000",
    "date_modified": "2025-11-10T17:29:15.000",
    "request_status": "Pending",
    "responsible_agency": "Department of Public Works",
    "final_address": "1024 N Dorgenois St",
    "address_councildis": "D",
    "status": "Pending",
    "rowid": "1239206",
    "final_x": "3677986.41128",
    "final_y": "537654.106632",
    "longitude": "-90.07895293273396",
    "latitude": "29.97246860696565",
    "geocoded_column": {
      "latitude": "29.97246860696565",
      "longitude": "-90.07895293273396"
    }
  },
  {
    "service_request": "2025-1239205",
    "request_type": "Streetlights",
    "request_reason": "Streetlight Outage/Malfunction",
    "date_created": "2025-11-10T17:24:01.000",
    "date_modified": "2025-11-10T17:24:04.000",
    "request_status": "Pending",
    "responsible_agency": "Department of Public Works",
    "final_address": "JOSEPHINE ST & ROUSSEAU ST",
    "address_councildis": "B",
    "status": "Pending",
    "rowid": "1239205",
    "final_x": "3680531.9",
    "final_y": "520531.38",
    "longitude": "-90.07150933451227",
    "latitude": "29.925309991176405",
    "geocoded_column": {
      "latitude": "29.925309991176405",
      "longitude": "-90.07150933451227"
    }
  },
  {
    "service_request": "2025-1239204",
    "request_type": "Roads and Streets",
    "request_reason": "Debris in Driving Lanes",
    "date_created": "2025-11-10T17:17:10.000",
    "date_modified": "2025-11-10T17:17:12.000",
    "request_status": "Pending",
    "responsible_agency": "Department of Public Works",
    "final_address": "4000 Alvar St",
    "address_councildis": "D",
    "status": "Pending",
    "rowid": "1239204",
    "final_x": "3693240.82685",
    "final_y": "548046.134802",
    "longitude": "-90.03040380384384",
    "latitude": "30.00057493675135",
    "geocoded_column": {
      "latitude": "30.00057493675135",
      "longitude": "-90.03040380384384"
    }
  },
  {
    "service_request": "2025-1239203",
    "request_type": "Trash/Recycling",
    "request_reason": "MIssed Recycling Pick-Up",
    "date_created": "2025-11-10T17:14:53.000",
    "date_modified": "2025-11-10T17:14:55.000",
    "request_status": "Pending",
    "responsible_agency": "Department of Sanitation",
    "final_address": "633 N Carrollton Ave",
    "address_councildis": "A",
    "status": "Assigned to Contractor",
    "contractor": "IV Waste",
    "rowid": "1239203",
    "final_x": "3672450.99227",
    "final_y": "539925.198986",
    "longitude": "-90.09635737141133",
    "latitude": "29.9788788014552",
    "geocoded_column": {
      "latitude": "29.9788788014552",
      "longitude": "-90.09635737141133"
    }
  },
  {
    "service_request": "2025-1239202",
    "request_type": "Trash/Recycling",
    "request_reason": "Return Recycling Cart",
    "date_created": "2025-11-10T17:12:31.000",
    "date_modified": "2025-11-10T17:12:34.000",
    "request_status": "Pending",
    "responsible_agency": "Department of Sanitation",
    "final_address": "8531 Cohn St",
    "address_councildis": "A",
    "status": "Pending",
    "rowid": "1239202",
    "final_x": "3662390.47104",
    "final_y": "531358.952514",
    "longitude": "-90.12841698347513",
    "latitude": "29.955619230553",
    "geocoded_column": {
      "latitude": "29.955619230553",
      "longitude": "-90.12841698347513"
    }
  },
  {
    "service_request": "2025-1239201",
    "request_type": "Trash/Recycling",
    "request_reason": "Request a Large Item Pick Up",
    "date_created": "2025-11-10T16:58:53.000",
    "date_modified": "2025-11-10T16:58:54.000",
    "request_status": "Pending",
    "responsible_agency": "Department of Sanitation",
    "final_address": "414 Newton St",
    "address_councildis": "C",
    "status": "Assigned to Contractor",
    "contractor": "Richards Disposal",
    "rowid": "1239201",
    "final_x": "3686709.18882",
    "final_y": "527983.353535",
    "longitude": "-90.05174652092863",
    "latitude": "29.945611921510167",
    "geocoded_column": {
      "latitude": "29.945611921510167",
      "longitude": "-90.05174652092863"
    }
  },
  {
    "service_request": "2025-1239200",
    "request_type": "Parks & Parkways",
    "request_reason": "Request Tree Service (Right of Way/Public Property)",
    "date_created": "2025-11-10T16:51:34.000",
    "date_modified": "2025-11-10T16:51:36.000",
    "request_status": "Pending",
    "responsible_agency": "Department of Parks & Parkway",
    "final_address": "3231 Laurel St",
    "address_councildis": "B",
    "status": "Pending",
    "rowid": "1239200",
    "final_x": "3675915.05397",
    "final_y": "519268.069495",
    "longitude": "-90.0861266846423",
    "latitude": "29.921975285711703",
    "geocoded_column": {
      "latitude": "29.921975285711703",
      "longitude": "-90.0861266846423"
    }
  },
  {
    "service_request": "2025-1239199",
    "request_type": "Trash/Recycling",
    "request_reason": "Request a Large Item Pick Up",
    "date_created": "2025-11-10T16:51:34.000",
    "date_modified": "2025-11-10T16:51:36.000",
    "request_status": "Pending",
    "responsible_agency": "Department of Sanitation",
    "final_address": "2101 Adams St",
    "address_councildis": "A",
    "status": "Assigned to Contractor",
    "contractor": "IV Waste",
    "rowid": "1239199",
    "final_x": "3665232.16711",
    "final_y": "529714.857217",
    "longitude": "-90.11949887749869",
    "latitude": "29.95101603102012",
    "geocoded_column": {
      "latitude": "29.95101603102012",
      "longitude": "-90.11949887749869"
    }
  },
  {
    "service_request": "2025-1239198",
    "request_type": "Trash/Recycling",
    "request_reason": "Dead Animal Pick Up",
    "date_created": "2025-11-10T16:41:53.000",
    "date_modified": "2025-11-10T16:41:56.000",
    "request_status": "Pending",
    "responsible_agency": "Department of Sanitation",
    "final_address": "1419 Casa Calvo St",
    "address_councildis": "C",
    "status": "Assigned to Contractor",
    "contractor": "Richards Disposal",
    "rowid": "1239198",
    "final_x": "3692010.45981",
    "final_y": "526024.629566",
    "longitude": "-90.03507880887103",
    "latitude": "29.940062002158413",
    "geocoded_column": {
      "latitude": "29.940062002158413",
      "longitude": "-90.03507880887103"
    }
  },
  {
    "service_request": "2025-1239197",
    "request_type": "Abandoned Vehicles",
    "request_reason": "Abandoned/Junk Vehicles",
    "date_created": "2025-11-10T16:27:39.000",
    "date_modified": "2025-11-10T16:27:41.000",
    "request_status": "Pending",
    "responsible_agency": "Department of Public Works",
    "final_address": "1921 Foucher St",
    "address_councildis": "B",
    "status": "Pending",
    "rowid": "1239197",
    "final_x": "3673111.97019",
    "final_y": "522499.321786",
    "longitude": "-90.09486461549204",
    "latitude": "29.93094378764621",
    "geocoded_column": {
      "latitude": "29.93094378764621",
      "longitude": "-90.09486461549204"
    }
  },
  {
    "service_request": "2025-1239196",
    "request_type": "Abandoned Vehicles",
    "request_reason": "Abandoned/Junk Vehicles",
    "date_created": "2025-11-10T16:21:49.000",
    "date_modified": "2025-11-10T16:21:51.000",
    "request_status": "Pending",
    "responsible_agency": "Department of Public Works",
    "final_address": "3300 BLK Bennett St",
    "address_councildis": "C",
    "status": "Pending",
    "rowid": "1239196",
    "final_x": "3710429.27235",
    "final_y": "518141.919213",
    "longitude": "-89.97722292857588",
    "latitude": "29.91780066811256",
    "geocoded_column": {
      "latitude": "29.91780066811256",
      "longitude": "-89.97722292857588"
    }
  },
  {
    "service_request": "2025-1239195",
    "request_type": "Trash/Recycling",
    "request_reason": "Request a Large Item Pick Up",
    "date_created": "2025-11-10T16:21:36.000",
    "date_modified": "2025-11-10T16:21:39.000",
    "request_status": "Pending",
    "responsible_agency": "Department of Sanitation",
    "final_address": "4400 Mithra St",
    "address_councildis": "D",
    "status": "Assigned to Contractor",
    "contractor": "IV Waste",
    "rowid": "1239195",
    "final_x": "3690080.43004",
    "final_y": "553163.419223",
    "longitude": "-90.0402052373244",
    "latitude": "30.014744022748314",
    "geocoded_column": {
      "latitude": "30.014744022748314",
      "longitude": "-90.0402052373244"
    }
  },
  {
    "service_request": "2025-1239194",
    "request_type": "Trash/Recycling",
    "request_reason": "Order Trash Cart",
    "date_created": "2025-11-10T16:15:36.000",
    "date_modified": "2025-11-10T16:15:38.000",
    "request_status": "Pending",
    "responsible_agency": "Department of Sanitation",
    "final_address": "1212 Joliet St",
    "address_councildis": "A",
    "status": "Assigned to Contractor",
    "contractor": "IV Waste",
    "rowid": "1239194",
    "final_x": "3660963.11699",
    "final_y": "529454.157633",
    "longitude": "-90.13298709132025",
    "latitude": "29.950422850610277",
    "geocoded_column": {
      "latitude": "29.950422850610277",
      "longitude": "-90.13298709132025"
    }
  },
  {
    "service_request": "2025-1239193",
    "request_type": "Trash/Recycling",
    "request_reason": "Request a Large Item Pick Up",
    "date_created": "2025-11-10T16:11:44.000",
    "date_modified": "2025-11-10T16:11:46.000",
    "request_status": "Pending",
    "responsible_agency": "Department of Sanitation",
    "final_address": "1028 Fats Domino Ave",
    "address_councildis": "E",
    "status": "Assigned to Contractor",
    "contractor": "Waste Pro",
    "rowid": "1239193",
    "final_x": "3697902.87171",
    "final_y": "533567.422917",
    "longitude": "-90.01620194319896",
    "latitude": "29.960617147500287",
    "geocoded_column": {
      "latitude": "29.960617147500287",
      "longitude": "-90.01620194319896"
    }
  },
  {
    "service_request": "2025-1239192",
    "request_type": "Trash/Recycling",
    "request_reason": "Request a Large Item Pick Up",
    "date_created": "2025-11-10T16:10:34.000",
    "date_modified": "2025-11-10T16:10:36.000",
    "request_status": "Pending",
    "responsible_agency": "Department of Sanitation",
    "final_address": "5471 S Eastover Dr",
    "address_councildis": "E",
    "status": "Assigned to Contractor",
    "contractor": "Waste Pro",
    "rowid": "1239192",
    "final_x": "3719693.2053",
    "final_y": "561054.88323",
    "longitude": "-89.94634260256134",
    "latitude": "30.035490234782408",
    "geocoded_column": {
      "latitude": "30.035490234782408",
      "longitude": "-89.94634260256134"
    }
  },
  {
    "service_request": "2025-1239191",
    "request_type": "Trash/Recycling",
    "request_reason": "Order Recycling Cart",
    "date_created": "2025-11-10T16:06:25.000",
    "date_modified": "2025-11-10T16:07:52.000",
    "request_status": "Pending",
    "responsible_agency": "Department of Sanitation",
    "final_address": "8825 Edinburgh St",
    "address_councildis": "A",
    "status": "Pending",
    "rowid": "1239191",
    "final_x": "3665516.16852",
    "final_y": "536271.309383",
    "longitude": "-90.11838263358605",
    "latitude": "29.969035850209462",
    "geocoded_column": {
      "latitude": "29.969035850209462",
      "longitude": "-90.11838263358605"
    }
  },
  {
    "service_request": "2025-1239190",
    "request_type": "Trash/Recycling",
    "request_reason": "Request a Large Item Pick Up",
    "date_created": "2025-11-10T16:05:30.000",
    "date_modified": "2025-11-10T16:05:32.000",
    "request_status": "Pending",
    "responsible_agency": "Department of Sanitation",
    "final_address": "5515 Sutton Pl",
    "address_councildis": "C",
    "status": "Assigned to Contractor",
    "contractor": "Richards Disposal",
    "rowid": "1239190",
    "final_x": "3704396.51479",
    "final_y": "518401.40255",
    "longitude": "-89.99625530500101",
    "latitude": "29.918709100561042",
    "geocoded_column": {
      "latitude": "29.918709100561042",
      "longitude": "-89.99625530500101"
    }
  },
  {
    "service_request": "2025-1239189",
    "request_type": "Trash/Recycling",
    "request_reason": "Request a Large Item Pick Up",
    "date_created": "2025-11-10T16:02:06.000",
    "date_modified": "2025-11-10T16:02:08.000",
    "request_status": "Pending",
    "responsible_agency": "Department of Sanitation",
    "final_address": "605 N Hennessey St",
    "address_councildis": "A",
    "status": "Assigned to Contractor",
    "contractor": "IV Waste",
    "rowid": "1239189",
    "final_x": "3671392.01614",
    "final_y": "540453.827083",
    "longitude": "-90.09968405264567",
    "latitude": "29.9803637405135",
    "geocoded_column": {
      "latitude": "29.9803637405135",
      "longitude": "-90.09968405264567"
    }
  },
  {
    "service_request": "2025-1239188",
    "request_type": "Abandoned Vehicles",
    "request_reason": "Abandoned/Junk Vehicles",
    "date_created": "2025-11-10T16:00:34.000",
    "date_modified": "2025-11-10T16:00:36.000",
    "request_status": "Pending",
    "responsible_agency": "Department of Public Works",
    "final_address": "3517 Danneel St",
    "address_councildis": "B",
    "status": "Pending",
    "rowid": "1239188",
    "final_x": "3673107.54932",
    "final_y": "522693.757818",
    "longitude": "-90.09487193736092",
    "latitude": "29.931478555301858",
    "geocoded_column": {
      "latitude": "29.931478555301858",
      "longitude": "-90.09487193736092"
    }
  },
  {
    "service_request": "2025-1239187",
    "request_type": "Property Maintenance",
    "request_reason": "Property Maintenance",
    "date_created": "2025-11-10T15:56:44.000",
    "date_modified": "2025-11-10T15:56:46.000",
    "request_status": "Pending",
    "responsible_agency": "Department of Code Enforcement",
    "final_address": "7835 Maple St",
    "address_councildis": "A",
    "status": "Pending",
    "rowid": "1239187",
    "final_x": "3661675.19731",
    "final_y": "526801.963966",
    "longitude": "-90.13082658471063",
    "latitude": "29.943109635193142",
    "geocoded_column": {
      "latitude": "29.943109635193142",
      "longitude": "-90.13082658471063"
    }
  },
  {
    "service_request": "2025-1239186",
    "request_type": "Trash/Recycling",
    "request_reason": "Request a Large Item Pick Up",
    "date_created": "2025-11-10T15:55:10.000",
    "date_modified": "2025-11-10T15:55:12.000",
    "request_status": "Pending",
    "responsible_agency": "Department of Sanitation",
    "final_address": "4730 Virgilian St",
    "address_councildis": "D",
    "status": "Assigned to Contractor",
    "contractor": "Waste Pro",
    "rowid": "1239186",
    "final_x": "3697401.53783",
    "final_y": "553739.819415",
    "longitude": "-90.0170532922721",
    "latitude": "30.016099694533985",
    "geocoded_column": {
      "latitude": "30.016099694533985",
      "longitude": "-90.0170532922721"
    }
  },
  {
    "service_request": "2025-1239185",
    "request_type": "Trash/Recycling",
    "request_reason": "Illegal Dumping",
    "date_created": "2025-11-10T15:54:05.000",
    "date_modified": "2025-11-10T15:54:07.000",
    "request_status": "Pending",
    "responsible_agency": "Department of Sanitation",
    "final_address": "1100 BLK Harmony St",
    "address_councildis": "B",
    "status": "Pending",
    "rowid": "1239185",
    "final_x": "3675714.15936",
    "final_y": "520164.715364",
    "longitude": "-90.08673003285419",
    "latitude": "29.9244467839181",
    "geocoded_column": {
      "latitude": "29.9244467839181",
      "longitude": "-90.08673003285419"
    }
  },
  {
    "service_request": "2025-1239184",
    "request_type": "Street and Traffic Signs",
    "request_reason": "Street Name Sign Damaged or Missing",
    "date_created": "2025-11-10T15:51:38.000",
    "date_modified": "2025-11-10T15:51:40.000",
    "request_status": "Pending",
    "responsible_agency": "Department of Public Works",
    "final_address": "8TH ST & BARONNE ST",
    "address_councildis": "B",
    "status": "Pending",
    "rowid": "1239184",
    "final_x": "3674582.3",
    "final_y": "522532.48",
    "longitude": "-90.09022184328512",
    "latitude": "29.93099118258138",
    "geocoded_column": {
      "latitude": "29.93099118258138",
      "longitude": "-90.09022184328512"
    }
  },
  {
    "service_request": "2025-1239183",
    "request_type": "Trash/Recycling",
    "request_reason": "Request a Large Item Pick Up",
    "date_created": "2025-11-10T15:44:55.000",
    "date_modified": "2025-11-10T15:44:58.000",
    "request_status": "Pending",
    "responsible_agency": "Department of Sanitation",
    "final_address": "2218 Touro St",
    "address_councildis": "D",
    "status": "Assigned to Contractor",
    "contractor": "IV Waste",
    "rowid": "1239183",
    "final_x": "3683857.12853",
    "final_y": "540463.070027",
    "longitude": "-90.06031363635661",
    "latitude": "29.980014254048445",
    "geocoded_column": {
      "latitude": "29.980014254048445",
      "longitude": "-90.06031363635661"
    }
  },
  {
    "service_request": "2025-1239182",
    "request_type": "Drainage",
    "request_reason": "Catch Basin Not Draining",
    "date_created": "2025-11-10T15:43:16.000",
    "date_modified": "2025-11-10T15:43:18.000",
    "request_status": "Pending",
    "responsible_agency": "Sewerage & Water Board",
    "final_address": "912 Wilson Dr",
    "address_councildis": "A",
    "status": "Pending",
    "rowid": "1239182",
    "final_x": "3674136.99054",
    "final_y": "539985.662987",
    "longitude": "-90.09103026972016",
    "latitude": "29.978994902687788",
    "geocoded_column": {
      "latitude": "29.978994902687788",
      "longitude": "-90.09103026972016"
    }
  },
  {
    "service_request": "2025-1239181",
    "request_type": "Trash/Recycling",
    "request_reason": "Order Recycling Cart",
    "date_created": "2025-11-10T15:40:01.000",
    "date_modified": "2025-11-10T15:40:03.000",
    "request_status": "Pending",
    "responsible_agency": "Department of Sanitation",
    "final_address": "912 Wilson Dr",
    "address_councildis": "A",
    "status": "Pending",
    "rowid": "1239181",
    "final_x": "3674136.99054",
    "final_y": "539985.662987",
    "longitude": "-90.09103026972016",
    "latitude": "29.978994902687788",
    "geocoded_column": {
      "latitude": "29.978994902687788",
      "longitude": "-90.09103026972016"
    }
  },
  {
    "service_request": "2025-1239180",
    "request_type": "Roads and Streets",
    "request_reason": "Sidewalk Damaged or Missing",
    "date_created": "2025-11-10T15:37:58.000",
    "date_modified": "2025-11-10T15:40:11.000",
    "request_status": "Pending",
    "responsible_agency": "Department of Public Works",
    "final_address": "4848 Coliseum St",
    "address_councildis": "B",
    "status": "Pending",
    "rowid": "1239180",
    "final_x": "3669077.46881",
    "final_y": "519599.201592",
    "longitude": "-90.10769895173468",
    "latitude": "29.92308866722173",
    "geocoded_column": {
      "latitude": "29.92308866722173",
      "longitude": "-90.10769895173468"
    }
  },
  {
    "service_request": "2025-1239179",
    "request_type": "Streetlights",
    "request_reason": "Streetlight Outage/Malfunction",
    "date_created": "2025-11-10T15:37:03.000",
    "date_modified": "2025-11-10T15:37:05.000",
    "request_status": "Pending",
    "responsible_agency": "Department of Public Works",
    "final_address": "912 Wilson Dr",
    "address_councildis": "A",
    "status": "Pending",
    "rowid": "1239179",
    "final_x": "3674136.99054",
    "final_y": "539985.662987",
    "longitude": "-90.09103026972016",
    "latitude": "29.978994902687788",
    "geocoded_column": {
      "latitude": "29.978994902687788",
      "longitude": "-90.09103026972016"
    }
  },
  {
    "service_request": "2025-1239178",
    "request_type": "Streetlights",
    "request_reason": "Streetlight Outage/Malfunction",
    "date_created": "2025-11-10T15:35:23.000",
    "date_modified": "2025-11-10T15:35:26.000",
    "request_status": "Pending",
    "responsible_agency": "Department of Public Works",
    "final_address": "912 Wilson Dr",
    "address_councildis": "A",
    "status": "Pending",
    "rowid": "1239178",
    "final_x": "3674136.99054",
    "final_y": "539985.662987",
    "longitude": "-90.09103026972016",
    "latitude": "29.978994902687788",
    "geocoded_column": {
      "latitude": "29.978994902687788",
      "longitude": "-90.09103026972016"
    }
  },
  {
    "service_request": "2025-1239177",
    "request_type": "Roads and Streets",
    "request_reason": "Sidewalk Damaged or Missing",
    "date_created": "2025-11-10T15:31:50.000",
    "date_modified": "2025-11-10T15:31:52.000",
    "request_status": "Pending",
    "responsible_agency": "Department of Public Works",
    "final_address": "4848 Coliseum St Unit 203",
    "address_councildis": "B",
    "status": "Pending",
    "rowid": "1239177",
    "final_x": "3669083.95943",
    "final_y": "519541.892855",
    "longitude": "-90.10768039830867",
    "latitude": "29.92293089545239",
    "geocoded_column": {
      "latitude": "29.92293089545239",
      "longitude": "-90.10768039830867"
    }
  },
  {
    "service_request": "2025-1239176",
    "request_type": "Roads and Streets",
    "request_reason": "Street Subsidence (Sinking)",
    "date_created": "2025-11-10T15:28:31.000",
    "date_modified": "2025-11-10T15:28:33.000",
    "request_status": "Pending",
    "responsible_agency": "Sewerage & Water Board",
    "final_address": "3728 Laurel St",
    "address_councildis": "B",
    "status": "Pending",
    "rowid": "1239176",
    "final_x": "3673610.84187",
    "final_y": "518305.289014",
    "longitude": "-90.09343301156437",
    "latitude": "29.919396709470647",
    "geocoded_column": {
      "latitude": "29.919396709470647",
      "longitude": "-90.09343301156437"
    }
  },
  {
    "service_request": "2025-1239175",
    "request_type": "Abandoned Vehicles",
    "request_reason": "Abandoned/Junk Vehicles",
    "date_created": "2025-11-10T15:25:18.000",
    "date_modified": "2025-11-10T15:26:23.000",
    "request_status": "Pending",
    "responsible_agency": "Department of Public Works",
    "final_address": "7833 Burthe St",
    "address_councildis": "A",
    "status": "Inspected",
    "rowid": "1239175",
    "final_x": "3661891.86803",
    "final_y": "527058.448318",
    "longitude": "-90.13013399477343",
    "latitude": "29.943808631317996",
    "geocoded_column": {
      "latitude": "29.943808631317996",
      "longitude": "-90.13013399477343"
    }
  },
  {
    "service_request": "2025-1239174",
    "request_type": "Trash/Recycling",
    "request_reason": "Replace Recycling Cart",
    "date_created": "2025-11-10T15:24:44.000",
    "date_modified": "2025-11-10T15:24:46.000",
    "request_status": "Pending",
    "responsible_agency": "Department of Sanitation",
    "final_address": "3728 Laurel St",
    "address_councildis": "B",
    "status": "Pending",
    "rowid": "1239174",
    "final_x": "3673610.84187",
    "final_y": "518305.289014",
    "longitude": "-90.09343301156437",
    "latitude": "29.919396709470647",
    "geocoded_column": {
      "latitude": "29.919396709470647",
      "longitude": "-90.09343301156437"
    }
  },
  {
    "service_request": "2025-1239173",
    "request_type": "Abandoned Vehicles",
    "request_reason": "Abandoned/Junk Vehicles",
    "date_created": "2025-11-10T15:24:36.000",
    "date_modified": "2025-11-10T15:24:38.000",
    "request_status": "Pending",
    "responsible_agency": "Department of Public Works",
    "final_address": "56 Camellia Trce",
    "address_councildis": "C",
    "status": "Pending",
    "rowid": "1239173",
    "final_x": "3697289.38295",
    "final_y": "523361.649723",
    "longitude": "-90.0185090141104",
    "latitude": "29.932574211404138",
    "geocoded_column": {
      "latitude": "29.932574211404138",
      "longitude": "-90.0185090141104"
    }
  },
  {
    "service_request": "2025-1239172",
    "request_type": "Roads and Streets",
    "request_reason": "Debris in Driving Lanes",
    "date_created": "2025-11-10T15:24:07.000",
    "date_modified": "2025-11-10T20:22:12.000",
    "request_status": "Pending",
    "responsible_agency": "Department of Public Works",
    "final_address": "500 Wallace Dr",
    "address_councildis": "D",
    "status": "Pending",
    "rowid": "1239172",
    "final_x": "3681554.26517",
    "final_y": "548516.24469",
    "longitude": "-90.06730599953283",
    "latitude": "30.002227786683438",
    "geocoded_column": {
      "latitude": "30.002227786683438",
      "longitude": "-90.06730599953283"
    }
  },
  {
    "service_request": "2025-1239171",
    "request_type": "Trash/Recycling",
    "request_reason": "Request a Large Item Pick Up",
    "date_created": "2025-11-10T15:17:12.000",
    "date_modified": "2025-11-10T15:30:23.000",
    "request_status": "Pending",
    "responsible_agency": "Department of Sanitation",
    "final_address": "233 S Bernadotte St",
    "address_councildis": "A",
    "status": "Assigned to Contractor",
    "contractor": "IV Waste",
    "rowid": "1239171",
    "final_x": "3668336.21991",
    "final_y": "539509.335242",
    "longitude": "-90.10936745823622",
    "latitude": "29.977856815735194",
    "geocoded_column": {
      "latitude": "29.977856815735194",
      "longitude": "-90.10936745823622"
    }
  },
  {
    "service_request": "2025-1239170",
    "request_type": "Safety & Permits",
    "request_reason": "Licenses & Permits",
    "date_created": "2025-11-10T15:14:52.000",
    "date_modified": "2025-11-10T15:14:54.000",
    "request_status": "Pending",
    "responsible_agency": "Safety and Permits",
    "final_address": "1626 Charlton Dr",
    "address_councildis": "D",
    "status": "Pending",
    "rowid": "1239170",
    "final_x": "3680232.01915",
    "final_y": "550692.127828",
    "longitude": "-90.07140742838374",
    "latitude": "30.008250790315834",
    "geocoded_column": {
      "latitude": "30.008250790315834",
      "longitude": "-90.07140742838374"
    }
  },
  {
    "service_request": "2025-1239169",
    "request_type": "Trash/Recycling",
    "request_reason": "Request a Large Item Pick Up",
    "date_created": "2025-11-10T15:13:51.000",
    "date_modified": "2025-11-10T15:13:53.000",
    "request_status": "Pending",
    "responsible_agency": "Department of Sanitation",
    "final_address": "5059 W St Andrews Cir",
    "address_councildis": "E",
    "status": "Assigned to Contractor",
    "contractor": "Waste Pro",
    "rowid": "1239169",
    "final_x": "3719040.0661",
    "final_y": "559677.031517",
    "longitude": "-89.94845923499015",
    "latitude": "30.031723422169648",
    "geocoded_column": {
      "latitude": "30.031723422169648",
      "longitude": "-89.94845923499015"
    }
  },
  {
    "service_request": "2025-1239168",
    "request_type": "Trash/Recycling",
    "request_reason": "Request a Large Item Pick Up",
    "date_created": "2025-11-10T15:12:33.000",
    "date_modified": "2025-11-10T15:29:16.000",
    "request_status": "Pending",
    "responsible_agency": "Department of Sanitation",
    "final_address": "6441 Colbert St",
    "address_councildis": "A",
    "status": "Assigned to Contractor",
    "contractor": "IV Waste",
    "rowid": "1239168",
    "final_x": "3667793.53236",
    "final_y": "550490.955732",
    "longitude": "-90.11071138055385",
    "latitude": "30.00806843604851",
    "geocoded_column": {
      "latitude": "30.00806843604851",
      "longitude": "-90.11071138055385"
    }
  },
  {
    "service_request": "2025-1239167",
    "request_type": "Trash/Recycling",
    "request_reason": "Request a Large Item Pick Up",
    "date_created": "2025-11-10T15:08:56.000",
    "date_modified": "2025-11-10T15:28:22.000",
    "request_status": "Pending",
    "responsible_agency": "Department of Sanitation",
    "final_address": "8631 Cohn St",
    "address_councildis": "A",
    "status": "Assigned to Contractor",
    "contractor": "IV Waste",
    "rowid": "1239167",
    "final_x": "3662152.29402",
    "final_y": "531573.520643",
    "longitude": "-90.12916194524814",
    "latitude": "29.956216108082657",
    "geocoded_column": {
      "latitude": "29.956216108082657",
      "longitude": "-90.12916194524814"
    }
  },
  {
    "service_request": "2025-1239166",
    "request_type": "Property Maintenance",
    "request_reason": "Property Maintenance",
    "date_created": "2025-11-10T15:08:42.000",
    "date_modified": "2025-11-10T15:11:26.000",
    "request_status": "Pending",
    "responsible_agency": "Department of Code Enforcement",
    "final_address": "2738 Verbena St",
    "address_councildis": "D",
    "status": "Pending",
    "rowid": "1239166",
    "final_x": "3688055.61763",
    "final_y": "547847.569106",
    "longitude": "-90.04679122545298",
    "latitude": "30.000190054967074",
    "geocoded_column": {
      "latitude": "30.000190054967074",
      "longitude": "-90.04679122545298"
    }
  },
  {
    "service_request": "2025-1239165",
    "request_type": "Safety & Permits",
    "request_reason": "Zoning Enforcement",
    "date_created": "2025-11-10T15:08:41.000",
    "date_modified": "2025-11-10T15:08:43.000",
    "request_status": "Pending",
    "responsible_agency": "Safety and Permits",
    "final_address": "10961 Roger Dr",
    "address_councildis": "E",
    "status": "Pending",
    "rowid": "1239165",
    "final_x": "3712109.63474",
    "final_y": "563457.30288",
    "longitude": "-89.97021743259738",
    "latitude": "30.042346149307274",
    "geocoded_column": {
      "latitude": "30.042346149307274",
      "longitude": "-89.97021743259738"
    }
  },
  {
    "service_request": "2025-1239164",
    "request_type": "Abandoned Vehicles",
    "request_reason": "Abandoned/Junk Vehicles",
    "date_created": "2025-11-10T15:04:18.000",
    "date_modified": "2025-11-10T15:05:34.000",
    "request_status": "Pending",
    "responsible_agency": "Department of Public Works",
    "final_address": "1421 Broadway St",
    "address_councildis": "A",
    "status": "Pending",
    "rowid": "1239164",
    "final_x": "3664730.67834",
    "final_y": "527224.218751",
    "longitude": "-90.12116552838296",
    "latitude": "29.94418217609813",
    "geocoded_column": {
      "latitude": "29.94418217609813",
      "longitude": "-90.12116552838296"
    }
  },
  {
    "service_request": "2025-1239163",
    "request_type": "Trash/Recycling",
    "request_reason": "Dead Animal Pick Up",
    "date_created": "2025-11-10T15:03:27.000",
    "date_modified": "2025-11-10T15:03:29.000",
    "request_status": "Pending",
    "responsible_agency": "Department of Sanitation",
    "final_address": "PALMER AVE & FRERET ST",
    "address_councildis": "A",
    "status": "Assigned to Contractor",
    "contractor": "IV Waste",
    "rowid": "1239163",
    "final_x": "3665940.3",
    "final_y": "524604.58",
    "longitude": "-90.11743416311707",
    "latitude": "29.936943768264683",
    "geocoded_column": {
      "latitude": "29.936943768264683",
      "longitude": "-90.11743416311707"
    }
  },
  {
    "service_request": "2025-1239162",
    "request_type": "Trash/Recycling",
    "request_reason": "Start Trash Service",
    "date_created": "2025-11-10T15:02:16.000",
    "date_modified": "2025-11-10T15:02:18.000",
    "request_status": "Pending",
    "responsible_agency": "Department of Sanitation",
    "final_address": "542 Abalon Ct",
    "address_councildis": "C",
    "status": "Assigned to Contractor",
    "contractor": "Richards Disposal",
    "rowid": "1239162",
    "final_x": "3688961.5023",
    "final_y": "530450.662786",
    "longitude": "-90.04454763241662",
    "latitude": "29.952326715809814",
    "geocoded_column": {
      "latitude": "29.952326715809814",
      "longitude": "-90.04454763241662"
    }
  },
  {
    "service_request": "2025-1239161",
    "request_type": "Trash/Recycling",
    "request_reason": "Repair Trash Cart",
    "date_created": "2025-11-10T15:00:13.000",
    "date_modified": "2025-11-10T15:00:16.000",
    "request_status": "Pending",
    "responsible_agency": "Department of Sanitation",
    "final_address": "825 Ursulines Ave",
    "address_councildis": "C",
    "status": "Assigned to Contractor",
    "contractor": "IV Waste",
    "rowid": "1239161",
    "final_x": "3683011.15304",
    "final_y": "533996.211973",
    "longitude": "-90.0632119794657",
    "latitude": "29.962258451010456",
    "geocoded_column": {
      "latitude": "29.962258451010456",
      "longitude": "-90.0632119794657"
    }
  },
  {
    "service_request": "2025-1239160",
    "request_type": "Trash/Recycling",
    "request_reason": "Replace Trash Cart",
    "date_created": "2025-11-10T14:54:37.000",
    "date_modified": "2025-11-10T14:54:40.000",
    "request_status": "Pending",
    "responsible_agency": "Department of Sanitation",
    "final_address": "814 City Park Ave",
    "address_councildis": "A",
    "status": "Assigned to Contractor",
    "contractor": "IV Waste",
    "rowid": "1239160",
    "final_x": "3671152.52206",
    "final_y": "541658.819532",
    "longitude": "-90.10039952740178",
    "latitude": "29.98368414658626",
    "geocoded_column": {
      "latitude": "29.98368414658626",
      "longitude": "-90.10039952740178"
    }
  },
  {
    "service_request": "2025-1239159",
    "request_type": "Roads and Streets",
    "request_reason": "Sidewalk Damaged or Missing",
    "date_created": "2025-11-10T14:49:45.000",
    "date_modified": "2025-11-10T14:49:47.000",
    "request_status": "Pending",
    "responsible_agency": "Department of Public Works",
    "final_address": "2614 Cleveland Ave",
    "address_councildis": "B",
    "status": "Pending",
    "rowid": "1239159",
    "final_x": "3675386.84104",
    "final_y": "534444.604933",
    "longitude": "-90.08727307259714",
    "latitude": "29.963721559123726",
    "geocoded_column": {
      "latitude": "29.963721559123726",
      "longitude": "-90.08727307259714"
    }
  },
  {
    "service_request": "2025-1239158",
    "request_type": "Abandoned Vehicles",
    "request_reason": "Abandoned/Junk Vehicles",
    "date_created": "2025-11-10T14:49:33.000",
    "date_modified": "2025-11-10T14:49:34.000",
    "request_status": "Pending",
    "responsible_agency": "Department of Public Works",
    "final_address": "3159 Urquhart St",
    "address_councildis": "C",
    "status": "Pending",
    "rowid": "1239158",
    "final_x": "3689643.45052",
    "final_y": "536653.697095",
    "longitude": "-90.04217365777501",
    "latitude": "29.969361793164385",
    "geocoded_column": {
      "latitude": "29.969361793164385",
      "longitude": "-90.04217365777501"
    }
  },
  {
    "service_request": "2025-1239157",
    "request_type": "Trash/Recycling",
    "request_reason": "Repair Trash Cart",
    "date_created": "2025-11-10T14:44:10.000",
    "date_modified": "2025-11-10T14:44:11.000",
    "request_status": "Pending",
    "responsible_agency": "Department of Sanitation",
    "final_address": "4714 Canal St",
    "address_councildis": "A",
    "status": "Assigned to Contractor",
    "contractor": "IV Waste",
    "rowid": "1239157",
    "final_x": "3668925.06522",
    "final_y": "539877.821834",
    "longitude": "-90.107495223737",
    "latitude": "29.97885272111446",
    "geocoded_column": {
      "latitude": "29.97885272111446",
      "longitude": "-90.107495223737"
    }
  },
  {
    "service_request": "2025-1239156",
    "request_type": "Roads and Streets",
    "request_reason": "Pothole",
    "date_created": "2025-11-10T14:42:54.000",
    "date_modified": "2025-11-10T14:42:56.000",
    "request_status": "Pending",
    "responsible_agency": "Department of Public Works",
    "final_address": "1000 BLK Chartres St",
    "address_councildis": "C",
    "status": "Pending",
    "rowid": "1239156",
    "final_x": "3683614.48214",
    "final_y": "533261.364695",
    "longitude": "-90.06133251724118",
    "latitude": "29.960219470472197",
    "geocoded_column": {
      "latitude": "29.960219470472197",
      "longitude": "-90.06133251724118"
    }
  },
  {
    "service_request": "2025-1239155",
    "request_type": "Trash/Recycling",
    "request_reason": "Request a Large Item Pick Up",
    "date_created": "2025-11-10T14:42:15.000",
    "date_modified": "2025-11-10T14:42:17.000",
    "request_status": "Pending",
    "responsible_agency": "Department of Sanitation",
    "final_address": "1821 Bordeaux St",
    "address_councildis": "B",
    "status": "Assigned to Contractor",
    "contractor": "IV Waste",
    "rowid": "1239155",
    "final_x": "3669336.85191",
    "final_y": "521613.126137",
    "longitude": "-90.10681212866741",
    "latitude": "29.928618687726875",
    "geocoded_column": {
      "latitude": "29.928618687726875",
      "longitude": "-90.10681212866741"
    }
  },
  {
    "service_request": "2025-1239154",
    "request_type": "Trash/Recycling",
    "request_reason": "Illegal Dumping",
    "date_created": "2025-11-10T14:36:15.000",
    "date_modified": "2025-11-10T14:36:17.000",
    "request_status": "Pending",
    "responsible_agency": "Department of Sanitation",
    "final_address": "FRANCIS ST & DWYER RD",
    "address_councildis": "D",
    "status": "Pending",
    "rowid": "1239154",
    "final_x": "3698147.5",
    "final_y": "555291.28",
    "longitude": "-90.01463998101886",
    "latitude": "30.020342039839964",
    "geocoded_column": {
      "latitude": "30.020342039839964",
      "longitude": "-90.01463998101886"
    }
  },
  {
    "service_request": "2025-1239153",
    "request_type": "Trash/Recycling",
    "request_reason": "Request a Large Item Pick Up",
    "date_created": "2025-11-10T14:35:45.000",
    "date_modified": "2025-11-10T14:35:47.000",
    "request_status": "Pending",
    "responsible_agency": "Department of Sanitation",
    "final_address": "9121 Dwyer Rd",
    "address_councildis": "E",
    "status": "Assigned to Contractor",
    "contractor": "Waste Pro",
    "rowid": "1239153",
    "final_x": "3708495.38539",
    "final_y": "557130.866586",
    "longitude": "-89.98187558451723",
    "latitude": "30.025068675651674",
    "geocoded_column": {
      "latitude": "30.025068675651674",
      "longitude": "-89.98187558451723"
    }
  },
  {
    "service_request": "2025-1239152",
    "request_type": "Trash/Recycling",
    "request_reason": "Request a Large Item Pick Up",
    "date_created": "2025-11-10T14:32:44.000",
    "date_modified": "2025-11-10T14:32:45.000",
    "request_status": "Pending",
    "responsible_agency": "Department of Sanitation",
    "final_address": "825 Webster St",
    "address_councildis": "A",
    "status": "Assigned to Contractor",
    "contractor": "IV Waste",
    "rowid": "1239152",
    "final_x": "3664234.08525",
    "final_y": "519612.25388",
    "longitude": "-90.12298728091457",
    "latitude": "29.923266120101392",
    "geocoded_column": {
      "latitude": "29.923266120101392",
      "longitude": "-90.12298728091457"
    }
  },
  {
    "service_request": "2025-1239151",
    "request_type": "Trash/Recycling",
    "request_reason": "Order Recycling Cart",
    "date_created": "2025-11-10T14:31:44.000",
    "date_modified": "2025-11-10T14:31:46.000",
    "request_status": "Pending",
    "responsible_agency": "Department of Sanitation",
    "final_address": "1639 Independence St",
    "address_councildis": "D",
    "status": "Pending",
    "rowid": "1239151",
    "final_x": "3691537.72176",
    "final_y": "537719.541768",
    "longitude": "-90.0361533168936",
    "latitude": "29.97223366161637",
    "geocoded_column": {
      "latitude": "29.97223366161637",
      "longitude": "-90.0361533168936"
    }
  },
  {
    "service_request": "2025-1239150",
    "request_type": "Trash/Recycling",
    "request_reason": "Dead Animal Pick Up",
    "date_created": "2025-11-10T14:31:04.000",
    "date_modified": "2025-11-10T14:31:07.000",
    "request_status": "Pending",
    "responsible_agency": "Department of Sanitation",
    "final_address": "131 S Rendon St",
    "address_councildis": "B",
    "status": "Assigned to Contractor",
    "contractor": "IV Waste",
    "rowid": "1239150",
    "final_x": "3673384.83054",
    "final_y": "536244.110535",
    "longitude": "-90.09353374655623",
    "latitude": "29.968729305338623",
    "geocoded_column": {
      "latitude": "29.968729305338623",
      "longitude": "-90.09353374655623"
    }
  },
  {
    "service_request": "2025-1239149",
    "request_type": "Trash/Recycling",
    "request_reason": "Request a Large Item Pick Up",
    "date_created": "2025-11-10T14:27:47.000",
    "date_modified": "2025-11-10T14:27:49.000",
    "request_status": "Pending",
    "responsible_agency": "Department of Sanitation",
    "final_address": "5942 Airway St",
    "address_councildis": "D",
    "status": "Assigned to Contractor",
    "contractor": "Waste Pro",
    "rowid": "1239149",
    "final_x": "3696501.12912",
    "final_y": "552803.19887",
    "longitude": "-90.01993209171201",
    "latitude": "30.01355275016171",
    "geocoded_column": {
      "latitude": "30.01355275016171",
      "longitude": "-90.01993209171201"
    }
  },
  {
    "service_request": "2025-1239148",
    "request_type": "Trash/Recycling",
    "request_reason": "Request a Large Item Pick Up",
    "date_created": "2025-11-10T14:24:18.000",
    "date_modified": "2025-11-10T14:24:20.000",
    "request_status": "Pending",
    "responsible_agency": "Department of Sanitation",
    "final_address": "3606 Upperline St",
    "address_councildis": "B",
    "status": "Assigned to Contractor",
    "contractor": "IV Waste",
    "rowid": "1239148",
    "final_x": "3669255.88967",
    "final_y": "528107.032703",
    "longitude": "-90.10684828311611",
    "latitude": "29.946477220727576",
    "geocoded_column": {
      "latitude": "29.946477220727576",
      "longitude": "-90.10684828311611"
    }
  },
  {
    "service_request": "2025-1239147",
    "request_type": "Trash/Recycling",
    "request_reason": "Request a Large Item Pick Up",
    "date_created": "2025-11-10T14:15:47.000",
    "date_modified": "2025-11-10T14:15:48.000",
    "request_status": "Pending",
    "responsible_agency": "Department of Sanitation",
    "final_address": "9780 W Rockton Cir",
    "address_councildis": "E",
    "status": "Assigned to Contractor",
    "contractor": "Waste Pro",
    "rowid": "1239147",
    "final_x": "3708144.9715",
    "final_y": "562925.286176",
    "longitude": "-89.98276702006768",
    "latitude": "30.041012403516635",
    "geocoded_column": {
      "latitude": "30.041012403516635",
      "longitude": "-89.98276702006768"
    }
  },
  {
    "service_request": "2025-1239146",
    "request_type": "Health Related Request",
    "request_reason": "Homeless Encampment Complaint",
    "date_created": "2025-11-10T14:15:01.000",
    "date_modified": "2025-11-10T14:15:03.000",
    "request_status": "Pending",
    "responsible_agency": "Office Of Homeless Services And Strategy",
    "final_address": "1720 Touro St",
    "address_councildis": "D",
    "status": "Pending",
    "rowid": "1239146",
    "final_x": "3684011.22178",
    "final_y": "538628.082569",
    "longitude": "-90.05989135707799",
    "latitude": "29.974963972254294",
    "geocoded_column": {
      "latitude": "29.974963972254294",
      "longitude": "-90.05989135707799"
    }
  },
  {
    "service_request": "2025-1239145",
    "request_type": "Roads and Streets",
    "request_reason": "Debris in Driving Lanes",
    "date_created": "2025-11-10T14:10:16.000",
    "date_modified": "2025-11-10T14:10:17.000",
    "request_status": "Pending",
    "responsible_agency": "Department of Public Works",
    "final_address": "3041 Laussat Pl",
    "address_councildis": "D",
    "status": "Pending",
    "rowid": "1239145",
    "final_x": "3690270.45628",
    "final_y": "541989.289612",
    "longitude": "-90.04000333984813",
    "latitude": "29.984013337538816",
    "geocoded_column": {
      "latitude": "29.984013337538816",
      "longitude": "-90.04000333984813"
    }
  },
  {
    "service_request": "2025-1239144",
    "request_type": "Property Maintenance",
    "request_reason": "Property Maintenance",
    "date_created": "2025-11-10T14:09:56.000",
    "date_modified": "2025-11-10T14:09:58.000",
    "request_status": "Pending",
    "responsible_agency": "Department of Code Enforcement",
    "final_address": "3401 St Charles Ave",
    "address_councildis": "B",
    "status": "Pending",
    "rowid": "1239144",
    "final_x": "3674082.35137",
    "final_y": "521550.123897",
    "longitude": "-90.09183371656464",
    "latitude": "29.928304925379464",
    "geocoded_column": {
      "latitude": "29.928304925379464",
      "longitude": "-90.09183371656464"
    }
  },
  {
    "service_request": "2025-1239143",
    "request_type": "Abandoned Vehicles",
    "request_reason": "Abandoned/Junk Vehicles",
    "date_created": "2025-11-10T14:09:49.000",
    "date_modified": "2025-11-10T14:12:44.000",
    "request_status": "Pending",
    "responsible_agency": "Department of Public Works",
    "final_address": "400 BLK Elmira Ave",
    "address_councildis": "C",
    "status": "Inspected",
    "rowid": "1239143",
    "final_x": "3688219.66749",
    "final_y": "530112.463185",
    "longitude": "-90.04690198780123",
    "latitude": "29.95141970480459",
    "geocoded_column": {
      "latitude": "29.95141970480459",
      "longitude": "-90.04690198780123"
    }
  },
  {
    "service_request": "2025-1239142",
    "request_type": "Abandoned Vehicles",
    "request_reason": "Abandoned/Junk Vehicles",
    "date_created": "2025-11-10T14:07:54.000",
    "date_modified": "2025-11-10T14:15:54.000",
    "request_status": "Pending",
    "responsible_agency": "Department of Public Works",
    "final_address": "800 BLK Elmira Ave",
    "address_councildis": "C",
    "status": "Inspected",
    "rowid": "1239142",
    "final_x": "3688149.73423",
    "final_y": "528524.770822",
    "longitude": "-90.04717907259578",
    "latitude": "29.94705625296998",
    "geocoded_column": {
      "latitude": "29.94705625296998",
      "longitude": "-90.04717907259578"
    }
  },
  {
    "service_request": "2025-1239141",
    "request_type": "Abandoned Vehicles",
    "request_reason": "Abandoned/Junk Vehicles",
    "date_created": "2025-11-10T14:05:02.000",
    "date_modified": "2025-11-10T14:05:03.000",
    "request_status": "Pending",
    "responsible_agency": "Department of Public Works",
    "final_address": "2227 DAbadie St",
    "address_councildis": "D",
    "status": "Pending",
    "rowid": "1239141",
    "final_x": "3680769.60187",
    "final_y": "539837.915274",
    "longitude": "-90.07008709312517",
    "latitude": "29.978389253719765",
    "geocoded_column": {
      "latitude": "29.978389253719765",
      "longitude": "-90.07008709312517"
    }
  },
  {
    "service_request": "2025-1239140",
    "request_type": "Trash/Recycling",
    "request_reason": "Request a Large Item Pick Up",
    "date_created": "2025-11-10T14:01:09.000",
    "date_modified": "2025-11-10T14:01:11.000",
    "request_status": "Pending",
    "responsible_agency": "Department of Sanitation",
    "final_address": "14912 Curran Rd",
    "address_councildis": "E",
    "status": "Assigned to Contractor",
    "contractor": "Waste Pro",
    "rowid": "1239140",
    "final_x": "3720665.19577",
    "final_y": "574116.672938",
    "longitude": "-89.94277005382037",
    "latitude": "30.071372347607458",
    "geocoded_column": {
      "latitude": "30.071372347607458",
      "longitude": "-89.94277005382037"
    }
  },
  {
    "service_request": "2025-1239139",
    "request_type": "Traffic Signals",
    "request_reason": "Traffic Signal Malfunctioning or Damaged",
    "date_created": "2025-11-10T14:00:53.000",
    "date_modified": "2025-11-10T14:00:55.000",
    "request_status": "Pending",
    "responsible_agency": "Department of Public Works",
    "final_address": "123 N Broad St",
    "address_councildis": "B",
    "status": "Pending",
    "rowid": "1239139",
    "final_x": "3675394.49608",
    "final_y": "535384.016262",
    "longitude": "-90.08721663689293",
    "latitude": "29.966304394143023",
    "geocoded_column": {
      "latitude": "29.966304394143023",
      "longitude": "-90.08721663689293"
    }
  },
  {
    "service_request": "2025-1239138",
    "request_type": "Roads and Streets",
    "request_reason": "Debris in Driving Lanes",
    "date_created": "2025-11-10T13:59:24.000",
    "date_modified": "2025-11-10T13:59:25.000",
    "request_status": "Pending",
    "responsible_agency": "Department of Public Works",
    "final_address": "MARAIS ST & GALLIER ST",
    "address_councildis": "C",
    "status": "Pending",
    "rowid": "1239138",
    "final_x": "3690544.2",
    "final_y": "535983.58",
    "longitude": "-90.03935292875347",
    "latitude": "29.96749126753598",
    "geocoded_column": {
      "latitude": "29.96749126753598",
      "longitude": "-90.03935292875347"
    }
  },
  {
    "service_request": "2025-1239137",
    "request_type": "Trash/Recycling",
    "request_reason": "Order Recycling Cart",
    "date_created": "2025-11-10T13:58:35.000",
    "date_modified": "2025-11-10T13:58:37.000",
    "request_status": "Pending",
    "responsible_agency": "Department of Sanitation",
    "final_address": "7310 Lake Barrington Dr",
    "address_councildis": "E",
    "status": "Pending",
    "rowid": "1239137",
    "final_x": "3712107.21547",
    "final_y": "564855.999586",
    "longitude": "-89.97017249046482",
    "latitude": "30.04619208062829",
    "geocoded_column": {
      "latitude": "30.04619208062829",
      "longitude": "-89.97017249046482"
    }
  },
  {
    "service_request": "2025-1239136",
    "request_type": "Trash/Recycling",
    "request_reason": "Request a Large Item Pick Up",
    "date_created": "2025-11-10T13:58:21.000",
    "date_modified": "2025-11-10T13:58:23.000",
    "request_status": "Pending",
    "responsible_agency": "Department of Sanitation",
    "final_address": "5409 Mandeville St",
    "address_councildis": "D",
    "status": "Assigned to Contractor",
    "contractor": "IV Waste",
    "rowid": "1239136",
    "final_x": "3684509.98268",
    "final_y": "552841.473111",
    "longitude": "-90.05781644796946",
    "latitude": "30.014030467679675",
    "geocoded_column": {
      "latitude": "30.014030467679675",
      "longitude": "-90.05781644796946"
    }
  },
  {
    "service_request": "2025-1239135",
    "request_type": "Trash/Recycling",
    "request_reason": "Request a Large Item Pick Up",
    "date_created": "2025-11-10T13:50:28.000",
    "date_modified": "2025-11-10T13:50:30.000",
    "request_status": "Pending",
    "responsible_agency": "Department of Sanitation",
    "final_address": "418 Thayer St",
    "address_councildis": "C",
    "status": "Assigned to Contractor",
    "contractor": "Richards Disposal",
    "rowid": "1239135",
    "final_x": "3689594.41679",
    "final_y": "530100.926401",
    "longitude": "-90.0425616260201",
    "latitude": "29.951345472012935",
    "geocoded_column": {
      "latitude": "29.951345472012935",
      "longitude": "-90.0425616260201"
    }
  },
  {
    "service_request": "2025-1239134",
    "request_type": "Traffic Signals",
    "request_reason": "Traffic Signal Malfunctioning or Damaged",
    "date_created": "2025-11-10T13:48:40.000",
    "date_modified": "2025-11-10T13:48:42.000",
    "request_status": "Pending",
    "responsible_agency": "Department of Public Works",
    "final_address": "2609 St Claude Ave",
    "address_councildis": "C",
    "status": "Pending",
    "rowid": "1239134",
    "final_x": "3687268.55855",
    "final_y": "536614.324167",
    "longitude": "-90.04967512802371",
    "latitude": "29.969326900712144",
    "geocoded_column": {
      "latitude": "29.969326900712144",
      "longitude": "-90.04967512802371"
    }
  },
  {
    "service_request": "2025-1239133",
    "request_type": "Trash/Recycling",
    "request_reason": "Request a Large Item Pick Up",
    "date_created": "2025-11-10T13:45:19.000",
    "date_modified": "2025-11-10T15:06:37.000",
    "request_status": "Pending",
    "responsible_agency": "Department of Sanitation",
    "final_address": "6752 Fleur-De-Lis Dr",
    "address_councildis": "A",
    "status": "Assigned to Contractor",
    "contractor": "IV Waste",
    "rowid": "1239133",
    "final_x": "3665373.98196",
    "final_y": "553178.133207",
    "longitude": "-90.11826548246938",
    "latitude": "30.015528002061245",
    "geocoded_column": {
      "latitude": "30.015528002061245",
      "longitude": "-90.11826548246938"
    }
  },
  {
    "service_request": "2025-1239132",
    "request_type": "Trash/Recycling",
    "request_reason": "Request a Large Item Pick Up",
    "date_created": "2025-11-10T13:40:36.000",
    "date_modified": "2025-11-10T13:40:38.000",
    "request_status": "Pending",
    "responsible_agency": "Department of Sanitation",
    "final_address": "7820 Shubert St",
    "address_councildis": "E",
    "status": "Assigned to Contractor",
    "contractor": "Waste Pro",
    "rowid": "1239132",
    "final_x": "3695500.8367",
    "final_y": "559393.905437",
    "longitude": "-90.02285432652712",
    "latitude": "30.03170618610636",
    "geocoded_column": {
      "latitude": "30.03170618610636",
      "longitude": "-90.02285432652712"
    }
  },
  {
    "service_request": "2025-1239131",
    "request_type": "Trash/Recycling",
    "request_reason": "Damaged Caused By Contractor",
    "date_created": "2025-11-10T13:40:22.000",
    "date_modified": "2025-11-10T13:40:24.000",
    "request_status": "Pending",
    "responsible_agency": "Department of Sanitation",
    "final_address": "1513 General Ogden St",
    "address_councildis": "A",
    "status": "Assigned to Contractor",
    "contractor": "IV Waste",
    "rowid": "1239131",
    "final_x": "3660694.0928",
    "final_y": "531130.023746",
    "longitude": "-90.13378113865511",
    "latitude": "29.955038690761572",
    "geocoded_column": {
      "latitude": "29.955038690761572",
      "longitude": "-90.13378113865511"
    }
  },
  {
    "service_request": "2025-1239130",
    "request_type": "Trash/Recycling",
    "request_reason": "Request a Large Item Pick Up",
    "date_created": "2025-11-10T13:39:13.000",
    "date_modified": "2025-11-10T13:39:14.000",
    "request_status": "Pending",
    "responsible_agency": "Department of Sanitation",
    "final_address": "10 S Oak Ridge Ct",
    "address_councildis": "E",
    "status": "Assigned to Contractor",
    "contractor": "Waste Pro",
    "rowid": "1239130",
    "final_x": "3713407.32498",
    "final_y": "567597.882276",
    "longitude": "-89.965960111648",
    "latitude": "30.053688550446058",
    "geocoded_column": {
      "latitude": "30.053688550446058",
      "longitude": "-89.965960111648"
    }
  },
  {
    "service_request": "2025-1239129",
    "request_type": "Trash/Recycling",
    "request_reason": "Request a Large Item Pick Up",
    "date_created": "2025-11-10T13:34:13.000",
    "date_modified": "2025-11-10T13:34:15.000",
    "request_status": "Pending",
    "responsible_agency": "Department of Sanitation",
    "final_address": "24 Morrison Ct",
    "address_councildis": "E",
    "status": "Assigned to Contractor",
    "contractor": "Waste Pro",
    "rowid": "1239129",
    "final_x": "3704088.18743",
    "final_y": "561280.22915",
    "longitude": "-89.9956484640333",
    "latitude": "30.0366199957958",
    "geocoded_column": {
      "latitude": "30.0366199957958",
      "longitude": "-89.9956484640333"
    }
  },
  {
    "service_request": "2025-1239128",
    "request_type": "Trash/Recycling",
    "request_reason": "Repair Trash Cart",
    "date_created": "2025-11-10T13:32:33.000",
    "date_modified": "2025-11-10T13:32:35.000",
    "request_status": "Pending",
    "responsible_agency": "Department of Sanitation",
    "final_address": "5857 Marshal Foch St",
    "address_councildis": "A",
    "status": "Assigned to Contractor",
    "contractor": "IV Waste",
    "rowid": "1239128",
    "final_x": "3669831.93908",
    "final_y": "546291.087568",
    "longitude": "-90.1044137225855",
    "latitude": "29.996460299137073",
    "geocoded_column": {
      "latitude": "29.996460299137073",
      "longitude": "-90.1044137225855"
    }
  },
  {
    "service_request": "2025-1239127",
    "request_type": "Trash/Recycling",
    "request_reason": "Request a Large Item Pick Up",
    "date_created": "2025-11-10T13:32:16.000",
    "date_modified": "2025-11-10T13:32:17.000",
    "request_status": "Pending",
    "responsible_agency": "Department of Sanitation",
    "final_address": "10139 Seawood St",
    "address_councildis": "E",
    "status": "Assigned to Contractor",
    "contractor": "Waste Pro",
    "rowid": "1239127",
    "final_x": "3712996.3955",
    "final_y": "557491.502747",
    "longitude": "-89.96763966987905",
    "latitude": "30.02591354504789",
    "geocoded_column": {
      "latitude": "30.02591354504789",
      "longitude": "-89.96763966987905"
    }
  },
  {
    "service_request": "2025-1239126",
    "request_type": "Trash/Recycling",
    "request_reason": "Request a Large Item Pick Up",
    "date_created": "2025-11-10T13:30:24.000",
    "date_modified": "2025-11-10T13:30:28.000",
    "request_status": "Pending",
    "responsible_agency": "Department of Sanitation",
    "final_address": "7814 Read Blvd",
    "address_councildis": "E",
    "status": "Assigned to Contractor",
    "contractor": "Waste Pro",
    "rowid": "1239126",
    "final_x": "3708084.44024",
    "final_y": "565115.297698",
    "longitude": "-89.98287674704763",
    "latitude": "30.047036022270206",
    "geocoded_column": {
      "latitude": "30.047036022270206",
      "longitude": "-89.98287674704763"
    }
  },
  {
    "service_request": "2025-1239125",
    "request_type": "Safety & Permits",
    "request_reason": "Zoning Enforcement",
    "date_created": "2025-11-10T13:29:41.000",
    "date_modified": "2025-11-10T13:31:26.000",
    "request_status": "Pending",
    "responsible_agency": "Safety and Permits",
    "final_address": "1338 Kerlerec St",
    "address_councildis": "C",
    "status": "Pending",
    "rowid": "1239125",
    "final_x": "3682152.29474",
    "final_y": "536336.928583",
    "longitude": "-90.06584236217303",
    "latitude": "29.96872076678407",
    "geocoded_column": {
      "latitude": "29.96872076678407",
      "longitude": "-90.06584236217303"
    }
  },
  {
    "service_request": "2025-1239124",
    "request_type": "Trash/Recycling",
    "request_reason": "Order Second Trash Cart",
    "date_created": "2025-11-10T13:28:51.000",
    "date_modified": "2025-11-10T13:28:53.000",
    "request_status": "Pending",
    "responsible_agency": "Department of Sanitation",
    "final_address": "7230 Bullard Ave",
    "address_councildis": "E",
    "status": "Assigned to Contractor",
    "contractor": "Waste Pro",
    "rowid": "1239124",
    "final_x": "3714131.48376",
    "final_y": "565876.468323",
    "longitude": "-89.96373628643913",
    "latitude": "30.04893158357134",
    "geocoded_column": {
      "latitude": "30.04893158357134",
      "longitude": "-89.96373628643913"
    }
  },
  {
    "service_request": "2025-1239123",
    "request_type": "Trash/Recycling",
    "request_reason": "Repair Recycling Cart",
    "date_created": "2025-11-10T13:27:22.000",
    "date_modified": "2025-11-10T13:27:24.000",
    "request_status": "Pending",
    "responsible_agency": "Department of Sanitation",
    "final_address": "614 Fourth St",
    "address_councildis": "B",
    "status": "Pending",
    "rowid": "1239123",
    "final_x": "3678222.70658",
    "final_y": "519557.789495",
    "longitude": "-90.07883238075428",
    "latitude": "29.922702653827383",
    "geocoded_column": {
      "latitude": "29.922702653827383",
      "longitude": "-90.07883238075428"
    }
  },
  {
    "service_request": "2025-1239122",
    "request_type": "Streetlights",
    "request_reason": "Streetlight Outage/Malfunction",
    "date_created": "2025-11-10T13:27:02.000",
    "date_modified": "2025-11-10T13:27:04.000",
    "request_status": "Pending",
    "responsible_agency": "Department of Public Works",
    "final_address": "2822 Boyd St",
    "address_councildis": "C",
    "status": "Pending",
    "rowid": "1239122",
    "final_x": "3708198.6492",
    "final_y": "519885.444408",
    "longitude": "-89.9841989125013",
    "latitude": "29.92266715525774",
    "geocoded_column": {
      "latitude": "29.92266715525774",
      "longitude": "-89.9841989125013"
    }
  },
  {
    "service_request": "2025-1239121",
    "request_type": "Trash/Recycling",
    "request_reason": "Request a Large Item Pick Up",
    "date_created": "2025-11-10T13:26:50.000",
    "date_modified": "2025-11-10T13:26:52.000",
    "request_status": "Pending",
    "responsible_agency": "Department of Sanitation",
    "final_address": "2607 Marais St",
    "address_councildis": "C",
    "status": "Assigned to Contractor",
    "contractor": "IV Waste",
    "rowid": "1239121",
    "final_x": "3687307.68246",
    "final_y": "536827.152264",
    "longitude": "-90.04954404153501",
    "latitude": "29.969910898380157",
    "geocoded_column": {
      "latitude": "29.969910898380157",
      "longitude": "-90.04954404153501"
    }
  },
  {
    "service_request": "2025-1239120",
    "request_type": "Trash/Recycling",
    "request_reason": "Replace Trash Cart",
    "date_created": "2025-11-10T13:25:58.000",
    "date_modified": "2025-11-10T13:26:00.000",
    "request_status": "Pending",
    "responsible_agency": "Department of Sanitation",
    "final_address": "1456 N Johnson St",
    "address_councildis": "D",
    "status": "Assigned to Contractor",
    "contractor": "IV Waste",
    "rowid": "1239120",
    "final_x": "3680495.00578",
    "final_y": "537860.710345",
    "longitude": "-90.07102316214986",
    "latitude": "29.97296094579313",
    "geocoded_column": {
      "latitude": "29.97296094579313",
      "longitude": "-90.07102316214986"
    }
  },
  {
    "service_request": "2025-1239119",
    "request_type": "Trash/Recycling",
    "request_reason": "Request a Large Item Pick Up",
    "date_created": "2025-11-10T13:24:17.000",
    "date_modified": "2025-11-10T13:24:19.000",
    "request_status": "Pending",
    "responsible_agency": "Department of Sanitation",
    "final_address": "1628 Gordon St",
    "address_councildis": "E",
    "status": "Assigned to Contractor",
    "contractor": "Metro Disposal",
    "rowid": "1239119",
    "final_x": "3699929.99613",
    "final_y": "535478.516486",
    "longitude": "-90.00973101629367",
    "latitude": "29.965807743964668",
    "geocoded_column": {
      "latitude": "29.965807743964668",
      "longitude": "-90.00973101629367"
    }
  },
  {
    "service_request": "2025-1239118",
    "request_type": "Trash/Recycling",
    "request_reason": "Request a Large Item Pick Up",
    "date_created": "2025-11-10T13:22:59.000",
    "date_modified": "2025-11-10T13:23:02.000",
    "request_status": "Pending",
    "responsible_agency": "Department of Sanitation",
    "final_address": "4911 Friar Tuck Dr",
    "address_councildis": "E",
    "status": "Assigned to Contractor",
    "contractor": "Waste Pro",
    "rowid": "1239118",
    "final_x": "3717715.79801",
    "final_y": "557760.492955",
    "longitude": "-89.95271691457673",
    "latitude": "30.02649765206411",
    "geocoded_column": {
      "latitude": "30.02649765206411",
      "longitude": "-89.95271691457673"
    }
  },
  {
    "service_request": "2025-1239117",
    "request_type": "Trash/Recycling",
    "request_reason": "Repair Recycling Cart",
    "date_created": "2025-11-10T13:21:13.000",
    "date_modified": "2025-11-10T13:21:15.000",
    "request_status": "Pending",
    "responsible_agency": "Department of Sanitation",
    "final_address": "5066 Charmes Ct",
    "address_councildis": "E",
    "status": "Pending",
    "rowid": "1239117",
    "final_x": "3726716.82534",
    "final_y": "561409.760606",
    "longitude": "-89.92413329398555",
    "latitude": "30.036230364039614",
    "geocoded_column": {
      "latitude": "30.036230364039614",
      "longitude": "-89.92413329398555"
    }
  },
  {
    "service_request": "2025-1239116",
    "request_type": "Trash/Recycling",
    "request_reason": "Replace Trash Cart",
    "date_created": "2025-11-10T13:21:12.000",
    "date_modified": "2025-11-10T13:21:16.000",
    "request_status": "Pending",
    "responsible_agency": "Department of Sanitation",
    "final_address": "25 English Turn Dr",
    "address_councildis": "C",
    "status": "Assigned to Contractor",
    "contractor": "Richards Disposal",
    "rowid": "1239116",
    "final_x": "3720308.66681",
    "final_y": "514294.228147",
    "longitude": "-89.94618657021738",
    "latitude": "29.90689569587488",
    "geocoded_column": {
      "latitude": "29.90689569587488",
      "longitude": "-89.94618657021738"
    }
  },
  {
    "service_request": "2025-1239115",
    "request_type": "Trash/Recycling",
    "request_reason": "Repair Trash Cart",
    "date_created": "2025-11-10T13:11:48.000",
    "date_modified": "2025-11-10T13:11:49.000",
    "request_status": "Pending",
    "responsible_agency": "Department of Sanitation",
    "final_address": "5330 Norgate Dr",
    "address_councildis": "E",
    "status": "Assigned to Contractor",
    "contractor": "Waste Pro",
    "rowid": "1239115",
    "final_x": "3707251.05515",
    "final_y": "557592.954715",
    "longitude": "-89.98579026641812",
    "latitude": "30.026379533021576",
    "geocoded_column": {
      "latitude": "30.026379533021576",
      "longitude": "-89.98579026641812"
    }
  },
  {
    "service_request": "2025-1239114",
    "request_type": "Streetlights",
    "request_reason": "Streetlight Outage/Malfunction",
    "date_created": "2025-11-10T13:11:38.000",
    "date_modified": "2025-11-10T13:17:06.000",
    "request_status": "Pending",
    "responsible_agency": "Department of Public Works",
    "final_address": "4400 BLK Franklin Ave",
    "address_councildis": "D",
    "status": "Pending",
    "rowid": "1239114",
    "final_x": "3686946.34687",
    "final_y": "549254.470176",
    "longitude": "-90.05024569590054",
    "latitude": "30.004092722605968",
    "geocoded_column": {
      "latitude": "30.004092722605968",
      "longitude": "-90.05024569590054"
    }
  },
  {
    "service_request": "2025-1239113",
    "request_type": "Trash/Recycling",
    "request_reason": "Request a Large Item Pick Up",
    "date_created": "2025-11-10T13:11:00.000",
    "date_modified": "2025-11-10T13:11:03.000",
    "request_status": "Pending",
    "responsible_agency": "Department of Sanitation",
    "final_address": "1321 S Dorgenois St",
    "address_councildis": "B",
    "status": "Assigned to Contractor",
    "contractor": "IV Waste",
    "rowid": "1239113",
    "final_x": "3672563.47566",
    "final_y": "530206.013953",
    "longitude": "-90.09633349587504",
    "latitude": "29.952150964910544",
    "geocoded_column": {
      "latitude": "29.952150964910544",
      "longitude": "-90.09633349587504"
    }
  },
  {
    "service_request": "2025-1239112",
    "request_type": "Trash/Recycling",
    "request_reason": "Order Trash Cart",
    "date_created": "2025-11-10T13:10:10.000",
    "date_modified": "2025-11-10T13:10:12.000",
    "request_status": "Pending",
    "responsible_agency": "Department of Sanitation",
    "final_address": "4650 Cerise Ave",
    "address_councildis": "E",
    "status": "Assigned to Contractor",
    "contractor": "Waste Pro",
    "rowid": "1239112",
    "final_x": "3708590.4652",
    "final_y": "555115.501529",
    "longitude": "-89.98165027228748",
    "latitude": "30.01952412397502",
    "geocoded_column": {
      "latitude": "30.01952412397502",
      "longitude": "-89.98165027228748"
    }
  },
  {
    "service_request": "2025-1239111",
    "request_type": "Abandoned Vehicles",
    "request_reason": "Abandoned/Junk Vehicles",
    "date_created": "2025-11-10T13:09:50.000",
    "date_modified": "2025-11-10T13:09:51.000",
    "request_status": "Pending",
    "responsible_agency": "Department of Public Works",
    "final_address": "400 BLK Mandeville St",
    "address_councildis": "C",
    "status": "Pending",
    "rowid": "1239111",
    "final_x": "3685960.74484",
    "final_y": "534072.871931",
    "longitude": "-90.05389491563949",
    "latitude": "29.962379009340307",
    "geocoded_column": {
      "latitude": "29.962379009340307",
      "longitude": "-90.05389491563949"
    }
  },
  {
    "service_request": "2025-1239110",
    "request_type": "Trash/Recycling",
    "request_reason": "Repair Trash Cart",
    "date_created": "2025-11-10T13:03:14.000",
    "date_modified": "2025-11-10T13:03:15.000",
    "request_status": "Pending",
    "responsible_agency": "Department of Sanitation",
    "final_address": "3218 Homer St",
    "address_councildis": "C",
    "status": "Assigned to Contractor",
    "contractor": "Richards Disposal",
    "rowid": "1239110",
    "final_x": "3696199.41181",
    "final_y": "528239.50624",
    "longitude": "-90.02177368151732",
    "latitude": "29.94602097694309",
    "geocoded_column": {
      "latitude": "29.94602097694309",
      "longitude": "-90.02177368151732"
    }
  },
  {
    "service_request": "2025-1239109",
    "request_type": "Property Maintenance",
    "request_reason": "Property Maintenance",
    "date_created": "2025-11-10T12:59:02.000",
    "date_modified": "2025-11-10T13:01:59.000",
    "request_status": "Pending",
    "responsible_agency": "Department of Code Enforcement",
    "final_address": "933 N Prieur St",
    "address_councildis": "D",
    "status": "Pending",
    "rowid": "1239109",
    "final_x": "3679495.27656",
    "final_y": "536071.094855",
    "longitude": "-90.07424260499909",
    "latitude": "29.968070362897645",
    "geocoded_column": {
      "latitude": "29.968070362897645",
      "longitude": "-90.07424260499909"
    }
  },
  {
    "service_request": "2025-1239108",
    "request_type": "Drainage",
    "request_reason": "Drainage Manhole Cover Missing or Damaged",
    "date_created": "2025-11-10T12:58:53.000",
    "date_modified": "2025-11-10T12:58:55.000",
    "request_status": "Pending",
    "responsible_agency": "Sewerage & Water Board",
    "final_address": "2126 St Nick Dr",
    "address_councildis": "C",
    "status": "Pending",
    "rowid": "1239108",
    "final_x": "3700010.5336",
    "final_y": "523199.854651",
    "longitude": "-90.00992452803354",
    "latitude": "29.9320431934316",
    "geocoded_column": {
      "latitude": "29.9320431934316",
      "longitude": "-90.00992452803354"
    }
  },
  {
    "service_request": "2025-1239107",
    "request_type": "Trash/Recycling",
    "request_reason": "Request a Large Item Pick Up",
    "date_created": "2025-11-10T12:56:06.000",
    "date_modified": "2025-11-10T12:56:08.000",
    "request_status": "Pending",
    "responsible_agency": "Department of Sanitation",
    "final_address": "2621 Acacia St",
    "address_councildis": "D",
    "status": "Assigned to Contractor",
    "contractor": "IV Waste",
    "rowid": "1239107",
    "final_x": "3687350.18575",
    "final_y": "546406.086097",
    "longitude": "-90.04907075609731",
    "latitude": "29.996248257101833",
    "geocoded_column": {
      "latitude": "29.996248257101833",
      "longitude": "-90.04907075609731"
    }
  },
  {
    "service_request": "2025-1239106",
    "request_type": "Streetlights",
    "request_reason": "Streetlight Outage/Malfunction",
    "date_created": "2025-11-10T12:51:41.000",
    "date_modified": "2025-11-10T12:52:33.000",
    "request_status": "Pending",
    "responsible_agency": "Department of Public Works",
    "final_address": "6921 Dorchester St",
    "address_councildis": "E",
    "status": "Pending",
    "rowid": "1239106",
    "final_x": "3698980.46551",
    "final_y": "559609.899933",
    "longitude": "-90.01185071029995",
    "latitude": "30.032190204597676",
    "geocoded_column": {
      "latitude": "30.032190204597676",
      "longitude": "-90.01185071029995"
    }
  },
  {
    "service_request": "2025-1239105",
    "request_type": "Roads and Streets",
    "request_reason": "Pothole",
    "date_created": "2025-11-10T12:51:38.000",
    "date_modified": "2025-11-10T12:51:40.000",
    "request_status": "Pending",
    "responsible_agency": "Department of Public Works",
    "final_address": "725 St Ferdinand St",
    "address_councildis": "C",
    "status": "Pending",
    "rowid": "1239105",
    "final_x": "3687434.33538",
    "final_y": "535049.91175",
    "longitude": "-90.04920696104945",
    "latitude": "29.965020204358737",
    "geocoded_column": {
      "latitude": "29.965020204358737",
      "longitude": "-90.04920696104945"
    }
  },
  {
    "service_request": "2025-1239104",
    "request_type": "Trash/Recycling",
    "request_reason": "Request a Large Item Pick Up",
    "date_created": "2025-11-10T12:51:36.000",
    "date_modified": "2025-11-10T12:51:39.000",
    "request_status": "Pending",
    "responsible_agency": "Department of Sanitation",
    "final_address": "618 St Maurice Ave",
    "address_councildis": "E",
    "status": "Assigned to Contractor",
    "contractor": "Waste Pro",
    "rowid": "1239104",
    "final_x": "3699113.59722",
    "final_y": "531596.155907",
    "longitude": "-90.01245049327115",
    "latitude": "29.95515854020151",
    "geocoded_column": {
      "latitude": "29.95515854020151",
      "longitude": "-90.01245049327115"
    }
  },
  {
    "service_request": "2025-1239103",
    "request_type": "Roads and Streets",
    "request_reason": "Pothole",
    "date_created": "2025-11-10T12:48:40.000",
    "date_modified": "2025-11-10T12:48:41.000",
    "request_status": "Pending",
    "responsible_agency": "Department of Public Works",
    "final_address": "ELYSIAN FIELDS AVE & DECATUR ST",
    "address_councildis": "C",
    "status": "Pending",
    "rowid": "1239103",
    "final_x": "3685222.7",
    "final_y": "534159.78",
    "longitude": "-90.05622249311247",
    "latitude": "29.962640615748516",
    "geocoded_column": {
      "latitude": "29.962640615748516",
      "longitude": "-90.05622249311247"
    }
  },
  {
    "service_request": "2025-1239102",
    "request_type": "Trash/Recycling",
    "request_reason": "Request a Large Item Pick Up",
    "date_created": "2025-11-10T12:47:31.000",
    "date_modified": "2025-11-10T12:52:07.000",
    "request_status": "Pending",
    "responsible_agency": "Department of Sanitation",
    "final_address": "862 Olga St, New Orleans, Louisiana, 70119",
    "address_councildis": "A",
    "status": "Assigned to Contractor",
    "contractor": "IV Waste",
    "rowid": "1239102",
    "final_x": "3673382.23713",
    "final_y": "540244.124171",
    "longitude": "-90.09340524119628",
    "latitude": "29.979728061245904",
    "geocoded_column": {
      "latitude": "29.979728061245904",
      "longitude": "-90.09340524119628"
    }
  },
  {
    "service_request": "2025-1239101",
    "request_type": "Trash/Recycling",
    "request_reason": "Request a Large Item Pick Up",
    "date_created": "2025-11-10T12:45:42.000",
    "date_modified": "2025-11-10T12:45:45.000",
    "request_status": "Pending",
    "responsible_agency": "Department of Sanitation",
    "final_address": "15 St Claude Ct",
    "address_councildis": "E",
    "status": "Assigned to Contractor",
    "contractor": "Waste Pro",
    "rowid": "1239101",
    "final_x": "3697509.32016",
    "final_y": "533639.439621",
    "longitude": "-90.01744208237321",
    "latitude": "29.960827601002112",
    "geocoded_column": {
      "latitude": "29.960827601002112",
      "longitude": "-90.01744208237321"
    }
  },
  {
    "service_request": "2025-1239100",
    "request_type": "Trash/Recycling",
    "request_reason": "Request a Large Item Pick Up",
    "date_created": "2025-11-10T12:43:46.000",
    "date_modified": "2025-11-10T12:43:48.000",
    "request_status": "Pending",
    "responsible_agency": "Department of Sanitation",
    "final_address": "7830 Branch Dr",
    "address_councildis": "E",
    "status": "Assigned to Contractor",
    "contractor": "Waste Pro",
    "rowid": "1239100",
    "final_x": "3714186.87979",
    "final_y": "569350.087462",
    "longitude": "-89.96342994874716",
    "latitude": "30.05848079369851",
    "geocoded_column": {
      "latitude": "30.05848079369851",
      "longitude": "-89.96342994874716"
    }
  },
  {
    "service_request": "2025-1239099",
    "request_type": "Drainage",
    "request_reason": "Catch Basin Not Draining",
    "date_created": "2025-11-10T12:43:07.000",
    "date_modified": "2025-11-10T12:43:10.000",
    "request_status": "Pending",
    "responsible_agency": "Sewerage & Water Board",
    "final_address": "4120 Darby St",
    "address_councildis": "E",
    "status": "Pending",
    "rowid": "1239099",
    "final_x": "3711793.13432",
    "final_y": "553111.829783",
    "longitude": "-89.97160624495721",
    "latitude": "30.013910538998328",
    "geocoded_column": {
      "latitude": "30.013910538998328",
      "longitude": "-89.97160624495721"
    }
  },
  {
    "service_request": "2025-1239098",
    "request_type": "Trash/Recycling",
    "request_reason": "Request a Large Item Pick Up",
    "date_created": "2025-11-10T12:42:50.000",
    "date_modified": "2025-11-10T12:43:54.000",
    "request_status": "Pending",
    "responsible_agency": "Department of Sanitation",
    "final_address": "7300 Spring Lake Dr",
    "address_councildis": "E",
    "status": "Assigned to Contractor",
    "contractor": "Waste Pro",
    "rowid": "1239098",
    "final_x": "3700550.08221",
    "final_y": "558887.444828",
    "longitude": "-90.00691707483311",
    "latitude": "30.030153864897148",
    "geocoded_column": {
      "latitude": "30.030153864897148",
      "longitude": "-90.00691707483311"
    }
  },
  {
    "service_request": "2025-1239097",
    "request_type": "Trash/Recycling",
    "request_reason": "Request a Large Item Pick Up",
    "date_created": "2025-11-10T12:38:35.000",
    "date_modified": "2025-11-10T15:18:00.000",
    "request_status": "Pending",
    "responsible_agency": "Department of Sanitation",
    "final_address": "110 Chatelain Ct",
    "address_councildis": "E",
    "status": "Assigned to Contractor",
    "contractor": "Waste Pro",
    "rowid": "1239097",
    "final_x": "3715026.66008",
    "final_y": "567283.777316",
    "longitude": "-89.96085374817389",
    "latitude": "30.052771657285355",
    "geocoded_column": {
      "latitude": "30.052771657285355",
      "longitude": "-89.96085374817389"
    }
  },
  {
    "service_request": "2025-1239096",
    "request_type": "Trash/Recycling",
    "request_reason": "Repair Trash Cart",
    "date_created": "2025-11-10T12:35:46.000",
    "date_modified": "2025-11-10T12:35:49.000",
    "request_status": "Pending",
    "responsible_agency": "Department of Sanitation",
    "final_address": "636 Aurora Oaks Dr",
    "address_councildis": "C",
    "status": "Assigned to Contractor",
    "contractor": "Richards Disposal",
    "rowid": "1239096",
    "final_x": "3701303.89636",
    "final_y": "520457.303928",
    "longitude": "-90.00594183897371",
    "latitude": "29.924460989992376",
    "geocoded_column": {
      "latitude": "29.924460989992376",
      "longitude": "-90.00594183897371"
    }
  },
  {
    "service_request": "2025-1239095",
    "request_type": "Trash/Recycling",
    "request_reason": "Dead Animal Pick Up",
    "date_created": "2025-11-10T12:35:36.000",
    "date_modified": "2025-11-10T12:35:38.000",
    "request_status": "Pending",
    "responsible_agency": "Department of Sanitation",
    "final_address": "2620 Urquhart St",
    "address_councildis": "C",
    "status": "Assigned to Contractor",
    "contractor": "IV Waste",
    "rowid": "1239095",
    "final_x": "3687470.6559",
    "final_y": "537122.808776",
    "longitude": "-90.04901889156261",
    "latitude": "29.97071882863133",
    "geocoded_column": {
      "latitude": "29.97071882863133",
      "longitude": "-90.04901889156261"
    }
  },
  {
    "service_request": "2025-1239094",
    "request_type": "Trash/Recycling",
    "request_reason": "Order Recycling Cart",
    "date_created": "2025-11-10T12:35:21.000",
    "date_modified": "2025-11-10T12:35:23.000",
    "request_status": "Pending",
    "responsible_agency": "Department of Sanitation",
    "final_address": "4818 Desire Dr",
    "address_councildis": "D",
    "status": "Pending",
    "rowid": "1239094",
    "final_x": "3691805.4454",
    "final_y": "551432.088213",
    "longitude": "-90.0348170355399",
    "latitude": "30.00992986336787",
    "geocoded_column": {
      "latitude": "30.00992986336787",
      "longitude": "-90.0348170355399"
    }
  },
  {
    "service_request": "2025-1239093",
    "request_type": "Trash/Recycling",
    "request_reason": "Order Recycling Cart",
    "date_created": "2025-11-10T12:33:03.000",
    "date_modified": "2025-11-10T12:33:05.000",
    "request_status": "Pending",
    "responsible_agency": "Department of Sanitation",
    "final_address": "4621 Kendall Dr",
    "address_councildis": "D",
    "status": "Pending",
    "rowid": "1239093",
    "final_x": "3690560.71939",
    "final_y": "550561.699924",
    "longitude": "-90.03878063098972",
    "latitude": "30.007575343239285",
    "geocoded_column": {
      "latitude": "30.007575343239285",
      "longitude": "-90.03878063098972"
    }
  },
  {
    "service_request": "2025-1239092",
    "request_type": "Roads and Streets",
    "request_reason": "Pothole",
    "date_created": "2025-11-10T12:32:37.000",
    "date_modified": "2025-11-10T12:32:40.000",
    "request_status": "Pending",
    "responsible_agency": "Department of Public Works",
    "final_address": "N WHITE ST & MAUREPAS ST",
    "address_councildis": "A",
    "status": "Pending",
    "rowid": "1239092",
    "final_x": "3677723.7",
    "final_y": "540709.48",
    "longitude": "-90.07967704827139",
    "latitude": "29.980877737239293",
    "geocoded_column": {
      "latitude": "29.980877737239293",
      "longitude": "-90.07967704827139"
    }
  },
  {
    "service_request": "2025-1239091",
    "request_type": "Trash/Recycling",
    "request_reason": "Order Recycling Cart",
    "date_created": "2025-11-10T12:31:25.000",
    "date_modified": "2025-11-10T12:31:27.000",
    "request_status": "Pending",
    "responsible_agency": "Department of Sanitation",
    "final_address": "8916 Marks St",
    "address_councildis": "A",
    "status": "Pending",
    "rowid": "1239091",
    "final_x": "3666664.10234",
    "final_y": "537968.123913",
    "longitude": "-90.1147003756947",
    "latitude": "29.973668007017682",
    "geocoded_column": {
      "latitude": "29.973668007017682",
      "longitude": "-90.1147003756947"
    }
  },
  {
    "service_request": "2025-1239090",
    "request_type": "Trash/Recycling",
    "request_reason": "Order Recycling Cart",
    "date_created": "2025-11-10T12:30:17.000",
    "date_modified": "2025-11-10T12:30:19.000",
    "request_status": "Pending",
    "responsible_agency": "Department of Sanitation",
    "final_address": "2100 Baronne St",
    "address_councildis": "B",
    "status": "Pending",
    "rowid": "1239090",
    "final_x": "3677324.11816",
    "final_y": "524644.926396",
    "longitude": "-90.08149343316524",
    "latitude": "29.9367176425901",
    "geocoded_column": {
      "latitude": "29.9367176425901",
      "longitude": "-90.08149343316524"
    }
  },
  {
    "service_request": "2025-1239089",
    "request_type": "Trash/Recycling",
    "request_reason": "Order Recycling Cart",
    "date_created": "2025-11-10T12:28:14.000",
    "date_modified": "2025-11-10T12:28:16.000",
    "request_status": "Pending",
    "responsible_agency": "Department of Sanitation",
    "final_address": "11226 Fernley Dr",
    "address_councildis": "E",
    "status": "Pending",
    "rowid": "1239089",
    "final_x": "3717374.77176",
    "final_y": "559724.473181",
    "longitude": "-89.95371978569065",
    "latitude": "30.031909103877457",
    "geocoded_column": {
      "latitude": "30.031909103877457",
      "longitude": "-89.95371978569065"
    }
  },
  {
    "service_request": "2025-1239088",
    "request_type": "Trash/Recycling",
    "request_reason": "Illegal Dumping",
    "date_created": "2025-11-10T12:27:25.000",
    "date_modified": "2025-11-10T12:27:27.000",
    "request_status": "Pending",
    "responsible_agency": "Department of Sanitation",
    "final_address": "5000 Basinview Dr",
    "address_councildis": "E",
    "status": "Pending",
    "rowid": "1239088",
    "final_x": "3698581.58096",
    "final_y": "555483.560729",
    "longitude": "-90.01326142739428",
    "latitude": "30.020856995409183",
    "geocoded_column": {
      "latitude": "30.020856995409183",
      "longitude": "-90.01326142739428"
    }
  },
  {
    "service_request": "2025-1239087",
    "request_type": "Trash/Recycling",
    "request_reason": "Order Recycling Cart",
    "date_created": "2025-11-10T12:27:06.000",
    "date_modified": "2025-11-10T12:27:09.000",
    "request_status": "Pending",
    "responsible_agency": "Department of Sanitation",
    "final_address": "3105 Frenchmen St",
    "address_councildis": "D",
    "status": "Pending",
    "rowid": "1239087",
    "final_x": "3684007.26287",
    "final_y": "544050.682254",
    "longitude": "-90.05971350266513",
    "latitude": "29.989874334597637",
    "geocoded_column": {
      "latitude": "29.989874334597637",
      "longitude": "-90.05971350266513"
    }
  },
  {
    "service_request": "2025-1239086",
    "request_type": "Trash/Recycling",
    "request_reason": "Request a Large Item Pick Up",
    "date_created": "2025-11-10T12:26:38.000",
    "date_modified": "2025-11-10T12:26:39.000",
    "request_status": "Pending",
    "responsible_agency": "Department of Sanitation",
    "final_address": "7532 Sandy Cove Dr",
    "address_councildis": "E",
    "status": "Assigned to Contractor",
    "contractor": "Waste Pro",
    "rowid": "1239086",
    "final_x": "3715878.48415",
    "final_y": "568870.266085",
    "longitude": "-89.95810121847497",
    "latitude": "30.05710576666089",
    "geocoded_column": {
      "latitude": "30.05710576666089",
      "longitude": "-89.95810121847497"
    }
  },
  {
    "service_request": "2025-1239085",
    "request_type": "Trash/Recycling",
    "request_reason": "Order Recycling Cart",
    "date_created": "2025-11-10T12:25:52.000",
    "date_modified": "2025-11-10T12:25:54.000",
    "request_status": "Pending",
    "responsible_agency": "Department of Sanitation",
    "final_address": "4900 Magnolia St",
    "address_councildis": "B",
    "status": "Pending",
    "rowid": "1239085",
    "final_x": "3669125.55642",
    "final_y": "524581.35654",
    "longitude": "-90.10737889390998",
    "latitude": "29.93678658771715",
    "geocoded_column": {
      "latitude": "29.93678658771715",
      "longitude": "-90.10737889390998"
    }
  },