[
  {
    "service_request": "2023-1034214",
    "request_type": "Trash/Recycling",
    "request_reason": "MIssed Recycling Pick-Up",
    "date_created": "2023-09-12T01:18:22.000",
    "date_modified": "2023-09-12T01:18:23.000",
    "request_status": "Pending",
    "responsible_agency": "Department of Sanitation",
    "final_address": "1736 Valmont St",
    "address_councildis": "B",
    "status": "Assigned to Contractor",
    "contractor": "Richards Disposal",
    "rowid": "1034214",
    "final_x": "3667904.17389",
    "final_y": "522135.264762",
    "longitude": "-90.11131722851702",
    "latitude": "29.930096492868557",
    "geocoded_column": {
      "latitude": "29.930096492868557",
      "longitude": "-90.11131722851702"
    }
  },
  {
    "service_request": "2023-1034213",
    "request_type": "Property Maintenance",
    "request_reason": "Property Maintenance",
    "date_created": "2023-09-12T01:13:59.000",
    "date_modified": "2023-09-12T01:13:59.000",
    "request_status": "Pending",
    "responsible_agency": "Department of Code Enforcement",
    "final_address": "4415 Constance St",
    "address_councildis": "B",
    "status": "Pending",
    "rowid": "1034213",
    "final_x": "3670911.2379",
    "final_y": "518439.950134",
    "longitude": "-90.10194975962328",
    "latitude": "29.919847032673903",
    "geocoded_column": {
      "latitude": "29.919847032673903",
      "longitude": "-90.10194975962328"
    }
  },
  {
    "service_request": "2023-1034211",
    "request_type": "Trash/Recycling",
    "request_reason": "Order Recycling Cart",
    "date_created": "2023-09-12T00:15:03.000",
    "date_modified": "2023-09-12T00:15:03.000",
    "request_status": "Pending",
    "responsible_agency": "Department of Sanitation",
    "final_address": "5413 Burgundy St",
    "address_councildis": "E",
    "status": "Pending",
    "rowid": "1034211",
    "final_x": "3697069.76682",
    "final_y": "533200.837316",
    "longitude": "-90.0188459887216",
    "latitude": "29.95963547257295",
    "geocoded_column": {
      "latitude": "29.95963547257295",
      "longitude": "-90.0188459887216"
    }
  },
  {
    "service_request": "2023-1034210",
    "request_type": "Traffic Signals/Signs/Striping/Streetlights",
    "request_reason": "Street Light Outage/Malfunction",
    "date_created": "2023-09-11T23:49:24.000",
    "date_modified": "2023-09-11T23:49:25.000",
    "request_status": "Pending",
    "responsible_agency": "Department of Public Works",
    "final_address": "4841 St Bernard Ave",
    "address_councildis": "D",
    "status": "Assigned to Contractor",
    "contractor": "Legacy Professional Services",
    "rowid": "1034210",
    "final_x": "3676815.21294",
    "final_y": "550048.715412",
    "longitude": "-90.08222438119026",
    "latitude": "30.006584660859755",
    "geocoded_column": {
      "latitude": "30.006584660859755",
      "longitude": "-90.08222438119026"
    }
  },
  {
    "service_request": "2023-1034209",
    "request_type": "Traffic Signals/Signs/Striping/Streetlights",
    "request_reason": "Street Light Outage/Malfunction",
    "date_created": "2023-09-11T23:40:50.000",
    "date_modified": "2023-09-11T23:40:50.000",
    "request_status": "Pending",
    "responsible_agency": "Department of Public Works",
    "final_address": "1925 Mirabeau Ave",
    "address_councildis": "D",
    "status": "Assigned to Contractor",
    "contractor": "Legacy Professional Services",
    "rowid": "1034209",
    "final_x": "3681816.52085",
    "final_y": "550675.4557",
    "longitude": "-90.06640208264253",
    "latitude": "30.008156870800352",
    "geocoded_column": {
      "latitude": "30.008156870800352",
      "longitude": "-90.06640208264253"
    }
  },
  {
    "service_request": "2023-1034208",
    "request_type": "Traffic Signals/Signs/Striping/Streetlights",
    "request_reason": "Street Light Outage/Malfunction",
    "date_created": "2023-09-11T23:33:53.000",
    "date_modified": "2023-09-11T23:33:54.000",
    "request_status": "Pending",
    "responsible_agency": "Department of Public Works",
    "final_address": "5000 Wilton Dr",
    "address_councildis": "D",
    "status": "Assigned to Contractor",
    "contractor": "Legacy Professional Services",
    "rowid": "1034208",
    "final_x": "3681808.80124",
    "final_y": "551207.521301",
    "longitude": "-90.0664078853317",
    "latitude": "30.009620093817013",
    "geocoded_column": {
      "latitude": "30.009620093817013",
      "longitude": "-90.0664078853317"
    }
  },
  {
    "service_request": "2023-1034207",
    "request_type": "Mosquito, Termite & Rodent Control",
    "request_reason": "Mosquito Complaint",
    "date_created": "2023-09-11T23:25:17.000",
    "date_modified": "2023-09-11T23:25:17.000",
    "request_status": "Pending",
    "responsible_agency": "Mosquito, Termite & Rodent Control Board",
    "final_address": "7450 Fieldston Rd",
    "address_councildis": "E",
    "status": "Pending",
    "rowid": "1034207",
    "final_x": "3700564.08029",
    "final_y": "560182.114141",
    "longitude": "-90.00682547901073",
    "latitude": "30.033713258664005",
    "geocoded_column": {
      "latitude": "30.033713258664005",
      "longitude": "-90.00682547901073"
    }
  },
  {
    "service_request": "2023-1034206",
    "request_type": "Trash/Recycling",
    "request_reason": "Order Trash Cart",
    "date_created": "2023-09-11T23:21:54.000",
    "date_modified": "2023-09-11T23:21:55.000",
    "request_status": "Pending",
    "responsible_agency": "Department of Sanitation",
    "final_address": "7450 Fieldston Rd",
    "address_councildis": "E",
    "status": "Assigned to Contractor",
    "contractor": "Waste Pro",
    "rowid": "1034206",
    "final_x": "3700564.08029",
    "final_y": "560182.114141",
    "longitude": "-90.00682547901073",
    "latitude": "30.033713258664005",
    "geocoded_column": {
      "latitude": "30.033713258664005",
      "longitude": "-90.00682547901073"
    }
  },
  {
    "service_request": "2023-1034205",
    "request_type": "Roads/Drainage",
    "request_reason": "Catch Basin - Clogged",
    "date_created": "2023-09-11T23:19:21.000",
    "date_modified": "2023-09-11T23:19:21.000",
    "request_status": "Pending",
    "responsible_agency": "Department of Public Works",
    "final_address": "5615 Marshal Foch St",
    "address_councildis": "A",
    "status": "Pending",
    "rowid": "1034205",
    "final_x": "3669647.66414",
    "final_y": "544369.237327",
    "longitude": "-90.10506091469112",
    "latitude": "29.991181306268338",
    "geocoded_column": {
      "latitude": "29.991181306268338",
      "longitude": "-90.10506091469112"
    }
  },
  {
    "service_request": "2023-1034204",
    "request_type": "Abandoned Vehicles",
    "request_reason": "Abandoned/Junk Vehicles",
    "date_created": "2023-09-11T23:18:45.000",
    "date_modified": "2023-09-11T23:18:45.000",
    "request_status": "Pending",
    "responsible_agency": "Department of Public Works",
    "final_address": "1594 Jefferson Ave",
    "address_councildis": "A",
    "status": "Pending",
    "rowid": "1034204",
    "final_x": "3667280.95706",
    "final_y": "521402.620665",
    "longitude": "-90.11330925488824",
    "latitude": "29.928100215236533",
    "geocoded_column": {
      "latitude": "29.928100215236533",
      "longitude": "-90.11330925488824"
    }
  },
  {
    "service_request": "2023-1034203",
    "request_type": "Traffic Signals/Signs/Striping/Streetlights",
    "request_reason": "Traffic Sign Missing/Damaged",
    "date_created": "2023-09-11T23:14:47.000",
    "date_modified": "2023-09-11T23:14:47.000",
    "request_status": "Pending",
    "responsible_agency": "Department of Public Works",
    "final_address": "CANAL BLVD & FLORIDA BLVD",
    "address_councildis": "A",
    "status": "Pending",
    "rowid": "1034203",
    "final_x": "3668371.3",
    "final_y": "545343.08",
    "longitude": "-90.10905980065687",
    "latitude": "29.993896598145398",
    "geocoded_column": {
      "latitude": "29.993896598145398",
      "longitude": "-90.10905980065687"
    }
  },
  {
    "service_request": "2023-1034202",
    "request_type": "Trash/Recycling",
    "request_reason": "Order Recycling Cart",
    "date_created": "2023-09-11T22:54:38.000",
    "date_modified": "2023-09-11T22:54:38.000",
    "request_status": "Pending",
    "responsible_agency": "Department of Sanitation",
    "final_address": "405 30Th St",
    "address_councildis": "A",
    "status": "Pending",
    "rowid": "1034202",
    "final_x": "3664849.90343",
    "final_y": "550612.862484",
    "longitude": "-90.12000716139768",
    "latitude": "30.008489671879108",
    "geocoded_column": {
      "latitude": "30.008489671879108",
      "longitude": "-90.12000716139768"
    }
  },
  {
    "service_request": "2023-1034201",
    "request_type": "Trash/Recycling",
    "request_reason": "Replace Trash Cart",
    "date_created": "2023-09-11T22:35:08.000",
    "date_modified": "2023-09-11T22:35:09.000",
    "request_status": "Pending",
    "responsible_agency": "Department of Sanitation",
    "status": "Assigned to Contractor",
    "rowid": "1034201",
    "longitude": "0.0",
    "latitude": "0.0",
    "geocoded_column": {
      "latitude": "0.0",
      "longitude": "0.0"
    }
  },
  {
    "service_request": "2023-1034200",
    "request_type": "Trash/Recycling",
    "request_reason": "Order Recycling Cart",
    "date_created": "2023-09-11T21:47:34.000",
    "date_modified": "2023-09-11T21:47:34.000",
    "request_status": "Pending",
    "responsible_agency": "Department of Sanitation",
    "final_address": "2940 Audubon St",
    "address_councildis": "B",
    "status": "Pending",
    "rowid": "1034200",
    "final_x": "3667881.59105",
    "final_y": "531659.810947",
    "longitude": "-90.11106779006508",
    "latitude": "29.956286578240658",
    "geocoded_column": {
      "latitude": "29.956286578240658",
      "longitude": "-90.11106779006508"
    }
  },
  {
    "service_request": "2023-1034199",
    "request_type": "Roads/Drainage",
    "request_reason": "Pothole",
    "date_created": "2023-09-11T21:41:34.000",
    "date_modified": "2023-09-11T21:41:34.000",
    "request_status": "Pending",
    "responsible_agency": "Department of Public Works",
    "final_address": "1423 General Pershing St",
    "address_councildis": "B",
    "status": "Pending",
    "rowid": "1034199",
    "final_x": "3671330.69185",
    "final_y": "520571.244024",
    "longitude": "-90.1005533659415",
    "latitude": "29.925695010510914",
    "geocoded_column": {
      "latitude": "29.925695010510914",
      "longitude": "-90.1005533659415"
    }
  },
  {
    "service_request": "2023-1034198",
    "request_type": "Traffic Signals/Signs/Striping/Streetlights",
    "request_reason": "Traffic Signal Malfunctioning/Damaged",
    "date_created": "2023-09-11T21:33:30.000",
    "date_modified": "2023-09-11T21:33:31.000",
    "request_status": "Pending",
    "responsible_agency": "Department of Public Works",
    "final_address": "GENTILLY BLVD & NORMAN MAYER AVE",
    "address_councildis": "D",
    "status": "Pending",
    "rowid": "1034198",
    "final_x": "3683432.44",
    "final_y": "546645.85",
    "longitude": "-90.06143821714113",
    "latitude": "29.99702767803761",
    "geocoded_column": {
      "latitude": "29.99702767803761",
      "longitude": "-90.06143821714113"
    }
  },
  {
    "service_request": "2023-1034197",
    "request_type": "Roads/Drainage",
    "request_reason": "Pothole",
    "date_created": "2023-09-11T21:32:45.000",
    "date_modified": "2023-09-11T21:32:45.000",
    "request_status": "Pending",
    "responsible_agency": "Department of Public Works",
    "final_address": "4216 Chestnut St",
    "address_councildis": "B",
    "status": "Pending",
    "rowid": "1034197",
    "final_x": "3671574.31393",
    "final_y": "519539.203703",
    "longitude": "-90.09981939416457",
    "latitude": "29.922850019854593",
    "geocoded_column": {
      "latitude": "29.922850019854593",
      "longitude": "-90.09981939416457"
    }
  },
  {
    "service_request": "2023-1034196",
    "request_type": "Trash/Recycling",
    "request_reason": "Request a Large Item Pick Up",
    "date_created": "2023-09-11T21:27:50.000",
    "date_modified": "2023-09-11T21:27:51.000",
    "request_status": "Pending",
    "responsible_agency": "Department of Sanitation",
    "status": "Assigned to Contractor",
    "rowid": "1034196",
    "longitude": "0.0",
    "latitude": "0.0",
    "geocoded_column": {
      "latitude": "0.0",
      "longitude": "0.0"
    }
  },
  {
    "service_request": "2023-1034195",
    "request_type": "Roads/Drainage",
    "request_reason": "Pothole",
    "date_created": "2023-09-11T21:18:50.000",
    "date_modified": "2023-09-11T21:18:50.000",
    "request_status": "Pending",
    "responsible_agency": "Department of Public Works",
    "final_address": "1421 Constantinople St",
    "address_councildis": "B",
    "status": "Pending",
    "rowid": "1034195",
    "final_x": "3672433.24257",
    "final_y": "520667.657465",
    "longitude": "-90.09706965638372",
    "latitude": "29.925927453713577",
    "geocoded_column": {
      "latitude": "29.925927453713577",
      "longitude": "-90.09706965638372"
    }
  },
  {
    "service_request": "2023-1034194",
    "request_type": "Roads/Drainage",
    "request_reason": "Pothole",
    "date_created": "2023-09-11T21:10:42.000",
    "date_modified": "2023-09-11T21:10:42.000",
    "request_status": "Pending",
    "responsible_agency": "Department of Public Works",
    "final_address": "1312 Milan St",
    "address_councildis": "B",
    "status": "Pending",
    "rowid": "1034194",
    "final_x": "3671625.82823",
    "final_y": "520286.919608",
    "longitude": "-90.09963137110304",
    "latitude": "29.92490447494246",
    "geocoded_column": {
      "latitude": "29.92490447494246",
      "longitude": "-90.09963137110304"
    }
  },
  {
    "service_request": "2023-1034193",
    "request_type": "Property Maintenance",
    "request_reason": "Property Maintenance",
    "date_created": "2023-09-11T20:38:04.000",
    "date_modified": "2023-09-11T20:38:04.000",
    "request_status": "Pending",
    "responsible_agency": "Department of Code Enforcement",
    "final_address": "7906 Michigan St",
    "address_councildis": "E",
    "status": "Pending",
    "rowid": "1034193",
    "final_x": "3711133.94168",
    "final_y": "567417.776996",
    "longitude": "-89.97315239291255",
    "latitude": "30.05326773266014",
    "geocoded_column": {
      "latitude": "30.05326773266014",
      "longitude": "-89.97315239291255"
    }
  },
  {
    "service_request": "2023-1034192",
    "request_type": "Roads/Drainage",
    "request_reason": "Catch Basin - Clogged",
    "date_created": "2023-09-11T20:35:10.000",
    "date_modified": "2023-09-11T20:35:10.000",
    "request_status": "Pending",
    "responsible_agency": "Department of Public Works",
    "final_address": "3645 Magazine St",
    "address_councildis": "B",
    "status": "Pending",
    "rowid": "1034192",
    "final_x": "3673734.19835",
    "final_y": "519227.604919",
    "longitude": "-90.09301212301546",
    "latitude": "29.921929112325657",
    "geocoded_column": {
      "latitude": "29.921929112325657",
      "longitude": "-90.09301212301546"
    }
  },
  {
    "service_request": "2023-1034191",
    "request_type": "Parks & Parkways",
    "request_reason": "Request Tree Service (Right of Way/Public Property)",
    "date_created": "2023-09-11T20:18:50.000",
    "date_modified": "2023-09-11T20:18:50.000",
    "request_status": "Pending",
    "responsible_agency": "Department of Parks & Parkway",
    "final_address": "3600 Chestnut St",
    "address_councildis": "B",
    "status": "Pending",
    "rowid": "1034191",
    "final_x": "3673912.44795",
    "final_y": "519932.72588",
    "longitude": "-90.09242535895338",
    "latitude": "29.923862662172834",
    "geocoded_column": {
      "latitude": "29.923862662172834",
      "longitude": "-90.09242535895338"
    }
  },
  {
    "service_request": "2023-1034190",
    "request_type": "Property Maintenance",
    "request_reason": "Property Maintenance",
    "date_created": "2023-09-11T20:17:18.000",
    "date_modified": "2023-09-11T20:17:18.000",
    "request_status": "Pending",
    "responsible_agency": "Department of Code Enforcement",
    "final_address": "LAKE FOREST BLVD & MAYO RD",
    "address_councildis": "E",
    "status": "Pending",
    "rowid": "1034190",
    "final_x": "3702502.5",
    "final_y": "556568.18",
    "longitude": "-90.00083269926672",
    "latitude": "30.023714494448107",
    "geocoded_column": {
      "latitude": "30.023714494448107",
      "longitude": "-90.00083269926672"
    }
  },
  {
    "service_request": "2023-1034188",
    "request_type": "Traffic Signals/Signs/Striping/Streetlights",
    "request_reason": "Street Light Outage/Malfunction",
    "date_created": "2023-09-11T19:53:16.000",
    "date_modified": "2023-09-11T19:53:16.000",
    "request_status": "Pending",
    "responsible_agency": "Department of Public Works",
    "final_address": "4749 Western St",
    "address_councildis": "D",
    "status": "Assigned to Contractor",
    "contractor": "Legacy Professional Services",
    "rowid": "1034188",
    "final_x": "3684195.6534",
    "final_y": "550483.856852",
    "longitude": "-90.05889241639325",
    "latitude": "30.00755749804106",
    "geocoded_column": {
      "latitude": "30.00755749804106",
      "longitude": "-90.05889241639325"
    }
  },
  {
    "service_request": "2023-1034187",
    "request_type": "Roads/Drainage",
    "request_reason": "Street Subsidence (Sinking)",
    "date_created": "2023-09-11T19:38:21.000",
    "date_modified": "2023-09-11T19:38:21.000",
    "request_status": "Pending",
    "responsible_agency": "Department of Public Works",
    "final_address": "340 S Olympia St",
    "address_councildis": "A",
    "status": "Pending",
    "rowid": "1034187",
    "final_x": "3668781.15546",
    "final_y": "538695.732873",
    "longitude": "-90.1079896720759",
    "latitude": "29.975606607493678",
    "geocoded_column": {
      "latitude": "29.975606607493678",
      "longitude": "-90.1079896720759"
    }
  },
  {
    "service_request": "2023-1034186",
    "request_type": "Roads/Drainage",
    "request_reason": "Street Subsidence (Sinking)",
    "date_created": "2023-09-11T19:34:16.000",
    "date_modified": "2023-09-11T19:34:16.000",
    "request_status": "Pending",
    "responsible_agency": "Department of Public Works",
    "final_address": "304 S Olympia St",
    "address_councildis": "A",
    "status": "Pending",
    "rowid": "1034186",
    "final_x": "3668915.11431",
    "final_y": "538917.540938",
    "longitude": "-90.10755909769628",
    "latitude": "29.97621256532707",
    "geocoded_column": {
      "latitude": "29.97621256532707",
      "longitude": "-90.10755909769628"
    }
  },
  {
    "service_request": "2023-1034185",
    "request_type": "Roads/Drainage",
    "request_reason": "Pothole",
    "date_created": "2023-09-11T19:31:04.000",
    "date_modified": "2023-09-11T19:31:04.000",
    "request_status": "Pending",
    "responsible_agency": "Department of Public Works",
    "final_address": "6300 BLK Pitt St",
    "address_councildis": "A",
    "status": "Pending",
    "rowid": "1034185",
    "final_x": "3664112.7134",
    "final_y": "521663.148719",
    "longitude": "-90.12330204170141",
    "latitude": "29.928908961682364",
    "geocoded_column": {
      "latitude": "29.928908961682364",
      "longitude": "-90.12330204170141"
    }
  },
  {
    "service_request": "2023-1034184",
    "request_type": "Roads/Drainage",
    "request_reason": "Pothole",
    "date_created": "2023-09-11T19:27:16.000",
    "date_modified": "2023-09-11T19:27:16.000",
    "request_status": "Pending",
    "responsible_agency": "Department of Public Works",
    "final_address": "6030 Chestnut St",
    "address_councildis": "A",
    "status": "Pending",
    "rowid": "1034184",
    "final_x": "3664661.37773",
    "final_y": "519852.51884",
    "longitude": "-90.1216304547064",
    "latitude": "29.923914355909606",
    "geocoded_column": {
      "latitude": "29.923914355909606",
      "longitude": "-90.1216304547064"
    }
  },
  {
    "service_request": "2023-1034183",
    "request_type": "Trash/Recycling",
    "request_reason": "Request a Large Item Pick Up",
    "date_created": "2023-09-11T19:14:14.000",
    "date_modified": "2023-09-11T19:14:15.000",
    "request_status": "Pending",
    "responsible_agency": "Department of Sanitation",
    "final_address": "9933 E Wheaton Cir",
    "address_councildis": "E",
    "status": "Assigned to Contractor",
    "contractor": "Waste Pro",
    "rowid": "1034183",
    "final_x": "3708915.41489",
    "final_y": "562438.431391",
    "longitude": "-89.98035034126885",
    "latitude": "30.03964875508514",
    "geocoded_column": {
      "latitude": "30.03964875508514",
      "longitude": "-89.98035034126885"
    }
  },
  {
    "service_request": "2023-1034182",
    "request_type": "Trash/Recycling",
    "request_reason": "MIssed Recycling Pick-Up",
    "date_created": "2023-09-11T18:54:49.000",
    "date_modified": "2023-09-11T18:54:50.000",
    "request_status": "Pending",
    "responsible_agency": "Department of Sanitation",
    "final_address": "5500 BLK Tullis Dr",
    "address_councildis": "C",
    "status": "Assigned to Contractor",
    "contractor": "Richards Disposal",
    "rowid": "1034182",
    "final_x": "3704408.09246",
    "final_y": "512010.28351",
    "longitude": "-89.99645412804668",
    "latitude": "29.901135338753978",
    "geocoded_column": {
      "latitude": "29.901135338753978",
      "longitude": "-89.99645412804668"
    }
  },
  {
    "service_request": "2023-1034181",
    "request_type": "Traffic Signals/Signs/Striping/Streetlights",
    "request_reason": "Street Light Outage/Malfunction",
    "date_created": "2023-09-11T18:39:09.000",
    "date_modified": "2023-09-11T18:39:10.000",
    "request_status": "Pending",
    "responsible_agency": "Department of Public Works",
    "final_address": "2120 Robin St",
    "address_councildis": "D",
    "status": "Assigned to Contractor",
    "contractor": "Legacy Professional Services",
    "rowid": "1034181",
    "final_x": "3683157.20341",
    "final_y": "551759.527125",
    "longitude": "-90.06212846362372",
    "latitude": "30.01109684648843",
    "geocoded_column": {
      "latitude": "30.01109684648843",
      "longitude": "-90.06212846362372"
    }
  },
  {
    "service_request": "2023-1034180",
    "request_type": "Trash/Recycling",
    "request_reason": "Missed Trash Pick-Up",
    "date_created": "2023-09-11T18:28:10.000",
    "date_modified": "2023-09-11T18:28:11.000",
    "request_status": "Pending",
    "responsible_agency": "Department of Sanitation",
    "final_address": "6300 Brunswick Ct",
    "address_councildis": "C",
    "status": "Assigned to Contractor",
    "contractor": "Richards Disposal",
    "rowid": "1034180",
    "final_x": "3707261.55953",
    "final_y": "517095.085045",
    "longitude": "-89.9872603772768",
    "latitude": "29.915024942726067",
    "geocoded_column": {
      "latitude": "29.915024942726067",
      "longitude": "-89.9872603772768"
    }
  },
  {
    "service_request": "2023-1034179",
    "request_type": "Traffic Signals/Signs/Striping/Streetlights",
    "request_reason": "Street Light Outage/Malfunction",
    "date_created": "2023-09-11T18:22:25.000",
    "date_modified": "2023-09-11T18:22:25.000",
    "request_status": "Pending",
    "responsible_agency": "Department of Public Works",
    "final_address": "2429 Bristol Pl",
    "address_councildis": "C",
    "status": "Assigned to Contractor",
    "contractor": "Legacy Professional Services",
    "rowid": "1034179",
    "final_x": "3702587.08561",
    "final_y": "522076.774138",
    "longitude": "-90.00183187438948",
    "latitude": "29.928873035725193",
    "geocoded_column": {
      "latitude": "29.928873035725193",
      "longitude": "-90.00183187438948"
    }
  },
  {
    "service_request": "2023-1034178",
    "request_type": "Traffic Signals/Signs/Striping/Streetlights",
    "request_reason": "Street Light Outage/Malfunction",
    "date_created": "2023-09-11T18:19:56.000",
    "date_modified": "2023-09-11T18:19:57.000",
    "request_status": "Pending",
    "responsible_agency": "Department of Public Works",
    "final_address": "1525 Dufossat St",
    "address_councildis": "B",
    "status": "Assigned to Contractor",
    "contractor": "Legacy Professional Services",
    "rowid": "1034178",
    "final_x": "3668161.69364",
    "final_y": "520678.110521",
    "longitude": "-90.11055336688219",
    "latitude": "29.926082227758133",
    "geocoded_column": {
      "latitude": "29.926082227758133",
      "longitude": "-90.11055336688219"
    }
  },
  {
    "service_request": "2023-1034177",
    "request_type": "Trash/Recycling",
    "request_reason": "Request a Large Item Pick Up",
    "date_created": "2023-09-11T18:14:00.000",
    "date_modified": "2023-09-11T18:14:00.000",
    "request_status": "Pending",
    "responsible_agency": "Department of Sanitation",
    "status": "Assigned to Contractor",
    "rowid": "1034177",
    "longitude": "0.0",
    "latitude": "0.0",
    "geocoded_column": {
      "latitude": "0.0",
      "longitude": "0.0"
    }
  },
  {
    "service_request": "2023-1034176",
    "request_type": "Property Maintenance",
    "request_reason": "Property Maintenance",
    "date_created": "2023-09-11T18:13:52.000",
    "date_modified": "2023-09-11T18:13:52.000",
    "request_status": "Pending",
    "responsible_agency": "Department of Code Enforcement",
    "final_address": "1818 Lamanche St",
    "address_councildis": "E",
    "status": "Pending",
    "rowid": "1034176",
    "final_x": "3699029.07108",
    "final_y": "536473.090055",
    "longitude": "-90.0125398858565",
    "latitude": "29.968571049259648",
    "geocoded_column": {
      "latitude": "29.968571049259648",
      "longitude": "-90.0125398858565"
    }
  },
  {
    "service_request": "2023-1034175",
    "request_type": "Trash/Recycling",
    "request_reason": "Order Trash Cart",
    "date_created": "2023-09-11T17:58:00.000",
    "date_modified": "2023-09-11T17:58:00.000",
    "request_status": "Pending",
    "responsible_agency": "Department of Sanitation",
    "final_address": "1 French Market Pl",
    "address_councildis": "C",
    "status": "Assigned to Contractor",
    "contractor": "Empire Services",
    "rowid": "1034175",
    "final_x": "3684121.43151",
    "final_y": "533130.958788",
    "longitude": "-90.05973625737849",
    "latitude": "29.9598454150744",
    "geocoded_column": {
      "latitude": "29.9598454150744",
      "longitude": "-90.05973625737849"
    }
  },
  {
    "service_request": "2023-1034174",
    "request_type": "Trash/Recycling",
    "request_reason": "Replace Trash Cart",
    "date_created": "2023-09-11T17:56:56.000",
    "date_modified": "2023-09-11T17:56:56.000",
    "request_status": "Pending",
    "responsible_agency": "Department of Sanitation",
    "final_address": "2023 Iberville St",
    "address_councildis": "B",
    "status": "Assigned to Contractor",
    "contractor": "Richards Disposal",
    "rowid": "1034174",
    "final_x": "3677701.58626",
    "final_y": "533971.628549",
    "longitude": "-90.07997967243762",
    "latitude": "29.962351616795075",
    "geocoded_column": {
      "latitude": "29.962351616795075",
      "longitude": "-90.07997967243762"
    }
  },
  {
    "service_request": "2023-1034173",
    "request_type": "Trash/Recycling",
    "request_reason": "Request a Large Item Pick Up",
    "date_created": "2023-09-11T17:43:05.000",
    "date_modified": "2023-09-11T17:43:06.000",
    "request_status": "Pending",
    "responsible_agency": "Department of Sanitation",
    "final_address": "3726 Red Oak Ct",
    "address_councildis": "C",
    "status": "Assigned to Contractor",
    "contractor": "Richards Disposal",
    "rowid": "1034173",
    "final_x": "3703348.70974",
    "final_y": "514081.19589",
    "longitude": "-89.99972136461265",
    "latitude": "29.906863588962047",
    "geocoded_column": {
      "latitude": "29.906863588962047",
      "longitude": "-89.99972136461265"
    }
  },
  {
    "service_request": "2023-1034172",
    "request_type": "Trash/Recycling",
    "request_reason": "Repair Trash Cart",
    "date_created": "2023-09-11T17:42:44.000",
    "date_modified": "2023-09-11T17:42:45.000",
    "request_status": "Pending",
    "responsible_agency": "Department of Sanitation",
    "final_address": "810 Lesseps St",
    "address_councildis": "C",
    "status": "Assigned to Contractor",
    "contractor": "IV Waste",
    "rowid": "1034172",
    "final_x": "3692408.00566",
    "final_y": "534043.787717",
    "longitude": "-90.03353650775145",
    "latitude": "29.962099515949006",
    "geocoded_column": {
      "latitude": "29.962099515949006",
      "longitude": "-90.03353650775145"
    }
  },
  {
    "service_request": "2023-1034171",
    "request_type": "Trash/Recycling",
    "request_reason": "Replace Recycling Cart",
    "date_created": "2023-09-11T17:39:36.000",
    "date_modified": "2023-09-11T17:39:36.000",
    "request_status": "Pending",
    "responsible_agency": "Department of Sanitation",
    "final_address": "1810 Lesseps St",
    "address_councildis": "D",
    "status": "Pending",
    "rowid": "1034171",
    "final_x": "3693344.29117",
    "final_y": "537819.569097",
    "longitude": "-90.03044429715025",
    "latitude": "29.97245234227732",
    "geocoded_column": {
      "latitude": "29.97245234227732",
      "longitude": "-90.03044429715025"
    }
  },
  {
    "service_request": "2023-1034170",
    "request_type": "Trash/Recycling",
    "request_reason": "Request a Large Item Pick Up",
    "date_created": "2023-09-11T17:38:16.000",
    "date_modified": "2023-09-11T17:38:17.000",
    "request_status": "Pending",
    "responsible_agency": "Department of Sanitation",
    "final_address": "7707 Alabama St",
    "address_councildis": "D",
    "status": "Assigned to Contractor",
    "contractor": "Waste Pro",
    "rowid": "1034170",
    "final_x": "3694898.06102",
    "final_y": "558839.712412",
    "longitude": "-90.02477912012318",
    "latitude": "30.03020130861783",
    "geocoded_column": {
      "latitude": "30.03020130861783",
      "longitude": "-90.02477912012318"
    }
  },
  {
    "service_request": "2023-1034169",
    "request_type": "Trash/Recycling",
    "request_reason": "Request a Large Item Pick Up",
    "date_created": "2023-09-11T17:36:18.000",
    "date_modified": "2023-09-11T17:36:19.000",
    "request_status": "Pending",
    "responsible_agency": "Department of Sanitation",
    "final_address": "1810 Lesseps St",
    "address_councildis": "D",
    "status": "Assigned to Contractor",
    "contractor": "IV Waste",
    "rowid": "1034169",
    "final_x": "3693344.29117",
    "final_y": "537819.569097",
    "longitude": "-90.03044429715025",
    "latitude": "29.97245234227732",
    "geocoded_column": {
      "latitude": "29.97245234227732",
      "longitude": "-90.03044429715025"
    }
  },
  {
    "service_request": "2023-1034168",
    "request_type": "Trash/Recycling",
    "request_reason": "Replace Trash Cart",
    "date_created": "2023-09-11T17:32:21.000",
    "date_modified": "2023-09-11T17:32:22.000",
    "request_status": "Pending",
    "responsible_agency": "Department of Sanitation",
    "final_address": "1233 Flanders St",
    "address_councildis": "C",
    "status": "Assigned to Contractor",
    "contractor": "Richards Disposal",
    "rowid": "1034168",
    "final_x": "3696684.42314",
    "final_y": "526695.933182",
    "longitude": "-90.02029819105876",
    "latitude": "29.941761413781055",
    "geocoded_column": {
      "latitude": "29.941761413781055",
      "longitude": "-90.02029819105876"
    }
  },
  {
    "service_request": "2023-1034167",
    "request_type": "Trash/Recycling",
    "request_reason": "Missed Trash Pick-Up",
    "date_created": "2023-09-11T17:22:40.000",
    "date_modified": "2023-09-11T17:22:41.000",
    "request_status": "Pending",
    "responsible_agency": "Department of Sanitation",
    "final_address": "13058 Chateau Ct",
    "address_councildis": "E",
    "status": "Assigned to Contractor",
    "contractor": "Waste Pro",
    "rowid": "1034167",
    "final_x": "3724028.05529",
    "final_y": "562100.924703",
    "longitude": "-89.93260351305409",
    "latitude": "30.038221430364153",
    "geocoded_column": {
      "latitude": "30.038221430364153",
      "longitude": "-89.93260351305409"
    }
  },
  {
    "service_request": "2023-1034166",
    "request_type": "Trash/Recycling",
    "request_reason": "Request a Large Item Pick Up",
    "date_created": "2023-09-11T17:17:57.000",
    "date_modified": "2023-09-11T17:17:58.000",
    "request_status": "Pending",
    "responsible_agency": "Department of Sanitation",
    "final_address": "4630 Arts St",
    "address_councildis": "D",
    "status": "Assigned to Contractor",
    "contractor": "IV Waste",
    "rowid": "1034166",
    "final_x": "3685892.23298",
    "final_y": "549826.874452",
    "longitude": "-90.05355562583006",
    "latitude": "30.005699040664812",
    "geocoded_column": {
      "latitude": "30.005699040664812",
      "longitude": "-90.05355562583006"
    }
  },
  {
    "service_request": "2023-1034165",
    "request_type": "Traffic Signals/Signs/Striping/Streetlights",
    "request_reason": "Street Light Outage/Malfunction",
    "date_created": "2023-09-11T17:16:53.000",
    "date_modified": "2023-09-11T17:16:54.000",
    "request_status": "Pending",
    "responsible_agency": "Department of Public Works",
    "final_address": "704 Fats Domino Ave",
    "address_councildis": "E",
    "status": "Assigned to Contractor",
    "contractor": "Legacy Professional Services",
    "rowid": "1034165",
    "final_x": "3697586.14173",
    "final_y": "532358.891459",
    "longitude": "-90.01724594120469",
    "latitude": "29.95730412107301",
    "geocoded_column": {
      "latitude": "29.95730412107301",
      "longitude": "-90.01724594120469"
    }
  },
  {
    "service_request": "2023-1034164",
    "request_type": "Trash/Recycling",
    "request_reason": "Request a Large Item Pick Up",
    "date_created": "2023-09-11T17:14:38.000",
    "date_modified": "2023-09-11T17:14:38.000",
    "request_status": "Pending",
    "responsible_agency": "Department of Sanitation",
    "final_address": "6320 Orleans Ave",
    "address_councildis": "A",
    "status": "Assigned to Contractor",
    "contractor": "IV Waste",
    "rowid": "1034164",
    "final_x": "3671024.27879",
    "final_y": "549287.741267",
    "longitude": "-90.10054534227785",
    "latitude": "30.00466483621735",
    "geocoded_column": {
      "latitude": "30.00466483621735",
      "longitude": "-90.10054534227785"
    }
  },
  {
    "service_request": "2023-1034163",
    "request_type": "Trash/Recycling",
    "request_reason": "Order Recycling Cart",
    "date_created": "2023-09-11T17:11:52.000",
    "date_modified": "2023-09-11T17:11:52.000",
    "request_status": "Pending",
    "responsible_agency": "Department of Sanitation",
    "final_address": "828 Burgundy St",
    "address_councildis": "C",
    "status": "Pending",
    "rowid": "1034163",
    "final_x": "3682087.54978",
    "final_y": "533591.472645",
    "longitude": "-90.06614271572252",
    "latitude": "29.961173674403632",
    "geocoded_column": {
      "latitude": "29.961173674403632",
      "longitude": "-90.06614271572252"
    }
  },
  {
    "service_request": "2023-1034162",
    "request_type": "Parks & Parkways",
    "request_reason": "Request Tree Service (Right of Way/Public Property)",
    "date_created": "2023-09-11T17:09:22.000",
    "date_modified": "2023-09-11T17:09:58.000",
    "request_status": "Pending",
    "responsible_agency": "Department of Parks & Parkway",
    "final_address": "2700 BLK Sullen Pl",
    "address_councildis": "C",
    "status": "Pending",
    "rowid": "1034162",
    "final_x": "3707930.91448",
    "final_y": "520619.988403",
    "longitude": "-89.98501675297123",
    "latitude": "29.92469555926788",
    "geocoded_column": {
      "latitude": "29.92469555926788",
      "longitude": "-89.98501675297123"
    }
  },
  {
    "service_request": "2023-1034161",
    "request_type": "Property Maintenance",
    "request_reason": "Property Maintenance",
    "date_created": "2023-09-11T17:09:05.000",
    "date_modified": "2023-09-11T17:09:05.000",
    "request_status": "Pending",
    "responsible_agency": "Department of Code Enforcement",
    "final_address": "5700 BLK Providence Pl",
    "address_councildis": "D",
    "status": "Pending",
    "rowid": "1034161",
    "final_x": "3688249.72517",
    "final_y": "554573.598646",
    "longitude": "-90.04593930309834",
    "latitude": "30.01867817576542",
    "geocoded_column": {
      "latitude": "30.01867817576542",
      "longitude": "-90.04593930309834"
    }
  },
  {
    "service_request": "2023-1034159",
    "request_type": "Trash/Recycling",
    "request_reason": "Request a Large Item Pick Up",
    "date_created": "2023-09-11T17:03:59.000",
    "date_modified": "2023-09-11T17:09:45.000",
    "request_status": "Pending",
    "responsible_agency": "Department of Sanitation",
    "final_address": "7328 Spruce St",
    "address_councildis": "A",
    "status": "Assigned to Contractor",
    "contractor": "Richards Disposal",
    "rowid": "1034159",
    "final_x": "3665244.26042",
    "final_y": "529082.727936",
    "longitude": "-90.11948183692415",
    "latitude": "29.949277527865757",
    "geocoded_column": {
      "latitude": "29.949277527865757",
      "longitude": "-90.11948183692415"
    }
  },
  {
    "service_request": "2023-1034158",
    "request_type": "Trash/Recycling",
    "request_reason": "Order Recycling Cart",
    "date_created": "2023-09-11T17:01:29.000",
    "date_modified": "2023-09-11T17:09:41.000",
    "request_status": "Pending",
    "responsible_agency": "Department of Sanitation",
    "final_address": "2430 Dauphine St",
    "address_councildis": "C",
    "status": "Pending",
    "rowid": "1034158",
    "final_x": "3686115.37148",
    "final_y": "535279.967046",
    "longitude": "-90.05336404740254",
    "latitude": "29.965693354593693",
    "geocoded_column": {
      "latitude": "29.965693354593693",
      "longitude": "-90.05336404740254"
    }
  },
  {
    "service_request": "2023-1034157",
    "request_type": "Trash/Recycling",
    "request_reason": "Replace Trash Cart",
    "date_created": "2023-09-11T17:00:43.000",
    "date_modified": "2023-09-11T17:09:39.000",
    "request_status": "Pending",
    "responsible_agency": "Department of Sanitation",
    "final_address": "1120 Aline St",
    "address_councildis": "B",
    "status": "Assigned to Contractor",
    "contractor": "Richards Disposal",
    "rowid": "1034157",
    "final_x": "3674367.12769",
    "final_y": "519529.734327",
    "longitude": "-90.09100388912645",
    "latitude": "29.92274101754247",
    "geocoded_column": {
      "latitude": "29.92274101754247",
      "longitude": "-90.09100388912645"
    }
  },
  {
    "service_request": "2023-1034156",
    "request_type": "Trash/Recycling",
    "request_reason": "Replace Recycling Cart",
    "date_created": "2023-09-11T16:59:04.000",
    "date_modified": "2023-09-11T17:09:34.000",
    "request_status": "Pending",
    "responsible_agency": "Department of Sanitation",
    "final_address": "1930 General Pershing St",
    "address_councildis": "B",
    "status": "Pending",
    "rowid": "1034156",
    "final_x": "3671031.25595",
    "final_y": "522209.02905",
    "longitude": "-90.10144301423601",
    "latitude": "29.93020724973508",
    "geocoded_column": {
      "latitude": "29.93020724973508",
      "longitude": "-90.10144301423601"
    }
  },
  {
    "service_request": "2023-1034155",
    "request_type": "Trash/Recycling",
    "request_reason": "MIssed Recycling Pick-Up",
    "date_created": "2023-09-11T16:56:58.000",
    "date_modified": "2023-09-11T17:08:57.000",
    "request_status": "Pending",
    "responsible_agency": "Department of Sanitation",
    "final_address": "New Orleans,LA",
    "address_councildis": "B",
    "status": "Assigned to Contractor",
    "contractor": "Richards Disposal",
    "rowid": "1034155",
    "final_x": "3667355.36103",
    "final_y": "520659.132217",
    "longitude": "-90.11309937166665",
    "latitude": "29.926053679092075",
    "geocoded_column": {
      "latitude": "29.926053679092075",
      "longitude": "-90.11309937166665"
    }
  },
  {
    "service_request": "2023-1034153",
    "request_type": "Property Maintenance",
    "request_reason": "Property Maintenance",
    "date_created": "2023-09-11T16:54:50.000",
    "date_modified": "2023-09-11T16:54:50.000",
    "request_status": "Pending",
    "responsible_agency": "Department of Code Enforcement",
    "final_address": "641 Gordon St",
    "address_councildis": "E",
    "status": "Pending",
    "rowid": "1034153",
    "final_x": "3698610.748",
    "final_y": "531958.523139",
    "longitude": "-90.01402512070268",
    "latitude": "29.956170851146332",
    "geocoded_column": {
      "latitude": "29.956170851146332",
      "longitude": "-90.01402512070268"
    }
  },
  {
    "service_request": "2023-1034152",
    "request_type": "Trash/Recycling",
    "request_reason": "Request a Large Item Pick Up",
    "date_created": "2023-09-11T16:54:11.000",
    "date_modified": "2023-09-11T17:05:25.000",
    "request_status": "Pending",
    "responsible_agency": "Department of Sanitation",
    "final_address": "4908 S Robertson St",
    "address_councildis": "B",
    "status": "Assigned to Contractor",
    "contractor": "Richards Disposal",
    "rowid": "1034152",
    "final_x": "3669091.94222",
    "final_y": "524229.049596",
    "longitude": "-90.10749691489447",
    "latitude": "29.935818845805972",
    "geocoded_column": {
      "latitude": "29.935818845805972",
      "longitude": "-90.10749691489447"
    }
  },
  {
    "service_request": "2023-1034151",
    "request_type": "Trash/Recycling",
    "request_reason": "Repair Trash Cart",
    "date_created": "2023-09-11T16:52:53.000",
    "date_modified": "2023-09-11T17:03:45.000",
    "request_status": "Pending",
    "responsible_agency": "Department of Sanitation",
    "final_address": "2419 Bristol Pl",
    "address_councildis": "C",
    "status": "Assigned to Contractor",
    "contractor": "Richards Disposal",
    "rowid": "1034151",
    "final_x": "3702589.13489",
    "final_y": "522132.334202",
    "longitude": "-90.00182336715902",
    "latitude": "29.929025741126182",
    "geocoded_column": {
      "latitude": "29.929025741126182",
      "longitude": "-90.00182336715902"
    }
  },
  {
    "service_request": "2023-1034150",
    "request_type": "Trash/Recycling",
    "request_reason": "Request a Large Item Pick Up",
    "date_created": "2023-09-11T16:52:10.000",
    "date_modified": "2023-09-11T17:02:56.000",
    "request_status": "Pending",
    "responsible_agency": "Department of Sanitation",
    "final_address": "2825 Ap Tureaud Ave",
    "address_councildis": "D",
    "status": "Assigned to Contractor",
    "contractor": "IV Waste",
    "rowid": "1034150",
    "final_x": "3681528.0381",
    "final_y": "542880.251853",
    "longitude": "-90.06758553355284",
    "latitude": "29.986731602196127",
    "geocoded_column": {
      "latitude": "29.986731602196127",
      "longitude": "-90.06758553355284"
    }
  },
  {
    "service_request": "2023-1034149",
    "request_type": "Trash/Recycling",
    "request_reason": "Illegal Dumping",
    "date_created": "2023-09-11T16:50:21.000",
    "date_modified": "2023-09-11T16:50:21.000",
    "request_status": "Pending",
    "responsible_agency": "Department of Sanitation",
    "final_address": "641 Gordon St",
    "address_councildis": "E",
    "status": "Pending",
    "rowid": "1034149",
    "final_x": "3698610.748",
    "final_y": "531958.523139",
    "longitude": "-90.01402512070268",
    "latitude": "29.956170851146332",
    "geocoded_column": {
      "latitude": "29.956170851146332",
      "longitude": "-90.01402512070268"
    }
  },
  {
    "service_request": "2023-1034148",
    "request_type": "Trash/Recycling",
    "request_reason": "Replace Trash Cart",
    "date_created": "2023-09-11T16:48:57.000",
    "date_modified": "2023-09-11T16:58:50.000",
    "request_status": "Pending",
    "responsible_agency": "Department of Sanitation",
    "final_address": "1523 Pace Blvd",
    "address_councildis": "C",
    "status": "Assigned to Contractor",
    "contractor": "Richards Disposal",
    "rowid": "1034148",
    "final_x": "3694294.3352",
    "final_y": "525492.704765",
    "longitude": "-90.02788743430865",
    "latitude": "29.938528042147453",
    "geocoded_column": {
      "latitude": "29.938528042147453",
      "longitude": "-90.02788743430865"
    }
  },
  {
    "service_request": "2023-1034147",
    "request_type": "Trash/Recycling",
    "request_reason": "Illegal Dumping",
    "date_created": "2023-09-11T16:46:25.000",
    "date_modified": "2023-09-11T16:46:25.000",
    "request_status": "Pending",
    "responsible_agency": "Department of Sanitation",
    "final_address": "6019 Royal St",
    "address_councildis": "E",
    "status": "Pending",
    "rowid": "1034147",
    "final_x": "3698756.51831",
    "final_y": "532004.501123",
    "longitude": "-90.0135631580292",
    "latitude": "29.956292658536977",
    "geocoded_column": {
      "latitude": "29.956292658536977",
      "longitude": "-90.0135631580292"
    }
  },
  {
    "service_request": "2023-1034146",
    "request_type": "Parks & Parkways",
    "request_reason": "Request Tree Service (Right of Way/Public Property)",
    "date_created": "2023-09-11T16:46:21.000",
    "date_modified": "2023-09-11T16:55:23.000",
    "request_status": "Pending",
    "responsible_agency": "Department of Parks & Parkway",
    "final_address": "7347 Martin Dr",
    "address_councildis": "E",
    "status": "Pending",
    "rowid": "1034146",
    "final_x": "3698672.05693",
    "final_y": "559253.25814",
    "longitude": "-90.01283828459121",
    "latitude": "30.031219353487483",
    "geocoded_column": {
      "latitude": "30.031219353487483",
      "longitude": "-90.01283828459121"
    }
  },
  {
    "service_request": "2023-1034145",
    "request_type": "Trash/Recycling",
    "request_reason": "Order Recycling Cart",
    "date_created": "2023-09-11T16:45:31.000",
    "date_modified": "2023-09-11T16:54:19.000",
    "request_status": "Pending",
    "responsible_agency": "Department of Sanitation",
    "final_address": "5501 Burgundy St",
    "address_councildis": "E",
    "status": "Pending",
    "rowid": "1034145",
    "final_x": "3697557.99178",
    "final_y": "533087.43738",
    "longitude": "-90.0173084076639",
    "latitude": "29.95930825354646",
    "geocoded_column": {
      "latitude": "29.95930825354646",
      "longitude": "-90.0173084076639"
    }
  },
  {
    "service_request": "2023-1034144",
    "request_type": "Trash/Recycling",
    "request_reason": "Order Trash Cart",
    "date_created": "2023-09-11T16:45:12.000",
    "date_modified": "2023-09-11T16:54:03.000",
    "request_status": "Pending",
    "responsible_agency": "Department of Sanitation",
    "final_address": "5501 Burgundy St",
    "address_councildis": "E",
    "status": "Assigned to Contractor",
    "contractor": "Waste Pro",
    "rowid": "1034144",
    "final_x": "3697557.99178",
    "final_y": "533087.43738",
    "longitude": "-90.0173084076639",
    "latitude": "29.95930825354646",
    "geocoded_column": {
      "latitude": "29.95930825354646",
      "longitude": "-90.0173084076639"
    }
  },
  {
    "service_request": "2023-1034143",
    "request_type": "Parks & Parkways",
    "request_reason": "Request Tree Service (Right of Way/Public Property)",
    "date_created": "2023-09-11T16:40:52.000",
    "date_modified": "2023-09-11T16:48:27.000",
    "request_status": "Pending",
    "responsible_agency": "Department of Parks & Parkway",
    "final_address": "13100 Curran Rd",
    "address_councildis": "E",
    "status": "Pending",
    "rowid": "1034143",
    "final_x": "3715728.06623",
    "final_y": "569707.607846",
    "longitude": "-89.95854490727325",
    "latitude": "30.05941307385292",
    "geocoded_column": {
      "latitude": "30.05941307385292",
      "longitude": "-89.95854490727325"
    }
  },
  {
    "service_request": "2023-1034142",
    "request_type": "Parks & Parkways",
    "request_reason": "Request Tree Service (Right of Way/Public Property)",
    "date_created": "2023-09-11T16:34:39.000",
    "date_modified": "2023-09-11T16:40:41.000",
    "request_status": "Pending",
    "responsible_agency": "Department of Parks & Parkway",
    "final_address": "5300 Camp St",
    "address_councildis": "B",
    "status": "Pending",
    "rowid": "1034142",
    "final_x": "3667501.5298",
    "final_y": "518967.033463",
    "longitude": "-90.11269485932569",
    "latitude": "29.921396661009673",
    "geocoded_column": {
      "latitude": "29.921396661009673",
      "longitude": "-90.11269485932569"
    }
  },
  {
    "service_request": "2023-1034141",
    "request_type": "Trash/Recycling",
    "request_reason": "Replace Trash Cart",
    "date_created": "2023-09-11T16:32:53.000",
    "date_modified": "2023-09-11T16:38:24.000",
    "request_status": "Pending",
    "responsible_agency": "Department of Sanitation",
    "final_address": "6239 Pasteur Blvd",
    "address_councildis": "D",
    "status": "Assigned to Contractor",
    "contractor": "IV Waste",
    "rowid": "1034141",
    "final_x": "3682780.0484",
    "final_y": "556220.383194",
    "longitude": "-90.06316381742268",
    "latitude": "30.023374070171368",
    "geocoded_column": {
      "latitude": "30.023374070171368",
      "longitude": "-90.06316381742268"
    }
  },
  {
    "service_request": "2023-1034140",
    "request_type": "Trash/Recycling",
    "request_reason": "Repair Trash Cart",
    "date_created": "2023-09-11T16:31:19.000",
    "date_modified": "2023-09-11T16:36:15.000",
    "request_status": "Pending",
    "responsible_agency": "Department of Sanitation",
    "final_address": "6241 Pasteur Blvd",
    "address_councildis": "D",
    "status": "Assigned to Contractor",
    "contractor": "IV Waste",
    "rowid": "1034140",
    "final_x": "3682779.00674",
    "final_y": "556246.685274",
    "longitude": "-90.0631661875796",
    "latitude": "30.02344642295852",
    "geocoded_column": {
      "latitude": "30.02344642295852",
      "longitude": "-90.0631661875796"
    }
  },
  {
    "service_request": "2023-1034139",
    "request_type": "Property Maintenance",
    "request_reason": "Property Maintenance",
    "date_created": "2023-09-11T16:28:52.000",
    "date_modified": "2023-09-11T16:28:52.000",
    "request_status": "Pending",
    "responsible_agency": "Department of Code Enforcement",
    "final_address": "2748 Mithra St",
    "address_councildis": "D",
    "status": "Pending",
    "rowid": "1034139",
    "final_x": "3687728.15075",
    "final_y": "552945.642263",
    "longitude": "-90.04764500177147",
    "latitude": "30.014217999631047",
    "geocoded_column": {
      "latitude": "30.014217999631047",
      "longitude": "-90.04764500177147"
    }
  },
  {
    "service_request": "2023-1034138",
    "request_type": "Trash/Recycling",
    "request_reason": "Missed Trash Pick-Up",
    "date_created": "2023-09-11T16:28:35.000",
    "date_modified": "2023-09-11T16:32:51.000",
    "request_status": "Pending",
    "responsible_agency": "Department of Sanitation",
    "final_address": "12 Pointe Coupee Pl",
    "address_councildis": "E",
    "status": "Assigned to Contractor",
    "contractor": "Waste Pro",
    "rowid": "1034138",
    "final_x": "3725329.60409",
    "final_y": "564550.884129",
    "longitude": "-89.92839540982747",
    "latitude": "30.04491399201208",
    "geocoded_column": {
      "latitude": "30.04491399201208",
      "longitude": "-89.92839540982747"
    }
  },
  {
    "service_request": "2023-1034137",
    "request_type": "Abandoned Vehicles",
    "request_reason": "Abandoned/Junk Vehicles",
    "date_created": "2023-09-11T16:28:17.000",
    "date_modified": "2023-09-11T16:32:29.000",
    "request_status": "Pending",
    "responsible_agency": "Department of Public Works",
    "final_address": "4032 Martin Luther King, Jr. Blvd",
    "address_councildis": "B",
    "status": "Pending",
    "rowid": "1034137",
    "final_x": "3671488.83169",
    "final_y": "530287.967937",
    "longitude": "-90.09972394273144",
    "latitude": "29.952408167556136",
    "geocoded_column": {
      "latitude": "29.952408167556136",
      "longitude": "-90.09972394273144"
    }
  },
  {
    "service_request": "2023-1034136",
    "request_type": "Trash/Recycling",
    "request_reason": "Request a Large Item Pick Up",
    "date_created": "2023-09-11T16:27:58.000",
    "date_modified": "2023-09-11T16:32:04.000",
    "request_status": "Pending",
    "responsible_agency": "Department of Sanitation",
    "final_address": "4922 Nottingham Dr",
    "address_councildis": "E",
    "status": "Assigned to Contractor",
    "contractor": "Waste Pro",
    "rowid": "1034136",
    "final_x": "3716235.92927",
    "final_y": "557703.600027",
    "longitude": "-89.95739523803537",
    "latitude": "30.02639016428215",
    "geocoded_column": {
      "latitude": "30.02639016428215",
      "longitude": "-89.95739523803537"
    }
  },
  {
    "service_request": "2023-1034135",
    "request_type": "Trash/Recycling",
    "request_reason": "Replace Trash Cart",
    "date_created": "2023-09-11T16:26:03.000",
    "date_modified": "2023-09-11T16:29:31.000",
    "request_status": "Pending",
    "responsible_agency": "Department of Sanitation",
    "final_address": "4013 Palmyra St",
    "address_councildis": "A",
    "status": "Assigned to Contractor",
    "contractor": "Richards Disposal",
    "rowid": "1034135",
    "final_x": "3670926.9771",
    "final_y": "537601.531016",
    "longitude": "-90.10124971647417",
    "latitude": "29.972534650697572",
    "geocoded_column": {
      "latitude": "29.972534650697572",
      "longitude": "-90.10124971647417"
    }
  },
  {
    "service_request": "2023-1034134",
    "request_type": "Trash/Recycling",
    "request_reason": "Request a Large Item Pick Up",
    "date_created": "2023-09-11T16:24:48.000",
    "date_modified": "2023-09-11T16:27:55.000",
    "request_status": "Pending",
    "responsible_agency": "Department of Sanitation",
    "final_address": "2829 Grand-Route St John St",
    "address_councildis": "A",
    "status": "Assigned to Contractor",
    "contractor": "IV Waste",
    "rowid": "1034134",
    "final_x": "3678070.21742",
    "final_y": "540329.701003",
    "longitude": "-90.07859572738079",
    "latitude": "29.979823047302485",
    "geocoded_column": {
      "latitude": "29.979823047302485",
      "longitude": "-90.07859572738079"
    }
  },
  {
    "service_request": "2023-1034133",
    "request_type": "Roads/Drainage",
    "request_reason": "Damaged Sidewalk",
    "date_created": "2023-09-11T16:24:41.000",
    "date_modified": "2023-09-11T16:24:41.000",
    "request_status": "Pending",
    "responsible_agency": "Department of Public Works",
    "final_address": "3003 St Roch Ave",
    "address_councildis": "D",
    "status": "Pending",
    "rowid": "1034133",
    "final_x": "3686003.75062",
    "final_y": "543849.227726",
    "longitude": "-90.05341426187535",
    "latitude": "29.989259237185465",
    "geocoded_column": {
      "latitude": "29.989259237185465",
      "longitude": "-90.05341426187535"
    }
  },
  {
    "service_request": "2023-1034132",
    "request_type": "Trash/Recycling",
    "request_reason": "Return Trash Cart",
    "date_created": "2023-09-11T16:18:59.000",
    "date_modified": "2023-09-11T16:20:03.000",
    "request_status": "Pending",
    "responsible_agency": "Department of Sanitation",
    "final_address": "6506 Coveview Ct",
    "address_councildis": "E",
    "status": "Assigned to Contractor",
    "contractor": "Waste Pro",
    "rowid": "1034132",
    "final_x": "3698642.24932",
    "final_y": "555623.837913",
    "longitude": "-90.01306462709883",
    "latitude": "30.021240782316426",
    "geocoded_column": {
      "latitude": "30.021240782316426",
      "longitude": "-90.01306462709883"
    }
  },
  {
    "service_request": "2023-1034131",
    "request_type": "Roads/Drainage",
    "request_reason": "Pothole",
    "date_created": "2023-09-11T16:16:02.000",
    "date_modified": "2023-09-11T16:16:17.000",
    "request_status": "Pending",
    "responsible_agency": "Department of Public Works",
    "final_address": "800 BLK Felicity St",
    "address_councildis": "B",
    "status": "Pending",
    "rowid": "1034131",
    "final_x": "3680798.59014",
    "final_y": "522234.2086",
    "longitude": "-90.07060824199478",
    "latitude": "29.929984132977193",
    "geocoded_column": {
      "latitude": "29.929984132977193",
      "longitude": "-90.07060824199478"
    }
  },
  {
    "service_request": "2023-1034130",
    "request_type": "Trash/Recycling",
    "request_reason": "Request a Large Item Pick Up",
    "date_created": "2023-09-11T16:14:57.000",
    "date_modified": "2023-09-11T16:14:58.000",
    "request_status": "Pending",
    "responsible_agency": "Department of Sanitation",
    "final_address": "3121 State Street Dr",
    "address_councildis": "A",
    "status": "Assigned to Contractor",
    "contractor": "Richards Disposal",
    "rowid": "1034130",
    "final_x": "3667463.58913",
    "final_y": "527549.290559",
    "longitude": "-90.11252599328932",
    "latitude": "29.94499623960419",
    "geocoded_column": {
      "latitude": "29.94499623960419",
      "longitude": "-90.11252599328932"
    }
  },
  {
    "service_request": "2023-1034129",
    "request_type": "Trash/Recycling",
    "request_reason": "Missed Trash Pick-Up",
    "date_created": "2023-09-11T16:12:37.000",
    "date_modified": "2023-09-11T16:12:38.000",
    "request_status": "Pending",
    "responsible_agency": "Department of Sanitation",
    "final_address": "4217 Vincennes Pl",
    "address_councildis": "B",
    "status": "Assigned to Contractor",
    "contractor": "Richards Disposal",
    "rowid": "1034129",
    "final_x": "3668809.25614",
    "final_y": "531353.570434",
    "longitude": "-90.10814886511454",
    "latitude": "29.955417275911277",
    "geocoded_column": {
      "latitude": "29.955417275911277",
      "longitude": "-90.10814886511454"
    }
  },
  {
    "service_request": "2023-1034128",
    "request_type": "Utility Poles",
    "request_reason": "Utility Pole Leaning",
    "date_created": "2023-09-11T16:10:54.000",
    "date_modified": "2023-09-11T16:11:02.000",
    "request_status": "Pending",
    "responsible_agency": "Utility Company Collective",
    "final_address": "6853 Lake Willow Dr",
    "address_councildis": "E",
    "status": "Pending",
    "rowid": "1034128",
    "final_x": "3703256.03274",
    "final_y": "558875.381212",
    "longitude": "-89.9983667687891",
    "latitude": "30.030034288089308",
    "geocoded_column": {
      "latitude": "30.030034288089308",
      "longitude": "-89.9983667687891"
    }
  },
  {
    "service_request": "2023-1034127",
    "request_type": "Trash/Recycling",
    "request_reason": "Request a Large Item Pick Up",
    "date_created": "2023-09-11T16:08:15.000",
    "date_modified": "2023-09-11T16:08:16.000",
    "request_status": "Pending",
    "responsible_agency": "Department of Sanitation",
    "final_address": "4113 Tchoupitoulas St",
    "address_councildis": "B",
    "status": "Assigned to Contractor",
    "contractor": "Richards Disposal",
    "rowid": "1034127",
    "final_x": "3672144.94753",
    "final_y": "517605.872246",
    "longitude": "-90.09808391382103",
    "latitude": "29.917517070333336",
    "geocoded_column": {
      "latitude": "29.917517070333336",
      "longitude": "-90.09808391382103"
    }
  },
  {
    "service_request": "2023-1034126",
    "request_type": "Property Maintenance",
    "request_reason": "Property Maintenance",
    "date_created": "2023-09-11T16:06:37.000",
    "date_modified": "2023-09-11T16:06:37.000",
    "request_status": "Pending",
    "responsible_agency": "Department of Code Enforcement",
    "final_address": "1421 Jourdan Ave",
    "address_councildis": "E",
    "status": "Pending",
    "rowid": "1034126",
    "final_x": "3695444.82499",
    "final_y": "535781.308359",
    "longitude": "-90.02388403686648",
    "latitude": "29.966782010995537",
    "geocoded_column": {
      "latitude": "29.966782010995537",
      "longitude": "-90.02388403686648"
    }
  },
  {
    "service_request": "2023-1034125",
    "request_type": "Trash/Recycling",
    "request_reason": "Request a Large Item Pick Up",
    "date_created": "2023-09-11T16:05:04.000",
    "date_modified": "2023-09-11T16:05:05.000",
    "request_status": "Pending",
    "responsible_agency": "Department of Sanitation",
    "final_address": "27 Neron Pl",
    "address_councildis": "A",
    "status": "Assigned to Contractor",
    "contractor": "Richards Disposal",
    "rowid": "1034125",
    "final_x": "3665127.87943",
    "final_y": "530776.048898",
    "longitude": "-90.11979268016171",
    "latitude": "29.953937001089827",
    "geocoded_column": {
      "latitude": "29.953937001089827",
      "longitude": "-90.11979268016171"
    }
  },
  {
    "service_request": "2023-1034124",
    "request_type": "Traffic Signals/Signs/Striping/Streetlights",
    "request_reason": "Street Light Outage/Malfunction",
    "date_created": "2023-09-11T16:03:28.000",
    "date_modified": "2023-09-11T16:03:29.000",
    "request_status": "Pending",
    "responsible_agency": "Department of Public Works",
    "final_address": "3819 Fairmont Dr",
    "address_councildis": "D",
    "status": "Assigned to Contractor",
    "contractor": "Legacy Professional Services",
    "rowid": "1034124",
    "final_x": "3685111.13065",
    "final_y": "546564.947153",
    "longitude": "-90.05613816784606",
    "latitude": "29.99675388151288",
    "geocoded_column": {
      "latitude": "29.99675388151288",
      "longitude": "-90.05613816784606"
    }
  },
  {
    "service_request": "2023-1034123",
    "request_type": "Trash/Recycling",
    "request_reason": "Order Trash Cart",
    "date_created": "2023-09-11T16:01:11.000",
    "date_modified": "2023-09-11T16:02:49.000",
    "request_status": "Pending",
    "responsible_agency": "Department of Sanitation",
    "final_address": "8826 Spruce St",
    "address_councildis": "A",
    "status": "Assigned to Contractor",
    "contractor": "Richards Disposal",
    "rowid": "1034123",
    "final_x": "3661844.79507",
    "final_y": "532219.850563",
    "longitude": "-90.1301114972065",
    "latitude": "29.958002188213808",
    "geocoded_column": {
      "latitude": "29.958002188213808",
      "longitude": "-90.1301114972065"
    }
  },
  {
    "service_request": "2023-1034122",
    "request_type": "Trash/Recycling",
    "request_reason": "Order Trash Cart",
    "date_created": "2023-09-11T15:59:35.000",
    "date_modified": "2023-09-11T15:59:36.000",
    "request_status": "Pending",
    "responsible_agency": "Department of Sanitation",
    "final_address": "8816 Spruce St",
    "address_councildis": "A",
    "status": "Assigned to Contractor",
    "contractor": "Richards Disposal",
    "rowid": "1034122",
    "final_x": "3661869.64698",
    "final_y": "532195.906627",
    "longitude": "-90.13003381544809",
    "latitude": "29.95793563255922",
    "geocoded_column": {
      "latitude": "29.95793563255922",
      "longitude": "-90.13003381544809"
    }
  },
  {
    "service_request": "2023-1034121",
    "request_type": "Trash/Recycling",
    "request_reason": "Missed Trash Pick-Up",
    "date_created": "2023-09-11T15:59:32.000",
    "date_modified": "2023-09-11T15:59:33.000",
    "request_status": "Pending",
    "responsible_agency": "Department of Sanitation",
    "final_address": "1716 Cambronne St",
    "address_councildis": "A",
    "status": "Assigned to Contractor",
    "contractor": "Richards Disposal",
    "rowid": "1034121",
    "final_x": "3662424.83821",
    "final_y": "530543.421378",
    "longitude": "-90.12833554476613",
    "latitude": "29.95337578969376",
    "geocoded_column": {
      "latitude": "29.95337578969376",
      "longitude": "-90.12833554476613"
    }
  },
  {
    "service_request": "2023-1034119",
    "request_type": "Abandoned Vehicles",
    "request_reason": "Vehicle Blocking Your Driveway",
    "date_created": "2023-09-11T15:51:18.000",
    "date_modified": "2023-09-11T15:51:18.000",
    "request_status": "Pending",
    "responsible_agency": "Department of Public Works",
    "final_address": "5711 Red Maple Dr",
    "address_councildis": "E",
    "status": "Pending",
    "rowid": "1034119",
    "final_x": "3723433.54124",
    "final_y": "564646.704545",
    "longitude": "-89.93438408079835",
    "latitude": "30.045241245182066",
    "geocoded_column": {
      "latitude": "30.045241245182066",
      "longitude": "-89.93438408079835"
    }
  },
  {
    "service_request": "2023-1034118",
    "request_type": "Roads/Drainage",
    "request_reason": "Street Flooding / Drainage",
    "date_created": "2023-09-11T15:35:22.000",
    "date_modified": "2023-09-11T15:35:22.000",
    "request_status": "Pending",
    "responsible_agency": "Department of Public Works",
    "final_address": "2129 Oretha Castle Haley Blvd",
    "address_councildis": "B",
    "status": "Pending",
    "rowid": "1034118",
    "final_x": "3676904.33026",
    "final_y": "524860.524988",
    "longitude": "-90.08281129535418",
    "latitude": "29.937323071840225",
    "geocoded_column": {
      "latitude": "29.937323071840225",
      "longitude": "-90.08281129535418"
    }
  },
  {
    "service_request": "2023-1034117",
    "request_type": "Roads/Drainage",
    "request_reason": "Street Flooding / Drainage",
    "date_created": "2023-09-11T15:32:48.000",
    "date_modified": "2023-09-11T15:32:48.000",
    "request_status": "Pending",
    "responsible_agency": "Department of Public Works",
    "final_address": "2129 Oretha Castle Haley Blvd",
    "address_councildis": "B",
    "status": "Pending",
    "rowid": "1034117",
    "final_x": "3676904.33026",
    "final_y": "524860.524988",
    "longitude": "-90.08281129535418",
    "latitude": "29.937323071840225",
    "geocoded_column": {
      "latitude": "29.937323071840225",
      "longitude": "-90.08281129535418"
    }
  },
  {
    "service_request": "2023-1034116",
    "request_type": "Trash/Recycling",
    "request_reason": "Request a Large Item Pick Up",
    "date_created": "2023-09-11T15:29:18.000",
    "date_modified": "2023-09-11T15:29:19.000",
    "request_status": "Pending",
    "responsible_agency": "Department of Sanitation",
    "final_address": "146 Huntlee Dr, New Orleans, Louisiana, 70131",
    "address_councildis": "C",
    "status": "Assigned to Contractor",
    "contractor": "Richards Disposal",
    "rowid": "1034116",
    "final_x": "3702488.31652",
    "final_y": "523720.767291",
    "longitude": "-90.0020833711898",
    "latitude": "29.933396600265805",
    "geocoded_column": {
      "latitude": "29.933396600265805",
      "longitude": "-90.0020833711898"
    }
  },
  {
    "service_request": "2023-1034115",
    "request_type": "Traffic Signals/Signs/Striping/Streetlights",
    "request_reason": "Street Name Sign Damaged or Missing",
    "date_created": "2023-09-11T15:28:43.000",
    "date_modified": "2023-09-11T15:33:41.000",
    "request_status": "Pending",
    "responsible_agency": "Department of Public Works",
    "final_address": "2128 Jackson Ave",
    "address_councildis": "B",
    "status": "Pending",
    "rowid": "1034115",
    "final_x": "3676236.51534",
    "final_y": "525616.503741",
    "longitude": "-90.08489362855876",
    "latitude": "29.939421788637624",
    "geocoded_column": {
      "latitude": "29.939421788637624",
      "longitude": "-90.08489362855876"
    }
  },
  {
    "service_request": "2023-1034114",
    "request_type": "Roads/Drainage",
    "request_reason": "Pothole",
    "date_created": "2023-09-11T15:26:48.000",
    "date_modified": "2023-09-11T15:26:48.000",
    "request_status": "Pending",
    "responsible_agency": "Department of Public Works",
    "final_address": "1423 General Pershing St",
    "address_councildis": "B",
    "status": "Pending",
    "rowid": "1034114",
    "final_x": "3671330.69185",
    "final_y": "520571.244024",
    "longitude": "-90.1005533659415",
    "latitude": "29.925695010510914",
    "geocoded_column": {
      "latitude": "29.925695010510914",
      "longitude": "-90.1005533659415"
    }
  },
  {
    "service_request": "2023-1034113",
    "request_type": "Property Maintenance",
    "request_reason": "Property Maintenance",
    "date_created": "2023-09-11T15:22:20.000",
    "date_modified": "2023-09-11T15:22:21.000",
    "request_status": "Pending",
    "responsible_agency": "Department of Code Enforcement",
    "final_address": "4848 Donna Dr",
    "address_councildis": "E",
    "status": "Pending",
    "rowid": "1034113",
    "final_x": "3710850.27774",
    "final_y": "556641.874394",
    "longitude": "-89.97445289312451",
    "latitude": "30.023647559003727",
    "geocoded_column": {
      "latitude": "30.023647559003727",
      "longitude": "-89.97445289312451"
    }
  },
  {
    "service_request": "2023-1034112",
    "request_type": "Roads/Drainage",
    "request_reason": "Pothole",
    "date_created": "2023-09-11T15:20:52.000",
    "date_modified": "2023-09-11T15:20:52.000",
    "request_status": "Pending",
    "responsible_agency": "Department of Public Works",
    "final_address": "4216 Chestnut St",
    "address_councildis": "B",
    "status": "Pending",
    "rowid": "1034112",
    "final_x": "3671574.31393",
    "final_y": "519539.203703",
    "longitude": "-90.09981939416457",
    "latitude": "29.922850019854593",
    "geocoded_column": {
      "latitude": "29.922850019854593",
      "longitude": "-90.09981939416457"
    }
  },
  {
    "service_request": "2023-1034111",
    "request_type": "Abandoned Vehicles",
    "request_reason": "Abandoned/Junk Vehicles",
    "date_created": "2023-09-11T15:20:40.000",
    "date_modified": "2023-09-11T15:20:41.000",
    "request_status": "Pending",
    "responsible_agency": "Department of Public Works",
    "final_address": "209 Magazine St",
    "address_councildis": "B",
    "status": "Pending",
    "rowid": "1034111",
    "final_x": "3681638.77653",
    "final_y": "529839.520257",
    "longitude": "-90.06769072703938",
    "latitude": "29.950870717717123",
    "geocoded_column": {
      "latitude": "29.950870717717123",
      "longitude": "-90.06769072703938"
    }
  },
  {
    "service_request": "2023-1034110",
    "request_type": "Trash/Recycling",
    "request_reason": "Order Trash Cart",
    "date_created": "2023-09-11T15:20:08.000",
    "date_modified": "2023-09-11T15:20:09.000",
    "request_status": "Pending",
    "responsible_agency": "Department of Sanitation",
    "final_address": "2160 Sere St",
    "address_councildis": "D",
    "status": "Assigned to Contractor",
    "contractor": "IV Waste",
    "rowid": "1034110",
    "final_x": "3684018.57781",
    "final_y": "545822.051024",
    "longitude": "-90.05961556480865",
    "latitude": "29.99474462250563",
    "geocoded_column": {
      "latitude": "29.99474462250563",
      "longitude": "-90.05961556480865"
    }
  },
  {
    "service_request": "2023-1034109",
    "request_type": "Trash/Recycling",
    "request_reason": "Request a Large Item Pick Up",
    "date_created": "2023-09-11T15:19:38.000",
    "date_modified": "2023-09-11T15:19:41.000",
    "request_status": "Pending",
    "responsible_agency": "Department of Sanitation",
    "final_address": "7549 Stonewood St",
    "address_councildis": "E",
    "status": "Assigned to Contractor",
    "contractor": "Waste Pro",
    "rowid": "1034109",
    "final_x": "3719882.24089",
    "final_y": "572296.568681",
    "longitude": "-89.9453148853402",
    "latitude": "30.066393931168577",
    "geocoded_column": {
      "latitude": "30.066393931168577",
      "longitude": "-89.9453148853402"
    }
  },
  {
    "service_request": "2023-1034108",
    "request_type": "Trash/Recycling",
    "request_reason": "Request a Large Item Pick Up",
    "date_created": "2023-09-11T15:15:44.000",
    "date_modified": "2023-09-11T16:05:55.000",
    "case_close_date": "2023-09-11T11:05:55.000",
    "request_status": "Closed",
    "responsible_agency": "Department of Sanitation",
    "final_address": "1651 Lafreniere St",
    "address_councildis": "D",
    "status": "Assigned to Contractor",
    "contractor": "IV Waste",
    "contractor_action": "Completed",
    "rowid": "1034108",
    "final_x": "3680199.15778",
    "final_y": "545217.011983",
    "longitude": "-90.07170170329734",
    "latitude": "29.993197167025823",
    "geocoded_column": {
      "latitude": "29.993197167025823",
      "longitude": "-90.07170170329734"
    }
  },
  {
    "service_request": "2023-1034107",
    "request_type": "Roads/Drainage",
    "request_reason": "Pothole",
    "date_created": "2023-09-11T15:15:04.000",
    "date_modified": "2023-09-11T15:15:04.000",
    "request_status": "Pending",
    "responsible_agency": "Department of Public Works",
    "final_address": "1421 Constantinople St",
    "address_councildis": "B",
    "status": "Pending",
    "rowid": "1034107",
    "final_x": "3672433.24257",
    "final_y": "520667.657465",
    "longitude": "-90.09706965638372",
    "latitude": "29.925927453713577",
    "geocoded_column": {
      "latitude": "29.925927453713577",
      "longitude": "-90.09706965638372"
    }
  },
  {
    "service_request": "2023-1034106",
    "request_type": "Trash/Recycling",
    "request_reason": "Order Trash Cart",
    "date_created": "2023-09-11T15:14:58.000",
    "date_modified": "2023-09-11T15:14:59.000",
    "request_status": "Pending",
    "responsible_agency": "Department of Sanitation",
    "final_address": "1807 N Tonti St",
    "address_councildis": "D",
    "status": "Assigned to Contractor",
    "contractor": "IV Waste",
    "rowid": "1034106",
    "final_x": "3681310.54312",
    "final_y": "540514.748299",
    "longitude": "-90.06835500511839",
    "latitude": "29.980233899679824",
    "geocoded_column": {
      "latitude": "29.980233899679824",
      "longitude": "-90.06835500511839"
    }
  },
  {
    "service_request": "2023-1034105",
    "request_type": "Trash/Recycling",
    "request_reason": "Repair Trash Cart",
    "date_created": "2023-09-11T15:13:48.000",
    "date_modified": "2023-09-11T15:13:48.000",
    "request_status": "Pending",
    "responsible_agency": "Department of Sanitation",
    "final_address": "2310 Barracks St Apt A",
    "address_councildis": "D",
    "status": "Assigned to Contractor",
    "contractor": "Richards Disposal",
    "rowid": "1034105",
    "final_x": "3679289.03938",
    "final_y": "537690.37876",
    "longitude": "-90.07483774452305",
    "latitude": "29.972529067902418",
    "geocoded_column": {
      "latitude": "29.972529067902418",
      "longitude": "-90.07483774452305"
    }
  },
  {
    "service_request": "2023-1034104",
    "request_type": "Property Maintenance",
    "request_reason": "Property Maintenance",
    "date_created": "2023-09-11T15:13:16.000",
    "date_modified": "2023-09-11T15:13:16.000",
    "request_status": "Pending",
    "responsible_agency": "Department of Code Enforcement",
    "final_address": "9127 S Claiborne Ave",
    "address_councildis": "A",
    "status": "Pending",
    "rowid": "1034104",
    "final_x": "3662174.44295",
    "final_y": "534103.540997",
    "longitude": "-90.129008038757",
    "latitude": "29.963172201966156",
    "geocoded_column": {
      "latitude": "29.963172201966156",
      "longitude": "-90.129008038757"
    }
  },
  {
    "service_request": "2023-1034103",
    "request_type": "Roads/Drainage",
    "request_reason": "Damaged Sidewalk",
    "date_created": "2023-09-11T15:11:16.000",
    "date_modified": "2023-09-11T15:19:44.000",
    "request_status": "Pending",
    "responsible_agency": "Department of Public Works",
    "final_address": "1312 Joseph St",
    "address_councildis": "A",
    "status": "Pending",
    "rowid": "1034103",
    "final_x": "3666466.32212",
    "final_y": "520661.215929",
    "longitude": "-90.11590574919167",
    "latitude": "29.9260854115366",
    "geocoded_column": {
      "latitude": "29.9260854115366",
      "longitude": "-90.11590574919167"
    }
  },
  {
    "service_request": "2023-1034102",
    "request_type": "Trash/Recycling",
    "request_reason": "Order Trash Cart",
    "date_created": "2023-09-11T15:11:13.000",
    "date_modified": "2023-09-11T15:11:14.000",
    "request_status": "Pending",
    "responsible_agency": "Department of Sanitation",
    "final_address": "3513 Chartres St",
    "address_councildis": "C",
    "status": "Assigned to Contractor",
    "contractor": "IV Waste",
    "rowid": "1034102",
    "final_x": "3690165.487",
    "final_y": "533782.625349",
    "longitude": "-90.04062732312038",
    "latitude": "29.961451166486295",
    "geocoded_column": {
      "latitude": "29.961451166486295",
      "longitude": "-90.04062732312038"
    }
  },
  {
    "service_request": "2023-1034101",
    "request_type": "Roads/Drainage",
    "request_reason": "Pothole",
    "date_created": "2023-09-11T15:10:06.000",
    "date_modified": "2023-09-11T15:10:06.000",
    "request_status": "Pending",
    "responsible_agency": "Department of Public Works",
    "final_address": "1312 Milan St",
    "address_councildis": "B",
    "status": "Pending",
    "rowid": "1034101",
    "final_x": "3671625.82823",
    "final_y": "520286.919608",
    "longitude": "-90.09963137110304",
    "latitude": "29.92490447494246",
    "geocoded_column": {
      "latitude": "29.92490447494246",
      "longitude": "-90.09963137110304"
    }
  },
  {
    "service_request": "2023-1034100",
    "request_type": "Trash/Recycling",
    "request_reason": "Request a Large Item Pick Up",
    "date_created": "2023-09-11T15:10:00.000",
    "date_modified": "2023-09-11T15:10:01.000",
    "request_status": "Pending",
    "responsible_agency": "Department of Sanitation",
    "final_address": "7600 Read Blvd",
    "address_councildis": "E",
    "status": "Assigned to Contractor",
    "contractor": "Waste Pro",
    "rowid": "1034100",
    "final_x": "3708453.71224",
    "final_y": "564443.736225",
    "longitude": "-89.98173469545425",
    "latitude": "30.045177525372484",
    "geocoded_column": {
      "latitude": "30.045177525372484",
      "longitude": "-89.98173469545425"
    }
  },
  {
    "service_request": "2023-1034099",
    "request_type": "Trash/Recycling",
    "request_reason": "Order Trash Cart",
    "date_created": "2023-09-11T15:09:50.000",
    "date_modified": "2023-09-11T15:09:50.000",
    "request_status": "Pending",
    "responsible_agency": "Department of Sanitation",
    "final_address": "3517 Chartres St",
    "address_councildis": "C",
    "status": "Assigned to Contractor",
    "contractor": "IV Waste",
    "rowid": "1034099",
    "final_x": "3690194.75056",
    "final_y": "533774.886021",
    "longitude": "-90.04053518987128",
    "latitude": "29.961428978219214",
    "geocoded_column": {
      "latitude": "29.961428978219214",
      "longitude": "-90.04053518987128"
    }
  },
  {
    "service_request": "2023-1034098",
    "request_type": "Trash/Recycling",
    "request_reason": "Replace Trash Cart",
    "date_created": "2023-09-11T15:07:26.000",
    "date_modified": "2023-09-11T15:07:27.000",
    "request_status": "Pending",
    "responsible_agency": "Department of Sanitation",
    "final_address": "4834 Banks St",
    "address_councildis": "A",
    "status": "Assigned to Contractor",
    "contractor": "Richards Disposal",
    "rowid": "1034098",
    "final_x": "3667826.5433",
    "final_y": "539226.780042",
    "longitude": "-90.1109867195313",
    "latitude": "29.977094844042437",
    "geocoded_column": {
      "latitude": "29.977094844042437",
      "longitude": "-90.1109867195313"
    }
  },
  {
    "service_request": "2023-1034097",
    "request_type": "Traffic Signals/Signs/Striping/Streetlights",
    "request_reason": "Street Name Sign Damaged or Missing",
    "date_created": "2023-09-11T15:07:20.000",
    "date_modified": "2023-09-11T15:07:20.000",
    "request_status": "Pending",
    "responsible_agency": "Department of Public Works",
    "final_address": "5000 Debore Cir",
    "address_councildis": "D",
    "status": "Pending",
    "rowid": "1034097",
    "final_x": "3692203.09225",
    "final_y": "552771.677078",
    "longitude": "-90.03351271995801",
    "latitude": "30.01360083897155",
    "geocoded_column": {
      "latitude": "30.01360083897155",
      "longitude": "-90.03351271995801"
    }
  },
  {
    "service_request": "2023-1034096",
    "request_type": "Trash/Recycling",
    "request_reason": "Replace Recycling Cart",
    "date_created": "2023-09-11T15:06:37.000",
    "date_modified": "2023-09-11T15:06:37.000",
    "request_status": "Pending",
    "responsible_agency": "Department of Sanitation",
    "final_address": "7431 Spruce St",
    "address_councildis": "A",
    "status": "Pending",
    "rowid": "1034096",
    "final_x": "3665083.13588",
    "final_y": "529382.918465",
    "longitude": "-90.1199805438177",
    "latitude": "29.950107647106048",
    "geocoded_column": {
      "latitude": "29.950107647106048",
      "longitude": "-90.1199805438177"
    }
  },
  {
    "service_request": "2023-1034095",
    "request_type": "Trash/Recycling",
    "request_reason": "Replace Trash Cart",
    "date_created": "2023-09-11T15:04:27.000",
    "date_modified": "2023-09-11T15:04:28.000",
    "request_status": "Pending",
    "responsible_agency": "Department of Sanitation",
    "final_address": "7431 Spruce St",
    "address_councildis": "A",
    "status": "Assigned to Contractor",
    "contractor": "Richards Disposal",
    "rowid": "1034095",
    "final_x": "3665083.13588",
    "final_y": "529382.918465",
    "longitude": "-90.1199805438177",
    "latitude": "29.950107647106048",
    "geocoded_column": {
      "latitude": "29.950107647106048",
      "longitude": "-90.1199805438177"
    }
  },
  {
    "service_request": "2023-1034094",
    "request_type": "Trash/Recycling",
    "request_reason": "Repair Trash Cart",
    "date_created": "2023-09-11T15:00:27.000",
    "date_modified": "2023-09-11T15:00:28.000",
    "request_status": "Pending",
    "responsible_agency": "Department of Sanitation",
    "final_address": "4775 Baccich St",
    "address_councildis": "D",
    "status": "Assigned to Contractor",
    "contractor": "IV Waste",
    "rowid": "1034094",
    "final_x": "3687756.17001",
    "final_y": "550928.342997",
    "longitude": "-90.04762799155235",
    "latitude": "30.00867030275962",
    "geocoded_column": {
      "latitude": "30.00867030275962",
      "longitude": "-90.04762799155235"
    }
  },
  {
    "service_request": "2023-1034093",
    "request_type": "Abandoned Vehicles",
    "request_reason": "Abandoned/Junk Vehicles",
    "date_created": "2023-09-11T14:59:08.000",
    "date_modified": "2023-09-11T15:00:38.000",
    "request_status": "Pending",
    "responsible_agency": "Department of Public Works",
    "final_address": "4000 BLK General Pershing St",
    "address_councildis": "B",
    "status": "Pending",
    "rowid": "1034093",
    "final_x": "3670283.21583",
    "final_y": "529232.015143",
    "longitude": "-90.10356652018662",
    "latitude": "29.949540278437674",
    "geocoded_column": {
      "latitude": "29.949540278437674",
      "longitude": "-90.10356652018662"
    }
  },
  {
    "service_request": "2023-1034092",
    "request_type": "Trash/Recycling",
    "request_reason": "Missed Trash Pick-Up",
    "date_created": "2023-09-11T14:58:21.000",
    "date_modified": "2023-09-11T15:01:26.000",
    "request_status": "Pending",
    "responsible_agency": "Department of Sanitation",
    "final_address": "1723 Saux Ln",
    "address_councildis": "C",
    "status": "Assigned to Contractor",
    "contractor": "Richards Disposal",
    "rowid": "1034092",
    "final_x": "3692569.37315",
    "final_y": "524940.103357",
    "longitude": "-90.03335308805566",
    "latitude": "29.93706250181113",
    "geocoded_column": {
      "latitude": "29.93706250181113",
      "longitude": "-90.03335308805566"
    }
  },
  {
    "service_request": "2023-1034091",
    "request_type": "Trash/Recycling",
    "request_reason": "Request a Large Item Pick Up",
    "date_created": "2023-09-11T14:56:58.000",
    "date_modified": "2023-09-11T14:56:59.000",
    "request_status": "Pending",
    "responsible_agency": "Department of Sanitation",
    "final_address": "4701 Longfellow Dr",
    "address_councildis": "E",
    "status": "Assigned to Contractor",
    "contractor": "Waste Pro",
    "rowid": "1034091",
    "final_x": "3709709.68702",
    "final_y": "555567.729113",
    "longitude": "-89.97809703777091",
    "latitude": "30.020731223082723",
    "geocoded_column": {
      "latitude": "30.020731223082723",
      "longitude": "-89.97809703777091"
    }
  },
  {
    "service_request": "2023-1034090",
    "request_type": "Trash/Recycling",
    "request_reason": "Request a Large Item Pick Up",
    "date_created": "2023-09-11T14:54:21.000",
    "date_modified": "2023-09-11T14:54:22.000",
    "request_status": "Pending",
    "responsible_agency": "Department of Sanitation",
    "final_address": "2127 Marigny St",
    "address_councildis": "D",
    "status": "Assigned to Contractor",
    "contractor": "IV Waste",
    "rowid": "1034090",
    "final_x": "3685134.48149",
    "final_y": "540258.132107",
    "longitude": "-90.0562864457301",
    "latitude": "29.97941166389783",
    "geocoded_column": {
      "latitude": "29.97941166389783",
      "longitude": "-90.0562864457301"
    }
  },
  {
    "service_request": "2023-1034088",
    "request_type": "Property Maintenance",
    "request_reason": "Property Maintenance",
    "date_created": "2023-09-11T14:50:34.000",
    "date_modified": "2023-09-11T14:50:34.000",
    "request_status": "Pending",
    "responsible_agency": "Department of Code Enforcement",
    "final_address": "201 S Solomon St",
    "address_councildis": "A",
    "status": "Pending",
    "rowid": "1034088",
    "final_x": "3670241.26241",
    "final_y": "538411.785737",
    "longitude": "-90.10338786451712",
    "latitude": "29.97478283433782",
    "geocoded_column": {
      "latitude": "29.97478283433782",
      "longitude": "-90.10338786451712"
    }
  },
  {
    "service_request": "2023-1034087",
    "request_type": "Trash/Recycling",
    "request_reason": "Repair Recycling Cart",
    "date_created": "2023-09-11T14:49:52.000",
    "date_modified": "2023-09-11T14:49:53.000",
    "request_status": "Pending",
    "responsible_agency": "Department of Sanitation",
    "final_address": "6105 Catina St",
    "address_councildis": "A",
    "status": "Pending",
    "rowid": "1034087",
    "final_x": "3666878.13882",
    "final_y": "548131.186834",
    "longitude": "-90.11368275261985",
    "latitude": "30.001606715342874",
    "geocoded_column": {
      "latitude": "30.001606715342874",
      "longitude": "-90.11368275261985"
    }
  },
  {
    "service_request": "2023-1034085",
    "request_type": "Abandoned Vehicles",
    "request_reason": "Abandoned/Junk Vehicles",
    "date_created": "2023-09-11T14:45:42.000",
    "date_modified": "2023-09-11T14:46:59.000",
    "request_status": "Pending",
    "responsible_agency": "Department of Public Works",
    "final_address": "2900 BLK Pittari Pl",
    "address_councildis": "C",
    "status": "Pending",
    "rowid": "1034085",
    "final_x": "3709795.96357",
    "final_y": "519693.868536",
    "longitude": "-89.97916402270702",
    "latitude": "29.922088579079848",
    "geocoded_column": {
      "latitude": "29.922088579079848",
      "longitude": "-89.97916402270702"
    }
  },
  {
    "service_request": "2023-1034084",
    "request_type": "Trash/Recycling",
    "request_reason": "Request a Large Item Pick Up",
    "date_created": "2023-09-11T14:44:26.000",
    "date_modified": "2023-09-11T14:44:27.000",
    "request_status": "Pending",
    "responsible_agency": "Department of Sanitation",
    "final_address": "4138 Cleveland Ave",
    "address_councildis": "A",
    "status": "Assigned to Contractor",
    "contractor": "Richards Disposal",
    "rowid": "1034084",
    "final_x": "3670547.49108",
    "final_y": "538181.209673",
    "longitude": "-90.10242853801051",
    "latitude": "29.974139786129367",
    "geocoded_column": {
      "latitude": "29.974139786129367",
      "longitude": "-90.10242853801051"
    }
  },
  {
    "service_request": "2023-1034083",
    "request_type": "Trash/Recycling",
    "request_reason": "Replace Trash Cart",
    "date_created": "2023-09-11T14:43:39.000",
    "date_modified": "2023-09-11T14:43:39.000",
    "request_status": "Pending",
    "responsible_agency": "Department of Sanitation",
    "final_address": "3314 Nashville Ave",
    "address_councildis": "A",
    "status": "Assigned to Contractor",
    "contractor": "Richards Disposal",
    "rowid": "1034083",
    "final_x": "3667948.43482",
    "final_y": "527984.522303",
    "longitude": "-90.11098052190735",
    "latitude": "29.94617877301992",
    "geocoded_column": {
      "latitude": "29.94617877301992",
      "longitude": "-90.11098052190735"
    }
  },
  {
    "service_request": "2023-1034082",
    "request_type": "Abandoned Vehicles",
    "request_reason": "Abandoned/Junk Vehicles",
    "date_created": "2023-09-11T14:42:44.000",
    "date_modified": "2023-09-11T14:42:44.000",
    "request_status": "Pending",
    "responsible_agency": "Department of Public Works",
    "final_address": "1300 BLK Saint Mary St",
    "address_councildis": "B",
    "status": "Pending",
    "rowid": "1034082",
    "final_x": "3679160.0629",
    "final_y": "523464.808501",
    "longitude": "-90.07573816188109",
    "latitude": "29.933417427054586",
    "geocoded_column": {
      "latitude": "29.933417427054586",
      "longitude": "-90.07573816188109"
    }
  },
  {
    "service_request": "2023-1034081",
    "request_type": "Trash/Recycling",
    "request_reason": "Request a Large Item Pick Up",
    "date_created": "2023-09-11T14:40:34.000",
    "date_modified": "2023-09-11T14:40:34.000",
    "request_status": "Pending",
    "responsible_agency": "Department of Sanitation",
    "final_address": "911 Bordeaux St",
    "address_councildis": "B",
    "status": "Assigned to Contractor",
    "contractor": "Richards Disposal",
    "rowid": "1034081",
    "final_x": "3669613.69172",
    "final_y": "518765.421431",
    "longitude": "-90.10603448798528",
    "latitude": "29.92078025394298",
    "geocoded_column": {
      "latitude": "29.92078025394298",
      "longitude": "-90.10603448798528"
    }
  },
  {
    "service_request": "2023-1034080",
    "request_type": "Property Maintenance",
    "request_reason": "Property Maintenance",
    "date_created": "2023-09-11T14:39:11.000",
    "date_modified": "2023-09-11T14:39:11.000",
    "request_status": "Pending",
    "responsible_agency": "Department of Code Enforcement",
    "final_address": "320 N Miro St",
    "address_councildis": "B",
    "status": "Pending",
    "rowid": "1034080",
    "final_x": "3677332.79086",
    "final_y": "534847.152646",
    "longitude": "-90.081114061571",
    "latitude": "29.964770098447595",
    "geocoded_column": {
      "latitude": "29.964770098447595",
      "longitude": "-90.081114061571"
    }
  },
  {
    "service_request": "2023-1034078",
    "request_type": "Trash/Recycling",
    "request_reason": "Request a Large Item Pick Up",
    "date_created": "2023-09-11T14:34:58.000",
    "date_modified": "2023-09-11T14:34:59.000",
    "request_status": "Pending",
    "responsible_agency": "Department of Sanitation",
    "final_address": "1807 W Homestead Dr",
    "address_councildis": "C",
    "status": "Assigned to Contractor",
    "contractor": "Richards Disposal",
    "rowid": "1034078",
    "final_x": "3696878.0161",
    "final_y": "525310.849405",
    "longitude": "-90.01973711374875",
    "latitude": "29.937946811750024",
    "geocoded_column": {
      "latitude": "29.937946811750024",
      "longitude": "-90.01973711374875"
    }
  },
  {
    "service_request": "2023-1034075",
    "request_type": "Property Maintenance",
    "request_reason": "Property Maintenance",
    "date_created": "2023-09-11T14:34:33.000",
    "date_modified": "2023-09-11T14:37:00.000",
    "request_status": "Pending",
    "responsible_agency": "Department of Code Enforcement",
    "final_address": "9120 Oleander St",
    "address_councildis": "A",
    "status": "Pending",
    "rowid": "1034075",
    "final_x": "3664012.67988",
    "final_y": "536123.082567",
    "longitude": "-90.1231357189781",
    "latitude": "29.968672024002014",
    "geocoded_column": {
      "latitude": "29.968672024002014",
      "longitude": "-90.1231357189781"
    }
  },
  {
    "service_request": "2023-1034074",
    "request_type": "Roads/Drainage",
    "request_reason": "Catch Basin - Clogged",
    "date_created": "2023-09-11T14:31:20.000",
    "date_modified": "2023-09-11T14:32:41.000",
    "request_status": "Pending",
    "responsible_agency": "Department of Public Works",
    "final_address": "4919 Pauline Dr",
    "address_councildis": "D",
    "status": "Pending",
    "rowid": "1034074",
    "final_x": "3692739.08937",
    "final_y": "552439.739542",
    "longitude": "-90.03183116731067",
    "latitude": "30.01267140489291",
    "geocoded_column": {
      "latitude": "30.01267140489291",
      "longitude": "-90.03183116731067"
    }
  },
  {
    "service_request": "2023-1034073",
    "request_type": "Trash/Recycling",
    "request_reason": "Repair Trash Cart",
    "date_created": "2023-09-11T14:25:34.000",
    "date_modified": "2023-09-11T14:25:35.000",
    "request_status": "Pending",
    "responsible_agency": "Department of Sanitation",
    "final_address": "2729 Palmer Ave",
    "address_councildis": "A",
    "status": "Assigned to Contractor",
    "contractor": "Richards Disposal",
    "rowid": "1034073",
    "final_x": "3666863.09517",
    "final_y": "526697.583422",
    "longitude": "-90.1144505497152",
    "latitude": "29.942671897999663",
    "geocoded_column": {
      "latitude": "29.942671897999663",
      "longitude": "-90.1144505497152"
    }
  },
  {
    "service_request": "2023-1034072",
    "request_type": "Abandoned Vehicles",
    "request_reason": "Abandoned/Junk Vehicles",
    "date_created": "2023-09-11T14:24:59.000",
    "date_modified": "2023-09-11T14:24:59.000",
    "request_status": "Pending",
    "responsible_agency": "Department of Public Works",
    "final_address": "3107 Dauphine St",
    "address_councildis": "C",
    "status": "Pending",
    "rowid": "1034072",
    "final_x": "3688790.84483",
    "final_y": "534868.82887",
    "longitude": "-90.04492962637875",
    "latitude": "29.96448041905066",
    "geocoded_column": {
      "latitude": "29.96448041905066",
      "longitude": "-90.04492962637875"
    }
  },
  {
    "service_request": "2023-1034071",
    "request_type": "Parks & Parkways",
    "request_reason": "Request Tree Service (Right of Way/Public Property)",
    "date_created": "2023-09-11T14:20:12.000",
    "date_modified": "2023-09-11T14:20:13.000",
    "request_status": "Pending",
    "responsible_agency": "Department of Parks & Parkway",
    "final_address": "240 Fairway Dr",
    "address_councildis": "A",
    "status": "Pending",
    "rowid": "1034071",
    "final_x": "3664113.86164",
    "final_y": "541334.415244",
    "longitude": "-90.12264228821302",
    "latitude": "29.98299851562897",
    "geocoded_column": {
      "latitude": "29.98299851562897",
      "longitude": "-90.12264228821302"
    }
  },
  {
    "service_request": "2023-1034070",
    "request_type": "Trash/Recycling",
    "request_reason": "Replace Trash Cart",
    "date_created": "2023-09-11T14:20:08.000",
    "date_modified": "2023-09-11T14:20:08.000",
    "request_status": "Pending",
    "responsible_agency": "Department of Sanitation",
    "final_address": "1337 Eagle St",
    "address_councildis": "A",
    "status": "Assigned to Contractor",
    "contractor": "Richards Disposal",
    "rowid": "1034070",
    "final_x": "3660600.59194",
    "final_y": "530508.330434",
    "longitude": "-90.13409692654587",
    "latitude": "29.953331925205326",
    "geocoded_column": {
      "latitude": "29.953331925205326",
      "longitude": "-90.13409692654587"
    }
  },
  {
    "service_request": "2023-1034069",
    "request_type": "Trash/Recycling",
    "request_reason": "Repair Trash Cart",
    "date_created": "2023-09-11T14:14:54.000",
    "date_modified": "2023-09-11T14:14:54.000",
    "request_status": "Pending",
    "responsible_agency": "Department of Sanitation",
    "final_address": "247 Belleville St",
    "address_councildis": "C",
    "status": "Assigned to Contractor",
    "contractor": "Richards Disposal",
    "rowid": "1034069",
    "final_x": "3687860.15683",
    "final_y": "531057.664962",
    "longitude": "-90.04800366564348",
    "latitude": "29.954029778447918",
    "geocoded_column": {
      "latitude": "29.954029778447918",
      "longitude": "-90.04800366564348"
    }
  },
  {
    "service_request": "2023-1034068",
    "request_type": "Trash/Recycling",
    "request_reason": "Request a Large Item Pick Up",
    "date_created": "2023-09-11T14:12:29.000",
    "date_modified": "2023-09-11T14:12:30.000",
    "request_status": "Pending",
    "responsible_agency": "Department of Sanitation",
    "final_address": "11210 N Forest Park Ct",
    "address_councildis": "E",
    "status": "Assigned to Contractor",
    "contractor": "Waste Pro",
    "rowid": "1034068",
    "final_x": "3716955.64159",
    "final_y": "558780.841116",
    "longitude": "-89.95508011363229",
    "latitude": "30.0293283633976",
    "geocoded_column": {
      "latitude": "30.0293283633976",
      "longitude": "-89.95508011363229"
    }
  },
  {
    "service_request": "2023-1034067",
    "request_type": "Abandoned Vehicles",
    "request_reason": "Abandoned/Junk Vehicles",
    "date_created": "2023-09-11T14:08:29.000",
    "date_modified": "2023-09-11T14:08:29.000",
    "request_status": "Pending",
    "responsible_agency": "Department of Public Works",
    "final_address": "229 Vallette St",
    "address_councildis": "C",
    "status": "Pending",
    "rowid": "1034067",
    "final_x": "3687540.66882",
    "final_y": "530970.81229",
    "longitude": "-90.04901555022602",
    "latitude": "29.9538008138346",
    "geocoded_column": {
      "latitude": "29.9538008138346",
      "longitude": "-90.04901555022602"
    }
  },
  {
    "service_request": "2023-1034066",
    "request_type": "Trash/Recycling",
    "request_reason": "Order Trash Cart",
    "date_created": "2023-09-11T14:07:44.000",
    "date_modified": "2023-09-11T14:07:45.000",
    "request_status": "Pending",
    "responsible_agency": "Department of Sanitation",
    "final_address": "5645 Tullis Dr",
    "address_councildis": "C",
    "status": "Assigned to Contractor",
    "contractor": "Richards Disposal",
    "rowid": "1034066",
    "final_x": "3704982.46161",
    "final_y": "512329.700977",
    "longitude": "-89.99462970181932",
    "latitude": "29.901995189346753",
    "geocoded_column": {
      "latitude": "29.901995189346753",
      "longitude": "-89.99462970181932"
    }
  },