[
  {
    "service_request": "2025-1168905",
    "request_type": "Streetlights",
    "request_reason": "New Streetlight Request",
    "date_created": "2025-02-13T22:20:54.000",
    "date_modified": "2025-02-13T22:20:55.000",
    "request_status": "Pending",
    "responsible_agency": "Department of Public Works",
    "final_address": "400 Aurora Oaks Dr",
    "address_councildis": "C",
    "status": "Pending",
    "contractor": "Legacy Professional Services",
    "rowid": "1168905",
    "final_x": "3701384.38583",
    "final_y": "522363.535738",
    "longitude": "-90.00561803885435",
    "latitude": "29.929699904621582",
    "geocoded_column": {
      "latitude": "29.929699904621582",
      "longitude": "-90.00561803885435"
    }
  },
  {
    "service_request": "2025-1168904",
    "request_type": "Trash/Recycling",
    "request_reason": "Order Recycling Cart",
    "date_created": "2025-02-13T22:18:12.000",
    "date_modified": "2025-02-13T22:18:15.000",
    "request_status": "Pending",
    "responsible_agency": "Department of Sanitation",
    "final_address": "400 Aurora Oaks Dr",
    "address_councildis": "C",
    "status": "Pending",
    "rowid": "1168904",
    "final_x": "3701384.38583",
    "final_y": "522363.535738",
    "longitude": "-90.00561803885435",
    "latitude": "29.929699904621582",
    "geocoded_column": {
      "latitude": "29.929699904621582",
      "longitude": "-90.00561803885435"
    }
  },
  {
    "service_request": "2025-1168903",
    "request_type": "Trash/Recycling",
    "request_reason": "Request a Large Item Pick Up",
    "date_created": "2025-02-13T21:35:12.000",
    "date_modified": "2025-02-13T21:35:14.000",
    "request_status": "Pending",
    "responsible_agency": "Department of Sanitation",
    "final_address": "3661 Annunciation St",
    "address_councildis": "B",
    "status": "Assigned to Contractor",
    "contractor": "IV Waste",
    "rowid": "1168903",
    "final_x": "3673976.73812",
    "final_y": "518170.543734",
    "longitude": "-90.09228266557429",
    "latitude": "29.919015311078013",
    "geocoded_column": {
      "latitude": "29.919015311078013",
      "longitude": "-90.09228266557429"
    }
  },
  {
    "service_request": "2025-1168902",
    "request_type": "Roads and Streets",
    "request_reason": "Pothole",
    "date_created": "2025-02-13T20:32:18.000",
    "date_modified": "2025-02-13T20:32:19.000",
    "request_status": "Pending",
    "responsible_agency": "Department of Public Works",
    "final_address": "CONGRESS DR & FRANKFORT ST",
    "address_councildis": "D",
    "status": "Pending",
    "rowid": "1168902",
    "final_x": "3690642.5",
    "final_y": "557556.88",
    "longitude": "-90.03827248561653",
    "latitude": "30.026806944866266",
    "geocoded_column": {
      "latitude": "30.026806944866266",
      "longitude": "-90.03827248561653"
    }
  },
  {
    "service_request": "2025-1168901",
    "request_type": "Trash/Recycling",
    "request_reason": "Order Second Trash Cart",
    "date_created": "2025-02-13T20:28:09.000",
    "date_modified": "2025-02-13T20:28:11.000",
    "request_status": "Pending",
    "responsible_agency": "Department of Sanitation",
    "final_address": "7220 Zimple St",
    "address_councildis": "A",
    "status": "Assigned to Contractor",
    "contractor": "IV Waste",
    "rowid": "1168901",
    "final_x": "3663775.32103",
    "final_y": "526279.055742",
    "longitude": "-90.12421336412415",
    "latitude": "29.941611035318676",
    "geocoded_column": {
      "latitude": "29.941611035318676",
      "longitude": "-90.12421336412415"
    }
  },
  {
    "service_request": "2025-1168900",
    "request_type": "Trash/Recycling",
    "request_reason": "Replace Trash Cart",
    "date_created": "2025-02-13T19:59:58.000",
    "date_modified": "2025-02-13T20:00:00.000",
    "request_status": "Pending",
    "responsible_agency": "Department of Sanitation",
    "final_address": "2019 Kerlerec St",
    "address_councildis": "D",
    "status": "Assigned to Contractor",
    "contractor": "IV Waste",
    "rowid": "1168900",
    "final_x": "3680263.43503",
    "final_y": "537888.812105",
    "longitude": "-90.07175352979547",
    "latitude": "29.97304522852588",
    "geocoded_column": {
      "latitude": "29.97304522852588",
      "longitude": "-90.07175352979547"
    }
  },
  {
    "service_request": "2025-1168899",
    "request_type": "Abandoned Vehicles",
    "request_reason": "Abandoned/Junk Vehicles",
    "date_created": "2025-02-13T19:51:42.000",
    "date_modified": "2025-02-13T19:51:45.000",
    "request_status": "Pending",
    "responsible_agency": "Department of Public Works",
    "final_address": "MARAIS ST & GALLIER ST",
    "address_councildis": "C",
    "status": "Pending",
    "rowid": "1168899",
    "final_x": "3690544.2",
    "final_y": "535983.58",
    "longitude": "-90.03935292875347",
    "latitude": "29.96749126753598",
    "geocoded_column": {
      "latitude": "29.96749126753598",
      "longitude": "-90.03935292875347"
    }
  },
  {
    "service_request": "2025-1168898",
    "request_type": "Streetlights",
    "request_reason": "New Streetlight Request",
    "date_created": "2025-02-13T19:33:27.000",
    "date_modified": "2025-02-13T19:33:28.000",
    "request_status": "Pending",
    "responsible_agency": "Department of Public Works",
    "final_address": "5000 BLK Mexico St",
    "address_councildis": "D",
    "status": "Pending",
    "contractor": "Legacy Professional Services",
    "rowid": "1168898",
    "final_x": "3691079.79136",
    "final_y": "556627.732989",
    "longitude": "-90.03692391272654",
    "latitude": "30.024238543049055",
    "geocoded_column": {
      "latitude": "30.024238543049055",
      "longitude": "-90.03692391272654"
    }
  },
  {
    "service_request": "2025-1168897",
    "request_type": "Trash/Recycling",
    "request_reason": "Request a Large Item Pick Up",
    "date_created": "2025-02-13T19:26:11.000",
    "date_modified": "2025-02-13T19:26:13.000",
    "request_status": "Pending",
    "responsible_agency": "Department of Sanitation",
    "final_address": "7805 Spruce St",
    "address_councildis": "A",
    "status": "Assigned to Contractor",
    "contractor": "IV Waste",
    "rowid": "1168897",
    "final_x": "3664659.56551",
    "final_y": "529768.650945",
    "longitude": "-90.12130507715986",
    "latitude": "29.951180612872168",
    "geocoded_column": {
      "latitude": "29.951180612872168",
      "longitude": "-90.12130507715986"
    }
  },
  {
    "service_request": "2025-1168896",
    "request_type": "Trash/Recycling",
    "request_reason": "Damaged Caused By Contractor",
    "date_created": "2025-02-13T19:24:09.000",
    "date_modified": "2025-02-13T19:24:13.000",
    "request_status": "Pending",
    "responsible_agency": "Department of Sanitation",
    "final_address": "1729 Oriole St",
    "address_councildis": "D",
    "status": "Assigned to Contractor",
    "contractor": "IV Waste",
    "rowid": "1168896",
    "final_x": "3678494.06376",
    "final_y": "558153.800091",
    "longitude": "-90.07663962573908",
    "latitude": "30.028820199118467",
    "geocoded_column": {
      "latitude": "30.028820199118467",
      "longitude": "-90.07663962573908"
    }
  },
  {
    "service_request": "2025-1168894",
    "request_type": "Trash/Recycling",
    "request_reason": "Return Trash Cart",
    "date_created": "2025-02-13T19:16:09.000",
    "date_modified": "2025-02-13T19:16:12.000",
    "request_status": "Pending",
    "responsible_agency": "Department of Sanitation",
    "final_address": "729 Foucher St",
    "address_councildis": "B",
    "status": "Assigned to Contractor",
    "contractor": "IV Waste",
    "rowid": "1168894",
    "final_x": "3674633.2459",
    "final_y": "518072.594486",
    "longitude": "-90.09021375931681",
    "latitude": "29.918726413846596",
    "geocoded_column": {
      "latitude": "29.918726413846596",
      "longitude": "-90.09021375931681"
    }
  },
  {
    "service_request": "2025-1168893",
    "request_type": "Trash/Recycling",
    "request_reason": "Missed Trash Pick-Up",
    "date_created": "2025-02-13T19:07:18.000",
    "date_modified": "2025-02-13T19:07:20.000",
    "request_status": "Pending",
    "responsible_agency": "Department of Sanitation",
    "final_address": "4604 Toulouse St",
    "address_councildis": "A",
    "status": "Assigned to Contractor",
    "contractor": "IV Waste",
    "rowid": "1168893",
    "final_x": "3670410.99143",
    "final_y": "541046.069324",
    "longitude": "-90.102762466925",
    "latitude": "29.98202121075726",
    "geocoded_column": {
      "latitude": "29.98202121075726",
      "longitude": "-90.102762466925"
    }
  },
  {
    "service_request": "2025-1168892",
    "request_type": "Trash/Recycling",
    "request_reason": "Request a Large Item Pick Up",
    "date_created": "2025-02-13T19:04:16.000",
    "date_modified": "2025-02-13T19:04:19.000",
    "request_status": "Pending",
    "responsible_agency": "Department of Sanitation",
    "final_address": "4939 Rhodes Dr",
    "address_councildis": "E",
    "status": "Assigned to Contractor",
    "contractor": "Waste Pro",
    "rowid": "1168892",
    "final_x": "3702478.04465",
    "final_y": "555471.686809",
    "longitude": "-90.00095026013783",
    "latitude": "30.02070034178832",
    "geocoded_column": {
      "latitude": "30.02070034178832",
      "longitude": "-90.00095026013783"
    }
  },
  {
    "service_request": "2025-1168891",
    "request_type": "Streetlights",
    "request_reason": "Streetlight Outage/Malfunction",
    "date_created": "2025-02-13T18:56:42.000",
    "date_modified": "2025-02-13T18:56:43.000",
    "request_status": "Pending",
    "responsible_agency": "Department of Public Works",
    "final_address": "714 River Oaks Dr",
    "address_councildis": "C",
    "status": "Pending",
    "contractor": "Legacy Professional Services",
    "rowid": "1168891",
    "final_x": "3701510.18487",
    "final_y": "519724.544184",
    "longitude": "-90.00531746933835",
    "latitude": "29.92243958045404",
    "geocoded_column": {
      "latitude": "29.92243958045404",
      "longitude": "-90.00531746933835"
    }
  },
  {
    "service_request": "2025-1168890",
    "request_type": "Trash/Recycling",
    "request_reason": "Request a Large Item Pick Up",
    "date_created": "2025-02-13T18:10:58.000",
    "date_modified": "2025-02-13T18:11:01.000",
    "request_status": "Pending",
    "responsible_agency": "Department of Sanitation",
    "final_address": "7000 Manchester St",
    "address_councildis": "E",
    "status": "Assigned to Contractor",
    "contractor": "Waste Pro",
    "rowid": "1168890",
    "final_x": "3698950.00874",
    "final_y": "560018.787293",
    "longitude": "-90.01193205437833",
    "latitude": "30.033315452729585",
    "geocoded_column": {
      "latitude": "30.033315452729585",
      "longitude": "-90.01193205437833"
    }
  },
  {
    "service_request": "2025-1168889",
    "request_type": "Safety & Permits",
    "request_reason": "Zoning Enforcement",
    "date_created": "2025-02-13T18:02:49.000",
    "date_modified": "2025-02-13T18:02:52.000",
    "request_status": "Pending",
    "responsible_agency": "Safety and Permits",
    "final_address": "8601 Bill St",
    "address_councildis": "E",
    "status": "Pending",
    "rowid": "1168889",
    "final_x": "3703704.43345",
    "final_y": "563238.8712",
    "longitude": "-89.99678899883781",
    "latitude": "30.042017803963272",
    "geocoded_column": {
      "latitude": "30.042017803963272",
      "longitude": "-89.99678899883781"
    }
  },
  {
    "service_request": "2025-1168888",
    "request_type": "Trash/Recycling",
    "request_reason": "Replace Trash Cart",
    "date_created": "2025-02-13T17:59:49.000",
    "date_modified": "2025-02-13T17:59:51.000",
    "request_status": "Pending",
    "responsible_agency": "Department of Sanitation",
    "final_address": "2315 Jena St",
    "address_councildis": "B",
    "status": "Assigned to Contractor",
    "contractor": "IV Waste",
    "rowid": "1168888",
    "final_x": "3670227.85159",
    "final_y": "523448.255163",
    "longitude": "-90.1039372669037",
    "latitude": "29.93363844930391",
    "geocoded_column": {
      "latitude": "29.93363844930391",
      "longitude": "-90.1039372669037"
    }
  },
  {
    "service_request": "2025-1168887",
    "request_type": "Abandoned Vehicles",
    "request_reason": "Abandoned/Junk Vehicles",
    "date_created": "2025-02-13T17:56:48.000",
    "date_modified": "2025-02-13T17:56:51.000",
    "request_status": "Pending",
    "responsible_agency": "Department of Public Works",
    "final_address": "8521 Bill St",
    "address_councildis": "E",
    "status": "Pending",
    "rowid": "1168887",
    "final_x": "3703545.06449",
    "final_y": "563160.99952",
    "longitude": "-89.99729553101513",
    "latitude": "30.041808797937026",
    "geocoded_column": {
      "latitude": "30.041808797937026",
      "longitude": "-89.99729553101513"
    }
  },
  {
    "service_request": "2025-1168886",
    "request_type": "Trash/Recycling",
    "request_reason": "Replace Trash Cart",
    "date_created": "2025-02-13T17:51:34.000",
    "date_modified": "2025-02-13T17:51:38.000",
    "request_status": "Pending",
    "responsible_agency": "Department of Sanitation",
    "final_address": "2611 Chippewa St",
    "address_councildis": "B",
    "status": "Assigned to Contractor",
    "contractor": "IV Waste",
    "rowid": "1168886",
    "final_x": "3678284.85198",
    "final_y": "519903.280696",
    "longitude": "-90.078624270401",
    "latitude": "29.923650771544516",
    "geocoded_column": {
      "latitude": "29.923650771544516",
      "longitude": "-90.078624270401"
    }
  },
  {
    "service_request": "2025-1168885",
    "request_type": "Trash/Recycling",
    "request_reason": "Request a Large Item Pick Up",
    "date_created": "2025-02-13T17:46:14.000",
    "date_modified": "2025-02-13T17:46:16.000",
    "request_status": "Pending",
    "responsible_agency": "Department of Sanitation",
    "final_address": "307 S Pierce St",
    "address_councildis": "A",
    "status": "Assigned to Contractor",
    "contractor": "IV Waste",
    "rowid": "1168885",
    "final_x": "3670901.54734",
    "final_y": "537369.43956",
    "longitude": "-90.10133790940915",
    "latitude": "29.971897229209855",
    "geocoded_column": {
      "latitude": "29.971897229209855",
      "longitude": "-90.10133790940915"
    }
  },
  {
    "service_request": "2025-1168884",
    "request_type": "Property Maintenance",
    "request_reason": "Property Maintenance",
    "date_created": "2025-02-13T17:39:13.000",
    "date_modified": "2025-02-13T17:39:15.000",
    "request_status": "Pending",
    "responsible_agency": "Department of Code Enforcement",
    "final_address": "7628 Burke Ave",
    "address_councildis": "E",
    "status": "Pending",
    "rowid": "1168884",
    "final_x": "3705371.88721",
    "final_y": "562966.870304",
    "longitude": "-89.99152932094871",
    "latitude": "30.041216324441642",
    "geocoded_column": {
      "latitude": "30.041216324441642",
      "longitude": "-89.99152932094871"
    }
  },
  {
    "service_request": "2025-1168883",
    "request_type": "Trash/Recycling",
    "request_reason": "Repair Trash Cart",
    "date_created": "2025-02-13T17:27:20.000",
    "date_modified": "2025-02-13T17:27:22.000",
    "request_status": "Pending",
    "responsible_agency": "Department of Sanitation",
    "final_address": "5610 Rhodes Ave",
    "address_councildis": "C",
    "status": "Assigned to Contractor",
    "contractor": "Richards Disposal",
    "rowid": "1168883",
    "final_x": "3704266.23908",
    "final_y": "519899.44332",
    "longitude": "-89.99661135173557",
    "latitude": "29.922832373925345",
    "geocoded_column": {
      "latitude": "29.922832373925345",
      "longitude": "-89.99661135173557"
    }
  },
  {
    "service_request": "2025-1168882",
    "request_type": "Abandoned Vehicles",
    "request_reason": "Abandoned/Junk Vehicles",
    "date_created": "2025-02-13T17:19:23.000",
    "date_modified": "2025-02-13T17:19:26.000",
    "request_status": "Pending",
    "responsible_agency": "Department of Public Works",
    "final_address": "1631 Sere St",
    "address_councildis": "D",
    "status": "Pending",
    "rowid": "1168882",
    "final_x": "3679911.70402",
    "final_y": "545571.733968",
    "longitude": "-90.07259739297464",
    "latitude": "29.99418122682221",
    "geocoded_column": {
      "latitude": "29.99418122682221",
      "longitude": "-90.07259739297464"
    }
  },
  {
    "service_request": "2025-1168881",
    "request_type": "Trash/Recycling",
    "request_reason": "Order Recycling Cart",
    "date_created": "2025-02-13T17:12:51.000",
    "date_modified": "2025-02-13T17:12:53.000",
    "request_status": "Pending",
    "responsible_agency": "Department of Sanitation",
    "final_address": "1018 Piety St",
    "address_councildis": "C",
    "status": "Pending",
    "rowid": "1168881",
    "final_x": "3689743.15881",
    "final_y": "535519.220934",
    "longitude": "-90.04189915213323",
    "latitude": "29.9662392920178",
    "geocoded_column": {
      "latitude": "29.9662392920178",
      "longitude": "-90.04189915213323"
    }
  },
  {
    "service_request": "2025-1168880",
    "request_type": "Trash/Recycling",
    "request_reason": "Replace Trash Cart",
    "date_created": "2025-02-13T17:11:15.000",
    "date_modified": "2025-02-13T17:11:19.000",
    "request_status": "Pending",
    "responsible_agency": "Department of Sanitation",
    "final_address": "4733 Camp St",
    "address_councildis": "B",
    "status": "Assigned to Contractor",
    "contractor": "IV Waste",
    "rowid": "1168880",
    "final_x": "3669625.7609",
    "final_y": "519056.226103",
    "longitude": "-90.10598655867419",
    "latitude": "29.921579519248166",
    "geocoded_column": {
      "latitude": "29.921579519248166",
      "longitude": "-90.10598655867419"
    }
  },
  {
    "service_request": "2025-1168879",
    "request_type": "Trash/Recycling",
    "request_reason": "Repair Trash Cart",
    "date_created": "2025-02-13T16:59:28.000",
    "date_modified": "2025-02-13T16:59:31.000",
    "request_status": "Pending",
    "responsible_agency": "Department of Sanitation",
    "final_address": "34 Lake Breeze Dr",
    "address_councildis": "E",
    "status": "Assigned to Contractor",
    "contractor": "Waste Pro",
    "rowid": "1168879",
    "final_x": "3762957.84675",
    "final_y": "571922.481512",
    "longitude": "-89.80916583334803",
    "latitude": "30.063860255351834",
    "geocoded_column": {
      "latitude": "30.063860255351834",
      "longitude": "-89.80916583334803"
    }
  },
  {
    "service_request": "2025-1168878",
    "request_type": "Trash/Recycling",
    "request_reason": "Request a Large Item Pick Up",
    "date_created": "2025-02-13T16:59:01.000",
    "date_modified": "2025-02-13T16:59:03.000",
    "request_status": "Pending",
    "responsible_agency": "Department of Sanitation",
    "final_address": "4501 Desire Dr",
    "address_councildis": "D",
    "status": "Assigned to Contractor",
    "contractor": "IV Waste",
    "rowid": "1168878",
    "final_x": "3692089.2863",
    "final_y": "550934.964821",
    "longitude": "-90.03393809327113",
    "latitude": "30.008554110355195",
    "geocoded_column": {
      "latitude": "30.008554110355195",
      "longitude": "-90.03393809327113"
    }
  },
  {
    "service_request": "2025-1168877",
    "request_type": "Trash/Recycling",
    "request_reason": "Repair Trash Cart",
    "date_created": "2025-02-13T16:57:34.000",
    "date_modified": "2025-02-13T16:57:39.000",
    "case_close_date": "2025-02-13T10:57:37.000",
    "request_status": "Closed",
    "responsible_agency": "Department of Sanitation",
    "final_address": "34 Lake Breeze Dr",
    "address_councildis": "E",
    "status": "Assigned to Contractor",
    "contractor": "Waste Pro",
    "contractor_action": "Invalid Request",
    "rowid": "1168877",
    "final_x": "3763121.63395",
    "final_y": "572001.038824",
    "longitude": "-89.80864480044966",
    "latitude": "30.06407026031545",
    "geocoded_column": {
      "latitude": "30.06407026031545",
      "longitude": "-89.80864480044966"
    }
  },
  {
    "service_request": "2025-1168876",
    "request_type": "Trash/Recycling",
    "request_reason": "Repair Trash Cart",
    "date_created": "2025-02-13T16:56:14.000",
    "date_modified": "2025-02-13T16:56:19.000",
    "case_close_date": "2025-02-13T10:56:18.000",
    "request_status": "Closed",
    "responsible_agency": "Department of Sanitation",
    "final_address": "34 Lake Breeze Dr",
    "address_councildis": "E",
    "status": "Assigned to Contractor",
    "contractor": "Waste Pro",
    "contractor_action": "Invalid Request",
    "rowid": "1168876",
    "final_x": "3763121.63395",
    "final_y": "572001.038824",
    "longitude": "-89.80864480044966",
    "latitude": "30.06407026031545",
    "geocoded_column": {
      "latitude": "30.06407026031545",
      "longitude": "-89.80864480044966"
    }
  },
  {
    "service_request": "2025-1168875",
    "request_type": "Trash/Recycling",
    "request_reason": "Request a Large Item Pick Up",
    "date_created": "2025-02-13T16:53:10.000",
    "date_modified": "2025-02-13T16:53:13.000",
    "request_status": "Pending",
    "responsible_agency": "Department of Sanitation",
    "final_address": "26 Maryland Dr",
    "address_councildis": "A",
    "status": "Assigned to Contractor",
    "contractor": "IV Waste",
    "rowid": "1168875",
    "final_x": "3663585.21235",
    "final_y": "540858.182987",
    "longitude": "-90.1243279112759",
    "latitude": "29.981704384603994",
    "geocoded_column": {
      "latitude": "29.981704384603994",
      "longitude": "-90.1243279112759"
    }
  },
  {
    "service_request": "2025-1168874",
    "request_type": "Trash/Recycling",
    "request_reason": "Return Recycling Cart",
    "date_created": "2025-02-13T16:51:21.000",
    "date_modified": "2025-02-13T16:51:23.000",
    "request_status": "Pending",
    "responsible_agency": "Department of Sanitation",
    "final_address": "941 France St",
    "address_councildis": "C",
    "status": "Pending",
    "contractor": "IV Waste",
    "rowid": "1168874",
    "final_x": "3692300.90569",
    "final_y": "534682.678918",
    "longitude": "-90.03385183150745",
    "latitude": "29.96385958253897",
    "geocoded_column": {
      "latitude": "29.96385958253897",
      "longitude": "-90.03385183150745"
    }
  },
  {
    "service_request": "2025-1168873",
    "request_type": "Trash/Recycling",
    "request_reason": "Return Trash Cart",
    "date_created": "2025-02-13T16:50:37.000",
    "date_modified": "2025-02-13T16:50:39.000",
    "request_status": "Pending",
    "responsible_agency": "Department of Sanitation",
    "final_address": "941 France St",
    "address_councildis": "C",
    "status": "Assigned to Contractor",
    "contractor": "IV Waste",
    "rowid": "1168873",
    "final_x": "3692300.90569",
    "final_y": "534682.678918",
    "longitude": "-90.03385183150745",
    "latitude": "29.96385958253897",
    "geocoded_column": {
      "latitude": "29.96385958253897",
      "longitude": "-90.03385183150745"
    }
  },
  {
    "service_request": "2025-1168872",
    "request_type": "Street and Traffic Signs",
    "request_reason": "Stop Sign Missing or Damaged",
    "date_created": "2025-02-13T16:47:57.000",
    "date_modified": "2025-02-13T16:47:59.000",
    "request_status": "Pending",
    "responsible_agency": "Department of Public Works",
    "final_address": "3071 Caton St",
    "address_councildis": "D",
    "status": "Pending",
    "rowid": "1168872",
    "final_x": "3683405.88015",
    "final_y": "547253.514001",
    "longitude": "-90.06150081187495",
    "latitude": "29.998699347310566",
    "geocoded_column": {
      "latitude": "29.998699347310566",
      "longitude": "-90.06150081187495"
    }
  },
  {
    "service_request": "2025-1168871",
    "request_type": "Trash/Recycling",
    "request_reason": "Request a Large Item Pick Up",
    "date_created": "2025-02-13T16:44:28.000",
    "date_modified": "2025-02-13T16:44:30.000",
    "request_status": "Pending",
    "responsible_agency": "Department of Sanitation",
    "final_address": "26 Maryland Dr",
    "address_councildis": "A",
    "status": "Assigned to Contractor",
    "contractor": "IV Waste",
    "rowid": "1168871",
    "final_x": "3663585.21235",
    "final_y": "540858.182987",
    "longitude": "-90.1243279112759",
    "latitude": "29.981704384603994",
    "geocoded_column": {
      "latitude": "29.981704384603994",
      "longitude": "-90.1243279112759"
    }
  },
  {
    "service_request": "2025-1168870",
    "request_type": "Mosquito, Termite & Rodent Control",
    "request_reason": "Rodent Complaint (Rats)",
    "date_created": "2025-02-13T16:35:28.000",
    "date_modified": "2025-02-13T16:35:31.000",
    "request_status": "Pending",
    "responsible_agency": "Mosquito, Termite & Rodent Control Board",
    "final_address": "1836 Desire St",
    "address_councildis": "D",
    "status": "Pending",
    "rowid": "1168870",
    "final_x": "3690869.49225",
    "final_y": "538632.959561",
    "longitude": "-90.0382310864434",
    "latitude": "29.974766021005358",
    "geocoded_column": {
      "latitude": "29.974766021005358",
      "longitude": "-90.0382310864434"
    }
  },
  {
    "service_request": "2025-1168869",
    "request_type": "Trash/Recycling",
    "request_reason": "Request a Large Item Pick Up",
    "date_created": "2025-02-13T16:30:28.000",
    "date_modified": "2025-02-13T16:30:30.000",
    "request_status": "Pending",
    "responsible_agency": "Department of Sanitation",
    "final_address": "7917 Burthe St",
    "address_councildis": "A",
    "status": "Assigned to Contractor",
    "contractor": "IV Waste",
    "rowid": "1168869",
    "final_x": "3661751.6448",
    "final_y": "527191.622015",
    "longitude": "-90.13057230614791",
    "latitude": "29.9441788644963",
    "geocoded_column": {
      "latitude": "29.9441788644963",
      "longitude": "-90.13057230614791"
    }
  },
  {
    "service_request": "2025-1168868",
    "request_type": "Roads and Streets",
    "request_reason": "Pothole",
    "date_created": "2025-02-13T16:13:54.000",
    "date_modified": "2025-02-13T16:13:56.000",
    "request_status": "Pending",
    "responsible_agency": "Department of Public Works",
    "final_address": "5200 BLK Atlanta St",
    "address_councildis": "B",
    "status": "Pending",
    "rowid": "1168868",
    "final_x": "3667939.31369",
    "final_y": "520720.530197",
    "longitude": "-90.11125392997842",
    "latitude": "29.926205391859135",
    "geocoded_column": {
      "latitude": "29.926205391859135",
      "longitude": "-90.11125392997842"
    }
  },
  {
    "service_request": "2025-1168867",
    "request_type": "Abandoned Vehicles",
    "request_reason": "Abandoned/Junk Vehicles",
    "date_created": "2025-02-13T16:12:42.000",
    "date_modified": "2025-02-13T16:12:44.000",
    "request_status": "Pending",
    "responsible_agency": "Department of Public Works",
    "final_address": "1743 N Broad St",
    "address_councildis": "D",
    "status": "Pending",
    "rowid": "1168867",
    "final_x": "3679739.10927",
    "final_y": "541099.214796",
    "longitude": "-90.07329795722731",
    "latitude": "29.981888587344525",
    "geocoded_column": {
      "latitude": "29.981888587344525",
      "longitude": "-90.07329795722731"
    }
  },
  {
    "service_request": "2025-1168866",
    "request_type": "EMS",
    "request_reason": "EMS Complaint",
    "date_created": "2025-02-13T16:11:23.000",
    "date_modified": "2025-02-13T16:57:08.000",
    "request_status": "Pending",
    "responsible_agency": "Emergency Medical Services",
    "final_address": "ELYSIAN FIELDS AVE & VIENNA ST",
    "address_councildis": "D",
    "status": "Pending",
    "rowid": "1168866",
    "final_x": "3683575.3",
    "final_y": "554962.58",
    "longitude": "-90.06069513534304",
    "latitude": "30.019891311165576",
    "geocoded_column": {
      "latitude": "30.019891311165576",
      "longitude": "-90.06069513534304"
    }
  },
  {
    "service_request": "2025-1168865",
    "request_type": "Trash/Recycling",
    "request_reason": "Repair Recycling Cart",
    "date_created": "2025-02-13T16:10:05.000",
    "date_modified": "2025-02-13T16:10:46.000",
    "request_status": "Pending",
    "responsible_agency": "Department of Sanitation",
    "final_address": "401 Vallette St",
    "address_councildis": "C",
    "status": "Pending",
    "contractor": "Richards Disposal",
    "rowid": "1168865",
    "final_x": "3687518.54415",
    "final_y": "530319.365506",
    "longitude": "-90.04910846483817",
    "latitude": "29.952010240588407",
    "geocoded_column": {
      "latitude": "29.952010240588407",
      "longitude": "-90.04910846483817"
    }
  },
  {
    "service_request": "2025-1168864",
    "request_type": "Trash/Recycling",
    "request_reason": "Repair Trash Cart",
    "date_created": "2025-02-13T16:09:40.000",
    "date_modified": "2025-02-13T16:09:42.000",
    "request_status": "Pending",
    "responsible_agency": "Department of Sanitation",
    "final_address": "401 Vallette St",
    "address_councildis": "C",
    "status": "Assigned to Contractor",
    "contractor": "Richards Disposal",
    "rowid": "1168864",
    "final_x": "3687518.54415",
    "final_y": "530319.365506",
    "longitude": "-90.04910846483817",
    "latitude": "29.952010240588407",
    "geocoded_column": {
      "latitude": "29.952010240588407",
      "longitude": "-90.04910846483817"
    }
  },
  {
    "service_request": "2025-1168863",
    "request_type": "Streetlights",
    "request_reason": "Streetlight Outage/Malfunction",
    "date_created": "2025-02-13T16:09:38.000",
    "date_modified": "2025-02-13T16:09:39.000",
    "request_status": "Pending",
    "responsible_agency": "Department of Public Works",
    "final_address": "2609 St Claude Ave",
    "address_councildis": "C",
    "status": "Pending",
    "contractor": "Legacy Professional Services",
    "rowid": "1168863",
    "final_x": "3687268.55855",
    "final_y": "536614.324167",
    "longitude": "-90.04967512802371",
    "latitude": "29.969326900712144",
    "geocoded_column": {
      "latitude": "29.969326900712144",
      "longitude": "-90.04967512802371"
    }
  },
  {
    "service_request": "2025-1168862",
    "request_type": "Trash/Recycling",
    "request_reason": "Missed Trash Pick-Up",
    "date_created": "2025-02-13T16:07:38.000",
    "date_modified": "2025-02-13T17:05:16.000",
    "case_close_date": "2025-02-13T11:05:14.000",
    "request_status": "Closed",
    "responsible_agency": "Department of Sanitation",
    "final_address": "5035 Loyola Ave",
    "address_councildis": "B",
    "status": "Invalid Request",
    "contractor": "IV Waste",
    "contractor_action": "Invalid Request",
    "rowid": "1168862",
    "final_x": "3668524.6923",
    "final_y": "522899.657147",
    "longitude": "-90.10933257049898",
    "latitude": "29.932180116718406",
    "geocoded_column": {
      "latitude": "29.932180116718406",
      "longitude": "-90.10933257049898"
    }
  },
  {
    "service_request": "2025-1168861",
    "request_type": "Health Related Request",
    "request_reason": "Noise Ordinance Complaint",
    "date_created": "2025-02-13T16:06:10.000",
    "date_modified": "2025-02-13T16:06:11.000",
    "request_status": "Pending",
    "responsible_agency": "Health Department",
    "final_address": "1726 N Rocheblave St",
    "address_councildis": "D",
    "status": "Pending",
    "rowid": "1168861",
    "final_x": "3680553.28751",
    "final_y": "540251.871179",
    "longitude": "-90.07075588620559",
    "latitude": "29.97953404416108",
    "geocoded_column": {
      "latitude": "29.97953404416108",
      "longitude": "-90.07075588620559"
    }
  },
  {
    "service_request": "2025-1168860",
    "request_type": "Property Maintenance",
    "request_reason": "Property Maintenance",
    "date_created": "2025-02-13T16:00:43.000",
    "date_modified": "2025-02-13T16:00:46.000",
    "request_status": "Pending",
    "responsible_agency": "Department of Code Enforcement",
    "final_address": "1662 N Dorgenois St",
    "address_councildis": "D",
    "status": "Pending",
    "rowid": "1168860",
    "final_x": "3679918.37442",
    "final_y": "540207.965067",
    "longitude": "-90.07276272129266",
    "latitude": "29.97943253882119",
    "geocoded_column": {
      "latitude": "29.97943253882119",
      "longitude": "-90.07276272129266"
    }
  },
  {
    "service_request": "2025-1168859",
    "request_type": "Healthy Homes",
    "request_reason": "Healthy Homes",
    "date_created": "2025-02-13T15:46:54.000",
    "date_modified": "2025-02-13T15:46:56.000",
    "request_status": "Pending",
    "responsible_agency": "Department of Code Enforcement",
    "final_address": "1942 Wilton Dr",
    "address_councildis": "D",
    "status": "Pending",
    "rowid": "1168859",
    "final_x": "3681807.66671",
    "final_y": "550993.684885",
    "longitude": "-90.06641893940545",
    "latitude": "30.009032155400305",
    "geocoded_column": {
      "latitude": "30.009032155400305",
      "longitude": "-90.06641893940545"
    }
  },
  {
    "service_request": "2025-1168858",
    "request_type": "Trash/Recycling",
    "request_reason": "Request a Large Item Pick Up",
    "date_created": "2025-02-13T15:46:25.000",
    "date_modified": "2025-02-13T15:46:27.000",
    "request_status": "Pending",
    "responsible_agency": "Department of Sanitation",
    "final_address": "4906 Burgundy St",
    "address_councildis": "E",
    "status": "Assigned to Contractor",
    "contractor": "Waste Pro",
    "rowid": "1168858",
    "final_x": "3695244.3928",
    "final_y": "533588.743813",
    "longitude": "-90.02459608256262",
    "latitude": "29.960759531212037",
    "geocoded_column": {
      "latitude": "29.960759531212037",
      "longitude": "-90.02459608256262"
    }
  },
  {
    "service_request": "2025-1168857",
    "request_type": "Safety & Permits",
    "request_reason": "Zoning Enforcement",
    "date_created": "2025-02-13T15:46:12.000",
    "date_modified": "2025-02-13T15:53:23.000",
    "case_close_date": "2025-02-13T09:53:21.000",
    "request_status": "Closed",
    "responsible_agency": "Safety and Permits",
    "final_address": "7630 Briarwood Dr",
    "address_councildis": "E",
    "status": "Resolved",
    "rowid": "1168857",
    "final_x": "3717484.20959",
    "final_y": "570852.313319",
    "longitude": "-89.95295033653534",
    "latitude": "30.062502485902378",
    "geocoded_column": {
      "latitude": "30.062502485902378",
      "longitude": "-89.95295033653534"
    }
  },
  {
    "service_request": "2025-1168856",
    "request_type": "Trash/Recycling",
    "request_reason": "Damaged Caused By Contractor",
    "date_created": "2025-02-13T15:44:41.000",
    "date_modified": "2025-02-13T16:41:46.000",
    "case_close_date": "2025-02-13T10:41:44.000",
    "request_status": "Closed",
    "responsible_agency": "Department of Sanitation",
    "final_address": "13939 Tu Do Dr",
    "address_councildis": "E",
    "status": "Invalid Request",
    "contractor": "Waste Pro",
    "contractor_action": "Invalid Request",
    "rowid": "1168856",
    "final_x": "3727890.50368",
    "final_y": "563068.849312",
    "longitude": "-89.92035964447491",
    "latitude": "30.040752428433002",
    "geocoded_column": {
      "latitude": "30.040752428433002",
      "longitude": "-89.92035964447491"
    }
  },
  {
    "service_request": "2025-1168855",
    "request_type": "Trash/Recycling",
    "request_reason": "Order Recycling Cart",
    "date_created": "2025-02-13T15:41:28.000",
    "date_modified": "2025-02-13T15:41:30.000",
    "request_status": "Pending",
    "responsible_agency": "Department of Sanitation",
    "final_address": "4417 S Tonti St",
    "address_councildis": "B",
    "status": "Pending",
    "rowid": "1168855",
    "final_x": "3669893.12398",
    "final_y": "528173.114816",
    "longitude": "-90.10483406589086",
    "latitude": "29.946640154579477",
    "geocoded_column": {
      "latitude": "29.946640154579477",
      "longitude": "-90.10483406589086"
    }
  },
  {
    "service_request": "2025-1168854",
    "request_type": "Property Maintenance",
    "request_reason": "Property Maintenance",
    "date_created": "2025-02-13T15:37:51.000",
    "date_modified": "2025-02-13T15:37:53.000",
    "request_status": "Pending",
    "responsible_agency": "Department of Code Enforcement",
    "final_address": "7928 Burke Ave",
    "address_councildis": "E",
    "status": "Pending",
    "rowid": "1168854",
    "final_x": "3704916.4154",
    "final_y": "563710.643745",
    "longitude": "-89.99294126491526",
    "latitude": "30.043276064800192",
    "geocoded_column": {
      "latitude": "30.043276064800192",
      "longitude": "-89.99294126491526"
    }
  },
  {
    "service_request": "2025-1168853",
    "request_type": "Abandoned Vehicles",
    "request_reason": "Abandoned/Junk Vehicles",
    "date_created": "2025-02-13T15:36:34.000",
    "date_modified": "2025-02-13T15:36:36.000",
    "request_status": "Pending",
    "responsible_agency": "Department of Public Works",
    "final_address": "8720 Dinkins St",
    "address_councildis": "E",
    "status": "Pending",
    "rowid": "1168853",
    "final_x": "3704282.37988",
    "final_y": "563145.40432",
    "longitude": "-89.99496593307019",
    "latitude": "30.041742258148645",
    "geocoded_column": {
      "latitude": "30.041742258148645",
      "longitude": "-89.99496593307019"
    }
  },
  {
    "service_request": "2025-1168852",
    "request_type": "Trash/Recycling",
    "request_reason": "Request a Large Item Pick Up",
    "date_created": "2025-02-13T15:35:04.000",
    "date_modified": "2025-02-13T15:35:07.000",
    "request_status": "Pending",
    "responsible_agency": "Department of Sanitation",
    "final_address": "7145 Downman Rd",
    "address_councildis": "D",
    "status": "Assigned to Contractor",
    "contractor": "Waste Pro",
    "rowid": "1168852",
    "final_x": "3695294.48867",
    "final_y": "556839.897242",
    "longitude": "-90.02359864589498",
    "latitude": "30.024690123887616",
    "geocoded_column": {
      "latitude": "30.024690123887616",
      "longitude": "-90.02359864589498"
    }
  },
  {
    "service_request": "2025-1168851",
    "request_type": "Trash/Recycling",
    "request_reason": "Repair Recycling Cart",
    "date_created": "2025-02-13T15:31:07.000",
    "date_modified": "2025-02-13T15:31:10.000",
    "request_status": "Pending",
    "responsible_agency": "Department of Sanitation",
    "final_address": "6151 Milne Blvd",
    "address_councildis": "A",
    "status": "Pending",
    "rowid": "1168851",
    "final_x": "3667253.08474",
    "final_y": "548485.269138",
    "longitude": "-90.11248633884895",
    "latitude": "30.002569339994423",
    "geocoded_column": {
      "latitude": "30.002569339994423",
      "longitude": "-90.11248633884895"
    }
  },
  {
    "service_request": "2025-1168850",
    "request_type": "Safety & Permits",
    "request_reason": "Zoning Enforcement",
    "date_created": "2025-02-13T15:28:57.000",
    "date_modified": "2025-02-13T16:02:38.000",
    "case_close_date": "2025-02-13T10:02:37.000",
    "request_status": "Closed",
    "responsible_agency": "Safety and Permits",
    "final_address": "4525 Patterson St",
    "address_councildis": "C",
    "status": "Resolved",
    "rowid": "1168850",
    "final_x": "3700607.53905",
    "final_y": "525534.825789",
    "longitude": "-90.00795459297763",
    "latitude": "29.93844457878178",
    "geocoded_column": {
      "latitude": "29.93844457878178",
      "longitude": "-90.00795459297763"
    }
  },
  {
    "service_request": "2025-1168849",
    "request_type": "Abandoned Vehicles",
    "request_reason": "Abandoned/Junk Vehicles",
    "date_created": "2025-02-13T15:26:19.000",
    "date_modified": "2025-02-13T15:26:21.000",
    "request_status": "Pending",
    "responsible_agency": "Department of Public Works",
    "final_address": "2231 Marengo St",
    "address_councildis": "B",
    "status": "Pending",
    "rowid": "1168849",
    "final_x": "3671776.10043",
    "final_y": "523363.401723",
    "longitude": "-90.09905239975981",
    "latitude": "29.933359362785552",
    "geocoded_column": {
      "latitude": "29.933359362785552",
      "longitude": "-90.09905239975981"
    }
  },
  {
    "service_request": "2025-1168848",
    "request_type": "Abandoned Vehicles",
    "request_reason": "Abandoned/Junk Vehicles",
    "date_created": "2025-02-13T15:20:07.000",
    "date_modified": "2025-02-13T15:20:10.000",
    "request_status": "Pending",
    "responsible_agency": "Department of Public Works",
    "final_address": "1333 Mandeville St",
    "address_councildis": "C",
    "status": "Pending",
    "rowid": "1168848",
    "final_x": "3685733.46242",
    "final_y": "537378.011592",
    "longitude": "-90.0544961538923",
    "latitude": "29.971473972434065",
    "geocoded_column": {
      "latitude": "29.971473972434065",
      "longitude": "-90.0544961538923"
    }
  },
  {
    "service_request": "2025-1168847",
    "request_type": "Trash/Recycling",
    "request_reason": "Request a Large Item Pick Up",
    "date_created": "2025-02-13T15:19:58.000",
    "date_modified": "2025-02-13T15:20:00.000",
    "request_status": "Pending",
    "responsible_agency": "Department of Sanitation",
    "final_address": "6049 Warrington Dr",
    "address_councildis": "D",
    "status": "Assigned to Contractor",
    "contractor": "IV Waste",
    "rowid": "1168847",
    "final_x": "3680773.63189",
    "final_y": "555160.991065",
    "longitude": "-90.06954058789954",
    "latitude": "30.020522131955993",
    "geocoded_column": {
      "latitude": "30.020522131955993",
      "longitude": "-90.06954058789954"
    }
  },
  {
    "service_request": "2025-1168846",
    "request_type": "Property Maintenance",
    "request_reason": "Property Maintenance",
    "date_created": "2025-02-13T15:18:36.000",
    "date_modified": "2025-02-13T15:18:37.000",
    "request_status": "Pending",
    "responsible_agency": "Department of Code Enforcement",
    "final_address": "7025 Edinburgh St",
    "address_councildis": "B",
    "status": "Pending",
    "rowid": "1168846",
    "final_x": "3669031.00564",
    "final_y": "533130.486852",
    "longitude": "-90.10738862735425",
    "latitude": "29.96029668873569",
    "geocoded_column": {
      "latitude": "29.96029668873569",
      "longitude": "-90.10738862735425"
    }
  },
  {
    "service_request": "2025-1168845",
    "request_type": "Trash/Recycling",
    "request_reason": "Replace Trash Cart",
    "date_created": "2025-02-13T15:13:09.000",
    "date_modified": "2025-02-13T15:13:10.000",
    "request_status": "Pending",
    "responsible_agency": "Department of Sanitation",
    "final_address": "1932 Audubon St",
    "address_councildis": "A",
    "status": "Assigned to Contractor",
    "contractor": "IV Waste",
    "rowid": "1168845",
    "final_x": "3665926.84807",
    "final_y": "528636.229952",
    "longitude": "-90.11734155774843",
    "latitude": "29.948029902366326",
    "geocoded_column": {
      "latitude": "29.948029902366326",
      "longitude": "-90.11734155774843"
    }
  },
  {
    "service_request": "2025-1168844",
    "request_type": "Drainage",
    "request_reason": "Drainage Manhole Cover Missing or Damaged",
    "date_created": "2025-02-13T15:12:56.000",
    "date_modified": "2025-02-13T15:12:58.000",
    "request_status": "Pending",
    "responsible_agency": "Sewerage & Water Board ",
    "final_address": "2221 Laurel St",
    "address_councildis": "B",
    "status": "Pending",
    "rowid": "1168844",
    "final_x": "3679115.15669",
    "final_y": "521391.321529",
    "longitude": "-90.07595175897444",
    "latitude": "29.92771737269969",
    "geocoded_column": {
      "latitude": "29.92771737269969",
      "longitude": "-90.07595175897444"
    }
  },
  {
    "service_request": "2025-1168843",
    "request_type": "Trash/Recycling",
    "request_reason": "Replace Trash Cart",
    "date_created": "2025-02-13T15:10:49.000",
    "date_modified": "2025-02-13T15:10:53.000",
    "request_status": "Pending",
    "responsible_agency": "Department of Sanitation",
    "final_address": "1932 Audubon St",
    "address_councildis": "A",
    "status": "Assigned to Contractor",
    "contractor": "IV Waste",
    "rowid": "1168843",
    "final_x": "3665926.84807",
    "final_y": "528636.229952",
    "longitude": "-90.11734155774843",
    "latitude": "29.948029902366326",
    "geocoded_column": {
      "latitude": "29.948029902366326",
      "longitude": "-90.11734155774843"
    }
  },
  {
    "service_request": "2025-1168842",
    "request_type": "Property Maintenance",
    "request_reason": "Property Maintenance",
    "date_created": "2025-02-13T15:07:48.000",
    "date_modified": "2025-02-13T15:15:46.000",
    "case_close_date": "2025-02-13T09:15:44.000",
    "request_status": "Closed",
    "responsible_agency": "Department of Code Enforcement",
    "final_address": "2539 St Philip St",
    "address_councildis": "D",
    "status": "Referred to Code Enforcement",
    "rowid": "1168842",
    "final_x": "3677974.81922",
    "final_y": "537453.813704",
    "longitude": "-90.07899646708518",
    "latitude": "29.971918218975688",
    "geocoded_column": {
      "latitude": "29.971918218975688",
      "longitude": "-90.07899646708518"
    }
  },
  {
    "service_request": "2025-1168841",
    "request_type": "Trash/Recycling",
    "request_reason": "Request a Large Item Pick Up",
    "date_created": "2025-02-13T15:07:05.000",
    "date_modified": "2025-02-13T15:07:06.000",
    "request_status": "Pending",
    "responsible_agency": "Department of Sanitation",
    "final_address": "4913 Camp St",
    "address_councildis": "B",
    "status": "Assigned to Contractor",
    "contractor": "IV Waste",
    "rowid": "1168841",
    "final_x": "3668873.36628",
    "final_y": "518997.231095",
    "longitude": "-90.10836354093891",
    "latitude": "29.921439440232632",
    "geocoded_column": {
      "latitude": "29.921439440232632",
      "longitude": "-90.10836354093891"
    }
  },
  {
    "service_request": "2025-1168840",
    "request_type": "Abandoned Vehicles",
    "request_reason": "Abandoned/Junk Vehicles",
    "date_created": "2025-02-13T15:04:16.000",
    "date_modified": "2025-02-13T15:08:56.000",
    "request_status": "Pending",
    "responsible_agency": "Department of Public Works",
    "final_address": "2745 Toulouse St",
    "address_councildis": "A",
    "status": "Inspected",
    "rowid": "1168840",
    "final_x": "3676131.75457",
    "final_y": "536848.614024",
    "longitude": "-90.08483799034921",
    "latitude": "29.970309473849003",
    "geocoded_column": {
      "latitude": "29.970309473849003",
      "longitude": "-90.08483799034921"
    }
  },
  {
    "service_request": "2025-1168839",
    "request_type": "Trash/Recycling",
    "request_reason": "Request a Large Item Pick Up",
    "date_created": "2025-02-13T15:01:36.000",
    "date_modified": "2025-02-13T15:01:38.000",
    "request_status": "Pending",
    "responsible_agency": "Department of Sanitation",
    "final_address": "11121 S Idlewood Ct",
    "address_councildis": "E",
    "status": "Assigned to Contractor",
    "contractor": "Waste Pro",
    "rowid": "1168839",
    "final_x": "3716156.87026",
    "final_y": "559366.633117",
    "longitude": "-89.95758195872506",
    "latitude": "30.03096545071214",
    "geocoded_column": {
      "latitude": "30.03096545071214",
      "longitude": "-89.95758195872506"
    }
  },
  {
    "service_request": "2025-1168838",
    "request_type": "Trash/Recycling",
    "request_reason": "Replace Trash Cart",
    "date_created": "2025-02-13T14:57:38.000",
    "date_modified": "2025-02-13T14:57:39.000",
    "request_status": "Pending",
    "responsible_agency": "Department of Sanitation",
    "final_address": "5401 Chamberlain Dr",
    "address_councildis": "D",
    "status": "Assigned to Contractor",
    "contractor": "IV Waste",
    "rowid": "1168838",
    "final_x": "3679556.60879",
    "final_y": "552317.11759",
    "longitude": "-90.07348481235958",
    "latitude": "30.0127393630089",
    "geocoded_column": {
      "latitude": "30.0127393630089",
      "longitude": "-90.07348481235958"
    }
  },
  {
    "service_request": "2025-1168837",
    "request_type": "Trash/Recycling",
    "request_reason": "Return Trash Cart",
    "date_created": "2025-02-13T14:57:21.000",
    "date_modified": "2025-02-13T14:57:23.000",
    "request_status": "Pending",
    "responsible_agency": "Department of Sanitation",
    "final_address": "731 Jackson Ave",
    "address_councildis": "B",
    "status": "Assigned to Contractor",
    "contractor": "IV Waste",
    "rowid": "1168837",
    "final_x": "3679628.25563",
    "final_y": "521150.858169",
    "longitude": "-90.07434036880463",
    "latitude": "29.92704068520693",
    "geocoded_column": {
      "latitude": "29.92704068520693",
      "longitude": "-90.07434036880463"
    }
  },
  {
    "service_request": "2025-1168836",
    "request_type": "Trash/Recycling",
    "request_reason": "Request a Large Item Pick Up",
    "date_created": "2025-02-13T14:56:48.000",
    "date_modified": "2025-02-13T14:56:50.000",
    "request_status": "Pending",
    "responsible_agency": "Department of Sanitation",
    "final_address": "2533 Elder St",
    "address_councildis": "D",
    "status": "Assigned to Contractor",
    "contractor": "IV Waste",
    "rowid": "1168836",
    "final_x": "3686841.08962",
    "final_y": "545787.218128",
    "longitude": "-90.05070083477572",
    "latitude": "29.994562272267075",
    "geocoded_column": {
      "latitude": "29.994562272267075",
      "longitude": "-90.05070083477572"
    }
  },
  {
    "service_request": "2025-1168835",
    "request_type": "Trash/Recycling",
    "request_reason": "Request a Large Item Pick Up",
    "date_created": "2025-02-13T14:54:51.000",
    "date_modified": "2025-02-13T14:58:51.000",
    "request_status": "Pending",
    "responsible_agency": "Department of Sanitation",
    "final_address": "2602 Annette St",
    "address_councildis": "D",
    "status": "Pending",
    "rowid": "1168835",
    "final_x": "3682661.98965",
    "final_y": "541718.977996",
    "longitude": "-90.06404443767143",
    "latitude": "29.983504016341694",
    "geocoded_column": {
      "latitude": "29.983504016341694",
      "longitude": "-90.06404443767143"
    }
  },
  {
    "service_request": "2025-1168834",
    "request_type": "Trash/Recycling",
    "request_reason": "Order Recycling Cart",
    "date_created": "2025-02-13T14:49:31.000",
    "date_modified": "2025-02-13T15:37:32.000",
    "case_close_date": "2025-02-13T09:37:31.000",
    "request_status": "Closed",
    "responsible_agency": "Department of Sanitation",
    "final_address": "118 City Park Ave",
    "address_councildis": "A",
    "status": "Resolved",
    "contractor": "IV Waste",
    "rowid": "1168834",
    "final_x": "3667651.43245",
    "final_y": "540854.232907",
    "longitude": "-90.1114849682831",
    "latitude": "29.98157492613766",
    "geocoded_column": {
      "latitude": "29.98157492613766",
      "longitude": "-90.1114849682831"
    }
  },
  {
    "service_request": "2025-1168833",
    "request_type": "Trash/Recycling",
    "request_reason": "Request a Large Item Pick Up",
    "date_created": "2025-02-13T14:49:26.000",
    "date_modified": "2025-02-13T14:49:28.000",
    "request_status": "Pending",
    "responsible_agency": "Department of Sanitation",
    "final_address": "1517 Harrison Ave",
    "address_councildis": "D",
    "status": "Assigned to Contractor",
    "contractor": "IV Waste",
    "rowid": "1168833",
    "final_x": "3678856.82171",
    "final_y": "547717.111954",
    "longitude": "-90.07585525123166",
    "latitude": "30.000112129537097",
    "geocoded_column": {
      "latitude": "30.000112129537097",
      "longitude": "-90.07585525123166"
    }
  },
  {
    "service_request": "2025-1168832",
    "request_type": "Trash/Recycling",
    "request_reason": "Order Trash Cart",
    "date_created": "2025-02-13T14:49:02.000",
    "date_modified": "2025-02-13T15:38:15.000",
    "case_close_date": "2025-02-13T09:38:13.000",
    "request_status": "Closed",
    "responsible_agency": "Department of Sanitation",
    "final_address": "118 City Park Ave",
    "address_councildis": "A",
    "status": "Resolved",
    "contractor": "IV Waste",
    "rowid": "1168832",
    "final_x": "3667651.43245",
    "final_y": "540854.232907",
    "longitude": "-90.1114849682831",
    "latitude": "29.98157492613766",
    "geocoded_column": {
      "latitude": "29.98157492613766",
      "longitude": "-90.1114849682831"
    }
  },
  {
    "service_request": "2025-1168831",
    "request_type": "Trash/Recycling",
    "request_reason": "Order Recycling Cart",
    "date_created": "2025-02-13T14:47:18.000",
    "date_modified": "2025-02-13T15:38:57.000",
    "case_close_date": "2025-02-13T09:38:56.000",
    "request_status": "Closed",
    "responsible_agency": "Department of Sanitation",
    "final_address": "118 City Park Ave",
    "address_councildis": "A",
    "status": "Resolved",
    "rowid": "1168831",
    "final_x": "3667651.43245",
    "final_y": "540854.232907",
    "longitude": "-90.1114849682831",
    "latitude": "29.98157492613766",
    "geocoded_column": {
      "latitude": "29.98157492613766",
      "longitude": "-90.1114849682831"
    }
  },
  {
    "service_request": "2025-1168830",
    "request_type": "Trash/Recycling",
    "request_reason": "Request a Large Item Pick Up",
    "date_created": "2025-02-13T14:41:58.000",
    "date_modified": "2025-02-13T14:42:00.000",
    "request_status": "Pending",
    "responsible_agency": "Department of Sanitation",
    "final_address": "5324 N Galvez St",
    "address_councildis": "E",
    "status": "Assigned to Contractor",
    "contractor": "Waste Pro",
    "rowid": "1168830",
    "final_x": "3697990.90224",
    "final_y": "537648.572872",
    "longitude": "-90.01577577418092",
    "latitude": "29.971836068875117",
    "geocoded_column": {
      "latitude": "29.971836068875117",
      "longitude": "-90.01577577418092"
    }
  },
  {
    "service_request": "2025-1168829",
    "request_type": "Trash/Recycling",
    "request_reason": "Order Recycling Cart",
    "date_created": "2025-02-13T14:38:41.000",
    "date_modified": "2025-02-13T17:02:01.000",
    "case_close_date": "2025-02-13T10:59:10.000",
    "request_status": "Pending",
    "responsible_agency": "Department of Sanitation",
    "final_address": "3125 Nashville Ave",
    "address_councildis": "A",
    "status": "Assigned to Contractor",
    "contractor": "IV Waste",
    "rowid": "1168829",
    "final_x": "3667893.47053",
    "final_y": "527356.272639",
    "longitude": "-90.11117522091945",
    "latitude": "29.944452902157927",
    "geocoded_column": {
      "latitude": "29.944452902157927",
      "longitude": "-90.11117522091945"
    }
  },
  {
    "service_request": "2025-1168828",
    "request_type": "Trash/Recycling",
    "request_reason": "Order Trash Cart",
    "date_created": "2025-02-13T14:38:14.000",
    "date_modified": "2025-02-13T14:38:16.000",
    "request_status": "Pending",
    "responsible_agency": "Department of Sanitation",
    "final_address": "3125 Nashville Ave",
    "address_councildis": "A",
    "status": "Assigned to Contractor",
    "contractor": "IV Waste",
    "rowid": "1168828",
    "final_x": "3667893.47053",
    "final_y": "527356.272639",
    "longitude": "-90.11117522091945",
    "latitude": "29.944452902157927",
    "geocoded_column": {
      "latitude": "29.944452902157927",
      "longitude": "-90.11117522091945"
    }
  },
  {
    "service_request": "2025-1168827",
    "request_type": "Streetlights",
    "request_reason": "Streetlight Outage/Malfunction",
    "date_created": "2025-02-13T14:37:38.000",
    "date_modified": "2025-02-13T14:37:39.000",
    "request_status": "Pending",
    "responsible_agency": "Department of Public Works",
    "final_address": "12000 BLK Interstate 10 Service Rd N",
    "address_councildis": "E",
    "status": "Pending",
    "contractor": "Legacy Professional Services",
    "rowid": "1168827",
    "final_x": "3716202.665",
    "final_y": "565960.135256",
    "longitude": "-89.95718701382019",
    "latitude": "30.049093400340936",
    "geocoded_column": {
      "latitude": "30.049093400340936",
      "longitude": "-89.95718701382019"
    }
  },
  {
    "service_request": "2025-1168826",
    "request_type": "Healthy Homes",
    "request_reason": "Healthy Homes",
    "date_created": "2025-02-13T14:31:04.000",
    "date_modified": "2025-02-13T15:05:49.000",
    "case_close_date": "2025-02-13T09:05:49.000",
    "request_status": "Closed",
    "responsible_agency": "Department of Code Enforcement",
    "final_address": "1611 Marais St",
    "address_councildis": "C",
    "status": "Referred to Code Enforcement",
    "rowid": "1168826",
    "final_x": "3683005.28956",
    "final_y": "536539.981639",
    "longitude": "-90.06314144937295",
    "latitude": "29.969253120428334",
    "geocoded_column": {
      "latitude": "29.969253120428334",
      "longitude": "-90.06314144937295"
    }
  },
  {
    "service_request": "2025-1168825",
    "request_type": "Trash/Recycling",
    "request_reason": "Replace Trash Cart",
    "date_created": "2025-02-13T14:30:00.000",
    "date_modified": "2025-02-13T14:30:02.000",
    "request_status": "Pending",
    "responsible_agency": "Department of Sanitation",
    "final_address": "3536 Banks St",
    "address_councildis": "B",
    "status": "Assigned to Contractor",
    "contractor": "IV Waste",
    "rowid": "1168825",
    "final_x": "3671851.88583",
    "final_y": "536164.816839",
    "longitude": "-90.09837758548419",
    "latitude": "29.968556792421975",
    "geocoded_column": {
      "latitude": "29.968556792421975",
      "longitude": "-90.09837758548419"
    }
  },
  {
    "service_request": "2025-1168824",
    "request_type": "Trash/Recycling",
    "request_reason": "Replace Trash Cart",
    "date_created": "2025-02-13T14:24:14.000",
    "date_modified": "2025-02-13T14:24:16.000",
    "request_status": "Pending",
    "responsible_agency": "Department of Sanitation",
    "final_address": "2346 Constance St",
    "address_councildis": "B",
    "status": "Assigned to Contractor",
    "contractor": "IV Waste",
    "rowid": "1168824",
    "final_x": "3678470.97954",
    "final_y": "521269.379897",
    "longitude": "-90.07798949014506",
    "latitude": "29.927401494273973",
    "geocoded_column": {
      "latitude": "29.927401494273973",
      "longitude": "-90.07798949014506"
    }
  },
  {
    "service_request": "2025-1168823",
    "request_type": "Trash/Recycling",
    "request_reason": "Replace Recycling Cart",
    "date_created": "2025-02-13T14:23:41.000",
    "date_modified": "2025-02-13T14:23:43.000",
    "request_status": "Pending",
    "responsible_agency": "Department of Sanitation",
    "final_address": "1663 Valmont St",
    "address_councildis": "B",
    "status": "Pending",
    "rowid": "1168823",
    "final_x": "3667977.39021",
    "final_y": "521763.099002",
    "longitude": "-90.11109862776772",
    "latitude": "29.929071008241554",
    "geocoded_column": {
      "latitude": "29.929071008241554",
      "longitude": "-90.11109862776772"
    }
  },
  {
    "service_request": "2025-1168822",
    "request_type": "Trash/Recycling",
    "request_reason": "Illegal Dumping",
    "date_created": "2025-02-13T14:21:38.000",
    "date_modified": "2025-02-13T14:21:41.000",
    "request_status": "Pending",
    "responsible_agency": "Department of Sanitation",
    "final_address": "523 Fats Domino Ave",
    "address_councildis": "E",
    "status": "Pending",
    "rowid": "1168822",
    "final_x": "3697553.64426",
    "final_y": "531791.995011",
    "longitude": "-90.01736911637882",
    "latitude": "29.955746382350934",
    "geocoded_column": {
      "latitude": "29.955746382350934",
      "longitude": "-90.01736911637882"
    }
  },
  {
    "service_request": "2025-1168821",
    "request_type": "Property Maintenance",
    "request_reason": "Property Maintenance",
    "date_created": "2025-02-13T14:20:36.000",
    "date_modified": "2025-02-13T14:20:38.000",
    "request_status": "Pending",
    "responsible_agency": "Department of Code Enforcement",
    "final_address": "7700 Forshey St",
    "address_councildis": "B",
    "status": "Pending",
    "rowid": "1168821",
    "final_x": "3668055.61389",
    "final_y": "532920.284228",
    "longitude": "-90.11047580561319",
    "latitude": "29.959747359737143",
    "geocoded_column": {
      "latitude": "29.959747359737143",
      "longitude": "-90.11047580561319"
    }
  },
  {
    "service_request": "2025-1168820",
    "request_type": "Property Maintenance",
    "request_reason": "Property Maintenance",
    "date_created": "2025-02-13T14:17:57.000",
    "date_modified": "2025-02-13T15:26:36.000",
    "case_close_date": "2025-02-13T09:26:36.000",
    "request_status": "Closed",
    "responsible_agency": "Department of Code Enforcement",
    "final_address": "1611 Marais St",
    "address_councildis": "C",
    "status": "Referred to Code Enforcement",
    "rowid": "1168820",
    "final_x": "3683005.28956",
    "final_y": "536539.981639",
    "longitude": "-90.06314144937295",
    "latitude": "29.969253120428334",
    "geocoded_column": {
      "latitude": "29.969253120428334",
      "longitude": "-90.06314144937295"
    }
  },
  {
    "service_request": "2025-1168819",
    "request_type": "Property Maintenance",
    "request_reason": "Property Maintenance",
    "date_created": "2025-02-13T14:15:43.000",
    "date_modified": "2025-02-13T14:15:44.000",
    "request_status": "Pending",
    "responsible_agency": "Department of Code Enforcement",
    "final_address": "AUDUBON CT & OLIVE ST",
    "address_councildis": "B",
    "status": "Pending",
    "rowid": "1168819",
    "final_x": "3668866.8",
    "final_y": "532704.08",
    "longitude": "-90.1079215562992",
    "latitude": "29.95912904046164",
    "geocoded_column": {
      "latitude": "29.95912904046164",
      "longitude": "-90.1079215562992"
    }
  },
  {
    "service_request": "2025-1168818",
    "request_type": "Trash/Recycling",
    "request_reason": "Request a Large Item Pick Up",
    "date_created": "2025-02-13T14:15:24.000",
    "date_modified": "2025-02-13T14:15:27.000",
    "request_status": "Pending",
    "responsible_agency": "Department of Sanitation",
    "final_address": "7169 E Tamaron Blvd",
    "address_councildis": "E",
    "status": "Assigned to Contractor",
    "contractor": "Waste Pro",
    "rowid": "1168818",
    "final_x": "3718405.1109",
    "final_y": "569381.41623",
    "longitude": "-89.9500955050098",
    "latitude": "30.058427594941723",
    "geocoded_column": {
      "latitude": "30.058427594941723",
      "longitude": "-89.9500955050098"
    }
  },
  {
    "service_request": "2025-1168817",
    "request_type": "Streetlights",
    "request_reason": "Streetlight Outage/Malfunction",
    "date_created": "2025-02-13T14:12:05.000",
    "date_modified": "2025-02-13T14:12:06.000",
    "request_status": "Pending",
    "responsible_agency": "Department of Public Works",
    "final_address": "4256 Joycelyn Dr",
    "address_councildis": "C",
    "status": "Pending",
    "contractor": "Legacy Professional Services",
    "rowid": "1168817",
    "final_x": "3708253.58347",
    "final_y": "515005.993971",
    "longitude": "-89.98420685859895",
    "latitude": "29.909248584565965",
    "geocoded_column": {
      "latitude": "29.909248584565965",
      "longitude": "-89.98420685859895"
    }
  },
  {
    "service_request": "2025-1168816",
    "request_type": "Abandoned Vehicles",
    "request_reason": "Abandoned/Junk Vehicles",
    "date_created": "2025-02-13T14:11:14.000",
    "date_modified": "2025-02-13T14:11:17.000",
    "request_status": "Pending",
    "responsible_agency": "Department of Public Works",
    "final_address": "2472 Royal St",
    "address_councildis": "C",
    "status": "Pending",
    "rowid": "1168816",
    "final_x": "3686491.26716",
    "final_y": "534950.65063",
    "longitude": "-90.05218861325054",
    "latitude": "29.964776297661036",
    "geocoded_column": {
      "latitude": "29.964776297661036",
      "longitude": "-90.05218861325054"
    }
  },
  {
    "service_request": "2025-1168815",
    "request_type": "Abandoned Vehicles",
    "request_reason": "Abandoned/Junk Vehicles",
    "date_created": "2025-02-13T14:09:06.000",
    "date_modified": "2025-02-13T14:10:34.000",
    "request_status": "Pending",
    "responsible_agency": "Department of Public Works",
    "final_address": "2440 Dauphine St",
    "address_councildis": "C",
    "status": "Pending",
    "rowid": "1168815",
    "final_x": "3686172.29686",
    "final_y": "535284.648518",
    "longitude": "-90.05318411439598",
    "latitude": "29.96570447841788",
    "geocoded_column": {
      "latitude": "29.96570447841788",
      "longitude": "-90.05318411439598"
    }
  },
  {
    "service_request": "2025-1168814",
    "request_type": "Abandoned Vehicles",
    "request_reason": "Abandoned/Junk Vehicles",
    "date_created": "2025-02-13T14:08:40.000",
    "date_modified": "2025-02-13T14:08:42.000",
    "request_status": "Pending",
    "responsible_agency": "Department of Public Works",
    "final_address": "1439 Annunciation St",
    "address_councildis": "B",
    "status": "Pending",
    "rowid": "1168814",
    "final_x": "3681026.04443",
    "final_y": "523987.037308",
    "longitude": "-90.06982919124412",
    "latitude": "29.934796939207494",
    "geocoded_column": {
      "latitude": "29.934796939207494",
      "longitude": "-90.06982919124412"
    }
  },
  {
    "service_request": "2025-1168813",
    "request_type": "Drainage",
    "request_reason": "Drainage Issue (Catch Basins, Culverts, Ditches, and Manhole Covers)",
    "date_created": "2025-02-13T14:02:39.000",
    "date_modified": "2025-02-13T14:02:40.000",
    "request_status": "Pending",
    "responsible_agency": "Sewerage & Water Board ",
    "final_address": "5400 BLK Saint Charles Ave",
    "address_councildis": "A",
    "status": "Pending",
    "rowid": "1168813",
    "final_x": "3667222.91552",
    "final_y": "521680.875389",
    "longitude": "-90.11348312829556",
    "latitude": "29.928867026586364",
    "geocoded_column": {
      "latitude": "29.928867026586364",
      "longitude": "-90.11348312829556"
    }
  },
  {
    "service_request": "2025-1168812",
    "request_type": "Roads and Streets",
    "request_reason": "Abandoned Service Cut",
    "date_created": "2025-02-13T13:59:39.000",
    "date_modified": "2025-02-13T14:03:08.000",
    "case_close_date": "2025-02-13T08:03:07.000",
    "request_status": "Closed",
    "responsible_agency": "Department of Public Works",
    "final_address": "819 Port St",
    "address_councildis": "C",
    "status": "Referred to External Agency",
    "rowid": "1168812",
    "final_x": "3687196.31414",
    "final_y": "535410.634886",
    "longitude": "-90.04994585747143",
    "latitude": "29.96601940001161",
    "geocoded_column": {
      "latitude": "29.96601940001161",
      "longitude": "-90.04994585747143"
    }
  },
  {
    "service_request": "2025-1168811",
    "request_type": "Trash/Recycling",
    "request_reason": "Repair Trash Cart",
    "date_created": "2025-02-13T13:58:32.000",
    "date_modified": "2025-02-13T13:58:34.000",
    "request_status": "Pending",
    "responsible_agency": "Department of Sanitation",
    "final_address": "855 Roosevelt Pl",
    "address_councildis": "A",
    "status": "Assigned to Contractor",
    "contractor": "IV Waste",
    "rowid": "1168811",
    "final_x": "3673545.34395",
    "final_y": "540056.278027",
    "longitude": "-90.0928965053768",
    "latitude": "29.979206694431085",
    "geocoded_column": {
      "latitude": "29.979206694431085",
      "longitude": "-90.0928965053768"
    }
  },
  {
    "service_request": "2025-1168810",
    "request_type": "Drainage",
    "request_reason": "Street Flooding",
    "date_created": "2025-02-13T13:57:06.000",
    "date_modified": "2025-02-13T16:17:06.000",
    "request_status": "Pending",
    "responsible_agency": "Sewerage & Water Board ",
    "final_address": "1024 Pine St",
    "address_councildis": "A",
    "rowid": "1168810",
    "final_x": "3663638.57632",
    "final_y": "526303.220734",
    "longitude": "-90.12464429181775",
    "latitude": "29.941681448304323",
    "geocoded_column": {
      "latitude": "29.941681448304323",
      "longitude": "-90.12464429181775"
    }
  },
  {
    "service_request": "2025-1168809",
    "request_type": "Trash/Recycling",
    "request_reason": "Repair Recycling Cart",
    "date_created": "2025-02-13T13:54:39.000",
    "date_modified": "2025-02-13T13:54:48.000",
    "request_status": "Pending",
    "responsible_agency": "Department of Sanitation",
    "final_address": "2339 Octavia St",
    "address_councildis": "A",
    "status": "Pending",
    "rowid": "1168809",
    "final_x": "3667709.37562",
    "final_y": "524352.485692",
    "longitude": "-90.11185756256974",
    "latitude": "29.936198853232607",
    "geocoded_column": {
      "latitude": "29.936198853232607",
      "longitude": "-90.11185756256974"
    }
  },
  {
    "service_request": "2025-1168808",
    "request_type": "Roads and Streets",
    "request_reason": "Sidewalk Damaged or Missing",
    "date_created": "2025-02-13T13:50:21.000",
    "date_modified": "2025-02-13T16:18:06.000",
    "request_status": "Pending",
    "responsible_agency": "Department of Public Works",
    "final_address": "1329 Lowerline St",
    "address_councildis": "A",
    "rowid": "1168808",
    "final_x": "3664038.8272",
    "final_y": "527268.815423",
    "longitude": "-90.1233484204766",
    "latitude": "29.944324909338032",
    "geocoded_column": {
      "latitude": "29.944324909338032",
      "longitude": "-90.1233484204766"
    }
  },
  {
    "service_request": "2025-1168807",
    "request_type": "Abandoned Vehicles",
    "request_reason": "Abandoned/Junk Vehicles",
    "date_created": "2025-02-13T13:50:12.000",
    "date_modified": "2025-02-13T13:52:50.000",
    "request_status": "Pending",
    "responsible_agency": "Department of Public Works",
    "final_address": "1551 Sere St",
    "address_councildis": "D",
    "status": "Inspected",
    "rowid": "1168807",
    "final_x": "3679378.83938",
    "final_y": "545519.135312",
    "longitude": "-90.07428246572584",
    "latitude": "29.994052709380494",
    "geocoded_column": {
      "latitude": "29.994052709380494",
      "longitude": "-90.07428246572584"
    }
  },
  {
    "service_request": "2025-1168806",
    "request_type": "Trash/Recycling",
    "request_reason": "Repair Trash Cart",
    "date_created": "2025-02-13T13:49:18.000",
    "date_modified": "2025-02-13T13:49:20.000",
    "request_status": "Pending",
    "responsible_agency": "Department of Sanitation",
    "final_address": "2339 Octavia St",
    "address_councildis": "A",
    "status": "Assigned to Contractor",
    "contractor": "IV Waste",
    "rowid": "1168806",
    "final_x": "3667709.37562",
    "final_y": "524352.485692",
    "longitude": "-90.11185756256974",
    "latitude": "29.936198853232607",
    "geocoded_column": {
      "latitude": "29.936198853232607",
      "longitude": "-90.11185756256974"
    }
  },
  {
    "service_request": "2025-1168805",
    "request_type": "Roads and Streets",
    "request_reason": "Sidewalk Damaged or Missing",
    "date_created": "2025-02-13T13:48:13.000",
    "date_modified": "2025-02-13T16:18:56.000",
    "request_status": "Pending",
    "responsible_agency": "Department of Public Works",
    "final_address": "1329 Lowerline St",
    "address_councildis": "A",
    "rowid": "1168805",
    "final_x": "3664038.8272",
    "final_y": "527268.815423",
    "longitude": "-90.1233484204766",
    "latitude": "29.944324909338032",
    "geocoded_column": {
      "latitude": "29.944324909338032",
      "longitude": "-90.1233484204766"
    }
  },
  {
    "service_request": "2025-1168804",
    "request_type": "Trash/Recycling",
    "request_reason": "Request a Large Item Pick Up",
    "date_created": "2025-02-13T13:45:43.000",
    "date_modified": "2025-02-13T13:45:45.000",
    "request_status": "Pending",
    "responsible_agency": "Department of Sanitation",
    "final_address": "7821 Henley St",
    "address_councildis": "E",
    "status": "Assigned to Contractor",
    "contractor": "Waste Pro",
    "rowid": "1168804",
    "final_x": "3696725.42615",
    "final_y": "559882.707805",
    "longitude": "-90.01896686160497",
    "latitude": "30.033011638350633",
    "geocoded_column": {
      "latitude": "30.033011638350633",
      "longitude": "-90.01896686160497"
    }
  },
  {
    "service_request": "2025-1168803",
    "request_type": "Roads and Streets",
    "request_reason": "Push-up/Pavement Expansion",
    "date_created": "2025-02-13T13:44:37.000",
    "date_modified": "2025-02-13T13:55:53.000",
    "request_status": "Pending",
    "responsible_agency": "Department of Public Works",
    "final_address": "1200 BLK Hillary St",
    "address_councildis": "A",
    "status": "Pending",
    "rowid": "1168803",
    "final_x": "3663413.39919",
    "final_y": "527289.662072",
    "longitude": "-90.12532239122518",
    "latitude": "29.944400376050453",
    "geocoded_column": {
      "latitude": "29.944400376050453",
      "longitude": "-90.12532239122518"
    }
  },
  {
    "service_request": "2025-1168802",
    "request_type": "Trash/Recycling",
    "request_reason": "Replace Trash Cart",
    "date_created": "2025-02-13T13:43:47.000",
    "date_modified": "2025-02-13T13:43:50.000",
    "request_status": "Pending",
    "responsible_agency": "Department of Sanitation",
    "final_address": "2905 Carondelet St Apt 3",
    "address_councildis": "B",
    "status": "Assigned to Contractor",
    "contractor": "IV Waste",
    "rowid": "1168802",
    "final_x": "3675186.84213",
    "final_y": "522577.451642",
    "longitude": "-90.08831184066214",
    "latitude": "29.931096792088333",
    "geocoded_column": {
      "latitude": "29.931096792088333",
      "longitude": "-90.08831184066214"
    }
  },
  {
    "service_request": "2025-1168801",
    "request_type": "Trash/Recycling",
    "request_reason": "Replace Recycling Cart",
    "date_created": "2025-02-13T13:41:39.000",
    "date_modified": "2025-02-13T13:41:42.000",
    "request_status": "Pending",
    "responsible_agency": "Department of Sanitation",
    "final_address": "533 Octavia St",
    "address_councildis": "A",
    "status": "Pending",
    "rowid": "1168801",
    "final_x": "3666324.97645",
    "final_y": "518131.37631",
    "longitude": "-90.11643675021236",
    "latitude": "29.919133276790816",
    "geocoded_column": {
      "latitude": "29.919133276790816",
      "longitude": "-90.11643675021236"
    }
  },
  {
    "service_request": "2025-1168800",
    "request_type": "Drainage",
    "request_reason": "Street Flooding",
    "date_created": "2025-02-13T13:39:40.000",
    "date_modified": "2025-02-13T16:19:29.000",
    "request_status": "Pending",
    "responsible_agency": "Sewerage & Water Board ",
    "final_address": "1300 BLK Pine St",
    "address_councildis": "A",
    "rowid": "1168800",
    "final_x": "3664213.62528",
    "final_y": "527094.833065",
    "longitude": "-90.1228023336592",
    "latitude": "29.94384143704252",
    "geocoded_column": {
      "latitude": "29.94384143704252",
      "longitude": "-90.1228023336592"
    }
  },
  {
    "service_request": "2025-1168799",
    "request_type": "Roads and Streets",
    "request_reason": "Street Subsidence (Sinking)",
    "date_created": "2025-02-13T13:35:31.000",
    "date_modified": "2025-02-13T13:35:34.000",
    "request_status": "Pending",
    "responsible_agency": "Department of Public Works",
    "final_address": "4320 Coliseum St",
    "address_councildis": "B",
    "status": "Pending",
    "rowid": "1168799",
    "final_x": "3671174.11617",
    "final_y": "519809.756984",
    "longitude": "-90.10107347994723",
    "latitude": "29.923605795227473",
    "geocoded_column": {
      "latitude": "29.923605795227473",
      "longitude": "-90.10107347994723"
    }
  },
  {
    "service_request": "2025-1168798",
    "request_type": "Property Maintenance",
    "request_reason": "Property Maintenance",
    "date_created": "2025-02-13T13:33:32.000",
    "date_modified": "2025-02-13T14:06:38.000",
    "case_close_date": "2025-02-13T08:06:37.000",
    "request_status": "Closed",
    "responsible_agency": "Department of Code Enforcement",
    "final_address": "7100 BLK Forshey St",
    "address_councildis": "B",
    "status": "Referred to Code Enforcement",
    "rowid": "1168798",
    "final_x": "3668435.70541",
    "final_y": "532616.020514",
    "longitude": "-90.10928582221361",
    "latitude": "29.958899575680363",
    "geocoded_column": {
      "latitude": "29.958899575680363",
      "longitude": "-90.10928582221361"
    }
  },
  {
    "service_request": "2025-1168797",
    "request_type": "Streetlights",
    "request_reason": "Streetlight Outage/Malfunction",
    "date_created": "2025-02-13T13:31:25.000",
    "date_modified": "2025-02-13T13:32:17.000",
    "request_status": "Pending",
    "responsible_agency": "Department of Public Works",
    "final_address": "4256 Joycelyn dr",
    "address_councildis": "C",
    "status": "Pending",
    "contractor": "Legacy Professional Services",
    "rowid": "1168797",
    "final_x": "3708253.58347",
    "final_y": "515005.993971",
    "longitude": "-89.98420685859895",
    "latitude": "29.909248584565965",
    "geocoded_column": {
      "latitude": "29.909248584565965",
      "longitude": "-89.98420685859895"
    }
  },
  {
    "service_request": "2025-1168796",
    "request_type": "Streetlights",
    "request_reason": "Streetlight Outage/Malfunction",
    "date_created": "2025-02-13T13:28:31.000",
    "date_modified": "2025-02-13T13:30:39.000",
    "request_status": "Pending",
    "responsible_agency": "Department of Public Works",
    "final_address": "4256 Joycelyn Drive New Orleans la 70131",
    "address_councildis": "C",
    "status": "Pending",
    "contractor": "Legacy Professional Services",
    "rowid": "1168796",
    "final_x": "3708253.58347",
    "final_y": "515005.993971",
    "longitude": "-89.98420685859895",
    "latitude": "29.909248584565965",
    "geocoded_column": {
      "latitude": "29.909248584565965",
      "longitude": "-89.98420685859895"
    }
  },
  {
    "service_request": "2025-1168795",
    "request_type": "Abandoned Vehicles",
    "request_reason": "Abandoned/Junk Vehicles",
    "date_created": "2025-02-13T13:26:18.000",
    "date_modified": "2025-02-13T14:05:56.000",
    "case_close_date": "2025-02-13T08:05:55.000",
    "request_status": "Closed",
    "responsible_agency": "Department of Public Works",
    "final_address": "3200 BLK Fortin St",
    "address_councildis": "A",
    "status": "Duplicate Request",
    "rowid": "1168795",
    "final_x": "3676008.58003",
    "final_y": "540960.882761",
    "longitude": "-90.08508551246068",
    "latitude": "29.981620493981957",
    "geocoded_column": {
      "latitude": "29.981620493981957",
      "longitude": "-90.08508551246068"
    }
  },
  {
    "service_request": "2025-1168794",
    "request_type": "Utility Poles",
    "request_reason": "Utility Pole Leaning",
    "date_created": "2025-02-13T13:25:41.000",
    "date_modified": "2025-02-13T13:25:44.000",
    "request_status": "Pending",
    "responsible_agency": "Utility Company Collective",
    "final_address": "2017 N Dorgenois St",
    "address_councildis": "D",
    "status": "Pending",
    "rowid": "1168794",
    "final_x": "3682523.16264",
    "final_y": "541341.885708",
    "longitude": "-90.06449611505904",
    "latitude": "29.98247137261579",
    "geocoded_column": {
      "latitude": "29.98247137261579",
      "longitude": "-90.06449611505904"
    }
  },
  {
    "service_request": "2025-1168793",
    "request_type": "Streetlights",
    "request_reason": "Streetlight Outage/Malfunction",
    "date_created": "2025-02-13T13:22:00.000",
    "date_modified": "2025-02-13T13:22:01.000",
    "request_status": "Pending",
    "responsible_agency": "Department of Public Works",
    "final_address": "4256 Joycelyn Dr",
    "address_councildis": "C",
    "status": "Pending",
    "contractor": "Legacy Professional Services",
    "rowid": "1168793",
    "final_x": "3708253.58347",
    "final_y": "515005.993971",
    "longitude": "-89.98420685859895",
    "latitude": "29.909248584565965",
    "geocoded_column": {
      "latitude": "29.909248584565965",
      "longitude": "-89.98420685859895"
    }
  },
  {
    "service_request": "2025-1168791",
    "request_type": "Trash/Recycling",
    "request_reason": "Repair Trash Cart",
    "date_created": "2025-02-13T13:19:56.000",
    "date_modified": "2025-02-13T13:19:59.000",
    "request_status": "Pending",
    "responsible_agency": "Department of Sanitation",
    "final_address": "3952 Lennox Blvd",
    "address_councildis": "C",
    "status": "Assigned to Contractor",
    "contractor": "Richards Disposal",
    "rowid": "1168791",
    "final_x": "3700796.88906",
    "final_y": "516271.18578",
    "longitude": "-90.00769515289521",
    "latitude": "29.91296673724228",
    "geocoded_column": {
      "latitude": "29.91296673724228",
      "longitude": "-90.00769515289521"
    }
  },
  {
    "service_request": "2025-1168790",
    "request_type": "Abandoned Vehicles",
    "request_reason": "Abandoned/Junk Vehicles",
    "date_created": "2025-02-13T13:09:52.000",
    "date_modified": "2025-02-13T13:09:54.000",
    "request_status": "Pending",
    "responsible_agency": "Department of Public Works",
    "final_address": "3200 BLK Fortin St",
    "address_councildis": "A",
    "status": "Pending",
    "rowid": "1168790",
    "final_x": "3676008.58003",
    "final_y": "540960.882761",
    "longitude": "-90.08508551246068",
    "latitude": "29.981620493981957",
    "geocoded_column": {
      "latitude": "29.981620493981957",
      "longitude": "-90.08508551246068"
    }
  },
  {
    "service_request": "2025-1168789",
    "request_type": "Drainage",
    "request_reason": "Drainage Manhole Cover Missing or Damaged",
    "date_created": "2025-02-13T13:07:19.000",
    "date_modified": "2025-02-13T13:07:21.000",
    "request_status": "Pending",
    "responsible_agency": "Sewerage & Water Board ",
    "final_address": "1956 Wildair Dr",
    "address_councildis": "D",
    "status": "Pending",
    "rowid": "1168789",
    "final_x": "3681574.21436",
    "final_y": "551188.576597",
    "longitude": "-90.06714968904517",
    "latitude": "30.009575132556755",
    "geocoded_column": {
      "latitude": "30.009575132556755",
      "longitude": "-90.06714968904517"
    }
  },
  {
    "service_request": "2025-1168788",
    "request_type": "Trash/Recycling",
    "request_reason": "Request a Large Item Pick Up",
    "date_created": "2025-02-13T13:04:07.000",
    "date_modified": "2025-02-13T13:04:09.000",
    "request_status": "Pending",
    "responsible_agency": "Department of Sanitation",
    "final_address": "221 Delaronde St",
    "address_councildis": "C",
    "status": "Assigned to Contractor",
    "contractor": "Richards Disposal",
    "rowid": "1168788",
    "final_x": "3686151.69442",
    "final_y": "530650.92653",
    "longitude": "-90.05341263002273",
    "latitude": "29.95296397205601",
    "geocoded_column": {
      "latitude": "29.95296397205601",
      "longitude": "-90.05341263002273"
    }
  },
  {
    "service_request": "2025-1168787",
    "request_type": "Trash/Recycling",
    "request_reason": "Request a Large Item Pick Up",
    "date_created": "2025-02-13T13:01:26.000",
    "date_modified": "2025-02-13T14:34:14.000",
    "request_status": "Pending",
    "responsible_agency": "Department of Sanitation",
    "final_address": "3611 Marais St",
    "address_councildis": "D",
    "status": "Assigned to Contractor",
    "contractor": "IV Waste",
    "rowid": "1168787",
    "final_x": "3690914.56694",
    "final_y": "535932.683783",
    "longitude": "-90.03818512368981",
    "latitude": "29.967339815214043",
    "geocoded_column": {
      "latitude": "29.967339815214043",
      "longitude": "-90.03818512368981"
    }
  },
  {
    "service_request": "2025-1168786",
    "request_type": "Drainage",
    "request_reason": "Catch Basin Clogged",
    "date_created": "2025-02-13T12:56:19.000",
    "date_modified": "2025-02-13T12:56:21.000",
    "request_status": "Pending",
    "responsible_agency": "Sewerage & Water Board ",
    "final_address": "1305 L. B. Landry Ave",
    "address_councildis": "C",
    "status": "Pending",
    "rowid": "1168786",
    "final_x": "3690022.13372",
    "final_y": "526535.680062",
    "longitude": "-90.04133804238455",
    "latitude": "29.9415290116735",
    "geocoded_column": {
      "latitude": "29.9415290116735",
      "longitude": "-90.04133804238455"
    }
  },
  {
    "service_request": "2025-1168785",
    "request_type": "Abandoned Vehicles",
    "request_reason": "Abandoned/Junk Vehicles",
    "date_created": "2025-02-13T12:55:20.000",
    "date_modified": "2025-02-13T12:58:02.000",
    "request_status": "Pending",
    "responsible_agency": "Department of Public Works",
    "final_address": "1328 Lawrence St",
    "address_councildis": "C",
    "status": "Inspected",
    "rowid": "1168785",
    "final_x": "3689617.58639",
    "final_y": "525715.924797",
    "longitude": "-90.04264442733373",
    "latitude": "29.939287499974508",
    "geocoded_column": {
      "latitude": "29.939287499974508",
      "longitude": "-90.04264442733373"
    }
  },
  {
    "service_request": "2025-1168784",
    "request_type": "Trash/Recycling",
    "request_reason": "Illegal Dumping",
    "date_created": "2025-02-13T12:53:14.000",
    "date_modified": "2025-02-13T12:53:16.000",
    "request_status": "Pending",
    "responsible_agency": "Department of Sanitation",
    "final_address": "2717 N Johnson St",
    "address_councildis": "D",
    "status": "Pending",
    "contractor": "Metro Disposal",
    "rowid": "1168784",
    "final_x": "3688447.40854",
    "final_y": "539775.82113",
    "longitude": "-90.04584005354916",
    "latitude": "29.977983538736787",
    "geocoded_column": {
      "latitude": "29.977983538736787",
      "longitude": "-90.04584005354916"
    }
  },
  {
    "service_request": "2025-1168783",
    "request_type": "Trash/Recycling",
    "request_reason": "Request a Large Item Pick Up",
    "date_created": "2025-02-13T12:48:31.000",
    "date_modified": "2025-02-13T14:33:39.000",
    "request_status": "Pending",
    "responsible_agency": "Department of Sanitation",
    "final_address": "2461 Burgundy St",
    "address_councildis": "C",
    "status": "Assigned to Contractor",
    "contractor": "IV Waste",
    "rowid": "1168783",
    "final_x": "3686356.6157",
    "final_y": "535720.174215",
    "longitude": "-90.05258667056614",
    "latitude": "29.966896359320224",
    "geocoded_column": {
      "latitude": "29.966896359320224",
      "longitude": "-90.05258667056614"
    }
  },
  {
    "service_request": "2025-1168782",
    "request_type": "Drainage",
    "request_reason": "Drainage Manhole Cover Missing or Damaged",
    "date_created": "2025-02-13T12:47:49.000",
    "date_modified": "2025-02-13T16:20:07.000",
    "request_status": "Pending",
    "responsible_agency": "Sewerage & Water Board ",
    "final_address": "290 N Derbigny St",
    "address_councildis": "B",
    "rowid": "1168782",
    "final_x": "3678549.23048",
    "final_y": "533589.779653",
    "longitude": "-90.07731615048618",
    "latitude": "29.961276140329904",
    "geocoded_column": {
      "latitude": "29.961276140329904",
      "longitude": "-90.07731615048618"
    }
  },
  {
    "service_request": "2025-1168781",
    "request_type": "Abandoned Vehicles",
    "request_reason": "Abandoned/Junk Vehicles",
    "date_created": "2025-02-13T12:44:02.000",
    "date_modified": "2025-02-13T12:44:04.000",
    "request_status": "Pending",
    "responsible_agency": "Department of Public Works",
    "final_address": "2000 Bienville Ave",
    "address_councildis": "B",
    "status": "Pending",
    "rowid": "1168781",
    "final_x": "3677934.36264",
    "final_y": "534041.508229",
    "longitude": "-90.07924218249684",
    "latitude": "29.962536759068097",
    "geocoded_column": {
      "latitude": "29.962536759068097",
      "longitude": "-90.07924218249684"
    }
  },
  {
    "service_request": "2025-1168780",
    "request_type": "Trash/Recycling",
    "request_reason": "Request a Large Item Pick Up",
    "date_created": "2025-02-13T12:42:37.000",
    "date_modified": "2025-02-13T12:42:39.000",
    "request_status": "Pending",
    "responsible_agency": "Department of Sanitation",
    "final_address": "927 Toulouse St",
    "address_councildis": "C",
    "status": "Assigned to Contractor",
    "contractor": "IV Waste",
    "rowid": "1168780",
    "final_x": "3681572.35688",
    "final_y": "532743.559492",
    "longitude": "-90.06779917329757",
    "latitude": "29.958857858525384",
    "geocoded_column": {
      "latitude": "29.958857858525384",
      "longitude": "-90.06779917329757"
    }
  },
  {
    "service_request": "2025-1168779",
    "request_type": "Trash/Recycling",
    "request_reason": "Request a Large Item Pick Up",
    "date_created": "2025-02-13T12:37:50.000",
    "date_modified": "2025-02-13T12:37:53.000",
    "request_status": "Pending",
    "responsible_agency": "Department of Sanitation",
    "final_address": "7417 Burthe St",
    "address_councildis": "A",
    "status": "Assigned to Contractor",
    "contractor": "IV Waste",
    "rowid": "1168779",
    "final_x": "3662978.94887",
    "final_y": "526079.629758",
    "longitude": "-90.12673431305751",
    "latitude": "29.94108576030741",
    "geocoded_column": {
      "latitude": "29.94108576030741",
      "longitude": "-90.12673431305751"
    }
  },
  {
    "service_request": "2025-1168778",
    "request_type": "Trash/Recycling",
    "request_reason": "Request a Large Item Pick Up",
    "date_created": "2025-02-13T12:35:14.000",
    "date_modified": "2025-02-13T12:35:17.000",
    "request_status": "Pending",
    "responsible_agency": "Department of Sanitation",
    "final_address": "7621 Freret St",
    "address_councildis": "A",
    "status": "Assigned to Contractor",
    "contractor": "IV Waste",
    "rowid": "1168778",
    "final_x": "3662717.36013",
    "final_y": "526799.850302",
    "longitude": "-90.12753627234147",
    "latitude": "29.943073708932975",
    "geocoded_column": {
      "latitude": "29.943073708932975",
      "longitude": "-90.12753627234147"
    }
  },
  {
    "service_request": "2025-1168777",
    "request_type": "Trash/Recycling",
    "request_reason": "Repair Recycling Cart",
    "date_created": "2025-02-13T12:29:36.000",
    "date_modified": "2025-02-13T12:29:38.000",
    "request_status": "Pending",
    "responsible_agency": "Department of Sanitation",
    "final_address": "201 Portland St",
    "address_councildis": "A",
    "status": "Pending",
    "rowid": "1168777",
    "final_x": "3665660.78151",
    "final_y": "551733.317525",
    "longitude": "-90.11740776575398",
    "latitude": "30.01154689871843",
    "geocoded_column": {
      "latitude": "30.01154689871843",
      "longitude": "-90.11740776575398"
    }
  },
  {
    "service_request": "2025-1168776",
    "request_type": "Trash/Recycling",
    "request_reason": "Repair Recycling Cart",
    "date_created": "2025-02-13T12:29:28.000",
    "date_modified": "2025-02-13T12:29:30.000",
    "request_status": "Pending",
    "responsible_agency": "Department of Sanitation",
    "final_address": "201 Portland St",
    "address_councildis": "A",
    "status": "Pending",
    "rowid": "1168776",
    "final_x": "3665660.78151",
    "final_y": "551733.317525",
    "longitude": "-90.11740776575398",
    "latitude": "30.01154689871843",
    "geocoded_column": {
      "latitude": "30.01154689871843",
      "longitude": "-90.11740776575398"
    }
  },
  {
    "service_request": "2025-1168775",
    "request_type": "Trash/Recycling",
    "request_reason": "Repair Recycling Cart",
    "date_created": "2025-02-13T12:29:22.000",
    "date_modified": "2025-02-13T12:29:24.000",
    "request_status": "Pending",
    "responsible_agency": "Department of Sanitation",
    "final_address": "201 Portland St",
    "address_councildis": "A",
    "status": "Pending",
    "rowid": "1168775",
    "final_x": "3665660.78151",
    "final_y": "551733.317525",
    "longitude": "-90.11740776575398",
    "latitude": "30.01154689871843",
    "geocoded_column": {
      "latitude": "30.01154689871843",
      "longitude": "-90.11740776575398"
    }
  },
  {
    "service_request": "2025-1168774",
    "request_type": "Abandoned Vehicles",
    "request_reason": "Abandoned/Junk Vehicles",
    "date_created": "2025-02-13T12:23:05.000",
    "date_modified": "2025-02-13T12:26:10.000",
    "request_status": "Pending",
    "responsible_agency": "Department of Public Works",
    "final_address": "5334 Prytania St",
    "address_councildis": "B",
    "status": "Pending",
    "rowid": "1168774",
    "final_x": "3667420.81473",
    "final_y": "520188.14828",
    "longitude": "-90.11290858804301",
    "latitude": "29.924756705490168",
    "geocoded_column": {
      "latitude": "29.924756705490168",
      "longitude": "-90.11290858804301"
    }
  },
  {
    "service_request": "2025-1168773",
    "request_type": "Trash/Recycling",
    "request_reason": "Request a Large Item Pick Up",
    "date_created": "2025-02-13T12:19:17.000",
    "date_modified": "2025-02-13T14:32:52.000",
    "request_status": "Pending",
    "responsible_agency": "Department of Sanitation",
    "final_address": "1914 First St",
    "address_councildis": "B",
    "status": "Assigned to Contractor",
    "contractor": "IV Waste",
    "rowid": "1168773",
    "final_x": "3676239.61902",
    "final_y": "524230.376252",
    "longitude": "-90.08493150872079",
    "latitude": "29.93561029964889",
    "geocoded_column": {
      "latitude": "29.93561029964889",
      "longitude": "-90.08493150872079"
    }
  },
  {
    "service_request": "2025-1168772",
    "request_type": "Parks & Parkways",
    "request_reason": "Request Tree Service (Right of Way/Public Property)",
    "date_created": "2025-02-13T12:18:43.000",
    "date_modified": "2025-02-13T12:18:45.000",
    "request_status": "Pending",
    "responsible_agency": "Department of Parks & Parkway",
    "final_address": "4700 BLK Stemway Dr",
    "address_councildis": "D",
    "status": "Pending",
    "rowid": "1168772",
    "final_x": "3696920.87613",
    "final_y": "554148.146413",
    "longitude": "-90.01855715937378",
    "latitude": "30.017237613299063",
    "geocoded_column": {
      "latitude": "30.017237613299063",
      "longitude": "-90.01855715937378"
    }
  },
  {
    "service_request": "2025-1168771",
    "request_type": "Streetlights",
    "request_reason": "Streetlight Outage/Malfunction",
    "date_created": "2025-02-13T12:12:47.000",
    "date_modified": "2025-02-13T12:12:47.000",
    "request_status": "Pending",
    "responsible_agency": "Department of Public Works",
    "final_address": "1521 N Dupre St",
    "address_councildis": "A",
    "status": "Pending",
    "contractor": "Legacy Professional Services",
    "rowid": "1168771",
    "final_x": "3677270.05794",
    "final_y": "540127.079499",
    "longitude": "-90.08112995409591",
    "latitude": "29.97928997639407",
    "geocoded_column": {
      "latitude": "29.97928997639407",
      "longitude": "-90.08112995409591"
    }
  },
  {
    "service_request": "2025-1168770",
    "request_type": "Abandoned Vehicles",
    "request_reason": "Abandoned/Junk Vehicles",
    "date_created": "2025-02-13T12:12:09.000",
    "date_modified": "2025-02-13T12:12:11.000",
    "request_status": "Pending",
    "responsible_agency": "Department of Public Works",
    "final_address": "1551 Sere St",
    "address_councildis": "D",
    "status": "Pending",
    "rowid": "1168770",
    "final_x": "3679378.83938",
    "final_y": "545519.135312",
    "longitude": "-90.07428246572584",
    "latitude": "29.994052709380494",
    "geocoded_column": {
      "latitude": "29.994052709380494",
      "longitude": "-90.07428246572584"
    }
  },
  {
    "service_request": "2025-1168769",
    "request_type": "Trash/Recycling",
    "request_reason": "Missed Trash Pick-Up",
    "date_created": "2025-02-13T12:11:28.000",
    "date_modified": "2025-02-13T12:11:33.000",
    "case_close_date": "2025-02-13T06:11:32.000",
    "request_status": "Closed",
    "responsible_agency": "Department of Sanitation",
    "final_address": "7832 Lafourche St",
    "address_councildis": "E",
    "status": "Assigned to Contractor",
    "contractor": "Waste Pro",
    "contractor_action": "Invalid Request",
    "rowid": "1168769",
    "final_x": "3709685.13803",
    "final_y": "566299.272355",
    "longitude": "-89.97777345907953",
    "latitude": "30.050239505840572",
    "geocoded_column": {
      "latitude": "30.050239505840572",
      "longitude": "-89.97777345907953"
    }
  },
  {
    "service_request": "2025-1168768",
    "request_type": "Trash/Recycling",
    "request_reason": "Request a Large Item Pick Up",
    "date_created": "2025-02-13T12:08:55.000",
    "date_modified": "2025-02-13T12:08:57.000",
    "request_status": "Pending",
    "responsible_agency": "Department of Sanitation",
    "final_address": "5204 N Claiborne Ave",
    "address_councildis": "E",
    "status": "Assigned to Contractor",
    "contractor": "Waste Pro",
    "rowid": "1168768",
    "final_x": "3697067.03927",
    "final_y": "535767.540295",
    "longitude": "-90.01876161608159",
    "latitude": "29.966693079780125",
    "geocoded_column": {
      "latitude": "29.966693079780125",
      "longitude": "-90.01876161608159"
    }
  },
  {
    "service_request": "2025-1168767",
    "request_type": "Streetlights",
    "request_reason": "Streetlight Outage/Malfunction",
    "date_created": "2025-02-13T12:06:49.000",
    "date_modified": "2025-02-13T12:06:50.000",
    "request_status": "Pending",
    "responsible_agency": "Department of Public Works",
    "final_address": "1521 N Dupre St",
    "address_councildis": "A",
    "status": "Pending",
    "contractor": "Legacy Professional Services",
    "rowid": "1168767",
    "final_x": "3677270.05794",
    "final_y": "540127.079499",
    "longitude": "-90.08112995409591",
    "latitude": "29.97928997639407",
    "geocoded_column": {
      "latitude": "29.97928997639407",
      "longitude": "-90.08112995409591"
    }
  },
  {
    "service_request": "2025-1168766",
    "request_type": "Property Maintenance",
    "request_reason": "Property Maintenance",
    "date_created": "2025-02-13T12:06:08.000",
    "date_modified": "2025-02-13T13:01:41.000",
    "case_close_date": "2025-02-13T07:01:39.000",
    "request_status": "Closed",
    "responsible_agency": "Department of Code Enforcement",
    "final_address": "4518 S Robertson St",
    "address_councildis": "B",
    "status": "Referred to Code Enforcement",
    "rowid": "1168766",
    "final_x": "3669936.53985",
    "final_y": "524301.264444",
    "longitude": "-90.10482805375682",
    "latitude": "29.935992541335494",
    "geocoded_column": {
      "latitude": "29.935992541335494",
      "longitude": "-90.10482805375682"
    }
  },