[
  {
    "service_request": "2022-952599",
    "request_type": "Trash/Recycling",
    "request_reason": "Order Recycling Cart",
    "date_created": "2022-12-13T00:31:16.000",
    "date_modified": "2022-12-13T00:31:16.000",
    "request_status": "Pending",
    "responsible_agency": "Department of Sanitation",
    "final_address": "7928 Oak St",
    "address_councildis": "A",
    "status": "Pending",
    "rowid": "952599",
    "final_x": "3662398.77319",
    "final_y": "527924.127487",
    "longitude": "-90.1285048113558",
    "latitude": "29.946174326760765",
    "geocoded_column": {
      "latitude": "29.946174326760765",
      "longitude": "-90.1285048113558"
    }
  },
  {
    "service_request": "2022-952598",
    "request_type": "Health Related Request",
    "request_reason": "Noise Ordinance Complaint",
    "date_created": "2022-12-12T22:44:35.000",
    "date_modified": "2022-12-12T22:44:35.000",
    "request_status": "Pending",
    "responsible_agency": "Health Department",
    "final_address": "840 Poydras Street ",
    "address_councildis": "B",
    "status": "Pending",
    "rowid": "952598",
    "final_x": "3679990.1588",
    "final_y": "529463.526337",
    "longitude": "-90.07290928486657",
    "latitude": "29.94988682878874",
    "geocoded_column": {
      "latitude": "29.94988682878874",
      "longitude": "-90.07290928486657"
    }
  },
  {
    "service_request": "2022-952596",
    "request_type": "Roads/Drainage",
    "request_reason": "Pothole",
    "date_created": "2022-12-12T22:17:01.000",
    "date_modified": "2022-12-12T22:17:01.000",
    "request_status": "Pending",
    "responsible_agency": "Department of Public Works",
    "final_address": "1501 S Norman C Francis Prkwy",
    "address_councildis": "B",
    "status": "Pending",
    "rowid": "952596",
    "final_x": "3669570.73594",
    "final_y": "531460.015683",
    "longitude": "-90.10574078011284",
    "latitude": "29.955687555313272",
    "geocoded_column": {
      "latitude": "29.955687555313272",
      "longitude": "-90.10574078011284"
    }
  },
  {
    "service_request": "2022-952595",
    "request_type": "Roads/Drainage",
    "request_reason": "Damaged Sidewalk",
    "date_created": "2022-12-12T21:56:54.000",
    "date_modified": "2022-12-12T21:56:54.000",
    "request_status": "Pending",
    "responsible_agency": "Department of Public Works",
    "final_address": "2326 St Louis St",
    "address_councildis": "B",
    "status": "Pending",
    "rowid": "952595",
    "final_x": "3677394.09186",
    "final_y": "535367.795014",
    "longitude": "-90.08090250599537",
    "latitude": "29.966199845986555",
    "geocoded_column": {
      "latitude": "29.966199845986555",
      "longitude": "-90.08090250599537"
    }
  },
  {
    "service_request": "2022-952594",
    "request_type": "Trash/Recycling",
    "request_reason": "Order Recycling Cart",
    "date_created": "2022-12-12T21:51:13.000",
    "date_modified": "2022-12-12T21:51:13.000",
    "request_status": "Pending",
    "responsible_agency": "Department of Sanitation",
    "final_address": "4401 San Remo St",
    "address_councildis": "E",
    "status": "Pending",
    "rowid": "952594",
    "final_x": "3760574.61315",
    "final_y": "573968.710186",
    "longitude": "-89.81661358427817",
    "latitude": "30.06957339318268",
    "geocoded_column": {
      "latitude": "30.06957339318268",
      "longitude": "-89.81661358427817"
    }
  },
  {
    "service_request": "2022-952593",
    "request_type": "Trash/Recycling",
    "request_reason": "Missed Trash Pick-Up",
    "date_created": "2022-12-12T21:50:59.000",
    "date_modified": "2022-12-12T21:50:59.000",
    "request_status": "Pending",
    "responsible_agency": "Department of Sanitation",
    "final_address": "3218 Orleans Ave",
    "address_councildis": "A",
    "status": "Assigned to Contractor",
    "contractor": "Richards Disposal",
    "rowid": "952593",
    "final_x": "3674845.58632",
    "final_y": "538393.958025",
    "longitude": "-90.08884684959648",
    "latitude": "29.974597115035806",
    "geocoded_column": {
      "latitude": "29.974597115035806",
      "longitude": "-90.08884684959648"
    }
  },
  {
    "service_request": "2022-952592",
    "request_type": "Roads/Drainage",
    "request_reason": "Man hole cover issue",
    "date_created": "2022-12-12T21:49:34.000",
    "date_modified": "2022-12-12T21:49:35.000",
    "request_status": "Pending",
    "responsible_agency": "Department of Public Works",
    "final_address": "GRAVIER ST & S DORGENOIS ST",
    "address_councildis": "B",
    "status": "Pending",
    "rowid": "952592",
    "final_x": "3674545.5",
    "final_y": "533068.68",
    "longitude": "-90.08997709553341",
    "latitude": "29.959963358146194",
    "geocoded_column": {
      "latitude": "29.959963358146194",
      "longitude": "-90.08997709553341"
    }
  },
  {
    "service_request": "2022-952591",
    "request_type": "Roads/Drainage",
    "request_reason": "Accessibility Ramps, Curbs and Sidewalk Repair",
    "date_created": "2022-12-12T21:48:24.000",
    "date_modified": "2022-12-12T21:48:24.000",
    "request_status": "Pending",
    "responsible_agency": "Department of Public Works",
    "final_address": "5647 Albany Ct",
    "address_councildis": "C",
    "status": "Pending",
    "rowid": "952591",
    "final_x": "3704561.55588",
    "final_y": "521433.177145",
    "longitude": "-89.99562263943751",
    "latitude": "29.927040132560784",
    "geocoded_column": {
      "latitude": "29.927040132560784",
      "longitude": "-89.99562263943751"
    }
  },
  {
    "service_request": "2022-952590",
    "request_type": "Trash/Recycling",
    "request_reason": "Request a Large Item Pick Up",
    "date_created": "2022-12-12T21:43:31.000",
    "date_modified": "2022-12-12T21:43:32.000",
    "request_status": "Pending",
    "responsible_agency": "Department of Sanitation",
    "final_address": "5647 Albany Ct",
    "address_councildis": "C",
    "status": "Assigned to Contractor",
    "contractor": "Richards Disposal",
    "rowid": "952590",
    "final_x": "3704561.55588",
    "final_y": "521433.177145",
    "longitude": "-89.99562263943751",
    "latitude": "29.927040132560784",
    "geocoded_column": {
      "latitude": "29.927040132560784",
      "longitude": "-89.99562263943751"
    }
  },
  {
    "service_request": "2022-952589",
    "request_type": "Trash/Recycling",
    "request_reason": "Order Recycling Cart",
    "date_created": "2022-12-12T21:05:10.000",
    "date_modified": "2022-12-12T21:05:10.000",
    "request_status": "Pending",
    "responsible_agency": "Department of Sanitation",
    "final_address": "5517 N Rampart St",
    "address_councildis": "E",
    "status": "Pending",
    "rowid": "952589",
    "final_x": "3697757.54723",
    "final_y": "533414.892036",
    "longitude": "-90.01666638118448",
    "latitude": "29.960202334174486",
    "geocoded_column": {
      "latitude": "29.960202334174486",
      "longitude": "-90.01666638118448"
    }
  },
  {
    "service_request": "2022-952588",
    "request_type": "Trash/Recycling",
    "request_reason": "Order Trash Cart",
    "date_created": "2022-12-12T20:51:14.000",
    "date_modified": "2022-12-12T20:51:14.000",
    "request_status": "Pending",
    "responsible_agency": "Department of Sanitation",
    "final_address": "8933 Fig St",
    "address_councildis": "A",
    "status": "Assigned to Contractor",
    "contractor": "Richards Disposal",
    "rowid": "952588",
    "final_x": "3664034.18944",
    "final_y": "535257.757446",
    "longitude": "-90.12309665356393",
    "latitude": "29.966292040311775",
    "geocoded_column": {
      "latitude": "29.966292040311775",
      "longitude": "-90.12309665356393"
    }
  },
  {
    "service_request": "2022-952587",
    "request_type": "Trash/Recycling",
    "request_reason": "Order Trash Cart",
    "date_created": "2022-12-12T20:48:08.000",
    "date_modified": "2022-12-12T20:48:09.000",
    "request_status": "Pending",
    "responsible_agency": "Department of Sanitation",
    "final_address": "3600 Frenchmen St Apt B",
    "address_councildis": "D",
    "status": "Assigned to Contractor",
    "contractor": "IV Waste",
    "rowid": "952587",
    "final_x": "3683728.74901",
    "final_y": "545886.350416",
    "longitude": "-90.06052884240559",
    "latitude": "29.994930278361643",
    "geocoded_column": {
      "latitude": "29.994930278361643",
      "longitude": "-90.06052884240559"
    }
  },
  {
    "service_request": "2022-952586",
    "request_type": "Trash/Recycling",
    "request_reason": "Order Recycling Cart",
    "date_created": "2022-12-12T20:47:59.000",
    "date_modified": "2022-12-12T20:47:59.000",
    "request_status": "Pending",
    "responsible_agency": "Department of Sanitation",
    "final_address": "6204 Vermillion Blvd",
    "address_councildis": "D",
    "status": "Pending",
    "rowid": "952586",
    "final_x": "3682971.40431",
    "final_y": "555775.786841",
    "longitude": "-90.06257475362337",
    "latitude": "30.022145759928886",
    "geocoded_column": {
      "latitude": "30.022145759928886",
      "longitude": "-90.06257475362337"
    }
  },
  {
    "service_request": "2022-952585",
    "request_type": "Trash/Recycling",
    "request_reason": "Order Trash Cart",
    "date_created": "2022-12-12T20:46:34.000",
    "date_modified": "2022-12-12T20:46:35.000",
    "request_status": "Pending",
    "responsible_agency": "Department of Sanitation",
    "final_address": "3600 Frenchmen St Apt A",
    "address_councildis": "D",
    "status": "Assigned to Contractor",
    "contractor": "IV Waste",
    "rowid": "952585",
    "final_x": "3683763.07797",
    "final_y": "545889.336016",
    "longitude": "-90.06042029644028",
    "latitude": "29.99493743913614",
    "geocoded_column": {
      "latitude": "29.99493743913614",
      "longitude": "-90.06042029644028"
    }
  },
  {
    "service_request": "2022-952584",
    "request_type": "Abandoned Vehicles",
    "request_reason": "Abandoned/Junk Vehicles",
    "date_created": "2022-12-12T20:37:12.000",
    "date_modified": "2022-12-12T20:37:12.000",
    "request_status": "Pending",
    "responsible_agency": "Department of Public Works",
    "final_address": "2800 Milan St",
    "address_councildis": "B",
    "status": "Pending",
    "rowid": "952584",
    "final_x": "3671132.01358",
    "final_y": "525212.680765",
    "longitude": "-90.1010229616528",
    "latitude": "29.938463344017",
    "geocoded_column": {
      "latitude": "29.938463344017",
      "longitude": "-90.1010229616528"
    }
  },
  {
    "service_request": "2022-952583",
    "request_type": "Trash/Recycling",
    "request_reason": "Order Recycling Cart",
    "date_created": "2022-12-12T20:28:22.000",
    "date_modified": "2022-12-12T20:28:22.000",
    "request_status": "Pending",
    "responsible_agency": "Department of Sanitation",
    "final_address": "231 S Norman C Francis Prkwy",
    "address_councildis": "B",
    "status": "Pending",
    "rowid": "952583",
    "final_x": "3672682.68718",
    "final_y": "536286.761671",
    "longitude": "-90.0957497060389",
    "latitude": "29.968867452601547",
    "geocoded_column": {
      "latitude": "29.968867452601547",
      "longitude": "-90.0957497060389"
    }
  },
  {
    "service_request": "2022-952582",
    "request_type": "Trash/Recycling",
    "request_reason": "Illegal Dumping",
    "date_created": "2022-12-12T20:20:15.000",
    "date_modified": "2022-12-12T20:20:15.000",
    "request_status": "Pending",
    "responsible_agency": "Department of Sanitation",
    "final_address": "1336 Clouet St",
    "address_councildis": "C",
    "status": "Pending",
    "rowid": "952582",
    "final_x": "3689229.48201",
    "final_y": "537048.132744",
    "longitude": "-90.04346697659248",
    "latitude": "29.970459172464448",
    "geocoded_column": {
      "latitude": "29.970459172464448",
      "longitude": "-90.04346697659248"
    }
  },
  {
    "service_request": "2022-952581",
    "request_type": "Trash/Recycling",
    "request_reason": "Request a Large Item Pick Up",
    "date_created": "2022-12-12T20:19:13.000",
    "date_modified": "2022-12-12T20:19:14.000",
    "request_status": "Pending",
    "responsible_agency": "Department of Sanitation",
    "final_address": "1120 Michael St",
    "address_councildis": "C",
    "status": "Assigned to Contractor",
    "contractor": "Richards Disposal",
    "rowid": "952581",
    "final_x": "3697288.87523",
    "final_y": "527182.214207",
    "longitude": "-90.01837220346717",
    "latitude": "29.943079458173642",
    "geocoded_column": {
      "latitude": "29.943079458173642",
      "longitude": "-90.01837220346717"
    }
  },
  {
    "service_request": "2022-952580",
    "request_type": "Trash/Recycling",
    "request_reason": "Order Recycling Cart",
    "date_created": "2022-12-12T20:12:34.000",
    "date_modified": "2022-12-12T20:12:34.000",
    "request_status": "Pending",
    "responsible_agency": "Department of Sanitation",
    "final_address": "2120 Oretha Castle Haley Blvd",
    "address_councildis": "B",
    "status": "Pending",
    "rowid": "952580",
    "final_x": "3676999.69166",
    "final_y": "524817.488444",
    "longitude": "-90.08251171618949",
    "latitude": "29.937201873461046",
    "geocoded_column": {
      "latitude": "29.937201873461046",
      "longitude": "-90.08251171618949"
    }
  },
  {
    "service_request": "2022-952579",
    "request_type": "Trash/Recycling",
    "request_reason": "Order Recycling Cart",
    "date_created": "2022-12-12T20:11:16.000",
    "date_modified": "2022-12-12T20:11:16.000",
    "request_status": "Pending",
    "responsible_agency": "Department of Sanitation",
    "final_address": "2116 Oretha Castle Haley Blvd",
    "address_councildis": "B",
    "status": "Pending",
    "rowid": "952579",
    "final_x": "3677023.08584",
    "final_y": "524835.779004",
    "longitude": "-90.08243722889668",
    "latitude": "29.937251464273828",
    "geocoded_column": {
      "latitude": "29.937251464273828",
      "longitude": "-90.08243722889668"
    }
  },
  {
    "service_request": "2022-952578",
    "request_type": "Trash/Recycling",
    "request_reason": "Missed Trash Pick-Up",
    "date_created": "2022-12-12T20:06:13.000",
    "date_modified": "2022-12-12T20:06:13.000",
    "request_status": "Pending",
    "responsible_agency": "Department of Sanitation",
    "final_address": "11036 Chaucer St",
    "address_councildis": "E",
    "status": "Assigned to Contractor",
    "contractor": "Waste Pro",
    "rowid": "952578",
    "final_x": "3713393.26603",
    "final_y": "562196.647967",
    "longitude": "-89.96620823612497",
    "latitude": "30.038837805662624",
    "geocoded_column": {
      "latitude": "30.038837805662624",
      "longitude": "-89.96620823612497"
    }
  },
  {
    "service_request": "2022-952577",
    "request_type": "Trash/Recycling",
    "request_reason": "Request a Large Item Pick Up",
    "date_created": "2022-12-12T19:44:18.000",
    "date_modified": "2022-12-12T19:44:19.000",
    "request_status": "Pending",
    "responsible_agency": "Department of Sanitation",
    "final_address": "1714 Flanders St",
    "address_councildis": "C",
    "status": "Assigned to Contractor",
    "contractor": "Richards Disposal",
    "rowid": "952577",
    "final_x": "3696720.36791",
    "final_y": "525023.292605",
    "longitude": "-90.02024522323244",
    "latitude": "29.937161098334407",
    "geocoded_column": {
      "latitude": "29.937161098334407",
      "longitude": "-90.02024522323244"
    }
  },
  {
    "service_request": "2022-952576",
    "request_type": "Property Maintenance",
    "request_reason": "Property Maintenance",
    "date_created": "2022-12-12T19:31:12.000",
    "date_modified": "2022-12-12T19:31:13.000",
    "request_status": "Pending",
    "responsible_agency": "Department of Code Enforcement",
    "final_address": "1912 Dauphine St",
    "address_councildis": "C",
    "status": "Pending",
    "rowid": "952576",
    "final_x": "3684099.72469",
    "final_y": "535098.585734",
    "longitude": "-90.05973574169795",
    "latitude": "29.965256375725655",
    "geocoded_column": {
      "latitude": "29.965256375725655",
      "longitude": "-90.05973574169795"
    }
  },
  {
    "service_request": "2022-952575",
    "request_type": "Abandoned Vehicles",
    "request_reason": "Abandoned/Junk Vehicles",
    "date_created": "2022-12-12T19:20:17.000",
    "date_modified": "2022-12-12T19:20:17.000",
    "request_status": "Pending",
    "responsible_agency": "Department of Public Works",
    "final_address": "3751 Rue Delphine",
    "address_councildis": "C",
    "status": "Pending",
    "rowid": "952575",
    "final_x": "3702961.81418",
    "final_y": "516686.042613",
    "longitude": "-90.00084683454332",
    "latitude": "29.914038404968792",
    "geocoded_column": {
      "latitude": "29.914038404968792",
      "longitude": "-90.00084683454332"
    }
  },
  {
    "service_request": "2022-952573",
    "request_type": "Abandoned Vehicles",
    "request_reason": "Abandoned/Junk Vehicles",
    "date_created": "2022-12-12T19:16:02.000",
    "date_modified": "2022-12-12T19:16:02.000",
    "request_status": "Pending",
    "responsible_agency": "Department of Public Works",
    "final_address": "3711 Rue Delphine",
    "address_councildis": "C",
    "status": "Pending",
    "rowid": "952573",
    "final_x": "3702970.87383",
    "final_y": "516932.944181",
    "longitude": "-90.00080917685683",
    "latitude": "29.914717010033783",
    "geocoded_column": {
      "latitude": "29.914717010033783",
      "longitude": "-90.00080917685683"
    }
  },
  {
    "service_request": "2022-952572",
    "request_type": "Trash/Recycling",
    "request_reason": "Request a Large Item Pick Up",
    "date_created": "2022-12-12T19:14:27.000",
    "date_modified": "2022-12-12T19:14:28.000",
    "request_status": "Pending",
    "responsible_agency": "Department of Sanitation",
    "final_address": "1319 Filmore Ave",
    "address_councildis": "D",
    "status": "Assigned to Contractor",
    "contractor": "IV Waste",
    "rowid": "952572",
    "final_x": "3677355.0708",
    "final_y": "551867.921046",
    "longitude": "-90.08045598820462",
    "latitude": "30.01157060728262",
    "geocoded_column": {
      "latitude": "30.01157060728262",
      "longitude": "-90.08045598820462"
    }
  },
  {
    "service_request": "2022-952571",
    "request_type": "Trash/Recycling",
    "request_reason": "Order Recycling Cart",
    "date_created": "2022-12-12T19:14:12.000",
    "date_modified": "2022-12-12T19:14:12.000",
    "request_status": "Pending",
    "responsible_agency": "Department of Sanitation",
    "final_address": "5501 Norgate Dr",
    "address_councildis": "E",
    "status": "Pending",
    "rowid": "952571",
    "final_x": "3707253.43864",
    "final_y": "557944.381595",
    "longitude": "-89.98576967532644",
    "latitude": "30.02734574251269",
    "geocoded_column": {
      "latitude": "30.02734574251269",
      "longitude": "-89.98576967532644"
    }
  },
  {
    "service_request": "2022-952570",
    "request_type": "Trash/Recycling",
    "request_reason": "Missed Trash Pick-Up",
    "date_created": "2022-12-12T19:13:48.000",
    "date_modified": "2022-12-12T19:13:49.000",
    "request_status": "Pending",
    "responsible_agency": "Department of Sanitation",
    "final_address": "2231 N Broad St",
    "address_councildis": "D",
    "status": "Assigned to Contractor",
    "contractor": "IV Waste",
    "rowid": "952570",
    "final_x": "3681323.7005",
    "final_y": "543286.529102",
    "longitude": "-90.06821679110101",
    "latitude": "29.987854926750984",
    "geocoded_column": {
      "latitude": "29.987854926750984",
      "longitude": "-90.06821679110101"
    }
  },
  {
    "service_request": "2022-952569",
    "request_type": "Trash/Recycling",
    "request_reason": "Missed Trash Pick-Up",
    "date_created": "2022-12-12T19:13:22.000",
    "date_modified": "2022-12-12T19:13:23.000",
    "request_status": "Pending",
    "responsible_agency": "Department of Sanitation",
    "final_address": "1525 State St",
    "address_councildis": "A",
    "status": "Assigned to Contractor",
    "contractor": "Richards Disposal",
    "rowid": "952569",
    "final_x": "3665660.08154",
    "final_y": "521961.670586",
    "longitude": "-90.11840730007484",
    "latitude": "29.92968478052464",
    "geocoded_column": {
      "latitude": "29.92968478052464",
      "longitude": "-90.11840730007484"
    }
  },
  {
    "service_request": "2022-952568",
    "request_type": "Trash/Recycling",
    "request_reason": "Illegal Dumping",
    "date_created": "2022-12-12T18:52:33.000",
    "date_modified": "2022-12-12T18:52:33.000",
    "request_status": "Pending",
    "responsible_agency": "Department of Sanitation",
    "final_address": "400 BLK Wagner St",
    "address_councildis": "C",
    "status": "Pending",
    "rowid": "952568",
    "final_x": "3690603.56593",
    "final_y": "530006.841021",
    "longitude": "-90.03937859484394",
    "latitude": "29.951055473205795",
    "geocoded_column": {
      "latitude": "29.951055473205795",
      "longitude": "-90.03937859484394"
    }
  },
  {
    "service_request": "2022-952567",
    "request_type": "Trash/Recycling",
    "request_reason": "Request a Large Item Pick Up",
    "date_created": "2022-12-12T18:52:31.000",
    "date_modified": "2022-12-12T18:52:31.000",
    "request_status": "Pending",
    "responsible_agency": "Department of Sanitation",
    "final_address": "7598 Lady Gray St",
    "address_councildis": "E",
    "status": "Assigned to Contractor",
    "contractor": "Waste Pro",
    "rowid": "952567",
    "final_x": "3710065.83243",
    "final_y": "565036.809826",
    "longitude": "-89.97661747772295",
    "latitude": "30.046755853885582",
    "geocoded_column": {
      "latitude": "30.046755853885582",
      "longitude": "-89.97661747772295"
    }
  },
  {
    "service_request": "2022-952566",
    "request_type": "Trash/Recycling",
    "request_reason": "Missed Trash Pick-Up",
    "date_created": "2022-12-12T18:38:48.000",
    "date_modified": "2022-12-12T18:38:48.000",
    "request_status": "Pending",
    "responsible_agency": "Department of Sanitation",
    "final_address": "7606 Briarwood Dr, New Orleans, Louisiana, 70128",
    "address_councildis": "E",
    "status": "Assigned to Contractor",
    "contractor": "Waste Pro",
    "rowid": "952566",
    "final_x": "3717601.57119",
    "final_y": "570693.763239",
    "longitude": "-89.95258539685423",
    "latitude": "30.06206265117319",
    "geocoded_column": {
      "latitude": "30.06206265117319",
      "longitude": "-89.95258539685423"
    }
  },
  {
    "service_request": "2022-952565",
    "request_type": "Trash/Recycling",
    "request_reason": "Replace Trash Cart",
    "date_created": "2022-12-12T18:35:05.000",
    "date_modified": "2022-12-12T18:35:05.000",
    "request_status": "Pending",
    "responsible_agency": "Department of Sanitation",
    "final_address": "3225 Banks St",
    "address_councildis": "B",
    "status": "Assigned to Contractor",
    "contractor": "Richards Disposal",
    "rowid": "952565",
    "final_x": "3673005.17128",
    "final_y": "535458.515782",
    "longitude": "-90.09475955242071",
    "latitude": "29.96658047423558",
    "geocoded_column": {
      "latitude": "29.96658047423558",
      "longitude": "-90.09475955242071"
    }
  },
  {
    "service_request": "2022-952564",
    "request_type": "Trash/Recycling",
    "request_reason": "Request a Large Item Pick Up",
    "date_created": "2022-12-12T18:29:48.000",
    "date_modified": "2022-12-12T18:29:49.000",
    "request_status": "Pending",
    "responsible_agency": "Department of Sanitation",
    "final_address": "12910 Mcraven Ct",
    "address_councildis": "E",
    "status": "Assigned to Contractor",
    "contractor": "Waste Pro",
    "rowid": "952564",
    "final_x": "3716406.47928",
    "final_y": "568130.969253",
    "longitude": "-89.95646040006928",
    "latitude": "30.055055570511488",
    "geocoded_column": {
      "latitude": "30.055055570511488",
      "longitude": "-89.95646040006928"
    }
  },
  {
    "service_request": "2022-952563",
    "request_type": "Trash/Recycling",
    "request_reason": "Request a Large Item Pick Up",
    "date_created": "2022-12-12T18:11:44.000",
    "date_modified": "2022-12-12T18:11:45.000",
    "request_status": "Pending",
    "responsible_agency": "Department of Sanitation",
    "final_address": "7923 Hampson St",
    "address_councildis": "A",
    "status": "Assigned to Contractor",
    "contractor": "Richards Disposal",
    "rowid": "952563",
    "final_x": "3661253.54458",
    "final_y": "526736.87635",
    "longitude": "-90.13216000824997",
    "latitude": "29.942942825642923",
    "geocoded_column": {
      "latitude": "29.942942825642923",
      "longitude": "-90.13216000824997"
    }
  },
  {
    "service_request": "2022-952562",
    "request_type": "Traffic Signals/Signs/Striping/Streetlights",
    "request_reason": "Street Light Outage/Malfunction",
    "date_created": "2022-12-12T18:07:09.000",
    "date_modified": "2022-12-12T18:07:09.000",
    "request_status": "Pending",
    "responsible_agency": "Department of Public Works",
    "final_address": "6361 Louisville St",
    "address_councildis": "A",
    "status": "Pending",
    "contractor": "Legacy Professional Services",
    "rowid": "952562",
    "final_x": "3668066.15316",
    "final_y": "549814.744788",
    "longitude": "-90.10987289640458",
    "latitude": "30.006201090675304",
    "geocoded_column": {
      "latitude": "30.006201090675304",
      "longitude": "-90.10987289640458"
    }
  },
  {
    "service_request": "2022-952561",
    "request_type": "Trash/Recycling",
    "request_reason": "Missed Trash Pick-Up",
    "date_created": "2022-12-12T17:57:12.000",
    "date_modified": "2022-12-12T17:57:12.000",
    "request_status": "Pending",
    "responsible_agency": "Department of Sanitation",
    "final_address": "3616 Marigny St",
    "address_councildis": "D",
    "status": "Assigned to Contractor",
    "contractor": "IV Waste",
    "rowid": "952561",
    "final_x": "3684548.35772",
    "final_y": "546045.663184",
    "longitude": "-90.05793419285122",
    "latitude": "29.995343272601282",
    "geocoded_column": {
      "latitude": "29.995343272601282",
      "longitude": "-90.05793419285122"
    }
  },
  {
    "service_request": "2022-952560",
    "request_type": "Abandoned Vehicles",
    "request_reason": "Abandoned/Junk Vehicles",
    "date_created": "2022-12-12T17:53:52.000",
    "date_modified": "2022-12-12T17:53:52.000",
    "request_status": "Pending",
    "responsible_agency": "Department of Public Works",
    "final_address": "16 Westpark Ct",
    "address_councildis": "C",
    "status": "Pending",
    "rowid": "952560",
    "final_x": "3696016.98928",
    "final_y": "521722.583161",
    "longitude": "-90.02258502244862",
    "latitude": "29.928107423979483",
    "geocoded_column": {
      "latitude": "29.928107423979483",
      "longitude": "-90.02258502244862"
    }
  },
  {
    "service_request": "2022-952559",
    "request_type": "Roads/Drainage",
    "request_reason": "Street Subsidence (Sinking)",
    "date_created": "2022-12-12T17:51:56.000",
    "date_modified": "2022-12-12T17:51:56.000",
    "request_status": "Pending",
    "responsible_agency": "Department of Public Works",
    "final_address": "16 Westpark Ct",
    "address_councildis": "C",
    "status": "Pending",
    "rowid": "952559",
    "final_x": "3696016.98928",
    "final_y": "521722.583161",
    "longitude": "-90.02258502244862",
    "latitude": "29.928107423979483",
    "geocoded_column": {
      "latitude": "29.928107423979483",
      "longitude": "-90.02258502244862"
    }
  },
  {
    "service_request": "2022-952558",
    "request_type": "Roads/Drainage",
    "request_reason": "Catch Basin - Broken/Damage",
    "date_created": "2022-12-12T17:50:14.000",
    "date_modified": "2022-12-12T17:50:14.000",
    "request_status": "Pending",
    "responsible_agency": "Department of Public Works",
    "final_address": "237 Adams St",
    "address_councildis": "A",
    "status": "Pending",
    "rowid": "952558",
    "final_x": "3660917.43552",
    "final_y": "524980.091837",
    "longitude": "-90.13327928222685",
    "latitude": "29.938121908461333",
    "geocoded_column": {
      "latitude": "29.938121908461333",
      "longitude": "-90.13327928222685"
    }
  },
  {
    "service_request": "2022-952557",
    "request_type": "Trash/Recycling",
    "request_reason": "Missed Trash Pick-Up",
    "date_created": "2022-12-12T17:42:14.000",
    "date_modified": "2022-12-12T17:42:15.000",
    "request_status": "Pending",
    "responsible_agency": "Department of Sanitation",
    "final_address": "3000 BLK Lafitte Ave",
    "address_councildis": "A",
    "status": "Assigned to Contractor",
    "contractor": "Richards Disposal",
    "rowid": "952557",
    "final_x": "3675150.17296",
    "final_y": "537200.871908",
    "longitude": "-90.0879258441859",
    "latitude": "29.97130743499138",
    "geocoded_column": {
      "latitude": "29.97130743499138",
      "longitude": "-90.0879258441859"
    }
  },
  {
    "service_request": "2022-952556",
    "request_type": "Trash/Recycling",
    "request_reason": "Missed Trash Pick-Up",
    "date_created": "2022-12-12T17:41:21.000",
    "date_modified": "2022-12-12T17:41:22.000",
    "request_status": "Pending",
    "responsible_agency": "Department of Sanitation",
    "final_address": "500 BLK N Salcedo St",
    "address_councildis": "A",
    "status": "Assigned to Contractor",
    "contractor": "Richards Disposal",
    "rowid": "952556",
    "final_x": "3675091.53134",
    "final_y": "537407.033897",
    "longitude": "-90.08810396724299",
    "latitude": "29.97187606278399",
    "geocoded_column": {
      "latitude": "29.97187606278399",
      "longitude": "-90.08810396724299"
    }
  },
  {
    "service_request": "2022-952555",
    "request_type": "Trash/Recycling",
    "request_reason": "Missed Trash Pick-Up",
    "date_created": "2022-12-12T17:41:17.000",
    "date_modified": "2022-12-12T17:41:18.000",
    "request_status": "Pending",
    "responsible_agency": "Department of Sanitation",
    "final_address": "500 BLK N Salcedo St",
    "address_councildis": "A",
    "status": "Assigned to Contractor",
    "contractor": "Richards Disposal",
    "rowid": "952555",
    "final_x": "3675091.53134",
    "final_y": "537407.033897",
    "longitude": "-90.08810396724299",
    "latitude": "29.97187606278399",
    "geocoded_column": {
      "latitude": "29.97187606278399",
      "longitude": "-90.08810396724299"
    }
  },
  {
    "service_request": "2022-952553",
    "request_type": "Trash/Recycling",
    "request_reason": "Order Trash Cart",
    "date_created": "2022-12-12T17:31:46.000",
    "date_modified": "2022-12-12T17:31:46.000",
    "request_status": "Pending",
    "responsible_agency": "Department of Sanitation",
    "final_address": "2827 Dryades St",
    "address_councildis": "B",
    "status": "Assigned to Contractor",
    "contractor": "Richards Disposal",
    "rowid": "952553",
    "final_x": "3675102.15739",
    "final_y": "523332.323195",
    "longitude": "-90.08855329156684",
    "latitude": "29.933174973322963",
    "geocoded_column": {
      "latitude": "29.933174973322963",
      "longitude": "-90.08855329156684"
    }
  },
  {
    "service_request": "2022-952552",
    "request_type": "Safety & Permits",
    "request_reason": "Construction permit",
    "date_created": "2022-12-12T17:28:34.000",
    "date_modified": "2022-12-12T17:28:34.000",
    "request_status": "Pending",
    "responsible_agency": "Department of Code Enforcement",
    "final_address": "4523 Urquhart St A",
    "address_councildis": "D",
    "status": "Pending",
    "rowid": "952552",
    "final_x": "3693671.75856",
    "final_y": "535663.16999",
    "longitude": "-90.02948759573096",
    "latitude": "29.96651276757264",
    "geocoded_column": {
      "latitude": "29.96651276757264",
      "longitude": "-90.02948759573096"
    }
  },
  {
    "service_request": "2022-952551",
    "request_type": "Traffic Signals/Signs/Striping/Streetlights",
    "request_reason": "Street Light Outage/Malfunction",
    "date_created": "2022-12-12T17:26:13.000",
    "date_modified": "2022-12-12T18:15:23.000",
    "request_status": "Pending",
    "responsible_agency": "Department of Public Works",
    "final_address": "2606 Gordon St, New Orleans, Louisiana, 70117",
    "address_councildis": "E",
    "status": "Pending",
    "contractor": "Legacy Professional Services",
    "rowid": "952551",
    "final_x": "3701309.80452",
    "final_y": "538869.135625",
    "longitude": "-90.00524955372448",
    "latitude": "29.975086821609285",
    "geocoded_column": {
      "latitude": "29.975086821609285",
      "longitude": "-90.00524955372448"
    }
  },
  {
    "service_request": "2022-952549",
    "request_type": "Property Maintenance",
    "request_reason": "Property Maintenance",
    "date_created": "2022-12-12T17:24:38.000",
    "date_modified": "2022-12-12T17:24:39.000",
    "request_status": "Pending",
    "responsible_agency": "Department of Code Enforcement",
    "final_address": "MARAIS ST & DESIRE ST",
    "address_councildis": "C",
    "status": "Pending",
    "rowid": "952549",
    "final_x": "3690271.3",
    "final_y": "536064.18",
    "longitude": "-90.0402118768189",
    "latitude": "29.9677213603449",
    "geocoded_column": {
      "latitude": "29.9677213603449",
      "longitude": "-90.0402118768189"
    }
  },
  {
    "service_request": "2022-952548",
    "request_type": "Trash/Recycling",
    "request_reason": "Order Recycling Cart",
    "date_created": "2022-12-12T17:15:40.000",
    "date_modified": "2022-12-12T17:15:40.000",
    "request_status": "Pending",
    "responsible_agency": "Department of Sanitation",
    "final_address": "4724 E Adams Ct",
    "address_councildis": "E",
    "status": "Pending",
    "rowid": "952548",
    "final_x": "3718705.79929",
    "final_y": "556985.460058",
    "longitude": "-89.9496182347781",
    "latitude": "30.024333786101035",
    "geocoded_column": {
      "latitude": "30.024333786101035",
      "longitude": "-89.9496182347781"
    }
  },
  {
    "service_request": "2022-952547",
    "request_type": "Trash/Recycling",
    "request_reason": "Illegal Dumping",
    "date_created": "2022-12-12T17:10:38.000",
    "date_modified": "2022-12-12T17:10:38.000",
    "request_status": "Pending",
    "responsible_agency": "Department of Sanitation",
    "final_address": "2106 Baronne St",
    "address_councildis": "B",
    "status": "Pending",
    "rowid": "952547",
    "final_x": "3677282.27362",
    "final_y": "524614.143996",
    "longitude": "-90.08162659997583",
    "latitude": "29.936634258061485",
    "geocoded_column": {
      "latitude": "29.936634258061485",
      "longitude": "-90.08162659997583"
    }
  },
  {
    "service_request": "2022-952546",
    "request_type": "Property Maintenance",
    "request_reason": "Property Maintenance",
    "date_created": "2022-12-12T17:08:34.000",
    "date_modified": "2022-12-12T17:08:34.000",
    "request_status": "Pending",
    "responsible_agency": "Department of Code Enforcement",
    "final_address": "2119 Bienville Ave",
    "address_councildis": "B",
    "status": "Pending",
    "rowid": "952546",
    "final_x": "3677641.7565",
    "final_y": "534427.459461",
    "longitude": "-90.08015286340728",
    "latitude": "29.963606796725312",
    "geocoded_column": {
      "latitude": "29.963606796725312",
      "longitude": "-90.08015286340728"
    }
  },
  {
    "service_request": "2022-952545",
    "request_type": "Trash/Recycling",
    "request_reason": "Request a Large Item Pick Up",
    "date_created": "2022-12-12T17:03:22.000",
    "date_modified": "2022-12-12T17:03:33.000",
    "case_close_date": "2022-11-30T18:00:00.000",
    "request_status": "Pending",
    "responsible_agency": "Department of Sanitation",
    "final_address": "1311 St Maurice Ave",
    "address_councildis": "E",
    "status": "Assigned to Contractor",
    "contractor": "Waste Pro",
    "rowid": "952545",
    "final_x": "3700209.66807",
    "final_y": "533928.561093",
    "longitude": "-90.00890440325131",
    "latitude": "29.961537035956937",
    "geocoded_column": {
      "latitude": "29.961537035956937",
      "longitude": "-90.00890440325131"
    }
  },
  {
    "service_request": "2022-952544",
    "request_type": "Traffic Signals/Signs/Striping/Streetlights",
    "request_reason": "Street Light Outage/Malfunction",
    "date_created": "2022-12-12T17:03:13.000",
    "date_modified": "2022-12-12T17:03:14.000",
    "request_status": "Pending",
    "responsible_agency": "Department of Public Works",
    "final_address": "5550 Cherlyn Dr",
    "address_councildis": "A",
    "status": "Pending",
    "contractor": "Legacy Professional Services",
    "rowid": "952544",
    "final_x": "3665094.80455",
    "final_y": "544799.758543",
    "longitude": "-90.11942800179942",
    "latitude": "29.99249850137802",
    "geocoded_column": {
      "latitude": "29.99249850137802",
      "longitude": "-90.11942800179942"
    }
  },
  {
    "service_request": "2022-952543",
    "request_type": "Traffic Signals/Signs/Striping/Streetlights",
    "request_reason": "Street Light Outage/Malfunction",
    "date_created": "2022-12-12T17:02:38.000",
    "date_modified": "2022-12-12T17:02:39.000",
    "request_status": "Pending",
    "responsible_agency": "Department of Public Works",
    "final_address": "5610 Cherlyn Dr",
    "address_councildis": "A",
    "status": "Pending",
    "contractor": "Legacy Professional Services",
    "rowid": "952543",
    "final_x": "3665104.80167",
    "final_y": "544988.977743",
    "longitude": "-90.11939009032042",
    "latitude": "29.993018498530795",
    "geocoded_column": {
      "latitude": "29.993018498530795",
      "longitude": "-90.11939009032042"
    }
  },
  {
    "service_request": "2022-952542",
    "request_type": "Traffic Signals/Signs/Striping/Streetlights",
    "request_reason": "Street Light Outage/Malfunction",
    "date_created": "2022-12-12T17:02:35.000",
    "date_modified": "2022-12-12T17:02:36.000",
    "request_status": "Pending",
    "responsible_agency": "Department of Public Works",
    "final_address": "418 State St",
    "address_councildis": "A",
    "status": "Pending",
    "contractor": "Legacy Professional Services",
    "rowid": "952542",
    "final_x": "3664256.6809",
    "final_y": "518027.196854",
    "longitude": "-90.12296880652347",
    "latitude": "29.918907051964563",
    "geocoded_column": {
      "latitude": "29.918907051964563",
      "longitude": "-90.12296880652347"
    }
  },
  {
    "service_request": "2022-952541",
    "request_type": "Traffic Signals/Signs/Striping/Streetlights",
    "request_reason": "Street Light Outage/Malfunction",
    "date_created": "2022-12-12T17:01:41.000",
    "date_modified": "2022-12-12T17:01:41.000",
    "request_status": "Pending",
    "responsible_agency": "Department of Public Works",
    "final_address": "5876 Fleur-De-Lis Dr",
    "address_councildis": "A",
    "status": "Pending",
    "contractor": "Legacy Professional Services",
    "rowid": "952541",
    "final_x": "3665000.253",
    "final_y": "546932.562641",
    "longitude": "-90.1196553135922",
    "latitude": "29.998365738172968",
    "geocoded_column": {
      "latitude": "29.998365738172968",
      "longitude": "-90.1196553135922"
    }
  },
  {
    "service_request": "2022-952540",
    "request_type": "Trash/Recycling",
    "request_reason": "Repair Trash Cart",
    "date_created": "2022-12-12T16:58:57.000",
    "date_modified": "2022-12-12T16:58:57.000",
    "request_status": "Pending",
    "responsible_agency": "Department of Sanitation",
    "final_address": "821 N Gayoso St",
    "address_councildis": "A",
    "status": "Assigned to Contractor",
    "contractor": "Richards Disposal",
    "rowid": "952540",
    "final_x": "3675957.91681",
    "final_y": "538169.723017",
    "longitude": "-90.0853415478443",
    "latitude": "29.973947280155524",
    "geocoded_column": {
      "latitude": "29.973947280155524",
      "longitude": "-90.0853415478443"
    }
  },
  {
    "service_request": "2022-952539",
    "request_type": "Trash/Recycling",
    "request_reason": "Missed Trash Pick-Up",
    "date_created": "2022-12-12T16:54:20.000",
    "date_modified": "2022-12-12T16:54:20.000",
    "request_status": "Pending",
    "responsible_agency": "Department of Sanitation",
    "final_address": "2029 Sere St",
    "address_councildis": "D",
    "status": "Assigned to Contractor",
    "contractor": "IV Waste",
    "rowid": "952539",
    "final_x": "3683377.49762",
    "final_y": "545852.388496",
    "longitude": "-90.06163959550256",
    "latitude": "29.99484761884584",
    "geocoded_column": {
      "latitude": "29.99484761884584",
      "longitude": "-90.06163959550256"
    }
  },
  {
    "service_request": "2022-952537",
    "request_type": "Trash/Recycling",
    "request_reason": "Request a Large Item Pick Up",
    "date_created": "2022-12-12T16:52:02.000",
    "date_modified": "2022-12-12T16:52:02.000",
    "request_status": "Pending",
    "responsible_agency": "Department of Sanitation",
    "final_address": "7541 Morel St",
    "address_councildis": "E",
    "status": "Assigned to Contractor",
    "contractor": "Waste Pro",
    "rowid": "952537",
    "final_x": "3719149.11903",
    "final_y": "571603.356904",
    "longitude": "-89.94765886612052",
    "latitude": "30.064512287519054",
    "geocoded_column": {
      "latitude": "30.064512287519054",
      "longitude": "-89.94765886612052"
    }
  },
  {
    "service_request": "2022-952536",
    "request_type": "Trash/Recycling",
    "request_reason": "Missed Trash Pick-Up",
    "date_created": "2022-12-12T16:47:10.000",
    "date_modified": "2022-12-12T16:47:10.000",
    "case_close_date": "2020-09-28T19:00:00.000",
    "request_status": "Pending",
    "responsible_agency": "Department of Sanitation",
    "final_address": "3231 Ponce De Leon St",
    "address_councildis": "A",
    "status": "Assigned to Contractor",
    "contractor": "Richards Disposal",
    "rowid": "952536",
    "final_x": "3675736.85915",
    "final_y": "540592.280139",
    "longitude": "-90.08595640856659",
    "latitude": "29.980615100039547",
    "geocoded_column": {
      "latitude": "29.980615100039547",
      "longitude": "-90.08595640856659"
    }
  },
  {
    "service_request": "2022-952535",
    "request_type": "Trash/Recycling",
    "request_reason": "Missed Trash Pick-Up",
    "date_created": "2022-12-12T16:46:53.000",
    "date_modified": "2022-12-12T16:46:54.000",
    "request_status": "Pending",
    "responsible_agency": "Department of Sanitation",
    "final_address": "10801 Willow Dr",
    "address_councildis": "C",
    "status": "Assigned to Contractor",
    "contractor": "Richards Disposal",
    "rowid": "952535",
    "final_x": "3724565.04736",
    "final_y": "515587.529588",
    "longitude": "-89.93270329598069",
    "latitude": "29.910309439886447",
    "geocoded_column": {
      "latitude": "29.910309439886447",
      "longitude": "-89.93270329598069"
    }
  },
  {
    "service_request": "2022-952534",
    "request_type": "Trash/Recycling",
    "request_reason": "Request a Large Item Pick Up",
    "date_created": "2022-12-12T16:44:39.000",
    "date_modified": "2022-12-12T16:44:39.000",
    "case_close_date": "2022-12-06T18:00:00.000",
    "request_status": "Pending",
    "responsible_agency": "Department of Sanitation",
    "final_address": "5518 St Anthony Ave",
    "address_councildis": "D",
    "status": "Assigned to Contractor",
    "contractor": "IV Waste",
    "rowid": "952534",
    "final_x": "3682023.95663",
    "final_y": "553391.380951",
    "longitude": "-90.06565180162265",
    "latitude": "30.01561837266314",
    "geocoded_column": {
      "latitude": "30.01561837266314",
      "longitude": "-90.06565180162265"
    }
  },
  {
    "service_request": "2022-952533",
    "request_type": "Roads/Drainage",
    "request_reason": "Catch Basin - Clogged",
    "date_created": "2022-12-12T16:43:12.000",
    "date_modified": "2022-12-12T16:43:13.000",
    "request_status": "Pending",
    "responsible_agency": "Department of Public Works",
    "final_address": "1101 Aline St",
    "address_councildis": "B",
    "status": "Pending",
    "rowid": "952533",
    "final_x": "3674489.30305",
    "final_y": "519649.60748",
    "longitude": "-90.09061412552221",
    "latitude": "29.923066987324038",
    "geocoded_column": {
      "latitude": "29.923066987324038",
      "longitude": "-90.09061412552221"
    }
  },
  {
    "service_request": "2022-952532",
    "request_type": "Safety & Permits",
    "request_reason": "Licenses & Permits",
    "date_created": "2022-12-12T16:42:34.000",
    "date_modified": "2022-12-12T16:42:34.000",
    "request_status": "Pending",
    "responsible_agency": "Safety and Permits",
    "status": "Pending",
    "rowid": "952532",
    "longitude": "0.0",
    "latitude": "0.0",
    "geocoded_column": {
      "latitude": "0.0",
      "longitude": "0.0"
    }
  },
  {
    "service_request": "2022-952531",
    "request_type": "Trash/Recycling",
    "request_reason": "Missed Trash Pick-Up",
    "date_created": "2022-12-12T16:41:50.000",
    "date_modified": "2022-12-12T16:41:51.000",
    "request_status": "Pending",
    "responsible_agency": "Department of Sanitation",
    "final_address": "11211 N Idlewood Ct",
    "address_councildis": "E",
    "status": "Assigned to Contractor",
    "contractor": "Waste Pro",
    "rowid": "952531",
    "final_x": "3716025.86207",
    "final_y": "560277.469149",
    "longitude": "-89.9579613954362",
    "latitude": "30.03347420878148",
    "geocoded_column": {
      "latitude": "30.03347420878148",
      "longitude": "-89.9579613954362"
    }
  },
  {
    "service_request": "2022-952530",
    "request_type": "Trash/Recycling",
    "request_reason": "Request a Large Item Pick Up",
    "date_created": "2022-12-12T16:40:41.000",
    "date_modified": "2022-12-12T16:40:41.000",
    "request_status": "Pending",
    "responsible_agency": "Department of Sanitation",
    "final_address": "2822 Josephine St",
    "address_councildis": "B",
    "status": "Assigned to Contractor",
    "contractor": "Richards Disposal",
    "rowid": "952530",
    "final_x": "3675190.5156",
    "final_y": "527414.419263",
    "longitude": "-90.08813430654506",
    "latitude": "29.944396760726733",
    "geocoded_column": {
      "latitude": "29.944396760726733",
      "longitude": "-90.08813430654506"
    }
  },
  {
    "service_request": "2022-952529",
    "request_type": "Trash/Recycling",
    "request_reason": "Missed Trash Pick-Up",
    "date_created": "2022-12-12T16:39:33.000",
    "date_modified": "2022-12-12T16:39:33.000",
    "request_status": "Pending",
    "responsible_agency": "Department of Sanitation",
    "final_address": "14812 Emory Rd",
    "address_councildis": "E",
    "status": "Assigned to Contractor",
    "contractor": "Waste Pro",
    "rowid": "952529",
    "final_x": "3720679.97145",
    "final_y": "573805.353002",
    "longitude": "-89.94273528792085",
    "latitude": "30.070515856547193",
    "geocoded_column": {
      "latitude": "30.070515856547193",
      "longitude": "-89.94273528792085"
    }
  },
  {
    "service_request": "2022-952528",
    "request_type": "Roads/Drainage",
    "request_reason": "Catch Basin - Clogged",
    "date_created": "2022-12-12T16:36:24.000",
    "date_modified": "2022-12-12T16:36:24.000",
    "request_status": "Pending",
    "responsible_agency": "Department of Public Works",
    "final_address": "1750 St Charles Ave",
    "address_councildis": "B",
    "status": "Pending",
    "rowid": "952528",
    "final_x": "3678708.23739",
    "final_y": "524583.7655",
    "longitude": "-90.07712582148702",
    "latitude": "29.93650781826905",
    "geocoded_column": {
      "latitude": "29.93650781826905",
      "longitude": "-90.07712582148702"
    }
  },
  {
    "service_request": "2022-952527",
    "request_type": "Trash/Recycling",
    "request_reason": "MIssed Recycling Pick-Up",
    "date_created": "2022-12-12T16:35:35.000",
    "date_modified": "2022-12-12T16:35:35.000",
    "request_status": "Pending",
    "responsible_agency": "Department of Sanitation",
    "final_address": "408 Diana St",
    "address_councildis": "C",
    "status": "Assigned to Contractor",
    "contractor": "Richards Disposal",
    "rowid": "952527",
    "final_x": "3686697.37046",
    "final_y": "527588.777151",
    "longitude": "-90.05179776866463",
    "latitude": "29.94452733387413",
    "geocoded_column": {
      "latitude": "29.94452733387413",
      "longitude": "-90.05179776866463"
    }
  },
  {
    "service_request": "2022-952526",
    "request_type": "Trash/Recycling",
    "request_reason": "Missed Trash Pick-Up",
    "date_created": "2022-12-12T16:35:22.000",
    "date_modified": "2022-12-12T16:35:23.000",
    "request_status": "Pending",
    "responsible_agency": "Department of Sanitation",
    "final_address": "4921 Freret St",
    "address_councildis": "B",
    "status": "Assigned to Contractor",
    "contractor": "Richards Disposal",
    "rowid": "952526",
    "final_x": "3668976.64756",
    "final_y": "523948.804924",
    "longitude": "-90.10787036542882",
    "latitude": "29.935051654036524",
    "geocoded_column": {
      "latitude": "29.935051654036524",
      "longitude": "-90.10787036542882"
    }
  },
  {
    "service_request": "2022-952525",
    "request_type": "Property Maintenance",
    "request_reason": "Property Maintenance",
    "date_created": "2022-12-12T16:34:27.000",
    "date_modified": "2022-12-12T16:34:27.000",
    "request_status": "Pending",
    "responsible_agency": "Department of Code Enforcement",
    "final_address": "840 Poydras St",
    "address_councildis": "B",
    "status": "Pending",
    "rowid": "952525",
    "final_x": "3679990.1588",
    "final_y": "529463.526337",
    "longitude": "-90.07290928486657",
    "latitude": "29.94988682878874",
    "geocoded_column": {
      "latitude": "29.94988682878874",
      "longitude": "-90.07290928486657"
    }
  },
  {
    "service_request": "2022-952524",
    "request_type": "Safety & Permits",
    "request_reason": "Construction permit",
    "date_created": "2022-12-12T16:34:19.000",
    "date_modified": "2022-12-12T16:34:19.000",
    "request_status": "Pending",
    "responsible_agency": "Department of Code Enforcement",
    "final_address": "12500 N Lake Carmel Dr",
    "address_councildis": "E",
    "status": "Pending",
    "rowid": "952524",
    "final_x": "3715603.30629",
    "final_y": "567744.479268",
    "longitude": "-89.95901368652834",
    "latitude": "30.054019394312334",
    "geocoded_column": {
      "latitude": "30.054019394312334",
      "longitude": "-89.95901368652834"
    }
  },
  {
    "service_request": "2022-952523",
    "request_type": "Abandoned Vehicles",
    "request_reason": "Abandoned/Junk Vehicles",
    "date_created": "2022-12-12T16:30:39.000",
    "date_modified": "2022-12-12T16:30:40.000",
    "request_status": "Pending",
    "responsible_agency": "Department of Public Works",
    "final_address": "330 N Bernadotte St",
    "address_councildis": "A",
    "status": "Pending",
    "rowid": "952523",
    "final_x": "3669498.71162",
    "final_y": "540902.472843",
    "longitude": "-90.1056487517241",
    "latitude": "29.98165327710737",
    "geocoded_column": {
      "latitude": "29.98165327710737",
      "longitude": "-90.1056487517241"
    }
  },
  {
    "service_request": "2022-952522",
    "request_type": "Traffic Signals/Signs/Striping/Streetlights",
    "request_reason": "Street Light Outage/Malfunction",
    "date_created": "2022-12-12T16:28:41.000",
    "date_modified": "2022-12-12T16:28:42.000",
    "request_status": "Pending",
    "responsible_agency": "Department of Public Works",
    "final_address": "740 Carondelet St",
    "address_councildis": "B",
    "status": "Pending",
    "contractor": "Legacy Professional Services",
    "rowid": "952522",
    "final_x": "3680089.35336",
    "final_y": "528317.082752",
    "longitude": "-90.07263590884763",
    "latitude": "29.946731492542803",
    "geocoded_column": {
      "latitude": "29.946731492542803",
      "longitude": "-90.07263590884763"
    }
  },
  {
    "service_request": "2022-952520",
    "request_type": "Traffic Signals/Signs/Striping/Streetlights",
    "request_reason": "Street Light Outage/Malfunction",
    "date_created": "2022-12-12T16:25:00.000",
    "date_modified": "2022-12-12T16:25:01.000",
    "request_status": "Pending",
    "responsible_agency": "Department of Public Works",
    "final_address": "720 Carondelet St",
    "address_councildis": "B",
    "status": "Pending",
    "contractor": "Legacy Professional Services",
    "rowid": "952520",
    "final_x": "3680124.74536",
    "final_y": "528462.003328",
    "longitude": "-90.07251912871052",
    "latitude": "29.947128904867515",
    "geocoded_column": {
      "latitude": "29.947128904867515",
      "longitude": "-90.07251912871052"
    }
  },
  {
    "service_request": "2022-952519",
    "request_type": "Roads/Drainage",
    "request_reason": "Catch Basin - Clogged",
    "date_created": "2022-12-12T16:23:56.000",
    "date_modified": "2022-12-12T16:23:57.000",
    "request_status": "Pending",
    "responsible_agency": "Department of Public Works",
    "final_address": "4346 Paris Ave",
    "address_councildis": "D",
    "status": "Pending",
    "rowid": "952519",
    "final_x": "3679302.12642",
    "final_y": "548498.25013",
    "longitude": "-90.0744213987844",
    "latitude": "30.002246536966055",
    "geocoded_column": {
      "latitude": "30.002246536966055",
      "longitude": "-90.0744213987844"
    }
  },
  {
    "service_request": "2022-952518",
    "request_type": "Trash/Recycling",
    "request_reason": "Order Trash Cart",
    "date_created": "2022-12-12T16:23:48.000",
    "date_modified": "2022-12-12T16:23:48.000",
    "request_status": "Pending",
    "responsible_agency": "Department of Sanitation",
    "final_address": "2801 Memorial Park Dr",
    "address_councildis": "C",
    "status": "Assigned to Contractor",
    "contractor": "Richards Disposal",
    "rowid": "952518",
    "final_x": "3693396.85206",
    "final_y": "520503.756728",
    "longitude": "-90.03089989990372",
    "latitude": "29.924838217467773",
    "geocoded_column": {
      "latitude": "29.924838217467773",
      "longitude": "-90.03089989990372"
    }
  },
  {
    "service_request": "2022-952517",
    "request_type": "Traffic Signals/Signs/Striping/Streetlights",
    "request_reason": "Street Light Outage/Malfunction",
    "date_created": "2022-12-12T16:22:47.000",
    "date_modified": "2022-12-12T16:22:47.000",
    "request_status": "Pending",
    "responsible_agency": "Department of Public Works",
    "final_address": "710 Carondelet St",
    "address_councildis": "B",
    "status": "Pending",
    "contractor": "Legacy Professional Services",
    "rowid": "952517",
    "final_x": "3680136.93077",
    "final_y": "528528.766656",
    "longitude": "-90.07247833525285",
    "latitude": "29.947312112983724",
    "geocoded_column": {
      "latitude": "29.947312112983724",
      "longitude": "-90.07247833525285"
    }
  },
  {
    "service_request": "2022-952516",
    "request_type": "Traffic Signals/Signs/Striping/Streetlights",
    "request_reason": "Street Light Outage/Malfunction",
    "date_created": "2022-12-12T16:20:36.000",
    "date_modified": "2022-12-12T16:20:37.000",
    "request_status": "Pending",
    "responsible_agency": "Department of Public Works",
    "final_address": "852 Carondelet St",
    "address_councildis": "B",
    "status": "Pending",
    "contractor": "Legacy Professional Services",
    "rowid": "952516",
    "final_x": "3679922.64155",
    "final_y": "527631.778175",
    "longitude": "-90.07318607443926",
    "latitude": "29.944852176365224",
    "geocoded_column": {
      "latitude": "29.944852176365224",
      "longitude": "-90.07318607443926"
    }
  },
  {
    "service_request": "2022-952515",
    "request_type": "Property Maintenance",
    "request_reason": "Property Maintenance",
    "date_created": "2022-12-12T16:19:22.000",
    "date_modified": "2022-12-12T16:19:22.000",
    "request_status": "Pending",
    "responsible_agency": "Department of Code Enforcement",
    "final_address": "1806 Desire St",
    "address_councildis": "D",
    "status": "Pending",
    "rowid": "952515",
    "final_x": "3690814.33148",
    "final_y": "538416.555657",
    "longitude": "-90.03841302109154",
    "latitude": "29.97417270115042",
    "geocoded_column": {
      "latitude": "29.97417270115042",
      "longitude": "-90.03841302109154"
    }
  },
  {
    "service_request": "2022-952514",
    "request_type": "Trash/Recycling",
    "request_reason": "Repair Trash Cart",
    "date_created": "2022-12-12T16:18:36.000",
    "date_modified": "2022-12-12T16:18:37.000",
    "request_status": "Pending",
    "responsible_agency": "Department of Sanitation",
    "final_address": "4830 America St",
    "address_councildis": "E",
    "status": "Assigned to Contractor",
    "contractor": "Waste Pro",
    "rowid": "952514",
    "final_x": "3699674.27607",
    "final_y": "554961.723928",
    "longitude": "-90.00982789543713",
    "latitude": "30.019387484251585",
    "geocoded_column": {
      "latitude": "30.019387484251585",
      "longitude": "-90.00982789543713"
    }
  },
  {
    "service_request": "2022-952513",
    "request_type": "Traffic Signals/Signs/Striping/Streetlights",
    "request_reason": "Street Light Outage/Malfunction",
    "date_created": "2022-12-12T16:17:43.000",
    "date_modified": "2022-12-12T16:17:44.000",
    "request_status": "Pending",
    "responsible_agency": "Department of Public Works",
    "final_address": "853 Carondelet St",
    "address_councildis": "B",
    "status": "Pending",
    "contractor": "Legacy Professional Services",
    "rowid": "952513",
    "final_x": "3679856.18786",
    "final_y": "527714.806207",
    "longitude": "-90.0733930063602",
    "latitude": "29.94508248511605",
    "geocoded_column": {
      "latitude": "29.94508248511605",
      "longitude": "-90.0733930063602"
    }
  },
  {
    "service_request": "2022-952512",
    "request_type": "Trash/Recycling",
    "request_reason": "Request a Large Item Pick Up",
    "date_created": "2022-12-12T16:17:26.000",
    "date_modified": "2022-12-12T16:17:27.000",
    "request_status": "Pending",
    "responsible_agency": "Department of Sanitation",
    "final_address": "3916 Iroquois St",
    "address_councildis": "D",
    "status": "Assigned to Contractor",
    "contractor": "IV Waste",
    "rowid": "952512",
    "final_x": "3689118.71075",
    "final_y": "547682.454546",
    "longitude": "-90.04343873813318",
    "latitude": "29.999703186425858",
    "geocoded_column": {
      "latitude": "29.999703186425858",
      "longitude": "-90.04343873813318"
    }
  },
  {
    "service_request": "2022-952511",
    "request_type": "Traffic Signals/Signs/Striping/Streetlights",
    "request_reason": "Street Light Outage/Malfunction",
    "date_created": "2022-12-12T16:12:11.000",
    "date_modified": "2022-12-12T16:12:12.000",
    "request_status": "Pending",
    "responsible_agency": "Department of Public Works",
    "final_address": "845 Carondelet St",
    "address_councildis": "B",
    "status": "Pending",
    "contractor": "Legacy Professional Services",
    "rowid": "952511",
    "final_x": "3679871.06229",
    "final_y": "527775.854719",
    "longitude": "-90.07334392366833",
    "latitude": "29.9452498984131",
    "geocoded_column": {
      "latitude": "29.9452498984131",
      "longitude": "-90.07334392366833"
    }
  },
  {
    "service_request": "2022-952510",
    "request_type": "Trash/Recycling",
    "request_reason": "Replace Recycling Cart",
    "date_created": "2022-12-12T16:11:43.000",
    "date_modified": "2022-12-12T16:11:43.000",
    "request_status": "Pending",
    "responsible_agency": "Department of Sanitation",
    "final_address": "6731 Avenue A",
    "address_councildis": "A",
    "status": "Pending",
    "rowid": "952510",
    "final_x": "3666136.16436",
    "final_y": "552936.320023",
    "longitude": "-90.11586544468672",
    "latitude": "30.014840855168273",
    "geocoded_column": {
      "latitude": "30.014840855168273",
      "longitude": "-90.11586544468672"
    }
  },
  {
    "service_request": "2022-952509",
    "request_type": "Trash/Recycling",
    "request_reason": "Missed Trash Pick-Up",
    "date_created": "2022-12-12T16:10:41.000",
    "date_modified": "2022-12-12T16:10:41.000",
    "request_status": "Pending",
    "responsible_agency": "Department of Sanitation",
    "final_address": "6808 W Coronet Ct",
    "address_councildis": "E",
    "status": "Assigned to Contractor",
    "contractor": "Waste Pro",
    "rowid": "952509",
    "final_x": "3702361.29156",
    "final_y": "557276.188891",
    "longitude": "-90.00125287866251",
    "latitude": "30.02566576037831",
    "geocoded_column": {
      "latitude": "30.02566576037831",
      "longitude": "-90.00125287866251"
    }
  },
  {
    "service_request": "2022-952508",
    "request_type": "Trash/Recycling",
    "request_reason": "MIssed Recycling Pick-Up",
    "date_created": "2022-12-12T16:09:44.000",
    "date_modified": "2022-12-12T16:09:45.000",
    "request_status": "Pending",
    "responsible_agency": "Department of Sanitation",
    "final_address": "1331 Louisiana Ave",
    "address_councildis": "B",
    "status": "Assigned to Contractor",
    "contractor": "Richards Disposal",
    "rowid": "952508",
    "final_x": "3674732.85697",
    "final_y": "520580.112888",
    "longitude": "-90.08981344234653",
    "latitude": "29.92561831222598",
    "geocoded_column": {
      "latitude": "29.92561831222598",
      "longitude": "-90.08981344234653"
    }
  },
  {
    "service_request": "2022-952507",
    "request_type": "Trash/Recycling",
    "request_reason": "Return Trash Cart",
    "date_created": "2022-12-12T16:08:44.000",
    "date_modified": "2022-12-12T16:08:45.000",
    "request_status": "Pending",
    "responsible_agency": "Department of Sanitation",
    "final_address": "1331 Louisiana Ave",
    "address_councildis": "B",
    "status": "Assigned to Contractor",
    "contractor": "Richards Disposal",
    "rowid": "952507",
    "final_x": "3674732.85697",
    "final_y": "520580.112888",
    "longitude": "-90.08981344234653",
    "latitude": "29.92561831222598",
    "geocoded_column": {
      "latitude": "29.92561831222598",
      "longitude": "-90.08981344234653"
    }
  },
  {
    "service_request": "2022-952506",
    "request_type": "Traffic Signals/Signs/Striping/Streetlights",
    "request_reason": "Street Light Outage/Malfunction",
    "date_created": "2022-12-12T16:08:33.000",
    "date_modified": "2022-12-12T16:08:34.000",
    "request_status": "Pending",
    "responsible_agency": "Department of Public Works",
    "final_address": "840 Carondelet St",
    "address_councildis": "B",
    "status": "Pending",
    "contractor": "Legacy Professional Services",
    "rowid": "952506",
    "final_x": "3679967.72501",
    "final_y": "527811.112959",
    "longitude": "-90.07303750460062",
    "latitude": "29.94534392376173",
    "geocoded_column": {
      "latitude": "29.94534392376173",
      "longitude": "-90.07303750460062"
    }
  },
  {
    "service_request": "2022-952505",
    "request_type": "Trash/Recycling",
    "request_reason": "Order Recycling Cart",
    "date_created": "2022-12-12T16:07:43.000",
    "date_modified": "2022-12-12T16:07:44.000",
    "request_status": "Pending",
    "responsible_agency": "Department of Sanitation",
    "final_address": "1331 Louisiana Ave",
    "address_councildis": "B",
    "status": "Pending",
    "rowid": "952505",
    "final_x": "3674732.85697",
    "final_y": "520580.112888",
    "longitude": "-90.08981344234653",
    "latitude": "29.92561831222598",
    "geocoded_column": {
      "latitude": "29.92561831222598",
      "longitude": "-90.08981344234653"
    }
  },
  {
    "service_request": "2022-952504",
    "request_type": "Parks & Parkways",
    "request_reason": "Request Tree Service (Right of Way/Public Property)",
    "date_created": "2022-12-12T16:07:03.000",
    "date_modified": "2022-12-12T16:07:04.000",
    "request_status": "Pending",
    "responsible_agency": "Department of Parks & Parkway",
    "final_address": "8 Chatham Dr",
    "address_councildis": "D",
    "status": "Pending",
    "rowid": "952504",
    "final_x": "3680244.58395",
    "final_y": "550991.399701",
    "longitude": "-90.07135731907728",
    "latitude": "30.009073299855203",
    "geocoded_column": {
      "latitude": "30.009073299855203",
      "longitude": "-90.07135731907728"
    }
  },
  {
    "service_request": "2022-952503",
    "request_type": "Traffic Signals/Signs/Striping/Streetlights",
    "request_reason": "Street Light Outage/Malfunction",
    "date_created": "2022-12-12T16:06:09.000",
    "date_modified": "2022-12-12T16:06:10.000",
    "request_status": "Pending",
    "responsible_agency": "Department of Public Works",
    "final_address": "840 Carondelet St",
    "address_councildis": "B",
    "status": "Pending",
    "contractor": "Legacy Professional Services",
    "rowid": "952503",
    "final_x": "3679967.72501",
    "final_y": "527811.112959",
    "longitude": "-90.07303750460062",
    "latitude": "29.94534392376173",
    "geocoded_column": {
      "latitude": "29.94534392376173",
      "longitude": "-90.07303750460062"
    }
  },
  {
    "service_request": "2022-952502",
    "request_type": "Trash/Recycling",
    "request_reason": "Request a Large Item Pick Up",
    "date_created": "2022-12-12T16:01:28.000",
    "date_modified": "2022-12-12T16:01:28.000",
    "request_status": "Pending",
    "responsible_agency": "Department of Sanitation",
    "final_address": "13529 Trappers Ct",
    "address_councildis": "E",
    "status": "Assigned to Contractor",
    "contractor": "Waste Pro",
    "rowid": "952502",
    "final_x": "3724325.12326",
    "final_y": "569230.80503",
    "longitude": "-89.93138903202025",
    "latitude": "30.05781564684443",
    "geocoded_column": {
      "latitude": "30.05781564684443",
      "longitude": "-89.93138903202025"
    }
  },
  {
    "service_request": "2022-952501",
    "request_type": "Traffic Signals/Signs/Striping/Streetlights",
    "request_reason": "Street Light Outage/Malfunction",
    "date_created": "2022-12-12T15:58:44.000",
    "date_modified": "2022-12-12T15:58:45.000",
    "request_status": "Pending",
    "responsible_agency": "Department of Public Works",
    "final_address": "840 Carondelet St",
    "address_councildis": "B",
    "status": "Pending",
    "contractor": "Legacy Professional Services",
    "rowid": "952501",
    "final_x": "3679967.72501",
    "final_y": "527811.112959",
    "longitude": "-90.07303750460062",
    "latitude": "29.94534392376173",
    "geocoded_column": {
      "latitude": "29.94534392376173",
      "longitude": "-90.07303750460062"
    }
  },
  {
    "service_request": "2022-952500",
    "request_type": "Traffic Signals/Signs/Striping/Streetlights",
    "request_reason": "Street Light Outage/Malfunction",
    "date_created": "2022-12-12T15:56:25.000",
    "date_modified": "2022-12-12T15:56:26.000",
    "request_status": "Pending",
    "responsible_agency": "Department of Public Works",
    "final_address": "811 Carondelet St",
    "address_councildis": "B",
    "status": "Pending",
    "contractor": "Legacy Professional Services",
    "rowid": "952500",
    "final_x": "3679925.26127",
    "final_y": "528007.976959",
    "longitude": "-90.07316474033507",
    "latitude": "29.945886518177876",
    "geocoded_column": {
      "latitude": "29.945886518177876",
      "longitude": "-90.07316474033507"
    }
  },
  {
    "service_request": "2022-952499",
    "request_type": "Traffic Signals/Signs/Striping/Streetlights",
    "request_reason": "Street Light Outage/Malfunction",
    "date_created": "2022-12-12T15:54:50.000",
    "date_modified": "2022-12-12T15:54:51.000",
    "request_status": "Pending",
    "responsible_agency": "Department of Public Works",
    "final_address": "811 Carondelet St",
    "address_councildis": "B",
    "status": "Pending",
    "contractor": "Legacy Professional Services",
    "rowid": "952499",
    "final_x": "3679925.26127",
    "final_y": "528007.976959",
    "longitude": "-90.07316474033507",
    "latitude": "29.945886518177876",
    "geocoded_column": {
      "latitude": "29.945886518177876",
      "longitude": "-90.07316474033507"
    }
  },
  {
    "service_request": "2022-952498",
    "request_type": "Trash/Recycling",
    "request_reason": "Missed Trash Pick-Up",
    "date_created": "2022-12-12T15:54:49.000",
    "date_modified": "2022-12-12T15:54:50.000",
    "request_status": "Pending",
    "responsible_agency": "Department of Sanitation",
    "final_address": "5331 Glouster Rd",
    "address_councildis": "E",
    "status": "Assigned to Contractor",
    "contractor": "Waste Pro",
    "rowid": "952498",
    "final_x": "3707663.80817",
    "final_y": "557739.778203",
    "longitude": "-89.98448056483514",
    "latitude": "30.026769886775323",
    "geocoded_column": {
      "latitude": "30.026769886775323",
      "longitude": "-89.98448056483514"
    }
  },
  {
    "service_request": "2022-952497",
    "request_type": "Traffic Signals/Signs/Striping/Streetlights",
    "request_reason": "Street Light Outage/Malfunction",
    "date_created": "2022-12-12T15:52:19.000",
    "date_modified": "2022-12-12T15:52:20.000",
    "request_status": "Pending",
    "responsible_agency": "Department of Public Works",
    "final_address": "801 Carondelet St",
    "address_councildis": "B",
    "status": "Pending",
    "contractor": "Legacy Professional Services",
    "rowid": "952497",
    "final_x": "3679948.12296",
    "final_y": "528079.049279",
    "longitude": "-90.07309009028124",
    "latitude": "29.946081251945472",
    "geocoded_column": {
      "latitude": "29.946081251945472",
      "longitude": "-90.07309009028124"
    }
  },
  {
    "service_request": "2022-952496",
    "request_type": "Trash/Recycling",
    "request_reason": "Missed Trash Pick-Up",
    "date_created": "2022-12-12T15:49:21.000",
    "date_modified": "2022-12-12T15:49:22.000",
    "request_status": "Pending",
    "responsible_agency": "Department of Sanitation",
    "final_address": "622 N Alexander St",
    "address_councildis": "A",
    "status": "Assigned to Contractor",
    "contractor": "Richards Disposal",
    "rowid": "952496",
    "final_x": "3671238.69972",
    "final_y": "540749.152715",
    "longitude": "-90.10015825391989",
    "latitude": "29.981180323266695",
    "geocoded_column": {
      "latitude": "29.981180323266695",
      "longitude": "-90.10015825391989"
    }
  },
  {
    "service_request": "2022-952495",
    "request_type": "Abandoned Vehicles",
    "request_reason": "Abandoned/Junk Vehicles",
    "date_created": "2022-12-12T15:48:15.000",
    "date_modified": "2022-12-12T15:48:15.000",
    "request_status": "Pending",
    "responsible_agency": "Department of Public Works",
    "final_address": "2615 Toulouse St",
    "address_councildis": "D",
    "status": "Pending",
    "rowid": "952495",
    "final_x": "3676824.27541",
    "final_y": "536390.963847",
    "longitude": "-90.08266670800883",
    "latitude": "29.969030325706395",
    "geocoded_column": {
      "latitude": "29.969030325706395",
      "longitude": "-90.08266670800883"
    }
  },
  {
    "service_request": "2022-952494",
    "request_type": "Traffic Signals/Signs/Striping/Streetlights",
    "request_reason": "Street Light Outage/Malfunction",
    "date_created": "2022-12-12T15:46:11.000",
    "date_modified": "2022-12-12T15:46:12.000",
    "request_status": "Pending",
    "responsible_agency": "Department of Public Works",
    "final_address": "8213 Spruce St",
    "address_councildis": "A",
    "status": "Pending",
    "contractor": "Legacy Professional Services",
    "rowid": "952494",
    "final_x": "3663528.73607",
    "final_y": "530802.628546",
    "longitude": "-90.12484125848994",
    "latitude": "29.954056558718896",
    "geocoded_column": {
      "latitude": "29.954056558718896",
      "longitude": "-90.12484125848994"
    }
  },
  {
    "service_request": "2022-952493",
    "request_type": "Abandoned Vehicles",
    "request_reason": "Abandoned/Junk Vehicles",
    "date_created": "2022-12-12T15:45:37.000",
    "date_modified": "2022-12-12T15:45:38.000",
    "request_status": "Pending",
    "responsible_agency": "Department of Public Works",
    "final_address": "8400 Beechwood Ct",
    "address_councildis": "E",
    "status": "Pending",
    "rowid": "952493",
    "final_x": "3704068.59089",
    "final_y": "560520.140382",
    "longitude": "-89.99573843280497",
    "latitude": "30.034530678607297",
    "geocoded_column": {
      "latitude": "30.034530678607297",
      "longitude": "-89.99573843280497"
    }
  },
  {
    "service_request": "2022-952492",
    "request_type": "Trash/Recycling",
    "request_reason": "Order Recycling Cart",
    "date_created": "2022-12-12T15:45:06.000",
    "date_modified": "2022-12-12T15:45:06.000",
    "request_status": "Pending",
    "responsible_agency": "Department of Sanitation",
    "final_address": "1134 Deslonde St",
    "address_councildis": "E",
    "status": "Pending",
    "rowid": "952492",
    "final_x": "3695367.88784",
    "final_y": "534658.804422",
    "longitude": "-90.02416750428671",
    "latitude": "29.96369794062394",
    "geocoded_column": {
      "latitude": "29.96369794062394",
      "longitude": "-90.02416750428671"
    }
  },
  {
    "service_request": "2022-952491",
    "request_type": "Trash/Recycling",
    "request_reason": "Order Trash Cart",
    "date_created": "2022-12-12T15:44:44.000",
    "date_modified": "2022-12-12T15:44:44.000",
    "request_status": "Pending",
    "responsible_agency": "Department of Sanitation",
    "final_address": "1134 Deslonde St",
    "address_councildis": "E",
    "status": "Assigned to Contractor",
    "contractor": "Waste Pro",
    "rowid": "952491",
    "final_x": "3695367.88784",
    "final_y": "534658.804422",
    "longitude": "-90.02416750428671",
    "latitude": "29.96369794062394",
    "geocoded_column": {
      "latitude": "29.96369794062394",
      "longitude": "-90.02416750428671"
    }
  },
  {
    "service_request": "2022-952490",
    "request_type": "Traffic Signals/Signs/Striping/Streetlights",
    "request_reason": "Street Light Outage/Malfunction",
    "date_created": "2022-12-12T15:44:09.000",
    "date_modified": "2022-12-12T15:44:10.000",
    "request_status": "Pending",
    "responsible_agency": "Department of Public Works",
    "final_address": "750 Julia St",
    "address_councildis": "B",
    "status": "Pending",
    "contractor": "Legacy Professional Services",
    "rowid": "952490",
    "final_x": "3680052.72098",
    "final_y": "528064.491903",
    "longitude": "-90.07276034428773",
    "latitude": "29.94603806036244",
    "geocoded_column": {
      "latitude": "29.94603806036244",
      "longitude": "-90.07276034428773"
    }
  },
  {
    "service_request": "2022-952489",
    "request_type": "Traffic Signals/Signs/Striping/Streetlights",
    "request_reason": "Street Light Outage/Malfunction",
    "date_created": "2022-12-12T15:42:15.000",
    "date_modified": "2022-12-12T15:42:15.000",
    "request_status": "Pending",
    "responsible_agency": "Department of Public Works",
    "final_address": "820 Carondelet St",
    "address_councildis": "B",
    "status": "Pending",
    "contractor": "Legacy Professional Services",
    "rowid": "952489",
    "final_x": "3679995.76213",
    "final_y": "527924.730047",
    "longitude": "-90.07294503663277",
    "latitude": "29.9456554848383",
    "geocoded_column": {
      "latitude": "29.9456554848383",
      "longitude": "-90.07294503663277"
    }
  },
  {
    "service_request": "2022-952488",
    "request_type": "Traffic Signals/Signs/Striping/Streetlights",
    "request_reason": "Street Light Outage/Malfunction",
    "date_created": "2022-12-12T15:40:27.000",
    "date_modified": "2022-12-12T15:40:28.000",
    "request_status": "Pending",
    "responsible_agency": "Department of Public Works",
    "final_address": "516 Baronne St",
    "address_councildis": "B",
    "status": "Pending",
    "contractor": "Legacy Professional Services",
    "rowid": "952488",
    "final_x": "3679920.26415",
    "final_y": "529326.803073",
    "longitude": "-90.07313472238388",
    "latitude": "29.94951299956054",
    "geocoded_column": {
      "latitude": "29.94951299956054",
      "longitude": "-90.07313472238388"
    }
  },
  {
    "service_request": "2022-952487",
    "request_type": "Trash/Recycling",
    "request_reason": "Repair Trash Cart",
    "date_created": "2022-12-12T15:40:25.000",
    "date_modified": "2022-12-12T15:40:26.000",
    "request_status": "Pending",
    "responsible_agency": "Department of Sanitation",
    "final_address": "8719 Fig St",
    "address_councildis": "A",
    "status": "Assigned to Contractor",
    "contractor": "Richards Disposal",
    "rowid": "952487",
    "final_x": "3664633.03136",
    "final_y": "534706.832902",
    "longitude": "-90.12122391796964",
    "latitude": "29.9647597740322",
    "geocoded_column": {
      "latitude": "29.9647597740322",
      "longitude": "-90.12122391796964"
    }
  },
  {
    "service_request": "2022-952486",
    "request_type": "Trash/Recycling",
    "request_reason": "Repair Trash Cart",
    "date_created": "2022-12-12T15:39:44.000",
    "date_modified": "2022-12-12T15:39:44.000",
    "request_status": "Pending",
    "responsible_agency": "Department of Sanitation",
    "final_address": "7111 Whitmore Pl",
    "address_councildis": "E",
    "status": "Assigned to Contractor",
    "contractor": "Waste Pro",
    "rowid": "952486",
    "final_x": "3718825.71493",
    "final_y": "569638.175078",
    "longitude": "-89.94875622762511",
    "latitude": "30.059119607266986",
    "geocoded_column": {
      "latitude": "30.059119607266986",
      "longitude": "-89.94875622762511"
    }
  },
  {
    "service_request": "2022-952485",
    "request_type": "Traffic Signals/Signs/Striping/Streetlights",
    "request_reason": "Street Light Outage/Malfunction",
    "date_created": "2022-12-12T15:38:04.000",
    "date_modified": "2022-12-12T15:38:04.000",
    "request_status": "Pending",
    "responsible_agency": "Department of Public Works",
    "final_address": "515 Baronne St",
    "address_councildis": "B",
    "status": "Pending",
    "contractor": "Legacy Professional Services",
    "rowid": "952485",
    "final_x": "3679856.20546",
    "final_y": "529389.334977",
    "longitude": "-90.07333481337285",
    "latitude": "29.949686878355823",
    "geocoded_column": {
      "latitude": "29.949686878355823",
      "longitude": "-90.07333481337285"
    }
  },
  {
    "service_request": "2022-952484",
    "request_type": "Trash/Recycling",
    "request_reason": "Replace Trash Cart",
    "date_created": "2022-12-12T15:37:07.000",
    "date_modified": "2022-12-12T15:37:08.000",
    "request_status": "Pending",
    "responsible_agency": "Department of Sanitation",
    "final_address": "916 Taft Pl",
    "address_councildis": "A",
    "status": "Assigned to Contractor",
    "contractor": "Richards Disposal",
    "rowid": "952484",
    "final_x": "3673910.52718",
    "final_y": "540182.575755",
    "longitude": "-90.09173879003787",
    "latitude": "29.979543094663043",
    "geocoded_column": {
      "latitude": "29.979543094663043",
      "longitude": "-90.09173879003787"
    }
  },
  {
    "service_request": "2022-952483",
    "request_type": "Trash/Recycling",
    "request_reason": "Repair Trash Cart",
    "date_created": "2022-12-12T15:36:12.000",
    "date_modified": "2022-12-12T15:36:13.000",
    "request_status": "Pending",
    "responsible_agency": "Department of Sanitation",
    "final_address": "4810 Michoud Blvd",
    "address_councildis": "E",
    "status": "Assigned to Contractor",
    "contractor": "Waste Pro",
    "rowid": "952483",
    "final_x": "3725041.93856",
    "final_y": "560588.743134",
    "longitude": "-89.92945797602871",
    "latitude": "30.034029434608236",
    "geocoded_column": {
      "latitude": "30.034029434608236",
      "longitude": "-89.92945797602871"
    }
  },
  {
    "service_request": "2022-952482",
    "request_type": "Traffic Signals/Signs/Striping/Streetlights",
    "request_reason": "Street Light Outage/Malfunction",
    "date_created": "2022-12-12T15:35:22.000",
    "date_modified": "2022-12-12T15:35:22.000",
    "request_status": "Pending",
    "responsible_agency": "Department of Public Works",
    "final_address": "547 Baronne St",
    "address_councildis": "B",
    "status": "Pending",
    "contractor": "Legacy Professional Services",
    "rowid": "952482",
    "final_x": "3679801.53653",
    "final_y": "529192.781888",
    "longitude": "-90.07351425149481",
    "latitude": "29.9491480761366",
    "geocoded_column": {
      "latitude": "29.9491480761366",
      "longitude": "-90.07351425149481"
    }
  },
  {
    "service_request": "2022-952480",
    "request_type": "Trash/Recycling",
    "request_reason": "Order Trash Cart",
    "date_created": "2022-12-12T15:34:31.000",
    "date_modified": "2022-12-12T15:34:31.000",
    "request_status": "Pending",
    "responsible_agency": "Department of Sanitation",
    "final_address": "10917 Morrison Rd",
    "address_councildis": "E",
    "status": "Assigned to Contractor",
    "contractor": "Waste Pro",
    "rowid": "952480",
    "final_x": "3710803.57995",
    "final_y": "564889.135586",
    "longitude": "-89.97429136336312",
    "latitude": "30.046325770165208",
    "geocoded_column": {
      "latitude": "30.046325770165208",
      "longitude": "-89.97429136336312"
    }
  },
  {
    "service_request": "2022-952479",
    "request_type": "Trash/Recycling",
    "request_reason": "Missed Trash Pick-Up",
    "date_created": "2022-12-12T15:34:08.000",
    "date_modified": "2022-12-12T15:34:32.000",
    "request_status": "Pending",
    "responsible_agency": "Department of Sanitation",
    "final_address": "4938 Wright Rd",
    "address_councildis": "E",
    "status": "Assigned to Contractor",
    "contractor": "Waste Pro",
    "rowid": "952479",
    "final_x": "3716482.67871",
    "final_y": "557847.070875",
    "longitude": "-89.95661010049872",
    "latitude": "30.0267765024358",
    "geocoded_column": {
      "latitude": "30.0267765024358",
      "longitude": "-89.95661010049872"
    }
  },
  {
    "service_request": "2022-952478",
    "request_type": "Trash/Recycling",
    "request_reason": "Order Recycling Cart",
    "date_created": "2022-12-12T15:34:06.000",
    "date_modified": "2022-12-12T15:34:07.000",
    "request_status": "Pending",
    "responsible_agency": "Department of Sanitation",
    "final_address": "10917 Morrison Rd",
    "address_councildis": "E",
    "status": "Pending",
    "rowid": "952478",
    "final_x": "3710803.57995",
    "final_y": "564889.135586",
    "longitude": "-89.97429136336312",
    "latitude": "30.046325770165208",
    "geocoded_column": {
      "latitude": "30.046325770165208",
      "longitude": "-89.97429136336312"
    }
  },
  {
    "service_request": "2022-952477",
    "request_type": "Trash/Recycling",
    "request_reason": "Missed Trash Pick-Up",
    "date_created": "2022-12-12T15:32:59.000",
    "date_modified": "2022-12-12T15:32:59.000",
    "request_status": "Pending",
    "responsible_agency": "Department of Sanitation",
    "final_address": "1625 Nashville Ave",
    "address_councildis": "A",
    "status": "Assigned to Contractor",
    "contractor": "Richards Disposal",
    "rowid": "952477",
    "final_x": "3666376.67354",
    "final_y": "522384.303866",
    "longitude": "-90.11613096431026",
    "latitude": "29.930825976550093",
    "geocoded_column": {
      "latitude": "29.930825976550093",
      "longitude": "-90.11613096431026"
    }
  },
  {
    "service_request": "2022-952476",
    "request_type": "Traffic Signals/Signs/Striping/Streetlights",
    "request_reason": "Street Light Outage/Malfunction",
    "date_created": "2022-12-12T15:32:25.000",
    "date_modified": "2022-12-12T15:32:26.000",
    "request_status": "Pending",
    "responsible_agency": "Department of Public Works",
    "final_address": "528 Baronne St",
    "address_councildis": "B",
    "status": "Pending",
    "contractor": "Legacy Professional Services",
    "rowid": "952476",
    "final_x": "3679899.60635",
    "final_y": "529242.042369",
    "longitude": "-90.07320289157151",
    "latitude": "29.949280560749422",
    "geocoded_column": {
      "latitude": "29.949280560749422",
      "longitude": "-90.07320289157151"
    }
  },
  {
    "service_request": "2022-952474",
    "request_type": "Trash/Recycling",
    "request_reason": "Missed Trash Pick-Up",
    "date_created": "2022-12-12T15:32:14.000",
    "date_modified": "2022-12-12T15:32:15.000",
    "request_status": "Pending",
    "responsible_agency": "Department of Sanitation",
    "final_address": "10917 Morrison Rd",
    "address_councildis": "E",
    "status": "Assigned to Contractor",
    "contractor": "Waste Pro",
    "rowid": "952474",
    "final_x": "3710803.57995",
    "final_y": "564889.135586",
    "longitude": "-89.97429136336312",
    "latitude": "30.046325770165208",
    "geocoded_column": {
      "latitude": "30.046325770165208",
      "longitude": "-89.97429136336312"
    }
  },
  {
    "service_request": "2022-952473",
    "request_type": "Trash/Recycling",
    "request_reason": "Order Recycling Cart",
    "date_created": "2022-12-12T15:31:10.000",
    "date_modified": "2022-12-12T15:31:11.000",
    "request_status": "Pending",
    "responsible_agency": "Department of Sanitation",
    "final_address": "5622 Ada Pl",
    "address_councildis": "A",
    "status": "Pending",
    "rowid": "952473",
    "final_x": "3668573.40878",
    "final_y": "544833.118543",
    "longitude": "-90.1084385865713",
    "latitude": "29.992488440066797",
    "geocoded_column": {
      "latitude": "29.992488440066797",
      "longitude": "-90.1084385865713"
    }
  },
  {
    "service_request": "2022-952472",
    "request_type": "Traffic Signals/Signs/Striping/Streetlights",
    "request_reason": "Street Light Outage/Malfunction",
    "date_created": "2022-12-12T15:29:31.000",
    "date_modified": "2022-12-12T15:29:32.000",
    "request_status": "Pending",
    "responsible_agency": "Department of Public Works",
    "final_address": "550 Baronne St",
    "address_councildis": "B",
    "status": "Pending",
    "contractor": "Legacy Professional Services",
    "rowid": "952472",
    "final_x": "3679871.27515",
    "final_y": "529133.143296",
    "longitude": "-90.07329612681656",
    "latitude": "29.948981981496516",
    "geocoded_column": {
      "latitude": "29.948981981496516",
      "longitude": "-90.07329612681656"
    }
  },
  {
    "service_request": "2022-952470",
    "request_type": "Trash/Recycling",
    "request_reason": "Repair Trash Cart",
    "date_created": "2022-12-12T15:27:20.000",
    "date_modified": "2022-12-12T15:27:21.000",
    "request_status": "Pending",
    "responsible_agency": "Department of Sanitation",
    "final_address": "4741 St Anthony Ave",
    "address_councildis": "D",
    "status": "Assigned to Contractor",
    "contractor": "IV Waste",
    "rowid": "952470",
    "final_x": "3682479.86012",
    "final_y": "550147.297108",
    "longitude": "-90.06432487206015",
    "latitude": "30.006684441657036",
    "geocoded_column": {
      "latitude": "30.006684441657036",
      "longitude": "-90.06432487206015"
    }
  },
  {
    "service_request": "2022-952469",
    "request_type": "Traffic Signals/Signs/Striping/Streetlights",
    "request_reason": "Street Light Outage/Malfunction",
    "date_created": "2022-12-12T15:26:42.000",
    "date_modified": "2022-12-12T15:26:42.000",
    "request_status": "Pending",
    "responsible_agency": "Department of Public Works",
    "final_address": "547 Baronne St",
    "address_councildis": "B",
    "status": "Pending",
    "contractor": "Legacy Professional Services",
    "rowid": "952469",
    "final_x": "3679801.53653",
    "final_y": "529192.781888",
    "longitude": "-90.07351425149481",
    "latitude": "29.9491480761366",
    "geocoded_column": {
      "latitude": "29.9491480761366",
      "longitude": "-90.07351425149481"
    }
  },
  {
    "service_request": "2022-952468",
    "request_type": "Traffic Signals/Signs/Striping/Streetlights",
    "request_reason": "Street Light Outage/Malfunction",
    "date_created": "2022-12-12T15:25:19.000",
    "date_modified": "2022-12-12T15:25:20.000",
    "request_status": "Pending",
    "responsible_agency": "Department of Public Works",
    "final_address": "550 Baronne St",
    "address_councildis": "B",
    "status": "Pending",
    "contractor": "Legacy Professional Services",
    "rowid": "952468",
    "final_x": "3679871.27515",
    "final_y": "529133.143296",
    "longitude": "-90.07329612681656",
    "latitude": "29.948981981496516",
    "geocoded_column": {
      "latitude": "29.948981981496516",
      "longitude": "-90.07329612681656"
    }
  },
  {
    "service_request": "2022-952467",
    "request_type": "Trash/Recycling",
    "request_reason": "Missed Trash Pick-Up",
    "date_created": "2022-12-12T15:24:04.000",
    "date_modified": "2022-12-12T15:24:05.000",
    "request_status": "Pending",
    "responsible_agency": "Department of Sanitation",
    "final_address": "13645 N Cavelier Dr",
    "address_councildis": "E",
    "status": "Assigned to Contractor",
    "contractor": "Waste Pro",
    "rowid": "952467",
    "final_x": "3723904.64383",
    "final_y": "569962.809446",
    "longitude": "-89.9326898154814",
    "latitude": "30.059842490004534",
    "geocoded_column": {
      "latitude": "30.059842490004534",
      "longitude": "-89.9326898154814"
    }
  },
  {
    "service_request": "2022-952466",
    "request_type": "Traffic Signals/Signs/Striping/Streetlights",
    "request_reason": "Street Light Outage/Malfunction",
    "date_created": "2022-12-12T15:22:22.000",
    "date_modified": "2022-12-12T15:22:22.000",
    "request_status": "Pending",
    "responsible_agency": "Department of Public Works",
    "final_address": "549 Baronne St",
    "address_councildis": "B",
    "status": "Pending",
    "contractor": "Legacy Professional Services",
    "rowid": "952466",
    "final_x": "3679796.76456",
    "final_y": "529153.082176",
    "longitude": "-90.07353069685988",
    "latitude": "29.949039059501192",
    "geocoded_column": {
      "latitude": "29.949039059501192",
      "longitude": "-90.07353069685988"
    }
  },
  {
    "service_request": "2022-952465",
    "request_type": "Traffic Signals/Signs/Striping/Streetlights",
    "request_reason": "Street Light Outage/Malfunction",
    "date_created": "2022-12-12T15:20:27.000",
    "date_modified": "2022-12-12T15:20:28.000",
    "request_status": "Pending",
    "responsible_agency": "Department of Public Works",
    "final_address": "604 Baronne St",
    "address_councildis": "B",
    "status": "Pending",
    "contractor": "Legacy Professional Services",
    "rowid": "952465",
    "final_x": "3679848.20885",
    "final_y": "529044.463616",
    "longitude": "-90.07337203598827",
    "latitude": "29.948738839536052",
    "geocoded_column": {
      "latitude": "29.948738839536052",
      "longitude": "-90.07337203598827"
    }
  },
  {
    "service_request": "2022-952464",
    "request_type": "Traffic Signals/Signs/Striping/Streetlights",
    "request_reason": "Street Light Outage/Malfunction",
    "date_created": "2022-12-12T15:17:58.000",
    "date_modified": "2022-12-12T15:17:58.000",
    "request_status": "Pending",
    "responsible_agency": "Department of Public Works",
    "final_address": "601 Baronne St",
    "address_councildis": "B",
    "status": "Pending",
    "contractor": "Legacy Professional Services",
    "rowid": "952464",
    "final_x": "3679760.58722",
    "final_y": "529044.63296",
    "longitude": "-90.07364868888699",
    "latitude": "29.948741954142083",
    "geocoded_column": {
      "latitude": "29.948741954142083",
      "longitude": "-90.07364868888699"
    }
  },
  {
    "service_request": "2022-952463",
    "request_type": "Traffic Signals/Signs/Striping/Streetlights",
    "request_reason": "Street Light Outage/Malfunction",
    "date_created": "2022-12-12T15:16:37.000",
    "date_modified": "2022-12-12T15:16:38.000",
    "request_status": "Pending",
    "responsible_agency": "Department of Public Works",
    "final_address": "608 Baronne St",
    "address_councildis": "B",
    "status": "Pending",
    "contractor": "Legacy Professional Services",
    "rowid": "952463",
    "final_x": "3679842.42555",
    "final_y": "529022.00832",
    "longitude": "-90.07339107593909",
    "latitude": "29.948677269855132",
    "geocoded_column": {
      "latitude": "29.948677269855132",
      "longitude": "-90.07339107593909"
    }
  },
  {
    "service_request": "2022-952462",
    "request_type": "Trash/Recycling",
    "request_reason": "Missed Trash Pick-Up",
    "date_created": "2022-12-12T15:16:05.000",
    "date_modified": "2022-12-12T15:16:05.000",
    "request_status": "Pending",
    "responsible_agency": "Department of Sanitation",
    "final_address": "2724 Burdette St",
    "address_councildis": "A",
    "status": "Assigned to Contractor",
    "contractor": "Richards Disposal",
    "rowid": "952462",
    "final_x": "3666481.44749",
    "final_y": "531812.065923",
    "longitude": "-90.11548388118194",
    "latitude": "29.9567462224267",
    "geocoded_column": {
      "latitude": "29.9567462224267",
      "longitude": "-90.11548388118194"
    }
  },
  {
    "service_request": "2022-952461",
    "request_type": "Traffic Signals/Signs/Striping/Streetlights",
    "request_reason": "Street Light Outage/Malfunction",
    "date_created": "2022-12-12T15:14:00.000",
    "date_modified": "2022-12-12T15:14:01.000",
    "request_status": "Pending",
    "responsible_agency": "Department of Public Works",
    "final_address": "622 Baronne St",
    "address_councildis": "B",
    "status": "Pending",
    "contractor": "Legacy Professional Services",
    "rowid": "952461",
    "final_x": "3679813.14779",
    "final_y": "528906.218688",
    "longitude": "-90.07348753794935",
    "latitude": "29.948359772332065",
    "geocoded_column": {
      "latitude": "29.948359772332065",
      "longitude": "-90.07348753794935"
    }
  },
  {
    "service_request": "2022-952460",
    "request_type": "Traffic Signals/Signs/Striping/Streetlights",
    "request_reason": "Street Light Outage/Malfunction",
    "date_created": "2022-12-12T15:11:36.000",
    "date_modified": "2022-12-12T15:11:37.000",
    "request_status": "Pending",
    "responsible_agency": "Department of Public Works",
    "final_address": "615 Baronne St",
    "address_councildis": "B",
    "status": "Pending",
    "contractor": "Legacy Professional Services",
    "rowid": "952460",
    "final_x": "3679750.32725",
    "final_y": "528990.581632",
    "longitude": "-90.07368296012069",
    "latitude": "29.948593641238705",
    "geocoded_column": {
      "latitude": "29.948593641238705",
      "longitude": "-90.07368296012069"
    }
  },
  {
    "service_request": "2022-952459",
    "request_type": "Abandoned Vehicles",
    "request_reason": "Abandoned/Junk Vehicles",
    "date_created": "2022-12-12T15:11:21.000",
    "date_modified": "2022-12-12T15:11:21.000",
    "request_status": "Pending",
    "responsible_agency": "Department of Public Works",
    "final_address": "1303 Governor Nicholls St",
    "address_councildis": "C",
    "status": "Pending",
    "rowid": "952459",
    "final_x": "3681927.42216",
    "final_y": "535360.707078",
    "longitude": "-90.06658660503597",
    "latitude": "29.96604333128292",
    "geocoded_column": {
      "latitude": "29.96604333128292",
      "longitude": "-90.06658660503597"
    }
  },
  {
    "service_request": "2022-952458",
    "request_type": "Trash/Recycling",
    "request_reason": "Order Trash Cart",
    "date_created": "2022-12-12T15:11:16.000",
    "date_modified": "2022-12-12T15:11:16.000",
    "request_status": "Pending",
    "responsible_agency": "Department of Sanitation",
    "final_address": "1704 Frenchmen St",
    "address_councildis": "D",
    "status": "Assigned to Contractor",
    "contractor": "IV Waste",
    "rowid": "952458",
    "final_x": "3684377.68066",
    "final_y": "538545.761417",
    "longitude": "-90.05873687999602",
    "latitude": "29.974726414273828",
    "geocoded_column": {
      "latitude": "29.974726414273828",
      "longitude": "-90.05873687999602"
    }
  },
  {
    "service_request": "2022-952457",
    "request_type": "Roads/Drainage",
    "request_reason": "Damaged Sidewalk",
    "date_created": "2022-12-12T15:09:49.000",
    "date_modified": "2022-12-12T15:09:49.000",
    "request_status": "Pending",
    "responsible_agency": "Department of Public Works",
    "final_address": "624 St Roch Ave",
    "address_councildis": "C",
    "status": "Pending",
    "rowid": "952457",
    "final_x": "3686593.33423",
    "final_y": "534847.352646",
    "longitude": "-90.05186994113276",
    "latitude": "29.964489125751367",
    "geocoded_column": {
      "latitude": "29.964489125751367",
      "longitude": "-90.05186994113276"
    }
  },
  {
    "service_request": "2022-952456",
    "request_type": "Trash/Recycling",
    "request_reason": "MIssed Recycling Pick-Up",
    "date_created": "2022-12-12T15:09:46.000",
    "date_modified": "2022-12-12T15:09:47.000",
    "request_status": "Pending",
    "responsible_agency": "Department of Sanitation",
    "final_address": "2420 Pine St",
    "address_councildis": "A",
    "status": "Assigned to Contractor",
    "contractor": "Richards Disposal",
    "rowid": "952456",
    "final_x": "3666432.46957",
    "final_y": "530549.881794",
    "longitude": "-90.11568089195933",
    "latitude": "29.953277059479298",
    "geocoded_column": {
      "latitude": "29.953277059479298",
      "longitude": "-90.11568089195933"
    }
  },
  {
    "service_request": "2022-952455",
    "request_type": "Traffic Signals/Signs/Striping/Streetlights",
    "request_reason": "Street Light Outage/Malfunction",
    "date_created": "2022-12-12T15:08:27.000",
    "date_modified": "2022-12-12T15:08:27.000",
    "request_status": "Pending",
    "responsible_agency": "Department of Public Works",
    "final_address": "638 Baronne St",
    "address_councildis": "B",
    "status": "Pending",
    "contractor": "Legacy Professional Services",
    "rowid": "952455",
    "final_x": "3679781.96514",
    "final_y": "528780.472576",
    "longitude": "-90.07359035946813",
    "latitude": "29.94801495532301",
    "geocoded_column": {
      "latitude": "29.94801495532301",
      "longitude": "-90.07359035946813"
    }
  },