[
  {
    "service_request": "2026-1298174",
    "request_type": "Trash/Recycling",
    "request_reason": "Missed Trash Pick-Up",
    "date_created": "2026-07-08T23:45:28.000",
    "date_modified": "2026-07-08T23:45:30.000",
    "request_status": "Pending",
    "responsible_agency": "Department of Sanitation",
    "final_address": "4438 Lancelot Dr, New Orleans, Louisiana, 70127",
    "address_councildis": "E",
    "status": "Assigned to Contractor",
    "contractor": "Waste Pro",
    "rowid": "1298174",
    "final_x": "3707537.87627",
    "final_y": "553819.649431",
    "longitude": "-89.98502425273327",
    "latitude": "30.015995131908348",
    "geocoded_column": {
      "latitude": "30.015995131908348",
      "longitude": "-89.98502425273327"
    }
  },
  {
    "service_request": "2026-1298173",
    "request_type": "Health Related Request",
    "request_reason": "Noise Ordinance Complaint",
    "date_created": "2026-07-08T23:45:04.000",
    "date_modified": "2026-07-08T23:45:07.000",
    "request_status": "Pending",
    "responsible_agency": "Health Department",
    "final_address": "1535 Port St",
    "address_councildis": "C",
    "status": "Pending",
    "rowid": "1298173",
    "final_x": "3687917.45225",
    "final_y": "538185.675337",
    "longitude": "-90.04757019257639",
    "latitude": "29.97362756100885",
    "geocoded_column": {
      "latitude": "29.97362756100885",
      "longitude": "-90.04757019257639"
    }
  },
  {
    "service_request": "2026-1298172",
    "request_type": "Streetlights",
    "request_reason": "Streetlight Outage/Malfunction",
    "date_created": "2026-07-08T22:50:11.000",
    "date_modified": "2026-07-08T22:50:13.000",
    "request_status": "Pending",
    "responsible_agency": "Department of Public Works",
    "final_address": "PRESSBURG ST & ROBIN HOOD DR",
    "address_councildis": "E",
    "status": "Pending",
    "rowid": "1298172",
    "final_x": "3717434.7",
    "final_y": "557608.98",
    "longitude": "-89.95361090688995",
    "latitude": "30.026090361803245",
    "geocoded_column": {
      "latitude": "30.026090361803245",
      "longitude": "-89.95361090688995"
    }
  },
  {
    "service_request": "2026-1298171",
    "request_type": "Trash/Recycling",
    "request_reason": "Replace Trash Cart",
    "date_created": "2026-07-08T22:46:41.000",
    "date_modified": "2026-07-08T22:46:45.000",
    "request_status": "Pending",
    "responsible_agency": "Department of Sanitation",
    "final_address": "7637 Jonlee Dr",
    "address_councildis": "E",
    "status": "Assigned to Contractor",
    "contractor": "Waste Pro",
    "rowid": "1298171",
    "final_x": "3717114.08824",
    "final_y": "570632.495591",
    "longitude": "-89.9541286505246",
    "latitude": "30.061910333380087",
    "geocoded_column": {
      "latitude": "30.061910333380087",
      "longitude": "-89.9541286505246"
    }
  },
  {
    "service_request": "2026-1298170",
    "request_type": "Mosquito, Termite & Rodent Control",
    "request_reason": "Mosquito Complaint",
    "date_created": "2026-07-08T22:23:29.000",
    "date_modified": "2026-07-08T22:23:31.000",
    "request_status": "Pending",
    "responsible_agency": "Mosquito, Termite & Rodent Control Board",
    "final_address": "41 Sullivan Pl",
    "address_councildis": "C",
    "status": "Pending",
    "rowid": "1298170",
    "final_x": "3702093.01591",
    "final_y": "521905.357562",
    "longitude": "-90.00339782206102",
    "latitude": "29.928417476829352",
    "geocoded_column": {
      "latitude": "29.928417476829352",
      "longitude": "-90.00339782206102"
    }
  },
  {
    "service_request": "2026-1298169",
    "request_type": "Trash/Recycling",
    "request_reason": "Request a Large Item Pick Up",
    "date_created": "2026-07-08T22:23:16.000",
    "date_modified": "2026-07-08T22:23:18.000",
    "request_status": "Pending",
    "responsible_agency": "Department of Sanitation",
    "final_address": "1110 Marigny St",
    "address_councildis": "C",
    "status": "Assigned to Contractor",
    "contractor": "IV Waste",
    "rowid": "1298169",
    "final_x": "3685377.2006",
    "final_y": "536512.459655",
    "longitude": "-90.05565175905825",
    "latitude": "29.969104934082246",
    "geocoded_column": {
      "latitude": "29.969104934082246",
      "longitude": "-90.05565175905825"
    }
  },
  {
    "service_request": "2026-1298168",
    "request_type": "Trash/Recycling",
    "request_reason": "Request a Large Item Pick Up",
    "date_created": "2026-07-08T22:13:30.000",
    "date_modified": "2026-07-08T22:13:31.000",
    "request_status": "Pending",
    "responsible_agency": "Department of Sanitation",
    "final_address": "41 Sullivan Pl",
    "address_councildis": "C",
    "status": "Assigned to Contractor",
    "contractor": "Richards Disposal",
    "rowid": "1298168",
    "final_x": "3702093.01591",
    "final_y": "521905.357562",
    "longitude": "-90.00339782206102",
    "latitude": "29.928417476829352",
    "geocoded_column": {
      "latitude": "29.928417476829352",
      "longitude": "-90.00339782206102"
    }
  },
  {
    "service_request": "2026-1298167",
    "request_type": "Property Maintenance",
    "request_reason": "Property Maintenance",
    "date_created": "2026-07-08T22:12:43.000",
    "date_modified": "2026-07-08T22:12:46.000",
    "request_status": "Pending",
    "responsible_agency": "Department of Code Enforcement",
    "final_address": "2535 Mendez St",
    "address_councildis": "D",
    "status": "Pending",
    "rowid": "1298167",
    "final_x": "3686322.54914",
    "final_y": "553663.273687",
    "longitude": "-90.05206063560767",
    "latitude": "30.016234513362157",
    "geocoded_column": {
      "latitude": "30.016234513362157",
      "longitude": "-90.05206063560767"
    }
  },
  {
    "service_request": "2026-1298166",
    "request_type": "Trash/Recycling",
    "request_reason": "Request a Large Item Pick Up",
    "date_created": "2026-07-08T21:52:15.000",
    "date_modified": "2026-07-08T21:52:18.000",
    "request_status": "Pending",
    "responsible_agency": "Department of Sanitation",
    "final_address": "3766 Virgil Blvd",
    "address_councildis": "D",
    "status": "Assigned to Contractor",
    "contractor": "IV Waste",
    "rowid": "1298166",
    "final_x": "3680692.75343",
    "final_y": "546363.828752",
    "longitude": "-90.07010258029695",
    "latitude": "29.99633555416349",
    "geocoded_column": {
      "latitude": "29.99633555416349",
      "longitude": "-90.07010258029695"
    }
  },
  {
    "service_request": "2026-1298165",
    "request_type": "Property Maintenance",
    "request_reason": "Property Maintenance",
    "date_created": "2026-07-08T21:43:52.000",
    "date_modified": "2026-07-08T21:43:55.000",
    "request_status": "Pending",
    "responsible_agency": "Department of Code Enforcement",
    "final_address": "1518 Port St",
    "address_councildis": "C",
    "status": "Pending",
    "rowid": "1298165",
    "final_x": "3687804.51535",
    "final_y": "538030.030985",
    "longitude": "-90.04793238478706",
    "latitude": "29.97320307783298",
    "geocoded_column": {
      "latitude": "29.97320307783298",
      "longitude": "-90.04793238478706"
    }
  },
  {
    "service_request": "2026-1298164",
    "request_type": "Trash/Recycling",
    "request_reason": "Replace Trash Cart",
    "date_created": "2026-07-08T21:38:39.000",
    "date_modified": "2026-07-08T21:38:40.000",
    "request_status": "Pending",
    "responsible_agency": "Department of Sanitation",
    "final_address": "8518 Pear St",
    "address_councildis": "A",
    "status": "Assigned to Contractor",
    "contractor": "IV Waste",
    "rowid": "1298164",
    "final_x": "3667866.24993",
    "final_y": "537348.687496",
    "longitude": "-90.11092459271218",
    "latitude": "29.971929554518308",
    "geocoded_column": {
      "latitude": "29.971929554518308",
      "longitude": "-90.11092459271218"
    }
  },
  {
    "service_request": "2026-1298163",
    "request_type": "Property Maintenance",
    "request_reason": "Property Maintenance",
    "date_created": "2026-07-08T21:36:58.000",
    "date_modified": "2026-07-08T21:37:01.000",
    "request_status": "Pending",
    "responsible_agency": "Department of Code Enforcement",
    "final_address": "7770 Lincoln Beach Blvd",
    "address_councildis": "E",
    "status": "Pending",
    "rowid": "1298163",
    "final_x": "3700682.36324",
    "final_y": "562250.090719",
    "longitude": "-90.00637601367212",
    "latitude": "30.039395623365934",
    "geocoded_column": {
      "latitude": "30.039395623365934",
      "longitude": "-90.00637601367212"
    }
  },
  {
    "service_request": "2026-1298162",
    "request_type": "Abandoned Vehicles",
    "request_reason": "Abandoned/Junk Vehicles",
    "date_created": "2026-07-08T21:30:19.000",
    "date_modified": "2026-07-08T21:30:21.000",
    "request_status": "Pending",
    "responsible_agency": "Department of Public Works",
    "final_address": "1413 Arts St",
    "address_councildis": "C",
    "status": "Pending",
    "rowid": "1298162",
    "final_x": "3687144.05583",
    "final_y": "537704.1346",
    "longitude": "-90.0500297703778",
    "latitude": "29.97232733273385",
    "geocoded_column": {
      "latitude": "29.97232733273385",
      "longitude": "-90.0500297703778"
    }
  },
  {
    "service_request": "2026-1298161",
    "request_type": "Health Related Request",
    "request_reason": "Noise Ordinance Complaint",
    "date_created": "2026-07-08T21:29:35.000",
    "date_modified": "2026-07-08T21:29:39.000",
    "request_status": "Pending",
    "responsible_agency": "Health Department",
    "final_address": "1535 Port St",
    "address_councildis": "C",
    "status": "Pending",
    "rowid": "1298161",
    "final_x": "3687917.45225",
    "final_y": "538185.675337",
    "longitude": "-90.04757019257639",
    "latitude": "29.97362756100885",
    "geocoded_column": {
      "latitude": "29.97362756100885",
      "longitude": "-90.04757019257639"
    }
  },
  {
    "service_request": "2026-1298160",
    "request_type": "Streetlights",
    "request_reason": "Streetlight Outage/Malfunction",
    "date_created": "2026-07-08T21:19:06.000",
    "date_modified": "2026-07-08T21:19:08.000",
    "request_status": "Pending",
    "responsible_agency": "Department of Public Works",
    "final_address": "JACKSON AVE & ST CHARLES AVE",
    "address_councildis": "B",
    "status": "Pending",
    "rowid": "1298160",
    "final_x": "3677648.1",
    "final_y": "523681.88",
    "longitude": "-90.0805038498314",
    "latitude": "29.934059844695582",
    "geocoded_column": {
      "latitude": "29.934059844695582",
      "longitude": "-90.0805038498314"
    }
  },
  {
    "service_request": "2026-1298159",
    "request_type": "Roads and Streets",
    "request_reason": "Pothole",
    "date_created": "2026-07-08T21:18:58.000",
    "date_modified": "2026-07-08T21:19:01.000",
    "request_status": "Pending",
    "responsible_agency": "Department of Public Works",
    "final_address": "124 City Park Ave",
    "address_councildis": "A",
    "status": "Pending",
    "rowid": "1298159",
    "final_x": "3667708.96186",
    "final_y": "540840.634635",
    "longitude": "-90.1113037210702",
    "latitude": "29.981535848569045",
    "geocoded_column": {
      "latitude": "29.981535848569045",
      "longitude": "-90.1113037210702"
    }
  },
  {
    "service_request": "2026-1298158",
    "request_type": "Trash/Recycling",
    "request_reason": "Missed Trash Pick-Up",
    "date_created": "2026-07-08T21:13:04.000",
    "date_modified": "2026-07-08T21:13:06.000",
    "request_status": "Pending",
    "responsible_agency": "Department of Sanitation",
    "final_address": "2716 Lowerline St",
    "address_councildis": "A",
    "status": "Assigned to Contractor",
    "contractor": "IV Waste",
    "rowid": "1298158",
    "final_x": "3666764.17581",
    "final_y": "531504.699843",
    "longitude": "-90.11460143552313",
    "latitude": "29.955892800639603",
    "geocoded_column": {
      "latitude": "29.955892800639603",
      "longitude": "-90.11460143552313"
    }
  },
  {
    "service_request": "2026-1298157",
    "request_type": "Parks & Grass Service",
    "request_reason": "Request Grass Cutting Service (City Owned Property)",
    "date_created": "2026-07-08T21:09:06.000",
    "date_modified": "2026-07-08T21:09:08.000",
    "request_status": "Pending",
    "responsible_agency": "Department of Parks & Parkways",
    "final_address": "5304 Constance St",
    "address_councildis": "B",
    "status": "Pending",
    "rowid": "1298157",
    "final_x": "3667373.36916",
    "final_y": "518234.999094",
    "longitude": "-90.11312401454461",
    "latitude": "29.919387550174335",
    "geocoded_column": {
      "latitude": "29.919387550174335",
      "longitude": "-90.11312401454461"
    }
  },
  {
    "service_request": "2026-1298156",
    "request_type": "Abandoned Vehicles",
    "request_reason": "Abandoned/Junk Vehicles",
    "date_created": "2026-07-08T21:06:00.000",
    "date_modified": "2026-07-08T21:06:02.000",
    "request_status": "Pending",
    "responsible_agency": "Department of Public Works",
    "final_address": "428 Soraparu St",
    "address_councildis": "B",
    "status": "Pending",
    "rowid": "1298156",
    "final_x": "3679726.91355",
    "final_y": "519586.3054",
    "longitude": "-90.07408320859095",
    "latitude": "29.922735694525713",
    "geocoded_column": {
      "latitude": "29.922735694525713",
      "longitude": "-90.07408320859095"
    }
  },
  {
    "service_request": "2026-1298155",
    "request_type": "Trash/Recycling",
    "request_reason": "Request a Large Item Pick Up",
    "date_created": "2026-07-08T20:57:51.000",
    "date_modified": "2026-07-08T20:57:54.000",
    "request_status": "Pending",
    "responsible_agency": "Department of Sanitation",
    "final_address": "4200 S Johnson St",
    "address_councildis": "B",
    "status": "Assigned to Contractor",
    "contractor": "IV Waste",
    "rowid": "1298155",
    "final_x": "3670924.46151",
    "final_y": "527240.394879",
    "longitude": "-90.10160941087133",
    "latitude": "29.944045034904434",
    "geocoded_column": {
      "latitude": "29.944045034904434",
      "longitude": "-90.10160941087133"
    }
  },
  {
    "service_request": "2026-1298154",
    "request_type": "Trash/Recycling",
    "request_reason": "Repair Recycling Cart",
    "date_created": "2026-07-08T20:47:34.000",
    "date_modified": "2026-07-08T20:47:36.000",
    "request_status": "Pending",
    "responsible_agency": "Department of Sanitation",
    "final_address": "4301 S Prieur St",
    "address_councildis": "B",
    "status": "Pending",
    "rowid": "1298154",
    "final_x": "3670599.93217",
    "final_y": "526983.27475",
    "longitude": "-90.10264276188241",
    "latitude": "29.943347626605007",
    "geocoded_column": {
      "latitude": "29.943347626605007",
      "longitude": "-90.10264276188241"
    }
  },
  {
    "service_request": "2026-1298153",
    "request_type": "General Services",
    "request_reason": "General Service Request",
    "date_created": "2026-07-08T20:45:03.000",
    "date_modified": "2026-07-08T20:45:05.000",
    "request_status": "Pending",
    "responsible_agency": "Orleans Parish Communication District",
    "final_address": "3141 Ponce De Leon St",
    "address_councildis": "A",
    "status": "Pending",
    "rowid": "1298153",
    "final_x": "3676280.52334",
    "final_y": "540562.560011",
    "longitude": "-90.08424030237236",
    "latitude": "29.9805170951782",
    "geocoded_column": {
      "latitude": "29.9805170951782",
      "longitude": "-90.08424030237236"
    }
  },
  {
    "service_request": "2026-1298152",
    "request_type": "Trash/Recycling",
    "request_reason": "Order Trash Cart",
    "date_created": "2026-07-08T20:44:55.000",
    "date_modified": "2026-07-08T20:44:57.000",
    "request_status": "Pending",
    "responsible_agency": "Department of Sanitation",
    "final_address": "4301 S Prieur St",
    "address_councildis": "B",
    "status": "Assigned to Contractor",
    "contractor": "IV Waste",
    "rowid": "1298152",
    "final_x": "3670599.93217",
    "final_y": "526983.27475",
    "longitude": "-90.10264276188241",
    "latitude": "29.943347626605007",
    "geocoded_column": {
      "latitude": "29.943347626605007",
      "longitude": "-90.10264276188241"
    }
  },
  {
    "service_request": "2026-1298151",
    "request_type": "General Services",
    "request_reason": "General Service Request",
    "date_created": "2026-07-08T20:41:34.000",
    "date_modified": "2026-07-08T20:41:37.000",
    "request_status": "Pending",
    "responsible_agency": "Orleans Parish Communication District",
    "final_address": "3141 Ponce De Leon St",
    "address_councildis": "A",
    "status": "Pending",
    "rowid": "1298151",
    "final_x": "3676280.52334",
    "final_y": "540562.560011",
    "longitude": "-90.08424030237236",
    "latitude": "29.9805170951782",
    "geocoded_column": {
      "latitude": "29.9805170951782",
      "longitude": "-90.08424030237236"
    }
  },
  {
    "service_request": "2026-1298150",
    "request_type": "Trash/Recycling",
    "request_reason": "Replace Trash Cart",
    "date_created": "2026-07-08T20:38:02.000",
    "date_modified": "2026-07-08T20:38:05.000",
    "request_status": "Pending",
    "responsible_agency": "Department of Sanitation",
    "final_address": "2478 Wisteria St",
    "address_councildis": "D",
    "status": "Assigned to Contractor",
    "contractor": "IV Waste",
    "rowid": "1298150",
    "final_x": "3686199.4934",
    "final_y": "548274.977682",
    "longitude": "-90.05263971981583",
    "latitude": "30.001422447316536",
    "geocoded_column": {
      "latitude": "30.001422447316536",
      "longitude": "-90.05263971981583"
    }
  },
  {
    "service_request": "2026-1298149",
    "request_type": "Trash/Recycling",
    "request_reason": "Repair Trash Cart",
    "date_created": "2026-07-08T20:35:43.000",
    "date_modified": "2026-07-08T20:35:46.000",
    "request_status": "Pending",
    "responsible_agency": "Department of Sanitation",
    "final_address": "519 English Turn Dr",
    "address_councildis": "C",
    "status": "Assigned to Contractor",
    "contractor": "Richards Disposal",
    "rowid": "1298149",
    "final_x": "3715146.31493",
    "final_y": "515652.2069",
    "longitude": "-89.96242802153265",
    "latitude": "29.910800491799417",
    "geocoded_column": {
      "latitude": "29.910800491799417",
      "longitude": "-89.96242802153265"
    }
  },
  {
    "service_request": "2026-1298148",
    "request_type": "Property Maintenance",
    "request_reason": "Property Maintenance",
    "date_created": "2026-07-08T20:07:25.000",
    "date_modified": "2026-07-08T20:07:26.000",
    "request_status": "Pending",
    "responsible_agency": "Department of Code Enforcement",
    "final_address": "4123 Clara St",
    "address_councildis": "B",
    "status": "Pending",
    "rowid": "1298148",
    "final_x": "3671386.9323",
    "final_y": "525281.540093",
    "longitude": "-90.1002158160566",
    "latitude": "29.938645143984797",
    "geocoded_column": {
      "latitude": "29.938645143984797",
      "longitude": "-90.1002158160566"
    }
  },
  {
    "service_request": "2026-1298147",
    "request_type": "Property Maintenance",
    "request_reason": "Property Maintenance",
    "date_created": "2026-07-08T20:07:12.000",
    "date_modified": "2026-07-08T20:07:14.000",
    "request_status": "Pending",
    "responsible_agency": "Department of Code Enforcement",
    "final_address": "7920 Pompano St",
    "address_councildis": "E",
    "status": "Pending",
    "rowid": "1298147",
    "final_x": "3700124.51837",
    "final_y": "561565.625183",
    "longitude": "-90.0081639740403",
    "latitude": "30.037531361232844",
    "geocoded_column": {
      "latitude": "30.037531361232844",
      "longitude": "-90.0081639740403"
    }
  },
  {
    "service_request": "2026-1298146",
    "request_type": "Trash/Recycling",
    "request_reason": "Repair Trash Cart",
    "date_created": "2026-07-08T19:53:50.000",
    "date_modified": "2026-07-08T19:53:53.000",
    "request_status": "Pending",
    "responsible_agency": "Department of Sanitation",
    "final_address": "908 N Hennessey St",
    "address_councildis": "A",
    "status": "Assigned to Contractor",
    "contractor": "IV Waste",
    "rowid": "1298146",
    "final_x": "3672187.03406",
    "final_y": "541387.804236",
    "longitude": "-90.09714121628043",
    "latitude": "29.982908299153753",
    "geocoded_column": {
      "latitude": "29.982908299153753",
      "longitude": "-90.09714121628043"
    }
  },
  {
    "service_request": "2026-1298145",
    "request_type": "Trash/Recycling",
    "request_reason": "Request a Large Item Pick Up",
    "date_created": "2026-07-08T19:48:24.000",
    "date_modified": "2026-07-08T19:48:30.000",
    "request_status": "Pending",
    "responsible_agency": "Department of Sanitation",
    "final_address": "5228 Perrier St",
    "address_councildis": "B",
    "status": "Assigned to Contractor",
    "contractor": "IV Waste",
    "rowid": "1298145",
    "final_x": "3667810.67649",
    "final_y": "519873.767224",
    "longitude": "-90.1116885003884",
    "latitude": "29.923880833548775",
    "geocoded_column": {
      "latitude": "29.923880833548775",
      "longitude": "-90.1116885003884"
    }
  },
  {
    "service_request": "2026-1298144",
    "request_type": "Property Maintenance",
    "request_reason": "Property Maintenance",
    "date_created": "2026-07-08T19:45:13.000",
    "date_modified": "2026-07-08T19:45:15.000",
    "request_status": "Pending",
    "responsible_agency": "Department of Code Enforcement",
    "final_address": "1418 St Ferdinand St",
    "address_councildis": "C",
    "status": "Pending",
    "rowid": "1298144",
    "final_x": "3688008.38787",
    "final_y": "537609.5058",
    "longitude": "-90.04730342217044",
    "latitude": "29.972040491153816",
    "geocoded_column": {
      "latitude": "29.972040491153816",
      "longitude": "-90.04730342217044"
    }
  },
  {
    "service_request": "2026-1298143",
    "request_type": "Trash/Recycling",
    "request_reason": "Request a Large Item Pick Up",
    "date_created": "2026-07-08T19:41:17.000",
    "date_modified": "2026-07-08T19:41:18.000",
    "request_status": "Pending",
    "responsible_agency": "Department of Sanitation",
    "final_address": "916 Valence St",
    "address_councildis": "B",
    "status": "Assigned to Contractor",
    "contractor": "IV Waste",
    "rowid": "1298143",
    "final_x": "3669879.40532",
    "final_y": "518831.791159",
    "longitude": "-90.10519350408768",
    "latitude": "29.920954921324075",
    "geocoded_column": {
      "latitude": "29.920954921324075",
      "longitude": "-90.10519350408768"
    }
  },
  {
    "service_request": "2026-1298142",
    "request_type": "General Services",
    "request_reason": "General Service Request",
    "date_created": "2026-07-08T19:37:30.000",
    "date_modified": "2026-07-08T19:37:33.000",
    "request_status": "Pending",
    "responsible_agency": "Orleans Parish Communication District",
    "final_address": "5128 Freret St",
    "address_councildis": "B",
    "status": "Pending",
    "rowid": "1298142",
    "final_x": "3668300.21524",
    "final_y": "523886.84358",
    "longitude": "-90.11000795298118",
    "latitude": "29.93490115500853",
    "geocoded_column": {
      "latitude": "29.93490115500853",
      "longitude": "-90.11000795298118"
    }
  },
  {
    "service_request": "2026-1298141",
    "request_type": "Traffic Signals",
    "request_reason": "Traffic Signal Malfunctioning or Damaged",
    "date_created": "2026-07-08T19:27:06.000",
    "date_modified": "2026-07-08T19:27:08.000",
    "request_status": "Pending",
    "responsible_agency": "Department of Public Works",
    "final_address": "South Carrollton Avenue & Tulane Avenue",
    "address_councildis": "A",
    "status": "Pending",
    "rowid": "1298141",
    "final_x": "3669167.94151",
    "final_y": "536389.961927",
    "longitude": "-90.10684603928063",
    "latitude": "29.96925513215908",
    "geocoded_column": {
      "latitude": "29.96925513215908",
      "longitude": "-90.10684603928063"
    }
  },
  {
    "service_request": "2026-1298140",
    "request_type": "General Services",
    "request_reason": "General Service Request",
    "date_created": "2026-07-08T19:23:58.000",
    "date_modified": "2026-07-08T19:24:01.000",
    "request_status": "Pending",
    "responsible_agency": "Orleans Parish Communication District",
    "final_address": "104 26Th St",
    "address_councildis": "A",
    "status": "Pending",
    "rowid": "1298140",
    "final_x": "3666046.46138",
    "final_y": "549844.28386",
    "longitude": "-90.11625263154036",
    "latitude": "30.006341454553297",
    "geocoded_column": {
      "latitude": "30.006341454553297",
      "longitude": "-90.11625263154036"
    }
  },
  {
    "service_request": "2026-1298139",
    "request_type": "Trash/Recycling",
    "request_reason": "Request a Large Item Pick Up",
    "date_created": "2026-07-08T19:15:42.000",
    "date_modified": "2026-07-08T19:15:45.000",
    "request_status": "Pending",
    "responsible_agency": "Department of Sanitation",
    "final_address": "2058 Chippewa St",
    "address_councildis": "B",
    "status": "Assigned to Contractor",
    "contractor": "IV Waste",
    "rowid": "1298139",
    "final_x": "3680156.4452",
    "final_y": "521168.841209",
    "longitude": "-90.07267238767844",
    "latitude": "29.92707416442192",
    "geocoded_column": {
      "latitude": "29.92707416442192",
      "longitude": "-90.07267238767844"
    }
  },
  {
    "service_request": "2026-1298138",
    "request_type": "Trash/Recycling",
    "request_reason": "Replace Trash Cart",
    "date_created": "2026-07-08T19:06:42.000",
    "date_modified": "2026-07-08T19:06:45.000",
    "request_status": "Pending",
    "responsible_agency": "Department of Sanitation",
    "final_address": "4923 S Galvez St",
    "address_councildis": "B",
    "status": "Assigned to Contractor",
    "contractor": "IV Waste",
    "rowid": "1298138",
    "final_x": "3669052.92161",
    "final_y": "527401.707711",
    "longitude": "-90.10751295125154",
    "latitude": "29.944543778440778",
    "geocoded_column": {
      "latitude": "29.944543778440778",
      "longitude": "-90.10751295125154"
    }
  },
  {
    "service_request": "2026-1298137",
    "request_type": "Trash/Recycling",
    "request_reason": "Repair Trash Cart",
    "date_created": "2026-07-08T18:55:00.000",
    "date_modified": "2026-07-08T18:55:02.000",
    "request_status": "Pending",
    "responsible_agency": "Department of Sanitation",
    "final_address": "2408 Pine St",
    "address_councildis": "A",
    "status": "Assigned to Contractor",
    "contractor": "IV Waste",
    "rowid": "1298137",
    "final_x": "3666358.19073",
    "final_y": "530441.541698",
    "longitude": "-90.11591906807385",
    "latitude": "29.952981329720956",
    "geocoded_column": {
      "latitude": "29.952981329720956",
      "longitude": "-90.11591906807385"
    }
  },
  {
    "service_request": "2026-1298136",
    "request_type": "Tree Service",
    "request_reason": "Dead or Dying Tree",
    "date_created": "2026-07-08T18:34:01.000",
    "date_modified": "2026-07-08T18:34:03.000",
    "request_status": "Pending",
    "responsible_agency": "Department of Parks & Parkways",
    "final_address": "6527 Foch Rd",
    "address_councildis": "D",
    "status": "Pending",
    "rowid": "1298136",
    "final_x": "3697128.13904",
    "final_y": "555221.606553",
    "longitude": "-90.01786335825012",
    "latitude": "30.02018268173571",
    "geocoded_column": {
      "latitude": "30.02018268173571",
      "longitude": "-90.01786335825012"
    }
  },
  {
    "service_request": "2026-1298135",
    "request_type": "General Services",
    "request_reason": "General Service Request",
    "date_created": "2026-07-08T18:24:30.000",
    "date_modified": "2026-07-08T18:24:32.000",
    "request_status": "Pending",
    "responsible_agency": "Orleans Parish Communication District",
    "final_address": "2258 Urquhart St",
    "address_councildis": "C",
    "status": "Pending",
    "rowid": "1298135",
    "final_x": "3685570.81718",
    "final_y": "536986.82836",
    "longitude": "-90.05502359261119",
    "latitude": "29.970403345146195",
    "geocoded_column": {
      "latitude": "29.970403345146195",
      "longitude": "-90.05502359261119"
    }
  },
  {
    "service_request": "2026-1298134",
    "request_type": "Trash/Recycling",
    "request_reason": "Replace Recycling Cart",
    "date_created": "2026-07-08T18:18:16.000",
    "date_modified": "2026-07-08T18:18:20.000",
    "request_status": "Pending",
    "responsible_agency": "Department of Sanitation",
    "final_address": "323 Olivier St",
    "address_councildis": "C",
    "status": "Pending",
    "rowid": "1298134",
    "final_x": "3687196.41673",
    "final_y": "530572.845954",
    "longitude": "-90.05011662593523",
    "latitude": "29.952717148159106",
    "geocoded_column": {
      "latitude": "29.952717148159106",
      "longitude": "-90.05011662593523"
    }
  },
  {
    "service_request": "2026-1298133",
    "request_type": "Trash/Recycling",
    "request_reason": "Missed Trash Pick-Up",
    "date_created": "2026-07-08T18:09:39.000",
    "date_modified": "2026-07-08T18:09:41.000",
    "request_status": "Pending",
    "responsible_agency": "Department of Sanitation",
    "final_address": "4700 Cardenas Dr",
    "address_councildis": "E",
    "status": "Assigned to Contractor",
    "contractor": "Waste Pro",
    "rowid": "1298133",
    "final_x": "3713644.22271",
    "final_y": "556044.230809",
    "longitude": "-89.965647228498",
    "latitude": "30.021912872819005",
    "geocoded_column": {
      "latitude": "30.021912872819005",
      "longitude": "-89.965647228498"
    }
  },
  {
    "service_request": "2026-1298132",
    "request_type": "Property Maintenance",
    "request_reason": "Property Maintenance",
    "date_created": "2026-07-08T18:04:11.000",
    "date_modified": "2026-07-08T18:04:12.000",
    "request_status": "Pending",
    "responsible_agency": "Department of Code Enforcement",
    "final_address": "3311 Palmyra St",
    "address_councildis": "B",
    "status": "Pending",
    "rowid": "1298132",
    "final_x": "3673064.85217",
    "final_y": "535949.439111",
    "longitude": "-90.09455431959005",
    "latitude": "29.9679285741509",
    "geocoded_column": {
      "latitude": "29.9679285741509",
      "longitude": "-90.09455431959005"
    }
  },
  {
    "service_request": "2026-1298131",
    "request_type": "Trash/Recycling",
    "request_reason": "Order Trash Cart",
    "date_created": "2026-07-08T18:02:24.000",
    "date_modified": "2026-07-08T18:02:26.000",
    "request_status": "Pending",
    "responsible_agency": "Department of Sanitation",
    "final_address": "2726 Louisiana Ave",
    "address_councildis": "B",
    "status": "Assigned to Contractor",
    "contractor": "IV Waste",
    "rowid": "1298131",
    "final_x": "3672484.82382",
    "final_y": "525324.211837",
    "longitude": "-90.09674819437815",
    "latitude": "29.93872994392547",
    "geocoded_column": {
      "latitude": "29.93872994392547",
      "longitude": "-90.09674819437815"
    }
  },
  {
    "service_request": "2026-1298130",
    "request_type": "General Services",
    "request_reason": "General Service Request",
    "date_created": "2026-07-08T18:02:09.000",
    "date_modified": "2026-07-08T18:02:12.000",
    "request_status": "Pending",
    "responsible_agency": "Orleans Parish Communication District",
    "final_address": "5317 Venus St",
    "address_councildis": "D",
    "status": "Pending",
    "rowid": "1298130",
    "final_x": "3686386.91516",
    "final_y": "552349.95311",
    "longitude": "-90.05190367291537",
    "latitude": "30.012621384915725",
    "geocoded_column": {
      "latitude": "30.012621384915725",
      "longitude": "-90.05190367291537"
    }
  },
  {
    "service_request": "2026-1298129",
    "request_type": "General Services",
    "request_reason": "General Service Request",
    "date_created": "2026-07-08T18:01:26.000",
    "date_modified": "2026-07-08T18:01:30.000",
    "request_status": "Pending",
    "responsible_agency": "Orleans Parish Communication District",
    "final_address": "8532 Spruce St",
    "address_councildis": "A",
    "status": "Pending",
    "rowid": "1298129",
    "final_x": "3662575.82298",
    "final_y": "531559.082883",
    "longitude": "-90.12782505669796",
    "latitude": "29.956164163645585",
    "geocoded_column": {
      "latitude": "29.956164163645585",
      "longitude": "-90.12782505669796"
    }
  },
  {
    "service_request": "2026-1298128",
    "request_type": "Trash/Recycling",
    "request_reason": "Order Second Trash Cart",
    "date_created": "2026-07-08T17:52:26.000",
    "date_modified": "2026-07-08T17:52:28.000",
    "request_status": "Pending",
    "responsible_agency": "Department of Sanitation",
    "final_address": "11290 Midpoint Dr",
    "address_councildis": "E",
    "status": "Assigned to Contractor",
    "contractor": "Waste Pro",
    "rowid": "1298128",
    "final_x": "3718472.55378",
    "final_y": "559446.922909",
    "longitude": "-89.95026135900154",
    "latitude": "30.031109563694706",
    "geocoded_column": {
      "latitude": "30.031109563694706",
      "longitude": "-89.95026135900154"
    }
  },
  {
    "service_request": "2026-1298127",
    "request_type": "Trash/Recycling",
    "request_reason": "Request a Large Item Pick Up",
    "date_created": "2026-07-08T17:45:50.000",
    "date_modified": "2026-07-08T17:45:53.000",
    "request_status": "Pending",
    "responsible_agency": "Department of Sanitation",
    "final_address": "4635 Baronne St",
    "address_councildis": "B",
    "status": "Assigned to Contractor",
    "contractor": "IV Waste",
    "rowid": "1298127",
    "final_x": "3669753.30945",
    "final_y": "521537.544953",
    "longitude": "-90.10550001274727",
    "latitude": "29.92839859950663",
    "geocoded_column": {
      "latitude": "29.92839859950663",
      "longitude": "-90.10550001274727"
    }
  },
  {
    "service_request": "2026-1298126",
    "request_type": "Roads and Streets",
    "request_reason": "Pothole",
    "date_created": "2026-07-08T17:40:40.000",
    "date_modified": "2026-07-08T17:40:42.000",
    "request_status": "Pending",
    "responsible_agency": "Department of Public Works",
    "final_address": "840 Tchoupitoulas St",
    "address_councildis": "B",
    "status": "Pending",
    "rowid": "1298126",
    "final_x": "3681759.29852",
    "final_y": "527383.151551",
    "longitude": "-90.06739586871346",
    "latitude": "29.9441128687647",
    "geocoded_column": {
      "latitude": "29.9441128687647",
      "longitude": "-90.06739586871346"
    }
  },
  {
    "service_request": "2026-1298125",
    "request_type": "Trash/Recycling",
    "request_reason": "Illegal Dumping",
    "date_created": "2026-07-08T17:39:58.000",
    "date_modified": "2026-07-08T17:40:02.000",
    "request_status": "Pending",
    "responsible_agency": "Department of Sanitation",
    "final_address": "4107 N Galvez St",
    "address_councildis": "D",
    "status": "Pending",
    "rowid": "1298125",
    "final_x": "3693178.01078",
    "final_y": "539017.35009",
    "longitude": "-90.03092644095187",
    "latitude": "29.97575101100628",
    "geocoded_column": {
      "latitude": "29.97575101100628",
      "longitude": "-90.03092644095187"
    }
  },
  {
    "service_request": "2026-1298124",
    "request_type": "Trash/Recycling",
    "request_reason": "Order Trash Cart",
    "date_created": "2026-07-08T17:38:17.000",
    "date_modified": "2026-07-08T17:38:20.000",
    "request_status": "Pending",
    "responsible_agency": "Department of Sanitation",
    "final_address": "4653 Gaines St",
    "address_councildis": "D",
    "status": "Assigned to Contractor",
    "contractor": "IV Waste",
    "rowid": "1298124",
    "final_x": "3691237.01603",
    "final_y": "551457.107413",
    "longitude": "-90.03661200920266",
    "latitude": "30.010016356984814",
    "geocoded_column": {
      "latitude": "30.010016356984814",
      "longitude": "-90.03661200920266"
    }
  },
  {
    "service_request": "2026-1298123",
    "request_type": "Trash/Recycling",
    "request_reason": "Repair Recycling Cart",
    "date_created": "2026-07-08T17:30:36.000",
    "date_modified": "2026-07-08T17:30:39.000",
    "request_status": "Pending",
    "responsible_agency": "Department of Sanitation",
    "final_address": "722 Lesseps St",
    "address_councildis": "C",
    "status": "Pending",
    "rowid": "1298123",
    "final_x": "3692343.71657",
    "final_y": "533773.459717",
    "longitude": "-90.03374920409333",
    "latitude": "29.961358213835478",
    "geocoded_column": {
      "latitude": "29.961358213835478",
      "longitude": "-90.03374920409333"
    }
  },
  {
    "service_request": "2026-1298122",
    "request_type": "Trash/Recycling",
    "request_reason": "Damaged Caused By Contractor",
    "date_created": "2026-07-08T17:21:40.000",
    "date_modified": "2026-07-08T17:21:43.000",
    "request_status": "Pending",
    "responsible_agency": "Department of Sanitation",
    "final_address": "722 Lesseps St",
    "address_councildis": "C",
    "status": "Assigned to Contractor",
    "contractor": "IV Waste",
    "rowid": "1298122",
    "final_x": "3692343.71657",
    "final_y": "533773.459717",
    "longitude": "-90.03374920409333",
    "latitude": "29.961358213835478",
    "geocoded_column": {
      "latitude": "29.961358213835478",
      "longitude": "-90.03374920409333"
    }
  },
  {
    "service_request": "2026-1298121",
    "request_type": "Property Maintenance",
    "request_reason": "Property Maintenance",
    "date_created": "2026-07-08T17:14:49.000",
    "date_modified": "2026-07-08T17:14:51.000",
    "request_status": "Pending",
    "responsible_agency": "Department of Code Enforcement",
    "final_address": "535 Crystal St",
    "address_councildis": "D",
    "status": "Pending",
    "rowid": "1298121",
    "final_x": "3668646.2521",
    "final_y": "556354.631258",
    "longitude": "-90.10781923837594",
    "latitude": "30.024166426826724",
    "geocoded_column": {
      "latitude": "30.024166426826724",
      "longitude": "-90.10781923837594"
    }
  },
  {
    "service_request": "2026-1298120",
    "request_type": "Trash/Recycling",
    "request_reason": "Repair Trash Cart",
    "date_created": "2026-07-08T17:10:32.000",
    "date_modified": "2026-07-08T17:10:33.000",
    "request_status": "Pending",
    "responsible_agency": "Department of Sanitation",
    "final_address": "8135 Panola St",
    "address_councildis": "A",
    "status": "Assigned to Contractor",
    "contractor": "IV Waste",
    "rowid": "1298120",
    "final_x": "3663933.86515",
    "final_y": "530915.109954",
    "longitude": "-90.12355826950485",
    "latitude": "29.954354091111846",
    "geocoded_column": {
      "latitude": "29.954354091111846",
      "longitude": "-90.12355826950485"
    }
  },
  {
    "service_request": "2026-1298119",
    "request_type": "Abandoned Vehicles",
    "request_reason": "Abandoned/Junk Vehicles",
    "date_created": "2026-07-08T17:07:18.000",
    "date_modified": "2026-07-08T17:07:19.000",
    "request_status": "Pending",
    "responsible_agency": "Department of Public Works",
    "final_address": "6427 Pines Blvd",
    "address_councildis": "D",
    "status": "Pending",
    "rowid": "1298119",
    "final_x": "3697763.80375",
    "final_y": "556739.112538",
    "longitude": "-90.01579973469202",
    "latitude": "30.02433516461819",
    "geocoded_column": {
      "latitude": "30.02433516461819",
      "longitude": "-90.01579973469202"
    }
  },
  {
    "service_request": "2026-1298118",
    "request_type": "Drainage",
    "request_reason": "Catch Basin Not Draining",
    "date_created": "2026-07-08T17:06:38.000",
    "date_modified": "2026-07-08T17:06:40.000",
    "request_status": "Pending",
    "responsible_agency": "Sewerage & Water Board",
    "final_address": "210 Baronne St",
    "address_councildis": "B",
    "status": "Pending",
    "rowid": "1298118",
    "final_x": "3680240.2836",
    "final_y": "530605.158914",
    "longitude": "-90.0720798481",
    "latitude": "29.953018366512932",
    "geocoded_column": {
      "latitude": "29.953018366512932",
      "longitude": "-90.0720798481"
    }
  },
  {
    "service_request": "2026-1298117",
    "request_type": "Trash/Recycling",
    "request_reason": "Request a Large Item Pick Up",
    "date_created": "2026-07-08T16:58:51.000",
    "date_modified": "2026-07-08T16:58:53.000",
    "request_status": "Pending",
    "responsible_agency": "Department of Sanitation",
    "final_address": "11136 Will Stutley Dr",
    "address_councildis": "E",
    "status": "Assigned to Contractor",
    "contractor": "Waste Pro",
    "rowid": "1298117",
    "final_x": "3716406.766",
    "final_y": "558184.719899",
    "longitude": "-89.95683715697197",
    "latitude": "30.027707410119582",
    "geocoded_column": {
      "latitude": "30.027707410119582",
      "longitude": "-89.95683715697197"
    }
  },
  {
    "service_request": "2026-1298116",
    "request_type": "Property Maintenance",
    "request_reason": "Property Maintenance",
    "date_created": "2026-07-08T16:57:56.000",
    "date_modified": "2026-07-08T16:57:57.000",
    "request_status": "Pending",
    "responsible_agency": "Department of Code Enforcement",
    "final_address": "2439 St Bernard Ave",
    "address_councildis": "D",
    "status": "Pending",
    "rowid": "1298116",
    "final_x": "3680577.78984",
    "final_y": "541093.9963",
    "longitude": "-90.07064918816016",
    "latitude": "29.981848852597167",
    "geocoded_column": {
      "latitude": "29.981848852597167",
      "longitude": "-90.07064918816016"
    }
  },
  {
    "service_request": "2026-1298115",
    "request_type": "Abandoned Vehicles",
    "request_reason": "Abandoned/Junk Vehicles",
    "date_created": "2026-07-08T16:56:34.000",
    "date_modified": "2026-07-08T16:56:36.000",
    "request_status": "Pending",
    "responsible_agency": "Department of Public Works",
    "final_address": "730 S Rampart St",
    "address_councildis": "B",
    "status": "Pending",
    "rowid": "1298115",
    "final_x": "3679162.96245",
    "final_y": "528725.438848",
    "longitude": "-90.07554670798055",
    "latitude": "29.947882328881697",
    "geocoded_column": {
      "latitude": "29.947882328881697",
      "longitude": "-90.07554670798055"
    }
  },
  {
    "service_request": "2026-1298114",
    "request_type": "Trash/Recycling",
    "request_reason": "Illegal Dumping",
    "date_created": "2026-07-08T16:54:24.000",
    "date_modified": "2026-07-08T16:54:26.000",
    "request_status": "Pending",
    "responsible_agency": "Department of Sanitation",
    "final_address": "3712 Herschel St",
    "address_councildis": "C",
    "status": "Pending",
    "rowid": "1298114",
    "final_x": "3697383.69379",
    "final_y": "521206.070457",
    "longitude": "-90.01828938289724",
    "latitude": "29.926644131756852",
    "geocoded_column": {
      "latitude": "29.926644131756852",
      "longitude": "-90.01828938289724"
    }
  },
  {
    "service_request": "2026-1298113",
    "request_type": "Trash/Recycling",
    "request_reason": "Return Trash Cart",
    "date_created": "2026-07-08T16:52:39.000",
    "date_modified": "2026-07-08T16:52:41.000",
    "request_status": "Pending",
    "responsible_agency": "Department of Sanitation",
    "final_address": "3200 Sabine St",
    "address_councildis": "C",
    "status": "Assigned to Contractor",
    "contractor": "Richards Disposal",
    "rowid": "1298113",
    "final_x": "3694708.22218",
    "final_y": "518221.942582",
    "longitude": "-90.02684248467068",
    "latitude": "29.91852294812501",
    "geocoded_column": {
      "latitude": "29.91852294812501",
      "longitude": "-90.02684248467068"
    }
  },
  {
    "service_request": "2026-1298112",
    "request_type": "Trash/Recycling",
    "request_reason": "Repair Trash Cart",
    "date_created": "2026-07-08T16:47:39.000",
    "date_modified": "2026-07-08T16:47:41.000",
    "request_status": "Pending",
    "responsible_agency": "Department of Sanitation",
    "final_address": "4700 Papania Dr",
    "address_councildis": "E",
    "status": "Assigned to Contractor",
    "contractor": "Waste Pro",
    "rowid": "1298112",
    "final_x": "3715553.1036",
    "final_y": "556674.490842",
    "longitude": "-89.959591849865",
    "latitude": "30.023583050804245",
    "geocoded_column": {
      "latitude": "30.023583050804245",
      "longitude": "-89.959591849865"
    }
  },
  {
    "service_request": "2026-1298111",
    "request_type": "Trash/Recycling",
    "request_reason": "Repair Trash Cart",
    "date_created": "2026-07-08T16:47:33.000",
    "date_modified": "2026-07-08T16:47:34.000",
    "request_status": "Pending",
    "responsible_agency": "Department of Sanitation",
    "final_address": "5157 Baccich St",
    "address_councildis": "D",
    "status": "Assigned to Contractor",
    "contractor": "IV Waste",
    "rowid": "1298111",
    "final_x": "3687654.65385",
    "final_y": "552099.45967",
    "longitude": "-90.04790720652214",
    "latitude": "30.01189357600809",
    "geocoded_column": {
      "latitude": "30.01189357600809",
      "longitude": "-90.04790720652214"
    }
  },
  {
    "service_request": "2026-1298110",
    "request_type": "Trash/Recycling",
    "request_reason": "Request a Large Item Pick Up",
    "date_created": "2026-07-08T16:44:53.000",
    "date_modified": "2026-07-08T16:44:55.000",
    "request_status": "Pending",
    "responsible_agency": "Department of Sanitation",
    "final_address": "4541 Eastview Dr",
    "address_councildis": "E",
    "status": "Assigned to Contractor",
    "contractor": "Waste Pro",
    "rowid": "1298110",
    "final_x": "3705283.79633",
    "final_y": "554068.889048",
    "longitude": "-89.99213686750055",
    "latitude": "30.016753182867838",
    "geocoded_column": {
      "latitude": "30.016753182867838",
      "longitude": "-89.99213686750055"
    }
  },
  {
    "service_request": "2026-1298109",
    "request_type": "Trash/Recycling",
    "request_reason": "Order Recycling Cart",
    "date_created": "2026-07-08T16:43:45.000",
    "date_modified": "2026-07-08T16:43:47.000",
    "request_status": "Pending",
    "responsible_agency": "Department of Sanitation",
    "final_address": "5108 Wentworth Dr",
    "address_councildis": "E",
    "status": "Pending",
    "rowid": "1298109",
    "final_x": "3704824.73982",
    "final_y": "556666.839066",
    "longitude": "-89.99349129965633",
    "latitude": "30.02391130946168",
    "geocoded_column": {
      "latitude": "30.02391130946168",
      "longitude": "-89.99349129965633"
    }
  },
  {
    "service_request": "2026-1298108",
    "request_type": "Trash/Recycling",
    "request_reason": "Request a Large Item Pick Up",
    "date_created": "2026-07-08T16:41:52.000",
    "date_modified": "2026-07-08T16:41:54.000",
    "request_status": "Pending",
    "responsible_agency": "Department of Sanitation",
    "final_address": "13726 Granville St",
    "address_councildis": "E",
    "status": "Assigned to Contractor",
    "contractor": "Waste Pro",
    "rowid": "1298108",
    "final_x": "3726991.55731",
    "final_y": "562640.643616",
    "longitude": "-89.92321723074777",
    "latitude": "30.039605489793683",
    "geocoded_column": {
      "latitude": "30.039605489793683",
      "longitude": "-89.92321723074777"
    }
  },
  {
    "service_request": "2026-1298107",
    "request_type": "Trash/Recycling",
    "request_reason": "Repair Trash Cart",
    "date_created": "2026-07-08T16:40:35.000",
    "date_modified": "2026-07-08T16:40:38.000",
    "request_status": "Pending",
    "responsible_agency": "Department of Sanitation",
    "final_address": "3144 Toulouse St",
    "address_councildis": "A",
    "status": "Assigned to Contractor",
    "contractor": "IV Waste",
    "rowid": "1298107",
    "final_x": "3674888.75675",
    "final_y": "537697.44532",
    "longitude": "-90.08873440017567",
    "latitude": "29.972680653086123",
    "geocoded_column": {
      "latitude": "29.972680653086123",
      "longitude": "-90.08873440017567"
    }
  },
  {
    "service_request": "2026-1298106",
    "request_type": "Trash/Recycling",
    "request_reason": "Request a Large Item Pick Up",
    "date_created": "2026-07-08T16:40:31.000",
    "date_modified": "2026-07-08T16:40:33.000",
    "request_status": "Pending",
    "responsible_agency": "Department of Sanitation",
    "final_address": "6732 Deanne St",
    "address_councildis": "D",
    "status": "Assigned to Contractor",
    "contractor": "Waste Pro",
    "rowid": "1298106",
    "final_x": "3695876.29603",
    "final_y": "555485.952281",
    "longitude": "-90.02180921097602",
    "latitude": "30.020948989879415",
    "geocoded_column": {
      "latitude": "30.020948989879415",
      "longitude": "-90.02180921097602"
    }
  },
  {
    "service_request": "2026-1298105",
    "request_type": "Street and Traffic Signs",
    "request_reason": "Additional Signage Request",
    "date_created": "2026-07-08T16:26:49.000",
    "date_modified": "2026-07-08T16:26:51.000",
    "request_status": "Pending",
    "responsible_agency": "Department of Public Works",
    "final_address": "5324 Pitt St",
    "address_councildis": "B",
    "status": "Pending",
    "rowid": "1298105",
    "final_x": "3667498.25857",
    "final_y": "520439.124024",
    "longitude": "-90.1126556828187",
    "latitude": "29.92544454110643",
    "geocoded_column": {
      "latitude": "29.92544454110643",
      "longitude": "-90.1126556828187"
    }
  },
  {
    "service_request": "2026-1298104",
    "request_type": "Street and Traffic Signs",
    "request_reason": "Traffic or Parking Sign Damaged or Missing",
    "date_created": "2026-07-08T16:24:05.000",
    "date_modified": "2026-07-08T16:24:09.000",
    "request_status": "Pending",
    "responsible_agency": "Department of Public Works",
    "final_address": "5900 Marconi Dr",
    "address_councildis": "A",
    "status": "Pending",
    "rowid": "1298104",
    "final_x": "3671832.43828",
    "final_y": "546621.073105",
    "longitude": "-90.09808302103258",
    "latitude": "29.997308497995867",
    "geocoded_column": {
      "latitude": "29.997308497995867",
      "longitude": "-90.09808302103258"
    }
  },
  {
    "service_request": "2026-1298103",
    "request_type": "Trash/Recycling",
    "request_reason": "Request a Large Item Pick Up",
    "date_created": "2026-07-08T16:22:36.000",
    "date_modified": "2026-07-08T16:22:38.000",
    "request_status": "Pending",
    "responsible_agency": "Department of Sanitation",
    "final_address": "11935 Curran Rd",
    "address_councildis": "E",
    "status": "Assigned to Contractor",
    "contractor": "Waste Pro",
    "rowid": "1298103",
    "final_x": "3713091.33464",
    "final_y": "567898.502501",
    "longitude": "-89.96694753670967",
    "latitude": "30.054525497786877",
    "geocoded_column": {
      "latitude": "30.054525497786877",
      "longitude": "-89.96694753670967"
    }
  },
  {
    "service_request": "2026-1298102",
    "request_type": "Trash/Recycling",
    "request_reason": "Request a Large Item Pick Up",
    "date_created": "2026-07-08T16:20:34.000",
    "date_modified": "2026-07-08T16:20:36.000",
    "request_status": "Pending",
    "responsible_agency": "Department of Sanitation",
    "final_address": "5091 W St Andrews Cir",
    "address_councildis": "E",
    "status": "Assigned to Contractor",
    "contractor": "Waste Pro",
    "rowid": "1298102",
    "final_x": "3718807.86316",
    "final_y": "559970.739485",
    "longitude": "-89.94918178789526",
    "latitude": "30.032538715092073",
    "geocoded_column": {
      "latitude": "30.032538715092073",
      "longitude": "-89.94918178789526"
    }
  },
  {
    "service_request": "2026-1298101",
    "request_type": "Trash/Recycling",
    "request_reason": "Request a Large Item Pick Up",
    "date_created": "2026-07-08T16:19:42.000",
    "date_modified": "2026-07-08T16:19:44.000",
    "request_status": "Pending",
    "responsible_agency": "Department of Sanitation",
    "final_address": "4849 Lafon Dr",
    "address_councildis": "E",
    "status": "Assigned to Contractor",
    "contractor": "Waste Pro",
    "rowid": "1298101",
    "final_x": "3701171.69636",
    "final_y": "554858.0902",
    "longitude": "-90.00510038027478",
    "latitude": "30.019054888521197",
    "geocoded_column": {
      "latitude": "30.019054888521197",
      "longitude": "-90.00510038027478"
    }
  },
  {
    "service_request": "2026-1298100",
    "request_type": "Property Maintenance",
    "request_reason": "Property Maintenance",
    "date_created": "2026-07-08T16:18:23.000",
    "date_modified": "2026-07-08T16:18:25.000",
    "request_status": "Pending",
    "responsible_agency": "Department of Code Enforcement",
    "final_address": "1935 Feliciana St",
    "address_councildis": "D",
    "status": "Pending",
    "rowid": "1298100",
    "final_x": "3689596.04771",
    "final_y": "539368.020106",
    "longitude": "-90.04222677137328",
    "latitude": "29.976826692452654",
    "geocoded_column": {
      "latitude": "29.976826692452654",
      "longitude": "-90.04222677137328"
    }
  },
  {
    "service_request": "2026-1298099",
    "request_type": "Trash/Recycling",
    "request_reason": "Repair Trash Cart",
    "date_created": "2026-07-08T16:16:01.000",
    "date_modified": "2026-07-08T16:16:03.000",
    "request_status": "Pending",
    "responsible_agency": "Department of Sanitation",
    "final_address": "3992 Lennox Blvd",
    "address_councildis": "C",
    "status": "Assigned to Contractor",
    "contractor": "Richards Disposal",
    "rowid": "1298099",
    "final_x": "3700836.51991",
    "final_y": "516146.961524",
    "longitude": "-90.0075746036141",
    "latitude": "29.912623902010232",
    "geocoded_column": {
      "latitude": "29.912623902010232",
      "longitude": "-90.0075746036141"
    }
  },
  {
    "service_request": "2026-1298098",
    "request_type": "Trash/Recycling",
    "request_reason": "Request a Large Item Pick Up",
    "date_created": "2026-07-08T16:12:40.000",
    "date_modified": "2026-07-08T16:12:42.000",
    "request_status": "Pending",
    "responsible_agency": "Department of Sanitation",
    "final_address": "4773 Eastern St",
    "address_councildis": "D",
    "status": "Assigned to Contractor",
    "contractor": "IV Waste",
    "rowid": "1298098",
    "final_x": "3688035.35843",
    "final_y": "550898.591893",
    "longitude": "-90.0467470028412",
    "latitude": "30.008579881449936",
    "geocoded_column": {
      "latitude": "30.008579881449936",
      "longitude": "-90.0467470028412"
    }
  },
  {
    "service_request": "2026-1298097",
    "request_type": "Trash/Recycling",
    "request_reason": "Start Trash Service",
    "date_created": "2026-07-08T16:08:29.000",
    "date_modified": "2026-07-08T16:08:31.000",
    "request_status": "Pending",
    "responsible_agency": "Department of Sanitation",
    "final_address": "6180 Pontchartrain Blvd",
    "address_councildis": "A",
    "status": "Assigned to Contractor",
    "contractor": "IV Waste",
    "rowid": "1298097",
    "final_x": "3666098.62592",
    "final_y": "548786.194963",
    "longitude": "-90.1161233398806",
    "latitude": "30.003430552971242",
    "geocoded_column": {
      "latitude": "30.003430552971242",
      "longitude": "-90.1161233398806"
    }
  },
  {
    "service_request": "2026-1298096",
    "request_type": "Street and Traffic Signs",
    "request_reason": "Street Name Sign Damaged or Missing",
    "date_created": "2026-07-08T16:04:11.000",
    "date_modified": "2026-07-08T16:04:13.000",
    "request_status": "Pending",
    "responsible_agency": "Department of Public Works",
    "final_address": "BURGUNDY ST & CHARBONNET ST",
    "address_councildis": "E",
    "status": "Pending",
    "rowid": "1298096",
    "final_x": "3698417.7",
    "final_y": "532821.28",
    "longitude": "-90.01460334385031",
    "latitude": "29.958549237221906",
    "geocoded_column": {
      "latitude": "29.958549237221906",
      "longitude": "-90.01460334385031"
    }
  },
  {
    "service_request": "2026-1298095",
    "request_type": "Trash/Recycling",
    "request_reason": "Repair Recycling Cart",
    "date_created": "2026-07-08T16:03:12.000",
    "date_modified": "2026-07-08T16:03:14.000",
    "request_status": "Pending",
    "responsible_agency": "Department of Sanitation",
    "final_address": "211 Oakmont Dr",
    "address_councildis": "E",
    "status": "Pending",
    "rowid": "1298095",
    "final_x": "3720294.37388",
    "final_y": "562998.214176",
    "longitude": "-89.94436838786756",
    "latitude": "30.040813580185254",
    "geocoded_column": {
      "latitude": "30.040813580185254",
      "longitude": "-89.94436838786756"
    }
  },
  {
    "service_request": "2026-1298093",
    "request_type": "Traffic Signals",
    "request_reason": "Traffic Signal Malfunctioning or Damaged",
    "date_created": "2026-07-08T16:02:54.000",
    "date_modified": "2026-07-08T16:02:55.000",
    "request_status": "Pending",
    "responsible_agency": "Department of Public Works",
    "final_address": "ORLEANS AVE & N CARROLLTON AVE",
    "address_councildis": "A",
    "status": "Pending",
    "rowid": "1298093",
    "final_x": "3672657.9",
    "final_y": "540074.68",
    "longitude": "-90.09569877750367",
    "latitude": "29.979283679893836",
    "geocoded_column": {
      "latitude": "29.979283679893836",
      "longitude": "-90.09569877750367"
    }
  },
  {
    "service_request": "2026-1298094",
    "request_type": "Property Maintenance",
    "request_reason": "Property Maintenance",
    "date_created": "2026-07-08T16:02:54.000",
    "date_modified": "2026-07-08T16:02:55.000",
    "request_status": "Pending",
    "responsible_agency": "Department of Code Enforcement",
    "final_address": "8514 Forshey St",
    "address_councildis": "A",
    "status": "Pending",
    "rowid": "1298094",
    "final_x": "3665819.54599",
    "final_y": "534954.936134",
    "longitude": "-90.11746865552709",
    "latitude": "29.965407410713322",
    "geocoded_column": {
      "latitude": "29.965407410713322",
      "longitude": "-90.11746865552709"
    }
  },
  {
    "service_request": "2026-1298092",
    "request_type": "Trash/Recycling",
    "request_reason": "Request a Large Item Pick Up",
    "date_created": "2026-07-08T15:59:53.000",
    "date_modified": "2026-07-08T15:59:55.000",
    "request_status": "Pending",
    "responsible_agency": "Department of Sanitation",
    "final_address": "7721 S Coronet Ct",
    "address_councildis": "E",
    "status": "Assigned to Contractor",
    "contractor": "Waste Pro",
    "rowid": "1298092",
    "final_x": "3702584.52631",
    "final_y": "557266.203035",
    "longitude": "-90.00054785988071",
    "latitude": "30.025631165453145",
    "geocoded_column": {
      "latitude": "30.025631165453145",
      "longitude": "-90.00054785988071"
    }
  },
  {
    "service_request": "2026-1298091",
    "request_type": "Trash/Recycling",
    "request_reason": "Request a Large Item Pick Up",
    "date_created": "2026-07-08T15:58:04.000",
    "date_modified": "2026-07-08T15:58:05.000",
    "request_status": "Pending",
    "responsible_agency": "Department of Sanitation",
    "final_address": "6164 Marshal Foch St",
    "address_councildis": "A",
    "status": "Assigned to Contractor",
    "contractor": "IV Waste",
    "rowid": "1298091",
    "final_x": "3669866.79713",
    "final_y": "548368.372626",
    "longitude": "-90.10423321960023",
    "latitude": "30.00217108404304",
    "geocoded_column": {
      "latitude": "30.00217108404304",
      "longitude": "-90.10423321960023"
    }
  },
  {
    "service_request": "2026-1298090",
    "request_type": "Trash/Recycling",
    "request_reason": "Order Second Trash Cart",
    "date_created": "2026-07-08T15:57:40.000",
    "date_modified": "2026-07-08T15:57:42.000",
    "request_status": "Pending",
    "responsible_agency": "Department of Sanitation",
    "final_address": "11404 S St Andrews Cir",
    "address_councildis": "E",
    "status": "Assigned to Contractor",
    "contractor": "Waste Pro",
    "rowid": "1298090",
    "final_x": "3719411.43065",
    "final_y": "559330.729309",
    "longitude": "-89.94729895534134",
    "latitude": "30.030758884452815",
    "geocoded_column": {
      "latitude": "30.030758884452815",
      "longitude": "-89.94729895534134"
    }
  },
  {
    "service_request": "2026-1298089",
    "request_type": "Street and Traffic Signs",
    "request_reason": "Stop Sign Missing or Damaged",
    "date_created": "2026-07-08T15:57:37.000",
    "date_modified": "2026-07-08T15:57:39.000",
    "request_status": "Pending",
    "responsible_agency": "Department of Public Works",
    "final_address": "IBERVILLE ST & BURGUNDY ST",
    "address_councildis": "C",
    "status": "Pending",
    "rowid": "1298089",
    "final_x": "3680592.5",
    "final_y": "531668.98",
    "longitude": "-90.07093069575095",
    "latitude": "29.9559328500531",
    "geocoded_column": {
      "latitude": "29.9559328500531",
      "longitude": "-90.07093069575095"
    }
  },
  {
    "service_request": "2026-1298088",
    "request_type": "Road Striping",
    "request_reason": "Crosswalks",
    "date_created": "2026-07-08T15:56:57.000",
    "date_modified": "2026-07-08T15:56:58.000",
    "request_status": "Pending",
    "responsible_agency": "Department of Public Works",
    "final_address": "3100 BLK Ponce de Leon St",
    "address_councildis": "A",
    "status": "Pending",
    "rowid": "1298088",
    "final_x": "3676382.17476",
    "final_y": "540534.606711",
    "longitude": "-90.08392020571118",
    "latitude": "29.980437185918653",
    "geocoded_column": {
      "latitude": "29.980437185918653",
      "longitude": "-90.08392020571118"
    }
  },
  {
    "service_request": "2026-1298087",
    "request_type": "Trash/Recycling",
    "request_reason": "Request a Large Item Pick Up",
    "date_created": "2026-07-08T15:55:50.000",
    "date_modified": "2026-07-08T15:55:52.000",
    "request_status": "Pending",
    "responsible_agency": "Department of Sanitation",
    "final_address": "4832 Viola St",
    "address_councildis": "E",
    "status": "Assigned to Contractor",
    "contractor": "Waste Pro",
    "rowid": "1298087",
    "final_x": "3703844.10679",
    "final_y": "555772.991577",
    "longitude": "-89.99662283461716",
    "latitude": "30.02148506639742",
    "geocoded_column": {
      "latitude": "30.02148506639742",
      "longitude": "-89.99662283461716"
    }
  },
  {
    "service_request": "2026-1298086",
    "request_type": "Trash/Recycling",
    "request_reason": "Request a Large Item Pick Up",
    "date_created": "2026-07-08T15:55:37.000",
    "date_modified": "2026-07-08T15:55:39.000",
    "request_status": "Pending",
    "responsible_agency": "Department of Sanitation",
    "final_address": "1626 Paul Morphy St",
    "address_councildis": "D",
    "status": "Assigned to Contractor",
    "contractor": "IV Waste",
    "rowid": "1298086",
    "final_x": "3678964.93506",
    "final_y": "540537.338955",
    "longitude": "-90.07576264465283",
    "latitude": "29.980367009659616",
    "geocoded_column": {
      "latitude": "29.980367009659616",
      "longitude": "-90.07576264465283"
    }
  },
  {
    "service_request": "2026-1298085",
    "request_type": "Trash/Recycling",
    "request_reason": "Request a Large Item Pick Up",
    "date_created": "2026-07-08T15:53:41.000",
    "date_modified": "2026-07-08T15:53:43.000",
    "request_status": "Pending",
    "responsible_agency": "Department of Sanitation",
    "final_address": "3611 Tall Timbers Dr",
    "address_councildis": "C",
    "status": "Assigned to Contractor",
    "contractor": "Richards Disposal",
    "rowid": "1298085",
    "final_x": "3703623.07479",
    "final_y": "512353.575473",
    "longitude": "-89.99891894583631",
    "latitude": "29.90210443629672",
    "geocoded_column": {
      "latitude": "29.90210443629672",
      "longitude": "-89.99891894583631"
    }
  },
  {
    "service_request": "2026-1298084",
    "request_type": "Trash/Recycling",
    "request_reason": "Request a Large Item Pick Up",
    "date_created": "2026-07-08T15:51:10.000",
    "date_modified": "2026-07-08T15:51:12.000",
    "request_status": "Pending",
    "responsible_agency": "Department of Sanitation",
    "final_address": "5522 Camp St",
    "address_councildis": "A",
    "status": "Assigned to Contractor",
    "contractor": "IV Waste",
    "rowid": "1298084",
    "final_x": "3666321.82676",
    "final_y": "519183.864887",
    "longitude": "-90.11641140959063",
    "latitude": "29.922027382123286",
    "geocoded_column": {
      "latitude": "29.922027382123286",
      "longitude": "-90.11641140959063"
    }
  },
  {
    "service_request": "2026-1298083",
    "request_type": "Trash/Recycling",
    "request_reason": "Order Trash Cart",
    "date_created": "2026-07-08T15:50:46.000",
    "date_modified": "2026-07-08T15:50:47.000",
    "request_status": "Pending",
    "responsible_agency": "Department of Sanitation",
    "final_address": "2733 Pine St",
    "address_councildis": "B",
    "status": "Assigned to Contractor",
    "contractor": "IV Waste",
    "rowid": "1298083",
    "final_x": "3667097.84724",
    "final_y": "531407.145859",
    "longitude": "-90.1135510925084",
    "latitude": "29.955614796400695",
    "geocoded_column": {
      "latitude": "29.955614796400695",
      "longitude": "-90.1135510925084"
    }
  },
  {
    "service_request": "2026-1298082",
    "request_type": "Drainage",
    "request_reason": "Catch Basin Not Draining",
    "date_created": "2026-07-08T15:50:03.000",
    "date_modified": "2026-07-08T15:50:05.000",
    "request_status": "Pending",
    "responsible_agency": "Sewerage & Water Board",
    "final_address": "8026 Cohn St",
    "address_councildis": "A",
    "status": "Pending",
    "rowid": "1298082",
    "final_x": "3663806.7104",
    "final_y": "529962.291905",
    "longitude": "-90.12399152927509",
    "latitude": "29.951737840679538",
    "geocoded_column": {
      "latitude": "29.951737840679538",
      "longitude": "-90.12399152927509"
    }
  },
  {
    "service_request": "2026-1298081",
    "request_type": "Trash/Recycling",
    "request_reason": "Return Recycling Cart",
    "date_created": "2026-07-08T15:47:25.000",
    "date_modified": "2026-07-08T15:47:27.000",
    "request_status": "Pending",
    "responsible_agency": "Department of Sanitation",
    "final_address": "2531 Aubry St",
    "address_councildis": "D",
    "status": "Pending",
    "rowid": "1298081",
    "final_x": "3679960.43426",
    "final_y": "540950.238603",
    "longitude": "-90.07260408505424",
    "latitude": "29.981472260650868",
    "geocoded_column": {
      "latitude": "29.981472260650868",
      "longitude": "-90.07260408505424"
    }
  },
  {
    "service_request": "2026-1298080",
    "request_type": "Property Maintenance",
    "request_reason": "Property Maintenance",
    "date_created": "2026-07-08T15:45:33.000",
    "date_modified": "2026-07-08T15:45:34.000",
    "request_status": "Pending",
    "responsible_agency": "Department of Code Enforcement",
    "final_address": "711 Peniston St",
    "address_councildis": "B",
    "status": "Pending",
    "rowid": "1298080",
    "final_x": "3673584.7195",
    "final_y": "518469.004086",
    "longitude": "-90.09350987539182",
    "latitude": "29.919847650858355",
    "geocoded_column": {
      "latitude": "29.919847650858355",
      "longitude": "-90.09350987539182"
    }
  },
  {
    "service_request": "2026-1298079",
    "request_type": "Tree Service",
    "request_reason": "Street or Sidewalk Blocked",
    "date_created": "2026-07-08T15:43:59.000",
    "date_modified": "2026-07-08T15:44:00.000",
    "request_status": "Pending",
    "responsible_agency": "Department of Parks & Parkways",
    "final_address": "1500 BLK Bienville St",
    "address_councildis": "C",
    "status": "Pending",
    "rowid": "1298079",
    "final_x": "3679535.3361",
    "final_y": "532910.898533",
    "longitude": "-90.07422576097728",
    "latitude": "29.959379689027664",
    "geocoded_column": {
      "latitude": "29.959379689027664",
      "longitude": "-90.07422576097728"
    }
  },
  {
    "service_request": "2026-1298078",
    "request_type": "Trash/Recycling",
    "request_reason": "Repair Trash Cart",
    "date_created": "2026-07-08T15:43:47.000",
    "date_modified": "2026-07-08T15:43:49.000",
    "request_status": "Pending",
    "responsible_agency": "Department of Sanitation",
    "final_address": "1123 Gordon St",
    "address_councildis": "E",
    "status": "Assigned to Contractor",
    "contractor": "Waste Pro",
    "rowid": "1298078",
    "final_x": "3699281.70212",
    "final_y": "533671.294725",
    "longitude": "-90.01184411408141",
    "latitude": "29.960859105243987",
    "geocoded_column": {
      "latitude": "29.960859105243987",
      "longitude": "-90.01184411408141"
    }
  },
  {
    "service_request": "2026-1298077",
    "request_type": "Roads and Streets",
    "request_reason": "Pothole",
    "date_created": "2026-07-08T15:41:51.000",
    "date_modified": "2026-07-08T15:41:56.000",
    "request_status": "Pending",
    "responsible_agency": "Department of Public Works",
    "final_address": "201 S Olympia St",
    "address_councildis": "A",
    "status": "Pending",
    "rowid": "1298077",
    "final_x": "3669101.9881",
    "final_y": "539277.250698",
    "longitude": "-90.10695673405304",
    "latitude": "29.977196147713993",
    "geocoded_column": {
      "latitude": "29.977196147713993",
      "longitude": "-90.10695673405304"
    }
  },
  {
    "service_request": "2026-1298076",
    "request_type": "Trash/Recycling",
    "request_reason": "Request a Large Item Pick Up",
    "date_created": "2026-07-08T15:38:38.000",
    "date_modified": "2026-07-08T15:38:40.000",
    "request_status": "Pending",
    "responsible_agency": "Department of Sanitation",
    "final_address": "2518 Florida Ave",
    "address_councildis": "D",
    "status": "Assigned to Contractor",
    "contractor": "IV Waste",
    "rowid": "1298076",
    "final_x": "3686217.69289",
    "final_y": "542281.907597",
    "longitude": "-90.05279380886702",
    "latitude": "29.98494309140667",
    "geocoded_column": {
      "latitude": "29.98494309140667",
      "longitude": "-90.05279380886702"
    }
  },
  {
    "service_request": "2026-1298075",
    "request_type": "Trash/Recycling",
    "request_reason": "Request a Large Item Pick Up",
    "date_created": "2026-07-08T15:38:05.000",
    "date_modified": "2026-07-08T15:38:06.000",
    "request_status": "Pending",
    "responsible_agency": "Department of Sanitation",
    "final_address": "8701 Green St",
    "address_councildis": "A",
    "status": "Assigned to Contractor",
    "contractor": "IV Waste",
    "rowid": "1298075",
    "final_x": "3661572.34848",
    "final_y": "531154.205506",
    "longitude": "-90.13100712049533",
    "latitude": "29.955079872462054",
    "geocoded_column": {
      "latitude": "29.955079872462054",
      "longitude": "-90.13100712049533"
    }
  },
  {
    "service_request": "2026-1298074",
    "request_type": "Trash/Recycling",
    "request_reason": "Request a Large Item Pick Up",
    "date_created": "2026-07-08T15:37:12.000",
    "date_modified": "2026-07-08T15:37:13.000",
    "request_status": "Pending",
    "responsible_agency": "Department of Sanitation",
    "final_address": "5040 Basinview Dr",
    "address_councildis": "E",
    "status": "Assigned to Contractor",
    "contractor": "Waste Pro",
    "rowid": "1298074",
    "final_x": "3698553.63421",
    "final_y": "555738.838681",
    "longitude": "-90.0133404385182",
    "latitude": "30.02155979784635",
    "geocoded_column": {
      "latitude": "30.02155979784635",
      "longitude": "-90.0133404385182"
    }
  },
  {
    "service_request": "2026-1298073",
    "request_type": "Property Maintenance",
    "request_reason": "Property Maintenance",
    "date_created": "2026-07-08T15:34:10.000",
    "date_modified": "2026-07-08T15:34:12.000",
    "request_status": "Pending",
    "responsible_agency": "Department of Code Enforcement",
    "final_address": "7920 Pompano St",
    "address_councildis": "E",
    "status": "Pending",
    "rowid": "1298073",
    "final_x": "3700124.51837",
    "final_y": "561565.625183",
    "longitude": "-90.0081639740403",
    "latitude": "30.037531361232844",
    "geocoded_column": {
      "latitude": "30.037531361232844",
      "longitude": "-90.0081639740403"
    }
  },
  {
    "service_request": "2026-1298072",
    "request_type": "Property Maintenance",
    "request_reason": "Property Maintenance",
    "date_created": "2026-07-08T15:30:45.000",
    "date_modified": "2026-07-08T15:30:46.000",
    "request_status": "Pending",
    "responsible_agency": "Department of Code Enforcement",
    "final_address": "7920 Pompano St",
    "address_councildis": "E",
    "status": "Pending",
    "rowid": "1298072",
    "final_x": "3700124.51837",
    "final_y": "561565.625183",
    "longitude": "-90.0081639740403",
    "latitude": "30.037531361232844",
    "geocoded_column": {
      "latitude": "30.037531361232844",
      "longitude": "-90.0081639740403"
    }
  },
  {
    "service_request": "2026-1298071",
    "request_type": "Trash/Recycling",
    "request_reason": "Return Recycling Cart",
    "date_created": "2026-07-08T15:30:31.000",
    "date_modified": "2026-07-08T15:30:33.000",
    "request_status": "Pending",
    "responsible_agency": "Department of Sanitation",
    "final_address": "6600 Avenue A",
    "address_councildis": "A",
    "status": "Pending",
    "rowid": "1298071",
    "final_x": "3665974.01479",
    "final_y": "552037.20495",
    "longitude": "-90.11640793140843",
    "latitude": "30.012373339668454",
    "geocoded_column": {
      "latitude": "30.012373339668454",
      "longitude": "-90.11640793140843"
    }
  },
  {
    "service_request": "2026-1298070",
    "request_type": "Property Maintenance",
    "request_reason": "Property Maintenance",
    "date_created": "2026-07-08T15:30:22.000",
    "date_modified": "2026-07-08T15:30:24.000",
    "request_status": "Pending",
    "responsible_agency": "Department of Code Enforcement",
    "final_address": "3801 Constance St",
    "address_councildis": "B",
    "status": "Pending",
    "rowid": "1298070",
    "final_x": "3673429.40244",
    "final_y": "518719.098103",
    "longitude": "-90.09399159803286",
    "latitude": "29.920539949619002",
    "geocoded_column": {
      "latitude": "29.920539949619002",
      "longitude": "-90.09399159803286"
    }
  },
  {
    "service_request": "2026-1298069",
    "request_type": "Trash/Recycling",
    "request_reason": "Order Trash Cart",
    "date_created": "2026-07-08T15:29:36.000",
    "date_modified": "2026-07-08T15:29:38.000",
    "request_status": "Pending",
    "responsible_agency": "Department of Sanitation",
    "final_address": "2708 S Galvez St",
    "address_councildis": "B",
    "status": "Assigned to Contractor",
    "contractor": "IV Waste",
    "rowid": "1298069",
    "final_x": "3672453.87879",
    "final_y": "528208.52032",
    "longitude": "-90.0967476189908",
    "latitude": "29.946661767998766",
    "geocoded_column": {
      "latitude": "29.946661767998766",
      "longitude": "-90.0967476189908"
    }
  },
  {
    "service_request": "2026-1298068",
    "request_type": "Abandoned Vehicles",
    "request_reason": "Abandoned/Junk Vehicles",
    "date_created": "2026-07-08T15:29:31.000",
    "date_modified": "2026-07-08T15:29:33.000",
    "request_status": "Pending",
    "responsible_agency": "Department of Public Works",
    "final_address": "633 N Scott St",
    "address_councildis": "A",
    "status": "Pending",
    "rowid": "1298068",
    "final_x": "3672987.90638",
    "final_y": "539499.06497",
    "longitude": "-90.09467613864246",
    "latitude": "29.97769112978986",
    "geocoded_column": {
      "latitude": "29.97769112978986",
      "longitude": "-90.09467613864246"
    }
  },
  {
    "service_request": "2026-1298067",
    "request_type": "Trash/Recycling",
    "request_reason": "Repair Trash Cart",
    "date_created": "2026-07-08T15:27:57.000",
    "date_modified": "2026-07-08T15:27:59.000",
    "request_status": "Pending",
    "responsible_agency": "Department of Sanitation",
    "final_address": "5904 Tchoupitoulas St",
    "address_councildis": "A",
    "status": "Assigned to Contractor",
    "contractor": "IV Waste",
    "rowid": "1298067",
    "final_x": "3664747.79821",
    "final_y": "517299.207797",
    "longitude": "-90.12144290006904",
    "latitude": "29.916891035132846",
    "geocoded_column": {
      "latitude": "29.916891035132846",
      "longitude": "-90.12144290006904"
    }
  },
  {
    "service_request": "2026-1298066",
    "request_type": "Trash/Recycling",
    "request_reason": "Illegal Dumping",
    "date_created": "2026-07-08T15:27:13.000",
    "date_modified": "2026-07-08T15:27:14.000",
    "request_status": "Pending",
    "responsible_agency": "Department of Sanitation",
    "final_address": "717 Peniston St",
    "address_councildis": "B",
    "status": "Pending",
    "rowid": "1298066",
    "final_x": "3673559.63988",
    "final_y": "518493.997111",
    "longitude": "-90.0935881860951",
    "latitude": "29.91991711984172",
    "geocoded_column": {
      "latitude": "29.91991711984172",
      "longitude": "-90.0935881860951"
    }
  },
  {
    "service_request": "2026-1298065",
    "request_type": "Abandoned Vehicles",
    "request_reason": "Abandoned/Junk Vehicles",
    "date_created": "2026-07-08T15:25:15.000",
    "date_modified": "2026-07-08T15:25:17.000",
    "request_status": "Pending",
    "responsible_agency": "Department of Public Works",
    "final_address": "811 Wilson Dr",
    "address_councildis": "A",
    "status": "Pending",
    "rowid": "1298065",
    "final_x": "3674002.60436",
    "final_y": "539375.885002",
    "longitude": "-90.09147558647904",
    "latitude": "29.977322227179172",
    "geocoded_column": {
      "latitude": "29.977322227179172",
      "longitude": "-90.09147558647904"
    }
  },
  {
    "service_request": "2026-1298064",
    "request_type": "Safety & Permits",
    "request_reason": "Zoning Enforcement",
    "date_created": "2026-07-08T15:21:53.000",
    "date_modified": "2026-07-08T15:21:54.000",
    "request_status": "Pending",
    "responsible_agency": "Safety and Permits",
    "final_address": "4123 Willow St",
    "address_councildis": "B",
    "status": "Pending",
    "rowid": "1298064",
    "final_x": "3671327.48929",
    "final_y": "525563.021437",
    "longitude": "-90.10039392225399",
    "latitude": "29.939420885194362",
    "geocoded_column": {
      "latitude": "29.939420885194362",
      "longitude": "-90.10039392225399"
    }
  },
  {
    "service_request": "2026-1298063",
    "request_type": "Abandoned Vehicles",
    "request_reason": "Abandoned/Junk Vehicles",
    "date_created": "2026-07-08T15:20:00.000",
    "date_modified": "2026-07-08T15:20:06.000",
    "request_status": "Pending",
    "responsible_agency": "Department of Public Works",
    "final_address": "4600 BLK Woodruff St",
    "address_councildis": "B",
    "status": "Pending",
    "rowid": "1298063",
    "final_x": "3669093.80056",
    "final_y": "530666.132353",
    "longitude": "-90.1072736007894",
    "latitude": "29.95351867812475",
    "geocoded_column": {
      "latitude": "29.95351867812475",
      "longitude": "-90.1072736007894"
    }
  },
  {
    "service_request": "2026-1298062",
    "request_type": "Abandoned Vehicles",
    "request_reason": "Abandoned/Junk Vehicles",
    "date_created": "2026-07-08T15:13:25.000",
    "date_modified": "2026-07-08T15:13:27.000",
    "request_status": "Pending",
    "responsible_agency": "Department of Public Works",
    "final_address": "7920 Pompano St",
    "address_councildis": "E",
    "status": "Pending",
    "rowid": "1298062",
    "final_x": "3700124.51837",
    "final_y": "561565.625183",
    "longitude": "-90.0081639740403",
    "latitude": "30.037531361232844",
    "geocoded_column": {
      "latitude": "30.037531361232844",
      "longitude": "-90.0081639740403"
    }
  },
  {
    "service_request": "2026-1298061",
    "request_type": "Streetlights",
    "request_reason": "Streetlight Outage/Malfunction",
    "date_created": "2026-07-08T15:13:07.000",
    "date_modified": "2026-07-08T15:13:24.000",
    "request_status": "Pending",
    "responsible_agency": "Department of Public Works",
    "final_address": "4808 Rosemont Pl",
    "address_councildis": "E",
    "status": "Pending",
    "rowid": "1298061",
    "final_x": "3702605.55505",
    "final_y": "555217.370969",
    "longitude": "-90.00055671447001",
    "latitude": "30.01999699338202",
    "geocoded_column": {
      "latitude": "30.01999699338202",
      "longitude": "-90.00055671447001"
    }
  },
  {
    "service_request": "2026-1298059",
    "request_type": "Trash/Recycling",
    "request_reason": "Request a Large Item Pick Up",
    "date_created": "2026-07-08T15:12:07.000",
    "date_modified": "2026-07-08T15:12:09.000",
    "request_status": "Pending",
    "responsible_agency": "Department of Sanitation",
    "final_address": "1315 Marigny St",
    "address_councildis": "C",
    "status": "Assigned to Contractor",
    "contractor": "IV Waste",
    "rowid": "1298059",
    "final_x": "3685386.63977",
    "final_y": "537235.463368",
    "longitude": "-90.05559648832124",
    "latitude": "29.971092653249798",
    "geocoded_column": {
      "latitude": "29.971092653249798",
      "longitude": "-90.05559648832124"
    }
  },
  {
    "service_request": "2026-1298060",
    "request_type": "Trash/Recycling",
    "request_reason": "Repair Recycling Cart",
    "date_created": "2026-07-08T15:12:07.000",
    "date_modified": "2026-07-08T15:12:09.000",
    "request_status": "Pending",
    "responsible_agency": "Department of Sanitation",
    "final_address": "6229 Magazine St",
    "address_councildis": "A",
    "status": "Pending",
    "rowid": "1298060",
    "final_x": "3663562.97191",
    "final_y": "519729.511672",
    "longitude": "-90.12510183790309",
    "latitude": "29.92360801762685",
    "geocoded_column": {
      "latitude": "29.92360801762685",
      "longitude": "-90.12510183790309"
    }
  },
  {
    "service_request": "2026-1298058",
    "request_type": "Trash/Recycling",
    "request_reason": "Order Second Trash Cart",
    "date_created": "2026-07-08T15:11:22.000",
    "date_modified": "2026-07-08T15:11:24.000",
    "request_status": "Pending",
    "responsible_agency": "Department of Sanitation",
    "final_address": "6925 Lake Willow Dr",
    "address_councildis": "E",
    "status": "Assigned to Contractor",
    "contractor": "Waste Pro",
    "rowid": "1298058",
    "final_x": "3702876.52894",
    "final_y": "558808.332892",
    "longitude": "-89.9995684582054",
    "latitude": "30.029862083051093",
    "geocoded_column": {
      "latitude": "30.029862083051093",
      "longitude": "-89.9995684582054"
    }
  },
  {
    "service_request": "2026-1298057",
    "request_type": "Trash/Recycling",
    "request_reason": "Request a Large Item Pick Up",
    "date_created": "2026-07-08T15:10:14.000",
    "date_modified": "2026-07-08T15:10:16.000",
    "request_status": "Pending",
    "responsible_agency": "Department of Sanitation",
    "final_address": "2612 St Philip St",
    "address_councildis": "C",
    "status": "Assigned to Contractor",
    "contractor": "IV Waste",
    "rowid": "1298057",
    "final_x": "3677708.56686",
    "final_y": "537567.639944",
    "longitude": "-90.07983340234365",
    "latitude": "29.972239213709376",
    "geocoded_column": {
      "latitude": "29.972239213709376",
      "longitude": "-90.07983340234365"
    }
  },
  {
    "service_request": "2026-1298056",
    "request_type": "Parks & Grass Service",
    "request_reason": "Request Grass Cutting Service (City Owned Property)",
    "date_created": "2026-07-08T15:06:45.000",
    "date_modified": "2026-07-08T15:06:46.000",
    "request_status": "Pending",
    "responsible_agency": "Department of Parks & Parkways",
    "final_address": "4884 Cardenas Dr",
    "address_councildis": "E",
    "status": "Pending",
    "rowid": "1298056",
    "final_x": "3713531.88779",
    "final_y": "557158.548187",
    "longitude": "-89.96596015739834",
    "latitude": "30.024980491805888",
    "geocoded_column": {
      "latitude": "30.024980491805888",
      "longitude": "-89.96596015739834"
    }
  },
  {
    "service_request": "2026-1298055",
    "request_type": "Drainage",
    "request_reason": "Catch Basin Not Draining",
    "date_created": "2026-07-08T15:06:31.000",
    "date_modified": "2026-07-08T15:06:33.000",
    "request_status": "Pending",
    "responsible_agency": "Sewerage & Water Board",
    "final_address": "230 N Broad St",
    "address_councildis": "B",
    "status": "Pending",
    "rowid": "1298055",
    "final_x": "3675822.33269",
    "final_y": "535572.72647",
    "longitude": "-90.08585904720267",
    "latitude": "29.966810482811358",
    "geocoded_column": {
      "latitude": "29.966810482811358",
      "longitude": "-90.08585904720267"
    }
  },
  {
    "service_request": "2026-1298054",
    "request_type": "Roads and Streets",
    "request_reason": "Pothole",
    "date_created": "2026-07-08T15:06:06.000",
    "date_modified": "2026-07-08T15:06:08.000",
    "request_status": "Pending",
    "responsible_agency": "Department of Public Works",
    "final_address": "118 City Park Ave",
    "address_councildis": "A",
    "status": "Pending",
    "rowid": "1298054",
    "final_x": "3667651.43245",
    "final_y": "540854.232907",
    "longitude": "-90.1114849682831",
    "latitude": "29.98157492613766",
    "geocoded_column": {
      "latitude": "29.98157492613766",
      "longitude": "-90.1114849682831"
    }
  },
  {
    "service_request": "2026-1298053",
    "request_type": "Trash/Recycling",
    "request_reason": "Request a Large Item Pick Up",
    "date_created": "2026-07-08T15:02:57.000",
    "date_modified": "2026-07-08T15:02:58.000",
    "request_status": "Pending",
    "responsible_agency": "Department of Sanitation",
    "final_address": "3265 Elmwood Park Dr",
    "address_councildis": "C",
    "status": "Assigned to Contractor",
    "contractor": "Richards Disposal",
    "rowid": "1298053",
    "final_x": "3695100.90352",
    "final_y": "518121.090614",
    "longitude": "-90.02560663679611",
    "latitude": "29.91823332207595",
    "geocoded_column": {
      "latitude": "29.91823332207595",
      "longitude": "-90.02560663679611"
    }
  },
  {
    "service_request": "2026-1298052",
    "request_type": "Roads and Streets",
    "request_reason": "Pothole",
    "date_created": "2026-07-08T15:01:31.000",
    "date_modified": "2026-07-08T15:01:32.000",
    "request_status": "Pending",
    "responsible_agency": "Department of Public Works",
    "final_address": "201 S Olympia St",
    "address_councildis": "A",
    "status": "Pending",
    "rowid": "1298052",
    "final_x": "3669101.9881",
    "final_y": "539277.250698",
    "longitude": "-90.10695673405304",
    "latitude": "29.977196147713993",
    "geocoded_column": {
      "latitude": "29.977196147713993",
      "longitude": "-90.10695673405304"
    }
  },
  {
    "service_request": "2026-1298051",
    "request_type": "Trash/Recycling",
    "request_reason": "Request a Large Item Pick Up",
    "date_created": "2026-07-08T15:00:07.000",
    "date_modified": "2026-07-08T15:00:09.000",
    "request_status": "Pending",
    "responsible_agency": "Department of Sanitation",
    "final_address": "4735 Galahad Dr",
    "address_councildis": "E",
    "status": "Assigned to Contractor",
    "contractor": "Waste Pro",
    "rowid": "1298051",
    "final_x": "3707289.29489",
    "final_y": "555416.584409",
    "longitude": "-89.9857503130147",
    "latitude": "30.020394125447677",
    "geocoded_column": {
      "latitude": "30.020394125447677",
      "longitude": "-89.9857503130147"
    }
  },
  {
    "service_request": "2026-1298050",
    "request_type": "Trash/Recycling",
    "request_reason": "Replace Trash Cart",
    "date_created": "2026-07-08T14:59:49.000",
    "date_modified": "2026-07-08T14:59:52.000",
    "request_status": "Pending",
    "responsible_agency": "Department of Sanitation",
    "final_address": "2920 Magazine St",
    "address_councildis": "B",
    "status": "Assigned to Contractor",
    "contractor": "IV Waste",
    "rowid": "1298050",
    "final_x": "3676513.80936",
    "final_y": "520382.574328",
    "longitude": "-90.08419831239577",
    "latitude": "29.925021880027106",
    "geocoded_column": {
      "latitude": "29.925021880027106",
      "longitude": "-90.08419831239577"
    }
  },
  {
    "service_request": "2026-1298049",
    "request_type": "Trash/Recycling",
    "request_reason": "Repair Trash Cart",
    "date_created": "2026-07-08T14:59:13.000",
    "date_modified": "2026-07-08T14:59:15.000",
    "request_status": "Pending",
    "responsible_agency": "Department of Sanitation",
    "final_address": "330 Joseph St",
    "address_councildis": "A",
    "status": "Assigned to Contractor",
    "contractor": "IV Waste",
    "rowid": "1298049",
    "final_x": "3665764.94471",
    "final_y": "517430.054838",
    "longitude": "-90.1182279670791",
    "latitude": "29.917221204016336",
    "geocoded_column": {
      "latitude": "29.917221204016336",
      "longitude": "-90.1182279670791"
    }
  },
  {
    "service_request": "2026-1298048",
    "request_type": "Trash/Recycling",
    "request_reason": "Request a Large Item Pick Up",
    "date_created": "2026-07-08T14:51:38.000",
    "date_modified": "2026-07-08T14:51:40.000",
    "request_status": "Pending",
    "responsible_agency": "Department of Sanitation",
    "final_address": "8126 Lincoln Beach Blvd",
    "address_councildis": "E",
    "status": "Assigned to Contractor",
    "contractor": "Waste Pro",
    "rowid": "1298048",
    "final_x": "3702220.6369",
    "final_y": "562973.010208",
    "longitude": "-90.00148809218318",
    "latitude": "30.041334296213567",
    "geocoded_column": {
      "latitude": "30.041334296213567",
      "longitude": "-90.00148809218318"
    }
  },
  {
    "service_request": "2026-1298047",
    "request_type": "Trash/Recycling",
    "request_reason": "Order Trash Cart",
    "date_created": "2026-07-08T14:51:18.000",
    "date_modified": "2026-07-08T14:51:26.000",
    "request_status": "Pending",
    "responsible_agency": "Department of Sanitation",
    "final_address": "7525 Woodbine Dr",
    "address_councildis": "E",
    "status": "Assigned to Contractor",
    "contractor": "Waste Pro",
    "rowid": "1298047",
    "final_x": "3702114.9434",
    "final_y": "561117.848158",
    "longitude": "-90.00189024555596",
    "latitude": "30.036236704649273",
    "geocoded_column": {
      "latitude": "30.036236704649273",
      "longitude": "-90.00189024555596"
    }
  },
  {
    "service_request": "2026-1298046",
    "request_type": "Trash/Recycling",
    "request_reason": "Replace Trash Cart",
    "date_created": "2026-07-08T14:51:09.000",
    "date_modified": "2026-07-08T14:51:11.000",
    "request_status": "Pending",
    "responsible_agency": "Department of Sanitation",
    "final_address": "2472 Allen Toussaint Blvd",
    "address_councildis": "D",
    "status": "Assigned to Contractor",
    "contractor": "IV Waste",
    "rowid": "1298046",
    "final_x": "3685592.32207",
    "final_y": "555823.136793",
    "longitude": "-90.0542916542833",
    "latitude": "30.02219577219918",
    "geocoded_column": {
      "latitude": "30.02219577219918",
      "longitude": "-90.0542916542833"
    }
  },
  {
    "service_request": "2026-1298045",
    "request_type": "Streetlights",
    "request_reason": "Streetlight Outage/Malfunction",
    "date_created": "2026-07-08T14:50:05.000",
    "date_modified": "2026-07-08T14:50:06.000",
    "request_status": "Pending",
    "responsible_agency": "Department of Public Works",
    "final_address": "3454 Roger Williams St",
    "address_councildis": "D",
    "status": "Pending",
    "rowid": "1298045",
    "final_x": "3676393.94081",
    "final_y": "543892.025742",
    "longitude": "-90.08376740243948",
    "latitude": "29.989668572028066",
    "geocoded_column": {
      "latitude": "29.989668572028066",
      "longitude": "-90.08376740243948"
    }
  },
  {
    "service_request": "2026-1298044",
    "request_type": "Streetlights",
    "request_reason": "Streetlight Outage/Malfunction",
    "date_created": "2026-07-08T14:49:22.000",
    "date_modified": "2026-07-08T14:49:23.000",
    "request_status": "Pending",
    "responsible_agency": "Department of Public Works",
    "final_address": "7500 Arbor Dr",
    "address_councildis": "E",
    "status": "Pending",
    "rowid": "1298044",
    "final_x": "3701549.40234",
    "final_y": "558106.083611",
    "longitude": "-90.00378789077733",
    "latitude": "30.027973578072825",
    "geocoded_column": {
      "latitude": "30.027973578072825",
      "longitude": "-90.00378789077733"
    }
  },
  {
    "service_request": "2026-1298043",
    "request_type": "Trash/Recycling",
    "request_reason": "Request a Large Item Pick Up",
    "date_created": "2026-07-08T14:49:01.000",
    "date_modified": "2026-07-08T14:49:03.000",
    "request_status": "Pending",
    "responsible_agency": "Department of Sanitation",
    "final_address": "3RD ST & DANNEEL ST",
    "address_councildis": "B",
    "status": "Assigned to Contractor",
    "contractor": "IV Waste",
    "rowid": "1298043",
    "final_x": "3675646.8",
    "final_y": "524078.88",
    "longitude": "-90.08680824980817",
    "latitude": "29.93521148073475",
    "geocoded_column": {
      "latitude": "29.93521148073475",
      "longitude": "-90.08680824980817"
    }
  },
  {
    "service_request": "2026-1298041",
    "request_type": "Streetlights",
    "request_reason": "Streetlight Outage/Malfunction",
    "date_created": "2026-07-08T14:44:07.000",
    "date_modified": "2026-07-08T14:44:09.000",
    "request_status": "Pending",
    "responsible_agency": "Department of Public Works",
    "final_address": "7500 Arbor Dr",
    "address_councildis": "E",
    "status": "Pending",
    "rowid": "1298041",
    "final_x": "3701549.40234",
    "final_y": "558106.083611",
    "longitude": "-90.00378789077733",
    "latitude": "30.027973578072825",
    "geocoded_column": {
      "latitude": "30.027973578072825",
      "longitude": "-90.00378789077733"
    }
  },
  {
    "service_request": "2026-1298040",
    "request_type": "Drainage",
    "request_reason": "Catch Basin Frame and Cover Missing or Damaged",
    "date_created": "2026-07-08T14:41:40.000",
    "date_modified": "2026-07-08T14:41:42.000",
    "request_status": "Pending",
    "responsible_agency": "Sewerage & Water Board",
    "final_address": "9204 Edinburgh St",
    "address_councildis": "A",
    "status": "Pending",
    "rowid": "1298040",
    "final_x": "3664560.55732",
    "final_y": "537046.577288",
    "longitude": "-90.12137463593447",
    "latitude": "29.971195406696545",
    "geocoded_column": {
      "latitude": "29.971195406696545",
      "longitude": "-90.12137463593447"
    }
  },
  {
    "service_request": "2026-1298039",
    "request_type": "Roads and Streets",
    "request_reason": "Pothole",
    "date_created": "2026-07-08T14:40:12.000",
    "date_modified": "2026-07-08T14:40:13.000",
    "request_status": "Pending",
    "responsible_agency": "Department of Public Works",
    "final_address": "PLAINFIELD DR & READ LN",
    "address_councildis": "E",
    "status": "Pending",
    "rowid": "1298039",
    "final_x": "3710065.8",
    "final_y": "562576.38",
    "longitude": "-89.97670964738576",
    "latitude": "30.039990659085216",
    "geocoded_column": {
      "latitude": "30.039990659085216",
      "longitude": "-89.97670964738576"
    }
  },
  {
    "service_request": "2026-1298038",
    "request_type": "Trash/Recycling",
    "request_reason": "MIssed Recycling Pick-Up",
    "date_created": "2026-07-08T14:40:08.000",
    "date_modified": "2026-07-08T15:15:14.000",
    "case_close_date": "2026-07-08T10:15:13.000",
    "request_status": "Closed",
    "responsible_agency": "Department of Sanitation",
    "final_address": "4450 Music St",
    "address_councildis": "D",
    "status": "Invalid Request",
    "contractor": "IV Waste",
    "contractor_action": "Invalid Request",
    "rowid": "1298038",
    "final_x": "3685647.64399",
    "final_y": "549215.647443",
    "longitude": "-90.05434989080601",
    "latitude": "30.004025897145297",
    "geocoded_column": {
      "latitude": "30.004025897145297",
      "longitude": "-90.05434989080601"
    }
  },
  {
    "service_request": "2026-1298037",
    "request_type": "Drainage",
    "request_reason": "Catch Basin Not Draining",
    "date_created": "2026-07-08T14:38:31.000",
    "date_modified": "2026-07-08T14:38:33.000",
    "request_status": "Pending",
    "responsible_agency": "Sewerage & Water Board",
    "final_address": "3803 Elysian Fields Ave",
    "address_councildis": "D",
    "status": "Pending",
    "rowid": "1298037",
    "final_x": "3684280.80092",
    "final_y": "546680.392401",
    "longitude": "-90.05875707390774",
    "latitude": "29.997096736870628",
    "geocoded_column": {
      "latitude": "29.997096736870628",
      "longitude": "-90.05875707390774"
    }
  },
  {
    "service_request": "2026-1298036",
    "request_type": "Roads and Streets",
    "request_reason": "Sidewalk Damaged or Missing",
    "date_created": "2026-07-08T14:37:56.000",
    "date_modified": "2026-07-08T14:37:58.000",
    "request_status": "Pending",
    "responsible_agency": "Department of Public Works",
    "final_address": "ROBERT E LEE BLVD & ST ROCH AVE",
    "address_councildis": "D",
    "status": "Pending",
    "rowid": "1298036",
    "final_x": "3684970.3",
    "final_y": "555817.88",
    "longitude": "-90.056257271299",
    "latitude": "30.022200394842454",
    "geocoded_column": {
      "latitude": "30.022200394842454",
      "longitude": "-90.056257271299"
    }
  },
  {
    "service_request": "2026-1298035",
    "request_type": "Trash/Recycling",
    "request_reason": "Repair Trash Cart",
    "date_created": "2026-07-08T14:36:36.000",
    "date_modified": "2026-07-08T14:36:37.000",
    "request_status": "Pending",
    "responsible_agency": "Department of Sanitation",
    "final_address": "210 Delaronde St",
    "address_councildis": "C",
    "status": "Assigned to Contractor",
    "contractor": "Richards Disposal",
    "rowid": "1298035",
    "final_x": "3685971.01942",
    "final_y": "530721.931522",
    "longitude": "-90.05398061769921",
    "latitude": "29.953164759544816",
    "geocoded_column": {
      "latitude": "29.953164759544816",
      "longitude": "-90.05398061769921"
    }
  },