[
  {
    "service_request": "2026-1283466",
    "request_type": "Trash/Recycling",
    "request_reason": "Replace Trash Cart",
    "date_created": "2026-05-21T23:59:26.000",
    "date_modified": "2026-05-21T23:59:29.000",
    "request_status": "Pending",
    "responsible_agency": "Department of Sanitation",
    "final_address": "2415 Piety St",
    "address_councildis": "D",
    "status": "Assigned to Contractor",
    "contractor": "IV Waste",
    "rowid": "1283466",
    "final_x": "3691125.03913",
    "final_y": "540804.520459",
    "longitude": "-90.03734643842314",
    "latitude": "29.980729096016848",
    "geocoded_column": {
      "latitude": "29.980729096016848",
      "longitude": "-90.03734643842314"
    }
  },
  {
    "service_request": "2026-1283465",
    "request_type": "Trash/Recycling",
    "request_reason": "Replace Trash Cart",
    "date_created": "2026-05-21T23:46:43.000",
    "date_modified": "2026-05-21T23:46:44.000",
    "request_status": "Pending",
    "responsible_agency": "Department of Sanitation",
    "final_address": "6844 Louis Xiv St",
    "address_councildis": "A",
    "status": "Assigned to Contractor",
    "contractor": "IV Waste",
    "rowid": "1283465",
    "final_x": "3668504.31258",
    "final_y": "553077.785367",
    "longitude": "-90.10837843375982",
    "latitude": "30.015160436349877",
    "geocoded_column": {
      "latitude": "30.015160436349877",
      "longitude": "-90.10837843375982"
    }
  },
  {
    "service_request": "2026-1283464",
    "request_type": "Roads and Streets",
    "request_reason": "Pothole",
    "date_created": "2026-05-21T23:45:58.000",
    "date_modified": "2026-05-21T23:46:02.000",
    "request_status": "Pending",
    "responsible_agency": "Department of Public Works",
    "final_address": "5700 Wisner Blvd",
    "address_councildis": "A",
    "status": "Pending",
    "rowid": "1283464",
    "final_x": "3675621.95048",
    "final_y": "553401.678231",
    "longitude": "-90.08587888569367",
    "latitude": "30.015839882848088",
    "geocoded_column": {
      "latitude": "30.015839882848088",
      "longitude": "-90.08587888569367"
    }
  },
  {
    "service_request": "2026-1283463",
    "request_type": "Health Related Request",
    "request_reason": "Noise Ordinance Complaint",
    "date_created": "2026-05-21T22:20:58.000",
    "date_modified": "2026-05-21T22:21:02.000",
    "request_status": "Pending",
    "responsible_agency": "Health Department",
    "final_address": "801 Bourbon St, New Orleans, Louisiana, 70116",
    "address_councildis": "C",
    "status": "Pending",
    "rowid": "1283463",
    "final_x": "3682490.98735",
    "final_y": "533018.672772",
    "longitude": "-90.06488875731978",
    "latitude": "29.959586396383013",
    "geocoded_column": {
      "latitude": "29.959586396383013",
      "longitude": "-90.06488875731978"
    }
  },
  {
    "service_request": "2026-1283462",
    "request_type": "Mosquito, Termite & Rodent Control",
    "request_reason": "Non-Rodent Complaint (Possums & Snakes)",
    "date_created": "2026-05-21T21:58:54.000",
    "date_modified": "2026-05-21T21:58:56.000",
    "request_status": "Pending",
    "responsible_agency": "Mosquito, Termite & Rodent Control Board",
    "final_address": "1610 Agriculture St",
    "address_councildis": "D",
    "status": "Pending",
    "rowid": "1283462",
    "final_x": "3680034.21115",
    "final_y": "542915.282381",
    "longitude": "-90.07230275910642",
    "latitude": "29.986873212645875",
    "geocoded_column": {
      "latitude": "29.986873212645875",
      "longitude": "-90.07230275910642"
    }
  },
  {
    "service_request": "2026-1283461",
    "request_type": "Street and Traffic Signs",
    "request_reason": "One Way Sign Missing or Damaged",
    "date_created": "2026-05-21T21:57:17.000",
    "date_modified": "2026-05-21T21:57:19.000",
    "request_status": "Pending",
    "responsible_agency": "Department of Public Works",
    "final_address": "1610 Agriculture St",
    "address_councildis": "D",
    "status": "Pending",
    "rowid": "1283461",
    "final_x": "3680034.21115",
    "final_y": "542915.282381",
    "longitude": "-90.07230275910642",
    "latitude": "29.986873212645875",
    "geocoded_column": {
      "latitude": "29.986873212645875",
      "longitude": "-90.07230275910642"
    }
  },
  {
    "service_request": "2026-1283460",
    "request_type": "Street and Traffic Signs",
    "request_reason": "Additional Signage Request",
    "date_created": "2026-05-21T21:55:41.000",
    "date_modified": "2026-05-21T21:55:43.000",
    "request_status": "Pending",
    "responsible_agency": "Department of Public Works",
    "final_address": "644 Camp St",
    "address_councildis": "B",
    "status": "Pending",
    "rowid": "1283460",
    "final_x": "3680954.02901",
    "final_y": "528465.708032",
    "longitude": "-90.06990064150143",
    "latitude": "29.947113974972734",
    "geocoded_column": {
      "latitude": "29.947113974972734",
      "longitude": "-90.06990064150143"
    }
  },
  {
    "service_request": "2026-1283459",
    "request_type": "Property Maintenance",
    "request_reason": "Property Maintenance",
    "date_created": "2026-05-21T21:49:17.000",
    "date_modified": "2026-05-21T21:49:19.000",
    "request_status": "Pending",
    "responsible_agency": "Department of Code Enforcement",
    "final_address": "5700 Vicksburg St",
    "address_councildis": "A",
    "status": "Pending",
    "rowid": "1283459",
    "final_x": "3668658.16654",
    "final_y": "545461.582416",
    "longitude": "-90.10814962534776",
    "latitude": "29.994214008166267",
    "geocoded_column": {
      "latitude": "29.994214008166267",
      "longitude": "-90.10814962534776"
    }
  },
  {
    "service_request": "2026-1283458",
    "request_type": "Streetlights",
    "request_reason": "Streetlight Outage/Malfunction",
    "date_created": "2026-05-21T21:26:11.000",
    "date_modified": "2026-05-21T21:26:13.000",
    "request_status": "Pending",
    "responsible_agency": "Department of Public Works",
    "final_address": "765 French St",
    "address_councildis": "A",
    "status": "Pending",
    "rowid": "1283458",
    "final_x": "3669136.17729",
    "final_y": "548601.106323",
    "longitude": "-90.10653346862256",
    "latitude": "30.00283254973924",
    "geocoded_column": {
      "latitude": "30.00283254973924",
      "longitude": "-90.10653346862256"
    }
  },
  {
    "service_request": "2026-1283457",
    "request_type": "Trash/Recycling",
    "request_reason": "Return Trash Cart",
    "date_created": "2026-05-21T21:21:20.000",
    "date_modified": "2026-05-21T21:21:22.000",
    "request_status": "Pending",
    "responsible_agency": "Department of Sanitation",
    "final_address": "2860 Woodland Dr",
    "address_councildis": "C",
    "status": "Assigned to Contractor",
    "contractor": "Richards Disposal",
    "rowid": "1283457",
    "final_x": "3705638.42385",
    "final_y": "520200.107512",
    "longitude": "-89.99226883205745",
    "latitude": "29.92361500861629",
    "geocoded_column": {
      "latitude": "29.92361500861629",
      "longitude": "-89.99226883205745"
    }
  },
  {
    "service_request": "2026-1283456",
    "request_type": "Trash/Recycling",
    "request_reason": "Request a Large Item Pick Up",
    "date_created": "2026-05-21T21:16:05.000",
    "date_modified": "2026-05-21T21:16:08.000",
    "request_status": "Pending",
    "responsible_agency": "Department of Sanitation",
    "final_address": "5422 Seminary Pl",
    "address_councildis": "D",
    "status": "Assigned to Contractor",
    "contractor": "IV Waste",
    "rowid": "1283456",
    "final_x": "3688592.32028",
    "final_y": "553223.238679",
    "longitude": "-90.0449048047616",
    "latitude": "30.014954597407172",
    "geocoded_column": {
      "latitude": "30.014954597407172",
      "longitude": "-90.0449048047616"
    }
  },
  {
    "service_request": "2026-1283455",
    "request_type": "Trash/Recycling",
    "request_reason": "Order Recycling Cart",
    "date_created": "2026-05-21T21:09:53.000",
    "date_modified": "2026-05-21T21:09:54.000",
    "request_status": "Pending",
    "responsible_agency": "Department of Sanitation",
    "final_address": "1522 Monroe St",
    "address_councildis": "A",
    "status": "Pending",
    "rowid": "1283455",
    "final_x": "3661192.1897",
    "final_y": "530747.21037",
    "longitude": "-90.13222099774542",
    "latitude": "29.953971729879513",
    "geocoded_column": {
      "latitude": "29.953971729879513",
      "longitude": "-90.13222099774542"
    }
  },
  {
    "service_request": "2026-1283453",
    "request_type": "Trash/Recycling",
    "request_reason": "Order Trash Cart",
    "date_created": "2026-05-21T20:45:50.000",
    "date_modified": "2026-05-21T20:45:53.000",
    "request_status": "Pending",
    "responsible_agency": "Department of Sanitation",
    "final_address": "36 Allard Blvd",
    "address_councildis": "A",
    "status": "Assigned to Contractor",
    "contractor": "IV Waste",
    "rowid": "1283453",
    "final_x": "3672921.82491",
    "final_y": "540988.081483",
    "longitude": "-90.09483401571119",
    "latitude": "29.98178738070879",
    "geocoded_column": {
      "latitude": "29.98178738070879",
      "longitude": "-90.09483401571119"
    }
  },
  {
    "service_request": "2026-1283452",
    "request_type": "Trash/Recycling",
    "request_reason": "Request a Large Item Pick Up",
    "date_created": "2026-05-21T20:19:48.000",
    "date_modified": "2026-05-21T20:19:50.000",
    "request_status": "Pending",
    "responsible_agency": "Department of Sanitation",
    "final_address": "7329 Birch St",
    "address_councildis": "A",
    "status": "Assigned to Contractor",
    "contractor": "IV Waste",
    "rowid": "1283452",
    "final_x": "3664517.36864",
    "final_y": "528006.330623",
    "longitude": "-90.1218129012352",
    "latitude": "29.94633893556247",
    "geocoded_column": {
      "latitude": "29.94633893556247",
      "longitude": "-90.1218129012352"
    }
  },
  {
    "service_request": "2026-1283451",
    "request_type": "COVID-19",
    "request_reason": "COVID-19 Business Non-Compliance",
    "date_created": "2026-05-21T19:46:50.000",
    "date_modified": "2026-05-21T19:46:52.000",
    "request_status": "Pending",
    "responsible_agency": "Safety and Permits",
    "final_address": "2130 Music St, New Orleans, Louisiana, 70117",
    "address_councildis": "D",
    "status": "Pending",
    "rowid": "1283451",
    "final_x": "3686488.45602",
    "final_y": "540392.011019",
    "longitude": "-90.05200533800065",
    "latitude": "29.979738221588597",
    "geocoded_column": {
      "latitude": "29.979738221588597",
      "longitude": "-90.05200533800065"
    }
  },
  {
    "service_request": "2026-1283450",
    "request_type": "Drainage",
    "request_reason": "Catch Basin Not Draining",
    "date_created": "2026-05-21T19:40:27.000",
    "date_modified": "2026-05-21T19:40:29.000",
    "request_status": "Pending",
    "responsible_agency": "Sewerage & Water Board",
    "final_address": "1806 Audubon St",
    "address_councildis": "A",
    "status": "Pending",
    "rowid": "1283450",
    "final_x": "3665617.16928",
    "final_y": "528184.363904",
    "longitude": "-90.11833447102542",
    "latitude": "29.946796449510195",
    "geocoded_column": {
      "latitude": "29.946796449510195",
      "longitude": "-90.11833447102542"
    }
  },
  {
    "service_request": "2026-1283449",
    "request_type": "Abandoned Vehicles",
    "request_reason": "Abandoned/Junk Vehicles",
    "date_created": "2026-05-21T19:32:07.000",
    "date_modified": "2026-05-21T19:32:08.000",
    "request_status": "Pending",
    "responsible_agency": "Department of Public Works",
    "final_address": "549 Jackson Ave",
    "address_councildis": "B",
    "status": "Pending",
    "rowid": "1283449",
    "final_x": "3680023.83515",
    "final_y": "520638.067192",
    "longitude": "-90.07310943088102",
    "latitude": "29.92561872052091",
    "geocoded_column": {
      "latitude": "29.92561872052091",
      "longitude": "-90.07310943088102"
    }
  },
  {
    "service_request": "2026-1283448",
    "request_type": "Trash/Recycling",
    "request_reason": "Missed Trash Pick-Up",
    "date_created": "2026-05-21T19:20:56.000",
    "date_modified": "2026-05-21T19:21:00.000",
    "request_status": "Pending",
    "responsible_agency": "Department of Sanitation",
    "final_address": "2228 Reynes St",
    "address_councildis": "E",
    "status": "Assigned to Contractor",
    "contractor": "Waste Pro",
    "rowid": "1283448",
    "final_x": "3697151.42429",
    "final_y": "538630.288009",
    "longitude": "-90.01839138304153",
    "latitude": "29.97456194792922",
    "geocoded_column": {
      "latitude": "29.97456194792922",
      "longitude": "-90.01839138304153"
    }
  },
  {
    "service_request": "2026-1283447",
    "request_type": "General Services",
    "request_reason": "General Service Request",
    "date_created": "2026-05-21T19:12:14.000",
    "date_modified": "2026-05-21T19:12:16.000",
    "request_status": "Pending",
    "responsible_agency": "Orleans Parish Communication District",
    "final_address": "10831 Harrow Rd",
    "address_councildis": "E",
    "status": "Pending",
    "rowid": "1283447",
    "final_x": "3711442.45874",
    "final_y": "563753.570721",
    "longitude": "-89.97231482624797",
    "latitude": "30.043182573301507",
    "geocoded_column": {
      "latitude": "30.043182573301507",
      "longitude": "-89.97231482624797"
    }
  },
  {
    "service_request": "2026-1283446",
    "request_type": "Trash/Recycling",
    "request_reason": "Request a Large Item Pick Up",
    "date_created": "2026-05-21T19:06:13.000",
    "date_modified": "2026-05-21T19:06:15.000",
    "request_status": "Pending",
    "responsible_agency": "Department of Sanitation",
    "final_address": "8638 Marks St",
    "address_councildis": "A",
    "status": "Assigned to Contractor",
    "contractor": "IV Waste",
    "rowid": "1283446",
    "final_x": "3667318.76679",
    "final_y": "537364.730184",
    "longitude": "-90.11265309843277",
    "latitude": "29.971989715064666",
    "geocoded_column": {
      "latitude": "29.971989715064666",
      "longitude": "-90.11265309843277"
    }
  },
  {
    "service_request": "2026-1283445",
    "request_type": "Trash/Recycling",
    "request_reason": "Replace Trash Cart",
    "date_created": "2026-05-21T18:59:14.000",
    "date_modified": "2026-05-21T18:59:16.000",
    "request_status": "Pending",
    "responsible_agency": "Department of Sanitation",
    "final_address": "110 Atlantic Ave",
    "address_councildis": "C",
    "status": "Assigned to Contractor",
    "contractor": "Richards Disposal",
    "rowid": "1283445",
    "final_x": "3688909.84105",
    "final_y": "531179.014722",
    "longitude": "-90.04468489012203",
    "latitude": "29.954331030327577",
    "geocoded_column": {
      "latitude": "29.954331030327577",
      "longitude": "-90.04468489012203"
    }
  },
  {
    "service_request": "2026-1283444",
    "request_type": "Trash/Recycling",
    "request_reason": "Request a Large Item Pick Up",
    "date_created": "2026-05-21T18:51:54.000",
    "date_modified": "2026-05-21T18:51:57.000",
    "request_status": "Pending",
    "responsible_agency": "Department of Sanitation",
    "final_address": "5706 Tchoupitoulas St",
    "address_councildis": "A",
    "status": "Assigned to Contractor",
    "contractor": "IV Waste",
    "rowid": "1283444",
    "final_x": "3665367.70138",
    "final_y": "517175.483893",
    "longitude": "-90.11949035496892",
    "latitude": "29.916532790491317",
    "geocoded_column": {
      "latitude": "29.916532790491317",
      "longitude": "-90.11949035496892"
    }
  },
  {
    "service_request": "2026-1283443",
    "request_type": "Trash/Recycling",
    "request_reason": "Missed Trash Pick-Up",
    "date_created": "2026-05-21T18:40:33.000",
    "date_modified": "2026-05-21T18:40:36.000",
    "request_status": "Pending",
    "responsible_agency": "Department of Sanitation",
    "final_address": "5319 N Galvez St",
    "address_councildis": "E",
    "status": "Assigned to Contractor",
    "contractor": "Waste Pro",
    "rowid": "1283443",
    "final_x": "3698024.27568",
    "final_y": "537783.957256",
    "longitude": "-90.01566545942384",
    "latitude": "29.97220727202459",
    "geocoded_column": {
      "latitude": "29.97220727202459",
      "longitude": "-90.01566545942384"
    }
  },
  {
    "service_request": "2026-1283442",
    "request_type": "Roads and Streets",
    "request_reason": "Pothole",
    "date_created": "2026-05-21T18:22:21.000",
    "date_modified": "2026-05-21T18:22:23.000",
    "request_status": "Pending",
    "responsible_agency": "Department of Public Works",
    "final_address": "801 Pelican Ave",
    "address_councildis": "C",
    "status": "Pending",
    "rowid": "1283442",
    "final_x": "3687976.54588",
    "final_y": "530592.813186",
    "longitude": "-90.04765262677662",
    "latitude": "29.95274800544382",
    "geocoded_column": {
      "latitude": "29.95274800544382",
      "longitude": "-90.04765262677662"
    }
  },
  {
    "service_request": "2026-1283441",
    "request_type": "Trash/Recycling",
    "request_reason": "Replace Trash Cart",
    "date_created": "2026-05-21T18:20:45.000",
    "date_modified": "2026-05-21T18:20:47.000",
    "request_status": "Pending",
    "responsible_agency": "Department of Sanitation",
    "final_address": "1404 Lesseps St",
    "address_councildis": "D",
    "status": "Assigned to Contractor",
    "contractor": "IV Waste",
    "rowid": "1283441",
    "final_x": "3692952.53392",
    "final_y": "536261.271239",
    "longitude": "-90.03173743387664",
    "latitude": "29.9681798182573",
    "geocoded_column": {
      "latitude": "29.9681798182573",
      "longitude": "-90.03173743387664"
    }
  },
  {
    "service_request": "2026-1283440",
    "request_type": "Property Maintenance",
    "request_reason": "Property Maintenance",
    "date_created": "2026-05-21T18:13:55.000",
    "date_modified": "2026-05-21T18:13:56.000",
    "request_status": "Pending",
    "responsible_agency": "Department of Code Enforcement",
    "final_address": "2605 Memorial Park Dr",
    "address_councildis": "C",
    "status": "Pending",
    "rowid": "1283440",
    "final_x": "3692837.01699",
    "final_y": "521008.039161",
    "longitude": "-90.03264903748617",
    "latitude": "29.926242309385856",
    "geocoded_column": {
      "latitude": "29.926242309385856",
      "longitude": "-90.03264903748617"
    }
  },
  {
    "service_request": "2026-1283439",
    "request_type": "Property Maintenance",
    "request_reason": "Property Maintenance",
    "date_created": "2026-05-21T18:13:17.000",
    "date_modified": "2026-05-21T18:13:18.000",
    "request_status": "Pending",
    "responsible_agency": "Department of Code Enforcement",
    "final_address": "2535 Memorial Park Dr",
    "address_councildis": "C",
    "status": "Pending",
    "rowid": "1283439",
    "final_x": "3692796.73923",
    "final_y": "521052.483641",
    "longitude": "-90.03277458992366",
    "latitude": "29.92636577379837",
    "geocoded_column": {
      "latitude": "29.92636577379837",
      "longitude": "-90.03277458992366"
    }
  },
  {
    "service_request": "2026-1283438",
    "request_type": "Trash/Recycling",
    "request_reason": "Repair Trash Cart",
    "date_created": "2026-05-21T18:13:07.000",
    "date_modified": "2026-05-21T18:13:08.000",
    "request_status": "Pending",
    "responsible_agency": "Department of Sanitation",
    "final_address": "4915 Baronne St",
    "address_councildis": "B",
    "status": "Assigned to Contractor",
    "contractor": "IV Waste",
    "rowid": "1283438",
    "final_x": "3668931.70606",
    "final_y": "521467.982137",
    "longitude": "-90.10809599222344",
    "latitude": "29.928231506360753",
    "geocoded_column": {
      "latitude": "29.928231506360753",
      "longitude": "-90.10809599222344"
    }
  },
  {
    "service_request": "2026-1283437",
    "request_type": "Mosquito, Termite & Rodent Control",
    "request_reason": "Rodent Complaint (Mice & Rats)",
    "date_created": "2026-05-21T18:12:53.000",
    "date_modified": "2026-05-21T18:12:55.000",
    "request_status": "Pending",
    "responsible_agency": "Mosquito, Termite & Rodent Control Board",
    "final_address": "8709 Apricot St",
    "address_councildis": "A",
    "status": "Pending",
    "rowid": "1283437",
    "final_x": "3664218.3168",
    "final_y": "534158.800901",
    "longitude": "-90.12255185198093",
    "latitude": "29.963264922145367",
    "geocoded_column": {
      "latitude": "29.963264922145367",
      "longitude": "-90.12255185198093"
    }
  },
  {
    "service_request": "2026-1283436",
    "request_type": "Property Maintenance",
    "request_reason": "Property Maintenance",
    "date_created": "2026-05-21T18:12:01.000",
    "date_modified": "2026-05-21T18:12:03.000",
    "request_status": "Pending",
    "responsible_agency": "Department of Code Enforcement",
    "final_address": "2530 Behrman Hwy",
    "address_councildis": "C",
    "status": "Pending",
    "rowid": "1283436",
    "final_x": "3692694.80649",
    "final_y": "520914.069945",
    "longitude": "-90.03310131960312",
    "latitude": "29.925988363749667",
    "geocoded_column": {
      "latitude": "29.925988363749667",
      "longitude": "-90.03310131960312"
    }
  },
  {
    "service_request": "2026-1283435",
    "request_type": "Trash/Recycling",
    "request_reason": "Repair Trash Cart",
    "date_created": "2026-05-21T18:11:50.000",
    "date_modified": "2026-05-21T18:11:52.000",
    "request_status": "Pending",
    "responsible_agency": "Department of Sanitation",
    "final_address": "5325 Perrier St",
    "address_councildis": "B",
    "status": "Assigned to Contractor",
    "contractor": "IV Waste",
    "rowid": "1283435",
    "final_x": "3667493.51943",
    "final_y": "520005.750072",
    "longitude": "-90.11268521628328",
    "latitude": "29.924253038602323",
    "geocoded_column": {
      "latitude": "29.924253038602323",
      "longitude": "-90.11268521628328"
    }
  },
  {
    "service_request": "2026-1283434",
    "request_type": "Property Maintenance",
    "request_reason": "Property Maintenance",
    "date_created": "2026-05-21T18:11:04.000",
    "date_modified": "2026-05-21T18:11:06.000",
    "request_status": "Pending",
    "responsible_agency": "Department of Code Enforcement",
    "final_address": "2524 Behrman Hwy",
    "address_councildis": "C",
    "status": "Pending",
    "rowid": "1283434",
    "final_x": "3692647.85033",
    "final_y": "520938.039161",
    "longitude": "-90.03324868731819",
    "latitude": "29.926055736026708",
    "geocoded_column": {
      "latitude": "29.926055736026708",
      "longitude": "-90.03324868731819"
    }
  },
  {
    "service_request": "2026-1283433",
    "request_type": "Property Maintenance",
    "request_reason": "Property Maintenance",
    "date_created": "2026-05-21T18:10:16.000",
    "date_modified": "2026-05-21T18:10:18.000",
    "request_status": "Pending",
    "responsible_agency": "Department of Code Enforcement",
    "final_address": "2600 Behrman Hwy",
    "address_councildis": "C",
    "status": "Pending",
    "rowid": "1283433",
    "final_x": "3692749.28867",
    "final_y": "520880.119097",
    "longitude": "-90.03293055235815",
    "latitude": "29.92589331033643",
    "geocoded_column": {
      "latitude": "29.92589331033643",
      "longitude": "-90.03293055235815"
    }
  },
  {
    "service_request": "2026-1283432",
    "request_type": "Healthy Homes",
    "request_reason": "Healthy Homes",
    "date_created": "2026-05-21T18:10:12.000",
    "date_modified": "2026-05-21T18:10:13.000",
    "request_status": "Pending",
    "responsible_agency": "Department of Code Enforcement",
    "final_address": "3506 Louisiana Avenue Prkwy",
    "address_councildis": "B",
    "status": "Pending",
    "rowid": "1283432",
    "final_x": "3671558.12743",
    "final_y": "527845.216511",
    "longitude": "-90.09958818617524",
    "latitude": "29.945689351836364",
    "geocoded_column": {
      "latitude": "29.945689351836364",
      "longitude": "-90.09958818617524"
    }
  },
  {
    "service_request": "2026-1283431",
    "request_type": "Roads and Streets",
    "request_reason": "Pothole",
    "date_created": "2026-05-21T18:10:07.000",
    "date_modified": "2026-05-21T18:10:09.000",
    "request_status": "Pending",
    "responsible_agency": "Department of Public Works",
    "final_address": "5325 Perrier St",
    "address_councildis": "B",
    "status": "Pending",
    "rowid": "1283431",
    "final_x": "3667493.51943",
    "final_y": "520005.750072",
    "longitude": "-90.11268521628328",
    "latitude": "29.924253038602323",
    "geocoded_column": {
      "latitude": "29.924253038602323",
      "longitude": "-90.11268521628328"
    }
  },
  {
    "service_request": "2026-1283430",
    "request_type": "Property Maintenance",
    "request_reason": "Property Maintenance",
    "date_created": "2026-05-21T18:06:44.000",
    "date_modified": "2026-05-21T18:06:45.000",
    "request_status": "Pending",
    "responsible_agency": "Department of Code Enforcement",
    "final_address": "2525 Memorial Park Dr",
    "address_councildis": "C",
    "status": "Pending",
    "rowid": "1283430",
    "final_x": "3692766.18371",
    "final_y": "521079.566969",
    "longitude": "-90.03287007438414",
    "latitude": "29.92644119738659",
    "geocoded_column": {
      "latitude": "29.92644119738659",
      "longitude": "-90.03287007438414"
    }
  },
  {
    "service_request": "2026-1283429",
    "request_type": "Trash/Recycling",
    "request_reason": "Replace Trash Cart",
    "date_created": "2026-05-21T18:04:55.000",
    "date_modified": "2026-05-21T18:04:57.000",
    "request_status": "Pending",
    "responsible_agency": "Department of Sanitation",
    "final_address": "930 Mazant St",
    "address_councildis": "C",
    "status": "Assigned to Contractor",
    "contractor": "IV Waste",
    "rowid": "1283429",
    "final_x": "3691944.39849",
    "final_y": "534692.000262",
    "longitude": "-90.0349773092737",
    "latitude": "29.963896325273907",
    "geocoded_column": {
      "latitude": "29.963896325273907",
      "longitude": "-90.0349773092737"
    }
  },
  {
    "service_request": "2026-1283428",
    "request_type": "Property Maintenance",
    "request_reason": "Property Maintenance",
    "date_created": "2026-05-21T18:00:42.000",
    "date_modified": "2026-05-21T18:00:43.000",
    "request_status": "Pending",
    "responsible_agency": "Department of Code Enforcement",
    "final_address": "1026 Henriette Delille St",
    "address_councildis": "C",
    "status": "Pending",
    "rowid": "1283428",
    "final_x": "3681910.85192",
    "final_y": "534640.989894",
    "longitude": "-90.06666405856407",
    "latitude": "29.964064859672387",
    "geocoded_column": {
      "latitude": "29.964064859672387",
      "longitude": "-90.06666405856407"
    }
  },
  {
    "service_request": "2026-1283427",
    "request_type": "Abandoned Vehicles",
    "request_reason": "Abandoned/Junk Vehicles",
    "date_created": "2026-05-21T17:57:00.000",
    "date_modified": "2026-05-21T17:57:01.000",
    "request_status": "Pending",
    "responsible_agency": "Department of Public Works",
    "final_address": "1116 Treme St",
    "address_councildis": "C",
    "status": "Pending",
    "rowid": "1283427",
    "final_x": "3681829.87362",
    "final_y": "535070.453446",
    "longitude": "-90.06690479128535",
    "latitude": "29.965248198351723",
    "geocoded_column": {
      "latitude": "29.965248198351723",
      "longitude": "-90.06690479128535"
    }
  },
  {
    "service_request": "2026-1283426",
    "request_type": "Trash/Recycling",
    "request_reason": "Replace Trash Cart",
    "date_created": "2026-05-21T17:54:23.000",
    "date_modified": "2026-05-21T17:54:25.000",
    "request_status": "Pending",
    "responsible_agency": "Department of Sanitation",
    "final_address": "1734 Martin Luther King, Jr. Blvd",
    "address_councildis": "B",
    "status": "Assigned to Contractor",
    "contractor": "IV Waste",
    "rowid": "1283426",
    "final_x": "3678521.00718",
    "final_y": "525916.590909",
    "longitude": "-90.07767080398807",
    "latitude": "29.940178290870644",
    "geocoded_column": {
      "latitude": "29.940178290870644",
      "longitude": "-90.07767080398807"
    }
  },
  {
    "service_request": "2026-1283425",
    "request_type": "Trash/Recycling",
    "request_reason": "Repair Trash Cart",
    "date_created": "2026-05-21T17:41:41.000",
    "date_modified": "2026-05-21T17:41:42.000",
    "request_status": "Pending",
    "responsible_agency": "Department of Sanitation",
    "final_address": "4016 Annunciation St",
    "address_councildis": "B",
    "status": "Assigned to Contractor",
    "contractor": "IV Waste",
    "rowid": "1283425",
    "final_x": "3672465.86734",
    "final_y": "517844.002678",
    "longitude": "-90.09706283842937",
    "latitude": "29.918162336635664",
    "geocoded_column": {
      "latitude": "29.918162336635664",
      "longitude": "-90.09706283842937"
    }
  },
  {
    "service_request": "2026-1283424",
    "request_type": "Trash/Recycling",
    "request_reason": "Repair Trash Cart",
    "date_created": "2026-05-21T17:34:39.000",
    "date_modified": "2026-05-21T17:34:42.000",
    "request_status": "Pending",
    "responsible_agency": "Department of Sanitation",
    "final_address": "1511 N Dupre St Apt 1A",
    "address_councildis": "D",
    "status": "Assigned to Contractor",
    "contractor": "IV Waste",
    "rowid": "1283424",
    "final_x": "3677246.70645",
    "final_y": "540076.567755",
    "longitude": "-90.08120545066541",
    "latitude": "29.979151788184243",
    "geocoded_column": {
      "latitude": "29.979151788184243",
      "longitude": "-90.08120545066541"
    }
  },
  {
    "service_request": "2026-1283423",
    "request_type": "Property Maintenance",
    "request_reason": "Property Maintenance",
    "date_created": "2026-05-21T17:27:14.000",
    "date_modified": "2026-05-21T17:27:17.000",
    "request_status": "Pending",
    "responsible_agency": "Department of Code Enforcement",
    "final_address": "104 Hathaway Pl",
    "address_councildis": "D",
    "status": "Pending",
    "rowid": "1283423",
    "final_x": "3678343.10728",
    "final_y": "543848.830286",
    "longitude": "-90.07761202197716",
    "latitude": "29.989491208770605",
    "geocoded_column": {
      "latitude": "29.989491208770605",
      "longitude": "-90.07761202197716"
    }
  },
  {
    "service_request": "2026-1283422",
    "request_type": "Trash/Recycling",
    "request_reason": "Request a Large Item Pick Up",
    "date_created": "2026-05-21T17:20:14.000",
    "date_modified": "2026-05-21T17:20:16.000",
    "request_status": "Pending",
    "responsible_agency": "Department of Sanitation",
    "final_address": "1434 Holiday Pl",
    "address_councildis": "C",
    "status": "Assigned to Contractor",
    "contractor": "Richards Disposal",
    "rowid": "1283422",
    "final_x": "3699045.27063",
    "final_y": "525796.427133",
    "longitude": "-90.01287728341777",
    "latitude": "29.93921348697796",
    "geocoded_column": {
      "latitude": "29.93921348697796",
      "longitude": "-90.01287728341777"
    }
  },
  {
    "service_request": "2026-1283421",
    "request_type": "Streetlights",
    "request_reason": "Streetlight Outage/Malfunction",
    "date_created": "2026-05-21T17:19:19.000",
    "date_modified": "2026-05-21T17:19:22.000",
    "request_status": "Pending",
    "responsible_agency": "Department of Public Works",
    "final_address": "104 Hathaway Pl",
    "address_councildis": "D",
    "status": "Pending",
    "rowid": "1283421",
    "final_x": "3678343.10728",
    "final_y": "543848.830286",
    "longitude": "-90.07761202197716",
    "latitude": "29.989491208770605",
    "geocoded_column": {
      "latitude": "29.989491208770605",
      "longitude": "-90.07761202197716"
    }
  },
  {
    "service_request": "2026-1283420",
    "request_type": "Trash/Recycling",
    "request_reason": "Order Trash Cart",
    "date_created": "2026-05-21T17:03:40.000",
    "date_modified": "2026-05-21T17:03:42.000",
    "request_status": "Pending",
    "responsible_agency": "Department of Sanitation",
    "final_address": "2222 Nashville Ave",
    "address_councildis": "A",
    "status": "Assigned to Contractor",
    "contractor": "IV Waste",
    "rowid": "1283420",
    "final_x": "3666859.56788",
    "final_y": "524470.439548",
    "longitude": "-90.11453647954919",
    "latitude": "29.936548070603312",
    "geocoded_column": {
      "latitude": "29.936548070603312",
      "longitude": "-90.11453647954919"
    }
  },
  {
    "service_request": "2026-1283419",
    "request_type": "Trash/Recycling",
    "request_reason": "Request a Large Item Pick Up",
    "date_created": "2026-05-21T16:58:37.000",
    "date_modified": "2026-05-21T16:58:39.000",
    "request_status": "Pending",
    "responsible_agency": "Department of Sanitation",
    "final_address": "7822 Colapissa St",
    "address_councildis": "B",
    "status": "Assigned to Contractor",
    "contractor": "IV Waste",
    "rowid": "1283419",
    "final_x": "3667180.38151",
    "final_y": "532762.21658",
    "longitude": "-90.11324491681297",
    "latitude": "29.959338380198897",
    "geocoded_column": {
      "latitude": "29.959338380198897",
      "longitude": "-90.11324491681297"
    }
  },
  {
    "service_request": "2026-1283418",
    "request_type": "Streetlights",
    "request_reason": "Streetlight Outage/Malfunction",
    "date_created": "2026-05-21T16:58:05.000",
    "date_modified": "2026-05-21T16:58:07.000",
    "request_status": "Pending",
    "responsible_agency": "Department of Public Works",
    "final_address": "8018 Read Blvd",
    "address_councildis": "E",
    "status": "Pending",
    "rowid": "1283418",
    "final_x": "3707745.80548",
    "final_y": "565746.704163",
    "longitude": "-89.9839235047022",
    "latitude": "30.048783106497957",
    "geocoded_column": {
      "latitude": "30.048783106497957",
      "longitude": "-89.9839235047022"
    }
  },
  {
    "service_request": "2026-1283417",
    "request_type": "Trash/Recycling",
    "request_reason": "Replace Trash Cart",
    "date_created": "2026-05-21T16:53:57.000",
    "date_modified": "2026-05-21T16:53:58.000",
    "request_status": "Pending",
    "responsible_agency": "Department of Sanitation",
    "final_address": "1524 Shirley Dr",
    "address_councildis": "C",
    "status": "Assigned to Contractor",
    "contractor": "Richards Disposal",
    "rowid": "1283417",
    "final_x": "3693140.87952",
    "final_y": "525123.994493",
    "longitude": "-90.03154222206228",
    "latitude": "29.937550298698845",
    "geocoded_column": {
      "latitude": "29.937550298698845",
      "longitude": "-90.03154222206228"
    }
  },
  {
    "service_request": "2026-1283416",
    "request_type": "Roads and Streets",
    "request_reason": "Sidewalk Damaged or Missing",
    "date_created": "2026-05-21T16:52:05.000",
    "date_modified": "2026-05-21T16:52:07.000",
    "request_status": "Pending",
    "responsible_agency": "Department of Public Works",
    "final_address": "603 Chartres St",
    "address_councildis": "C",
    "status": "Pending",
    "rowid": "1283416",
    "final_x": "3682606.72738",
    "final_y": "531992.699203",
    "longitude": "-90.0645591511137",
    "latitude": "29.956761795478123",
    "geocoded_column": {
      "latitude": "29.956761795478123",
      "longitude": "-90.0645591511137"
    }
  },
  {
    "service_request": "2026-1283415",
    "request_type": "Trash/Recycling",
    "request_reason": "Illegal Dumping",
    "date_created": "2026-05-21T16:44:45.000",
    "date_modified": "2026-05-21T16:44:46.000",
    "request_status": "Pending",
    "responsible_agency": "Department of Sanitation",
    "final_address": "2403 Iberville St",
    "address_councildis": "B",
    "status": "Pending",
    "rowid": "1283415",
    "final_x": "3676666.02856",
    "final_y": "534692.957062",
    "longitude": "-90.08322496660458",
    "latitude": "29.96436613173269",
    "geocoded_column": {
      "latitude": "29.96436613173269",
      "longitude": "-90.08322496660458"
    }
  },
  {
    "service_request": "2026-1283414",
    "request_type": "Trash/Recycling",
    "request_reason": "Request a Large Item Pick Up",
    "date_created": "2026-05-21T16:42:26.000",
    "date_modified": "2026-05-21T16:42:28.000",
    "request_status": "Pending",
    "responsible_agency": "Department of Sanitation",
    "final_address": "3 Caddo Pl",
    "address_councildis": "E",
    "status": "Assigned to Contractor",
    "contractor": "Waste Pro",
    "rowid": "1283414",
    "final_x": "3725982.5326",
    "final_y": "564268.460961",
    "longitude": "-89.92634283885545",
    "latitude": "30.04411541705881",
    "geocoded_column": {
      "latitude": "30.04411541705881",
      "longitude": "-89.92634283885545"
    }
  },
  {
    "service_request": "2026-1283413",
    "request_type": "Streetlights",
    "request_reason": "Streetlight Outage/Malfunction",
    "date_created": "2026-05-21T16:41:22.000",
    "date_modified": "2026-05-21T16:41:25.000",
    "request_status": "Pending",
    "responsible_agency": "Department of Public Works",
    "final_address": "833 Howard Ave",
    "address_councildis": "B",
    "status": "Pending",
    "rowid": "1283413",
    "final_x": "3679633.96808",
    "final_y": "527541.217983",
    "longitude": "-90.07410064619336",
    "latitude": "29.944611892270988",
    "geocoded_column": {
      "latitude": "29.944611892270988",
      "longitude": "-90.07410064619336"
    }
  },
  {
    "service_request": "2026-1283412",
    "request_type": "Street and Traffic Signs",
    "request_reason": "Street Name Sign Damaged or Missing",
    "date_created": "2026-05-21T16:31:45.000",
    "date_modified": "2026-05-21T16:31:49.000",
    "request_status": "Pending",
    "responsible_agency": "Department of Public Works",
    "final_address": "KNIGHT DR & CHEF MENTEUR HWY",
    "address_councildis": "E",
    "status": "Pending",
    "rowid": "1283412",
    "final_x": "3708331.8",
    "final_y": "553573.88",
    "longitude": "-89.98252498394834",
    "latitude": "30.01529364986913",
    "geocoded_column": {
      "latitude": "30.01529364986913",
      "longitude": "-89.98252498394834"
    }
  },
  {
    "service_request": "2026-1283411",
    "request_type": "Roads and Streets",
    "request_reason": "Sidewalk Damaged or Missing",
    "date_created": "2026-05-21T16:26:22.000",
    "date_modified": "2026-05-21T16:26:26.000",
    "request_status": "Pending",
    "responsible_agency": "Department of Public Works",
    "final_address": "613 S Rocheblave St",
    "address_councildis": "B",
    "status": "Pending",
    "rowid": "1283411",
    "final_x": "3674822.26664",
    "final_y": "532833.961028",
    "longitude": "-90.08911117416895",
    "latitude": "29.959309698929573",
    "geocoded_column": {
      "latitude": "29.959309698929573",
      "longitude": "-90.08911117416895"
    }
  },
  {
    "service_request": "2026-1283410",
    "request_type": "Roads and Streets",
    "request_reason": "Sidewalk Damaged or Missing",
    "date_created": "2026-05-21T16:24:27.000",
    "date_modified": "2026-05-21T16:24:29.000",
    "request_status": "Pending",
    "responsible_agency": "Department of Public Works",
    "final_address": "2331 Constance St",
    "address_councildis": "B",
    "status": "Pending",
    "rowid": "1283410",
    "final_x": "3678542.83253",
    "final_y": "521405.802297",
    "longitude": "-90.07775794914318",
    "latitude": "29.92777444663631",
    "geocoded_column": {
      "latitude": "29.92777444663631",
      "longitude": "-90.07775794914318"
    }
  },
  {
    "service_request": "2026-1283409",
    "request_type": "Streetlights",
    "request_reason": "Streetlight Outage/Malfunction",
    "date_created": "2026-05-21T16:23:25.000",
    "date_modified": "2026-05-21T16:23:28.000",
    "request_status": "Pending",
    "responsible_agency": "Department of Public Works",
    "final_address": "BELLECASTLE ST & ANNUNCIATION ST",
    "address_councildis": "B",
    "status": "Pending",
    "rowid": "1283409",
    "final_x": "3667659.0",
    "final_y": "517576.08",
    "longitude": "-90.11224458298187",
    "latitude": "29.917567362861792",
    "geocoded_column": {
      "latitude": "29.917567362861792",
      "longitude": "-90.11224458298187"
    }
  },
  {
    "service_request": "2026-1283408",
    "request_type": "Trash/Recycling",
    "request_reason": "Request a Large Item Pick Up",
    "date_created": "2026-05-21T16:19:46.000",
    "date_modified": "2026-05-21T16:19:47.000",
    "request_status": "Pending",
    "responsible_agency": "Department of Sanitation",
    "final_address": "5630 Royal St",
    "address_councildis": "E",
    "status": "Assigned to Contractor",
    "contractor": "Waste Pro",
    "rowid": "1283408",
    "final_x": "3697897.46736",
    "final_y": "532160.025347",
    "longitude": "-90.01627009278215",
    "latitude": "29.95674747365214",
    "geocoded_column": {
      "latitude": "29.95674747365214",
      "longitude": "-90.01627009278215"
    }
  },
  {
    "service_request": "2026-1283407",
    "request_type": "Trash/Recycling",
    "request_reason": "Illegal Dumping",
    "date_created": "2026-05-21T16:18:02.000",
    "date_modified": "2026-05-21T16:18:04.000",
    "request_status": "Pending",
    "responsible_agency": "Department of Sanitation",
    "final_address": "1933 Montegut St",
    "address_councildis": "D",
    "status": "Pending",
    "rowid": "1283407",
    "final_x": "3689339.44559",
    "final_y": "539402.161866",
    "longitude": "-90.04303598493019",
    "latitude": "29.976928517867577",
    "geocoded_column": {
      "latitude": "29.976928517867577",
      "longitude": "-90.04303598493019"
    }
  },
  {
    "service_request": "2026-1283406",
    "request_type": "Trash/Recycling",
    "request_reason": "Repair Recycling Cart",
    "date_created": "2026-05-21T16:17:31.000",
    "date_modified": "2026-05-21T16:17:34.000",
    "request_status": "Pending",
    "responsible_agency": "Department of Sanitation",
    "final_address": "36 Park Timbers Dr",
    "address_councildis": "C",
    "status": "Pending",
    "rowid": "1283406",
    "final_x": "3699272.03236",
    "final_y": "517367.713653",
    "longitude": "-90.01246812411912",
    "latitude": "29.916030236529238",
    "geocoded_column": {
      "latitude": "29.916030236529238",
      "longitude": "-90.01246812411912"
    }
  },
  {
    "service_request": "2026-1283405",
    "request_type": "Trash/Recycling",
    "request_reason": "Order Trash Cart",
    "date_created": "2026-05-21T16:15:43.000",
    "date_modified": "2026-05-21T16:15:46.000",
    "request_status": "Pending",
    "responsible_agency": "Department of Sanitation",
    "final_address": "3335 Fourth St",
    "address_councildis": "B",
    "status": "Assigned to Contractor",
    "contractor": "IV Waste",
    "rowid": "1283405",
    "final_x": "3672705.82472",
    "final_y": "528027.365567",
    "longitude": "-90.09595830996062",
    "latitude": "29.946156173190055",
    "geocoded_column": {
      "latitude": "29.946156173190055",
      "longitude": "-90.09595830996062"
    }
  },
  {
    "service_request": "2026-1283404",
    "request_type": "Trash/Recycling",
    "request_reason": "Order Trash Cart",
    "date_created": "2026-05-21T16:14:10.000",
    "date_modified": "2026-05-21T16:14:11.000",
    "request_status": "Pending",
    "responsible_agency": "Department of Sanitation",
    "final_address": "3333 Fourth St",
    "address_councildis": "B",
    "status": "Assigned to Contractor",
    "contractor": "IV Waste",
    "rowid": "1283404",
    "final_x": "3672710.15348",
    "final_y": "528012.138751",
    "longitude": "-90.09594516172201",
    "latitude": "29.946114175908807",
    "geocoded_column": {
      "latitude": "29.946114175908807",
      "longitude": "-90.09594516172201"
    }
  },
  {
    "service_request": "2026-1283403",
    "request_type": "Trash/Recycling",
    "request_reason": "Request a Large Item Pick Up",
    "date_created": "2026-05-21T16:13:45.000",
    "date_modified": "2026-05-21T16:13:47.000",
    "request_status": "Pending",
    "responsible_agency": "Department of Sanitation",
    "final_address": "5518 Durham Dr",
    "address_councildis": "C",
    "status": "Assigned to Contractor",
    "contractor": "Richards Disposal",
    "rowid": "1283403",
    "final_x": "3704438.76087",
    "final_y": "518824.329399",
    "longitude": "-89.99610637800961",
    "latitude": "29.919870647712727",
    "geocoded_column": {
      "latitude": "29.919870647712727",
      "longitude": "-89.99610637800961"
    }
  },
  {
    "service_request": "2026-1283402",
    "request_type": "Tree Service",
    "request_reason": "Tree Trim",
    "date_created": "2026-05-21T16:10:45.000",
    "date_modified": "2026-05-21T16:10:47.000",
    "request_status": "Pending",
    "responsible_agency": "Department of Parks & Parkways",
    "final_address": "2130 Palmer Ave",
    "address_councildis": "A",
    "status": "Pending",
    "rowid": "1283402",
    "final_x": "3665966.79015",
    "final_y": "524929.1015",
    "longitude": "-90.11733965938863",
    "latitude": "29.93783532573808",
    "geocoded_column": {
      "latitude": "29.93783532573808",
      "longitude": "-90.11733965938863"
    }
  },
  {
    "service_request": "2026-1283401",
    "request_type": "Trash/Recycling",
    "request_reason": "Repair Trash Cart",
    "date_created": "2026-05-21T16:05:43.000",
    "date_modified": "2026-05-21T16:05:45.000",
    "request_status": "Pending",
    "responsible_agency": "Department of Sanitation",
    "final_address": "5303 Burgundy St",
    "address_councildis": "E",
    "status": "Assigned to Contractor",
    "contractor": "Waste Pro",
    "rowid": "1283401",
    "final_x": "3696645.09047",
    "final_y": "533309.800772",
    "longitude": "-90.02018306888691",
    "latitude": "29.95994847251102",
    "geocoded_column": {
      "latitude": "29.95994847251102",
      "longitude": "-90.02018306888691"
    }
  },
  {
    "service_request": "2026-1283400",
    "request_type": "Abandoned Vehicles",
    "request_reason": "Abandoned/Junk Vehicles",
    "date_created": "2026-05-21T16:04:50.000",
    "date_modified": "2026-05-21T16:04:51.000",
    "request_status": "Pending",
    "responsible_agency": "Department of Public Works",
    "final_address": "1229 St Andrew St",
    "address_councildis": "B",
    "status": "Pending",
    "rowid": "1283400",
    "final_x": "3679147.14357",
    "final_y": "523064.109755",
    "longitude": "-90.07579283041892",
    "latitude": "29.93231602707715",
    "geocoded_column": {
      "latitude": "29.93231602707715",
      "longitude": "-90.07579283041892"
    }
  },
  {
    "service_request": "2026-1283399",
    "request_type": "Trash/Recycling",
    "request_reason": "Request a Large Item Pick Up",
    "date_created": "2026-05-21T16:03:46.000",
    "date_modified": "2026-05-21T16:03:48.000",
    "request_status": "Pending",
    "responsible_agency": "Department of Sanitation",
    "final_address": "768 French St",
    "address_councildis": "A",
    "status": "Assigned to Contractor",
    "contractor": "IV Waste",
    "rowid": "1283399",
    "final_x": "3669160.86516",
    "final_y": "548470.906834",
    "longitude": "-90.10645988005773",
    "latitude": "30.00247381962773",
    "geocoded_column": {
      "latitude": "30.00247381962773",
      "longitude": "-90.10645988005773"
    }
  },
  {
    "service_request": "2026-1283398",
    "request_type": "Trash/Recycling",
    "request_reason": "Request a Large Item Pick Up",
    "date_created": "2026-05-21T16:01:30.000",
    "date_modified": "2026-05-21T16:01:32.000",
    "request_status": "Pending",
    "responsible_agency": "Department of Sanitation",
    "final_address": "8011 Vanderkloot Ave",
    "address_councildis": "E",
    "status": "Assigned to Contractor",
    "contractor": "Waste Pro",
    "rowid": "1283398",
    "final_x": "3705370.39735",
    "final_y": "564353.660129",
    "longitude": "-89.99148270482665",
    "latitude": "30.045029494568112",
    "geocoded_column": {
      "latitude": "30.045029494568112",
      "longitude": "-89.99148270482665"
    }
  },
  {
    "service_request": "2026-1283397",
    "request_type": "Roads and Streets",
    "request_reason": "Debris in Driving Lanes",
    "date_created": "2026-05-21T15:59:35.000",
    "date_modified": "2026-05-21T15:59:37.000",
    "request_status": "Pending",
    "responsible_agency": "Department of Public Works",
    "final_address": "824 Poland Ave",
    "address_councildis": "C",
    "status": "Pending",
    "rowid": "1283397",
    "final_x": "3692746.48477",
    "final_y": "534066.954117",
    "longitude": "-90.0324668157968",
    "latitude": "29.96215265355931",
    "geocoded_column": {
      "latitude": "29.96215265355931",
      "longitude": "-90.0324668157968"
    }
  },
  {
    "service_request": "2026-1283396",
    "request_type": "Trash/Recycling",
    "request_reason": "Damaged Caused By Contractor",
    "date_created": "2026-05-21T15:59:02.000",
    "date_modified": "2026-05-21T16:24:06.000",
    "case_close_date": "2026-05-21T11:24:05.000",
    "request_status": "Closed",
    "responsible_agency": "Department of Sanitation",
    "final_address": "11018 N Hardy St",
    "address_councildis": "E",
    "status": "Invalid Request",
    "contractor": "Waste Pro",
    "contractor_action": "Invalid",
    "rowid": "1283396",
    "final_x": "3713075.09861",
    "final_y": "562324.288799",
    "longitude": "-89.96720891395496",
    "latitude": "30.039199200737606",
    "geocoded_column": {
      "latitude": "30.039199200737606",
      "longitude": "-89.96720891395496"
    }
  },
  {
    "service_request": "2026-1283395",
    "request_type": "Trash/Recycling",
    "request_reason": "Missed Trash Pick-Up",
    "date_created": "2026-05-21T15:57:04.000",
    "date_modified": "2026-05-21T16:41:53.000",
    "case_close_date": "2026-05-21T11:41:52.000",
    "request_status": "Closed",
    "responsible_agency": "Department of Sanitation",
    "final_address": "6810 Glengary Rd",
    "address_councildis": "E",
    "status": "Invalid Request",
    "contractor": "Waste Pro",
    "contractor_action": "Invalid",
    "rowid": "1283395",
    "final_x": "3701670.46954",
    "final_y": "557095.192858",
    "longitude": "-90.00344240331107",
    "latitude": "30.025190155330254",
    "geocoded_column": {
      "latitude": "30.025190155330254",
      "longitude": "-90.00344240331107"
    }
  },
  {
    "service_request": "2026-1283394",
    "request_type": "Property Maintenance",
    "request_reason": "Property Maintenance",
    "date_created": "2026-05-21T15:49:52.000",
    "date_modified": "2026-05-21T15:51:11.000",
    "request_status": "Pending",
    "responsible_agency": "Department of Code Enforcement",
    "final_address": "3328 Fern St",
    "address_councildis": "B",
    "status": "Pending",
    "rowid": "1283394",
    "final_x": "3667718.82036",
    "final_y": "533596.381957",
    "longitude": "-90.1115165619727",
    "latitude": "29.96161628439648",
    "geocoded_column": {
      "latitude": "29.96161628439648",
      "longitude": "-90.1115165619727"
    }
  },
  {
    "service_request": "2026-1283393",
    "request_type": "Tree Service",
    "request_reason": "Street or Sidewalk Blocked",
    "date_created": "2026-05-21T15:49:46.000",
    "date_modified": "2026-05-21T15:49:49.000",
    "request_status": "Pending",
    "responsible_agency": "Department of Parks & Parkways",
    "final_address": "7100 BLK Birch St",
    "address_councildis": "A",
    "status": "Pending",
    "rowid": "1283393",
    "final_x": "3665089.40666",
    "final_y": "527581.47284",
    "longitude": "-90.12002097345568",
    "latitude": "29.94515407027903",
    "geocoded_column": {
      "latitude": "29.94515407027903",
      "longitude": "-90.12002097345568"
    }
  },
  {
    "service_request": "2026-1283392",
    "request_type": "Streetlights",
    "request_reason": "Streetlight Outage/Malfunction",
    "date_created": "2026-05-21T15:45:35.000",
    "date_modified": "2026-05-21T15:45:37.000",
    "request_status": "Pending",
    "responsible_agency": "Department of Public Works",
    "final_address": "3918 General Ogden St",
    "address_councildis": "A",
    "status": "Pending",
    "rowid": "1283392",
    "final_x": "3666417.237",
    "final_y": "537522.17012",
    "longitude": "-90.11549500165043",
    "latitude": "29.972448999706113",
    "geocoded_column": {
      "latitude": "29.972448999706113",
      "longitude": "-90.11549500165043"
    }
  },
  {
    "service_request": "2026-1283391",
    "request_type": "Trash/Recycling",
    "request_reason": "Illegal Dumping",
    "date_created": "2026-05-21T15:45:10.000",
    "date_modified": "2026-05-21T15:45:12.000",
    "request_status": "Pending",
    "responsible_agency": "Department of Sanitation",
    "final_address": "2532 Conti St",
    "address_councildis": "B",
    "status": "Pending",
    "rowid": "1283391",
    "final_x": "3676594.03976",
    "final_y": "535562.892294",
    "longitude": "-90.0834223347037",
    "latitude": "29.96676031817239",
    "geocoded_column": {
      "latitude": "29.96676031817239",
      "longitude": "-90.0834223347037"
    }
  },
  {
    "service_request": "2026-1283390",
    "request_type": "EMS",
    "request_reason": "EMS Lost & Found",
    "date_created": "2026-05-21T15:44:19.000",
    "date_modified": "2026-05-21T16:33:09.000",
    "request_status": "Pending",
    "responsible_agency": "Emergency Medical Services",
    "final_address": "2256 N Claiborne Ave",
    "address_councildis": "C",
    "status": "Pending",
    "rowid": "1283390",
    "final_x": "3685459.61372",
    "final_y": "538151.532553",
    "longitude": "-90.05533375980758",
    "latitude": "29.973609286105308",
    "geocoded_column": {
      "latitude": "29.973609286105308",
      "longitude": "-90.05533375980758"
    }
  },
  {
    "service_request": "2026-1283389",
    "request_type": "Trash/Recycling",
    "request_reason": "Request a Large Item Pick Up",
    "date_created": "2026-05-21T15:43:28.000",
    "date_modified": "2026-05-21T15:43:30.000",
    "request_status": "Pending",
    "responsible_agency": "Department of Sanitation",
    "final_address": "5458 General Diaz St",
    "address_councildis": "A",
    "status": "Assigned to Contractor",
    "contractor": "IV Waste",
    "rowid": "1283389",
    "final_x": "3669019.55642",
    "final_y": "543404.091086",
    "longitude": "-90.1070775945529",
    "latitude": "29.98854598291778",
    "geocoded_column": {
      "latitude": "29.98854598291778",
      "longitude": "-90.1070775945529"
    }
  },
  {
    "service_request": "2026-1283388",
    "request_type": "Property Maintenance",
    "request_reason": "Property Maintenance",
    "date_created": "2026-05-21T15:41:43.000",
    "date_modified": "2026-05-21T15:41:45.000",
    "request_status": "Pending",
    "responsible_agency": "Department of Code Enforcement",
    "final_address": "2422 St Thomas St",
    "address_councildis": "B",
    "status": "Pending",
    "rowid": "1283388",
    "final_x": "3678930.87675",
    "final_y": "519830.825528",
    "longitude": "-90.0765875158863",
    "latitude": "29.92343207624917",
    "geocoded_column": {
      "latitude": "29.92343207624917",
      "longitude": "-90.0765875158863"
    }
  },
  {
    "service_request": "2026-1283387",
    "request_type": "Streetlights",
    "request_reason": "Streetlight Outage/Malfunction",
    "date_created": "2026-05-21T15:40:31.000",
    "date_modified": "2026-05-21T15:40:33.000",
    "request_status": "Pending",
    "responsible_agency": "Department of Public Works",
    "final_address": "6100 St Claude Ave",
    "address_councildis": "E",
    "status": "Pending",
    "rowid": "1283387",
    "final_x": "3699522.27216",
    "final_y": "533245.4985",
    "longitude": "-90.01109996016383",
    "latitude": "29.95968068630837",
    "geocoded_column": {
      "latitude": "29.95968068630837",
      "longitude": "-90.01109996016383"
    }
  },
  {
    "service_request": "2026-1283386",
    "request_type": "Trash/Recycling",
    "request_reason": "Request a Large Item Pick Up",
    "date_created": "2026-05-21T15:38:46.000",
    "date_modified": "2026-05-21T15:38:53.000",
    "request_status": "Pending",
    "responsible_agency": "Department of Sanitation",
    "final_address": "2619 Madrid St",
    "address_councildis": "D",
    "status": "Assigned to Contractor",
    "contractor": "IV Waste",
    "rowid": "1283386",
    "final_x": "3686573.79234",
    "final_y": "555624.971225",
    "longitude": "-90.05119746516023",
    "latitude": "30.0216207298281",
    "geocoded_column": {
      "latitude": "30.0216207298281",
      "longitude": "-90.05119746516023"
    }
  },
  {
    "service_request": "2026-1283385",
    "request_type": "Property Maintenance",
    "request_reason": "Property Maintenance",
    "date_created": "2026-05-21T15:38:17.000",
    "date_modified": "2026-05-21T15:38:24.000",
    "request_status": "Pending",
    "responsible_agency": "Department of Code Enforcement",
    "final_address": "2426 St Thomas St",
    "address_councildis": "B",
    "status": "Pending",
    "rowid": "1283385",
    "final_x": "3678916.55304",
    "final_y": "519823.720888",
    "longitude": "-90.07663297644605",
    "latitude": "29.923412972767423",
    "geocoded_column": {
      "latitude": "29.923412972767423",
      "longitude": "-90.07663297644605"
    }
  },
  {
    "service_request": "2026-1283384",
    "request_type": "Drainage",
    "request_reason": "Catch Basin Not Draining",
    "date_created": "2026-05-21T15:38:02.000",
    "date_modified": "2026-05-21T15:38:29.000",
    "request_status": "Pending",
    "responsible_agency": "Sewerage & Water Board",
    "final_address": "616 Cadiz St",
    "address_councildis": "B",
    "status": "Pending",
    "rowid": "1283384",
    "final_x": "3670364.30049",
    "final_y": "517820.77407",
    "longitude": "-90.10369715254956",
    "latitude": "29.918160644885486",
    "geocoded_column": {
      "latitude": "29.918160644885486",
      "longitude": "-90.10369715254956"
    }
  },
  {
    "service_request": "2026-1283383",
    "request_type": "Trash/Recycling",
    "request_reason": "Order Trash Cart",
    "date_created": "2026-05-21T15:32:57.000",
    "date_modified": "2026-05-21T15:32:59.000",
    "request_status": "Pending",
    "responsible_agency": "Department of Sanitation",
    "final_address": "5872 Tullis Dr",
    "address_councildis": "C",
    "status": "Assigned to Contractor",
    "contractor": "Richards Disposal",
    "rowid": "1283383",
    "final_x": "3705674.5667",
    "final_y": "513250.239538",
    "longitude": "-89.99241147447832",
    "latitude": "29.904504104532297",
    "geocoded_column": {
      "latitude": "29.904504104532297",
      "longitude": "-89.99241147447832"
    }
  },
  {
    "service_request": "2026-1283382",
    "request_type": "Trash/Recycling",
    "request_reason": "Request a Large Item Pick Up",
    "date_created": "2026-05-21T15:29:29.000",
    "date_modified": "2026-05-21T15:29:30.000",
    "request_status": "Pending",
    "responsible_agency": "Department of Sanitation",
    "final_address": "4629 Dodt Ave",
    "address_councildis": "E",
    "status": "Assigned to Contractor",
    "contractor": "Waste Pro",
    "rowid": "1283382",
    "final_x": "3705544.92868",
    "final_y": "554653.100184",
    "longitude": "-89.99129018669021",
    "latitude": "30.018351131516887",
    "geocoded_column": {
      "latitude": "30.018351131516887",
      "longitude": "-89.99129018669021"
    }
  },
  {
    "service_request": "2026-1283381",
    "request_type": "Trash/Recycling",
    "request_reason": "Request a Large Item Pick Up",
    "date_created": "2026-05-21T15:25:07.000",
    "date_modified": "2026-05-21T15:25:10.000",
    "request_status": "Pending",
    "responsible_agency": "Department of Sanitation",
    "final_address": "3420 Nashville Ave",
    "address_councildis": "B",
    "status": "Assigned to Contractor",
    "contractor": "IV Waste",
    "rowid": "1283381",
    "final_x": "3668049.49652",
    "final_y": "528291.301568",
    "longitude": "-90.1106510985249",
    "latitude": "29.94701935160041",
    "geocoded_column": {
      "latitude": "29.94701935160041",
      "longitude": "-90.1106510985249"
    }
  },
  {
    "service_request": "2026-1283380",
    "request_type": "Trash/Recycling",
    "request_reason": "Request a Large Item Pick Up",
    "date_created": "2026-05-21T15:23:36.000",
    "date_modified": "2026-05-21T15:25:11.000",
    "request_status": "Pending",
    "responsible_agency": "Department of Sanitation",
    "final_address": "4735 Cardenas Dr",
    "address_councildis": "E",
    "status": "Assigned to Contractor",
    "contractor": "Waste Pro",
    "rowid": "1283380",
    "final_x": "3713756.46245",
    "final_y": "556332.32937",
    "longitude": "-89.96528171515924",
    "latitude": "30.022701345992427",
    "geocoded_column": {
      "latitude": "30.022701345992427",
      "longitude": "-89.96528171515924"
    }
  },
  {
    "service_request": "2026-1283379",
    "request_type": "Trash/Recycling",
    "request_reason": "Request a Large Item Pick Up",
    "date_created": "2026-05-21T15:23:32.000",
    "date_modified": "2026-05-21T15:23:34.000",
    "request_status": "Pending",
    "responsible_agency": "Department of Sanitation",
    "final_address": "6901 Argonne Blvd",
    "address_councildis": "A",
    "status": "Assigned to Contractor",
    "contractor": "IV Waste",
    "rowid": "1283379",
    "final_x": "3670775.51284",
    "final_y": "553234.231447",
    "longitude": "-90.10119717754341",
    "latitude": "30.015523650335048",
    "geocoded_column": {
      "latitude": "30.015523650335048",
      "longitude": "-90.10119717754341"
    }
  },
  {
    "service_request": "2026-1283378",
    "request_type": "Roads and Streets",
    "request_reason": "Street Subsidence (Sinking)",
    "date_created": "2026-05-21T15:17:17.000",
    "date_modified": "2026-05-21T15:17:20.000",
    "request_status": "Pending",
    "responsible_agency": "Sewerage & Water Board",
    "final_address": "2616 Hyman Pl",
    "address_councildis": "C",
    "status": "Pending",
    "rowid": "1283378",
    "final_x": "3701110.99524",
    "final_y": "521483.137273",
    "longitude": "-90.00651326119099",
    "latitude": "29.927287821017426",
    "geocoded_column": {
      "latitude": "29.927287821017426",
      "longitude": "-90.00651326119099"
    }
  },
  {
    "service_request": "2026-1283377",
    "request_type": "Property Maintenance",
    "request_reason": "Property Maintenance",
    "date_created": "2026-05-21T15:15:11.000",
    "date_modified": "2026-05-21T15:15:13.000",
    "request_status": "Pending",
    "responsible_agency": "Department of Code Enforcement",
    "final_address": "3136 Lancaster St",
    "address_councildis": "C",
    "status": "Pending",
    "rowid": "1283377",
    "final_x": "3710033.1452",
    "final_y": "518964.280759",
    "longitude": "-89.9784425780222",
    "latitude": "29.920074759285303",
    "geocoded_column": {
      "latitude": "29.920074759285303",
      "longitude": "-89.9784425780222"
    }
  },
  {
    "service_request": "2026-1283376",
    "request_type": "Trash/Recycling",
    "request_reason": "Replace Trash Cart",
    "date_created": "2026-05-21T15:14:21.000",
    "date_modified": "2026-05-21T15:14:24.000",
    "request_status": "Pending",
    "responsible_agency": "Department of Sanitation",
    "final_address": "234 W Harrison Ave",
    "address_councildis": "A",
    "status": "Assigned to Contractor",
    "contractor": "IV Waste",
    "rowid": "1283376",
    "final_x": "3665543.91495",
    "final_y": "549549.006739",
    "longitude": "-90.11785020310981",
    "latitude": "30.005544212546855",
    "geocoded_column": {
      "latitude": "30.005544212546855",
      "longitude": "-90.11785020310981"
    }
  },
  {
    "service_request": "2026-1283375",
    "request_type": "Property Maintenance",
    "request_reason": "Property Maintenance",
    "date_created": "2026-05-21T15:12:17.000",
    "date_modified": "2026-05-21T15:12:19.000",
    "request_status": "Pending",
    "responsible_agency": "Department of Code Enforcement",
    "final_address": "5708 Peoples Ave",
    "address_councildis": "D",
    "status": "Pending",
    "rowid": "1283375",
    "final_x": "3687849.77449",
    "final_y": "554364.392728",
    "longitude": "-90.04721041947036",
    "latitude": "30.01811528661835",
    "geocoded_column": {
      "latitude": "30.01811528661835",
      "longitude": "-90.04721041947036"
    }
  },
  {
    "service_request": "2026-1283374",
    "request_type": "Abandoned Vehicles",
    "request_reason": "Abandoned/Junk Vehicles",
    "date_created": "2026-05-21T15:10:46.000",
    "date_modified": "2026-05-21T15:10:48.000",
    "request_status": "Pending",
    "responsible_agency": "Department of Public Works",
    "final_address": "8611 Oak St",
    "address_councildis": "A",
    "status": "Pending",
    "rowid": "1283374",
    "final_x": "3660598.09645",
    "final_y": "529666.868417",
    "longitude": "-90.13413261341059",
    "latitude": "29.951018246398423",
    "geocoded_column": {
      "latitude": "29.951018246398423",
      "longitude": "-90.13413261341059"
    }
  },
  {
    "service_request": "2026-1283373",
    "request_type": "Abandoned Vehicles",
    "request_reason": "Abandoned/Junk Vehicles",
    "date_created": "2026-05-21T15:09:24.000",
    "date_modified": "2026-05-21T15:14:21.000",
    "request_status": "Pending",
    "responsible_agency": "Department of Public Works",
    "final_address": "1500 BLK Second St",
    "address_councildis": "B",
    "status": "Pending",
    "rowid": "1283373",
    "final_x": "3676849.93071",
    "final_y": "522809.404628",
    "longitude": "-90.0830536958117",
    "latitude": "29.93168479464754",
    "geocoded_column": {
      "latitude": "29.93168479464754",
      "longitude": "-90.0830536958117"
    }
  },
  {
    "service_request": "2026-1283372",
    "request_type": "Streetlights",
    "request_reason": "Streetlight Outage/Malfunction",
    "date_created": "2026-05-21T15:06:59.000",
    "date_modified": "2026-05-21T15:07:01.000",
    "request_status": "Pending",
    "responsible_agency": "Department of Public Works",
    "final_address": "2215 St Anthony St",
    "address_councildis": "D",
    "status": "Pending",
    "rowid": "1283372",
    "final_x": "3683255.83983",
    "final_y": "540386.130955",
    "longitude": "-90.06221544953857",
    "latitude": "29.979821053258487",
    "geocoded_column": {
      "latitude": "29.979821053258487",
      "longitude": "-90.06221544953857"
    }
  },
  {
    "service_request": "2026-1283371",
    "request_type": "Trash/Recycling",
    "request_reason": "Repair Trash Cart",
    "date_created": "2026-05-21T15:05:08.000",
    "date_modified": "2026-05-21T15:05:17.000",
    "request_status": "Pending",
    "responsible_agency": "Department of Sanitation",
    "final_address": "1307 Leonidas St",
    "address_councildis": "A",
    "status": "Assigned to Contractor",
    "contractor": "IV Waste",
    "rowid": "1283371",
    "final_x": "3660960.41318",
    "final_y": "529855.280577",
    "longitude": "-90.13298236066895",
    "latitude": "29.951525887983433",
    "geocoded_column": {
      "latitude": "29.951525887983433",
      "longitude": "-90.13298236066895"
    }
  },
  {
    "service_request": "2026-1283370",
    "request_type": "Trash/Recycling",
    "request_reason": "Request a Large Item Pick Up",
    "date_created": "2026-05-21T15:01:36.000",
    "date_modified": "2026-05-21T15:01:37.000",
    "request_status": "Pending",
    "responsible_agency": "Department of Sanitation",
    "final_address": "728 Philip St",
    "address_councildis": "B",
    "status": "Assigned to Contractor",
    "contractor": "IV Waste",
    "rowid": "1283370",
    "final_x": "3679257.93647",
    "final_y": "520858.939065",
    "longitude": "-90.07551948566586",
    "latitude": "29.926249185892427",
    "geocoded_column": {
      "latitude": "29.926249185892427",
      "longitude": "-90.07551948566586"
    }
  },
  {
    "service_request": "2026-1283369",
    "request_type": "Streetlights",
    "request_reason": "Streetlight Outage/Malfunction",
    "date_created": "2026-05-21T14:57:18.000",
    "date_modified": "2026-05-21T14:57:20.000",
    "request_status": "Pending",
    "responsible_agency": "Department of Public Works",
    "final_address": "2300 BLK Carnot St",
    "address_councildis": "D",
    "status": "Pending",
    "rowid": "1283369",
    "final_x": "3684869.81592",
    "final_y": "550139.56027",
    "longitude": "-90.05677466467608",
    "latitude": "30.006590172620275",
    "geocoded_column": {
      "latitude": "30.006590172620275",
      "longitude": "-90.05677466467608"
    }
  },
  {
    "service_request": "2026-1283368",
    "request_type": "Street and Traffic Signs",
    "request_reason": "Additional Signage Request",
    "date_created": "2026-05-21T14:57:06.000",
    "date_modified": "2026-05-21T14:57:07.000",
    "request_status": "Pending",
    "responsible_agency": "Department of Public Works",
    "final_address": "2601 Hyman Pl",
    "address_councildis": "C",
    "status": "Pending",
    "rowid": "1283368",
    "final_x": "3700997.64119",
    "final_y": "521582.371001",
    "longitude": "-90.00686746254334",
    "latitude": "29.927564288162255",
    "geocoded_column": {
      "latitude": "29.927564288162255",
      "longitude": "-90.00686746254334"
    }
  },
  {
    "service_request": "2026-1283367",
    "request_type": "Abandoned Vehicles",
    "request_reason": "Abandoned/Junk Vehicles",
    "date_created": "2026-05-21T14:54:45.000",
    "date_modified": "2026-05-21T14:54:46.000",
    "request_status": "Pending",
    "responsible_agency": "Department of Public Works",
    "final_address": "2316 Conti St",
    "address_councildis": "B",
    "status": "Pending",
    "rowid": "1283367",
    "final_x": "3677270.59016",
    "final_y": "535070.380422",
    "longitude": "-90.08130278466898",
    "latitude": "29.965385768041237",
    "geocoded_column": {
      "latitude": "29.965385768041237",
      "longitude": "-90.08130278466898"
    }
  },
  {
    "service_request": "2026-1283366",
    "request_type": "Property Maintenance",
    "request_reason": "Property Maintenance",
    "date_created": "2026-05-21T14:47:45.000",
    "date_modified": "2026-05-21T14:47:46.000",
    "request_status": "Pending",
    "responsible_agency": "Department of Code Enforcement",
    "final_address": "2132 Second St",
    "address_councildis": "B",
    "status": "Pending",
    "rowid": "1283366",
    "final_x": "3675541.91822",
    "final_y": "524731.476028",
    "longitude": "-90.0871169545331",
    "latitude": "29.93700904339676",
    "geocoded_column": {
      "latitude": "29.93700904339676",
      "longitude": "-90.0871169545331"
    }
  },
  {
    "service_request": "2026-1283365",
    "request_type": "Abandoned Vehicles",
    "request_reason": "Abandoned/Junk Vehicles",
    "date_created": "2026-05-21T14:46:10.000",
    "date_modified": "2026-05-21T14:46:13.000",
    "request_status": "Pending",
    "responsible_agency": "Department of Public Works",
    "final_address": "2647 Hyman Pl",
    "address_councildis": "C",
    "status": "Pending",
    "rowid": "1283365",
    "final_x": "3700989.34397",
    "final_y": "521242.195321",
    "longitude": "-90.00690608556941",
    "latitude": "29.926629186589224",
    "geocoded_column": {
      "latitude": "29.926629186589224",
      "longitude": "-90.00690608556941"
    }
  },
  {
    "service_request": "2026-1283364",
    "request_type": "Abandoned Vehicles",
    "request_reason": "Abandoned/Junk Vehicles",
    "date_created": "2026-05-21T14:33:17.000",
    "date_modified": "2026-05-21T14:33:19.000",
    "request_status": "Pending",
    "responsible_agency": "Department of Public Works",
    "final_address": "729 Second St Unit 10",
    "address_councildis": "B",
    "status": "Pending",
    "rowid": "1283364",
    "final_x": "3678585.49275",
    "final_y": "520388.68972",
    "longitude": "-90.07765846644028",
    "latitude": "29.924976433052127",
    "geocoded_column": {
      "latitude": "29.924976433052127",
      "longitude": "-90.07765846644028"
    }
  },
  {
    "service_request": "2026-1283363",
    "request_type": "Health Related Request",
    "request_reason": "Noise Ordinance Complaint",
    "date_created": "2026-05-21T14:32:06.000",
    "date_modified": "2026-05-21T14:33:57.000",
    "request_status": "Pending",
    "responsible_agency": "Health Department",
    "final_address": "MADISON ST & DECATUR ST",
    "address_councildis": "C",
    "status": "Pending",
    "rowid": "1283363",
    "final_x": "3683512.3",
    "final_y": "532447.08",
    "longitude": "-90.06168372311626",
    "latitude": "29.95798358479212",
    "geocoded_column": {
      "latitude": "29.95798358479212",
      "longitude": "-90.06168372311626"
    }
  },
  {
    "service_request": "2026-1283362",
    "request_type": "General Services",
    "request_reason": "General Service Request",
    "date_created": "2026-05-21T14:29:24.000",
    "date_modified": "2026-05-21T14:29:25.000",
    "request_status": "Pending",
    "responsible_agency": "Orleans Parish Communication District",
    "final_address": "7100 Read Blvd",
    "address_councildis": "E",
    "status": "Pending",
    "rowid": "1283362",
    "final_x": "3709506.88069",
    "final_y": "562445.461023",
    "longitude": "-89.9784808841646",
    "latitude": "30.039648867449685",
    "geocoded_column": {
      "latitude": "30.039648867449685",
      "longitude": "-89.9784808841646"
    }
  },
  {
    "service_request": "2026-1283361",
    "request_type": "Trash/Recycling",
    "request_reason": "Request a Large Item Pick Up",
    "date_created": "2026-05-21T14:28:33.000",
    "date_modified": "2026-05-21T14:28:34.000",
    "request_status": "Pending",
    "responsible_agency": "Department of Sanitation",
    "final_address": "6122 Annunciation St",
    "address_councildis": "A",
    "status": "Assigned to Contractor",
    "contractor": "IV Waste",
    "rowid": "1283361",
    "final_x": "3663448.41146",
    "final_y": "518112.569846",
    "longitude": "-90.12551726633755",
    "latitude": "29.9191652527466",
    "geocoded_column": {
      "latitude": "29.9191652527466",
      "longitude": "-90.12551726633755"
    }
  },
  {
    "service_request": "2026-1283360",
    "request_type": "Trash/Recycling",
    "request_reason": "Request a Large Item Pick Up",
    "date_created": "2026-05-21T14:26:45.000",
    "date_modified": "2026-05-21T14:26:47.000",
    "request_status": "Pending",
    "responsible_agency": "Department of Sanitation",
    "final_address": "8110 Lomond Rd",
    "address_councildis": "E",
    "status": "Assigned to Contractor",
    "contractor": "Waste Pro",
    "rowid": "1283360",
    "final_x": "3702623.96215",
    "final_y": "561455.773471",
    "longitude": "-90.00026923394736",
    "latitude": "30.037149594083953",
    "geocoded_column": {
      "latitude": "30.037149594083953",
      "longitude": "-90.00026923394736"
    }
  },
  {
    "service_request": "2026-1283359",
    "request_type": "Trash/Recycling",
    "request_reason": "Request a Large Item Pick Up",
    "date_created": "2026-05-21T14:16:18.000",
    "date_modified": "2026-05-21T14:18:11.000",
    "request_status": "Pending",
    "responsible_agency": "Department of Sanitation",
    "final_address": "418 Pacific Ave",
    "address_councildis": "C",
    "status": "Assigned to Contractor",
    "contractor": "Richards Disposal",
    "rowid": "1283359",
    "final_x": "3688566.7782",
    "final_y": "530135.955457",
    "longitude": "-90.04580515158531",
    "latitude": "29.951473580484745",
    "geocoded_column": {
      "latitude": "29.951473580484745",
      "longitude": "-90.04580515158531"
    }
  },
  {
    "service_request": "2026-1283358",
    "request_type": "Drainage",
    "request_reason": "Drainage Manhole Cover Missing or Damaged",
    "date_created": "2026-05-21T14:16:07.000",
    "date_modified": "2026-05-21T14:16:08.000",
    "request_status": "Pending",
    "responsible_agency": "Sewerage & Water Board",
    "final_address": "5800 BLK Arts St",
    "address_councildis": "D",
    "status": "Pending",
    "rowid": "1283358",
    "final_x": "3685750.20819",
    "final_y": "554581.673105",
    "longitude": "-90.0538365771168",
    "latitude": "30.01877735868643",
    "geocoded_column": {
      "latitude": "30.01877735868643",
      "longitude": "-90.0538365771168"
    }
  },
  {
    "service_request": "2026-1283357",
    "request_type": "Trash/Recycling",
    "request_reason": "Replace Recycling Cart",
    "date_created": "2026-05-21T14:15:38.000",
    "date_modified": "2026-05-21T14:15:39.000",
    "request_status": "Pending",
    "responsible_agency": "Department of Sanitation",
    "final_address": "4906 Constance St",
    "address_councildis": "B",
    "status": "Pending",
    "rowid": "1283357",
    "final_x": "3668905.12526",
    "final_y": "518168.23871",
    "longitude": "-90.1082912678454",
    "latitude": "29.919159039312156",
    "geocoded_column": {
      "latitude": "29.919159039312156",
      "longitude": "-90.1082912678454"
    }
  },
  {
    "service_request": "2026-1283356",
    "request_type": "Roads and Streets",
    "request_reason": "Sidewalk Damaged or Missing",
    "date_created": "2026-05-21T14:15:21.000",
    "date_modified": "2026-05-21T14:15:23.000",
    "request_status": "Pending",
    "responsible_agency": "Department of Public Works",
    "final_address": "3121 Marigny St",
    "address_councildis": "D",
    "status": "Pending",
    "rowid": "1283356",
    "final_x": "3684826.90261",
    "final_y": "544248.24571",
    "longitude": "-90.05711753752021",
    "latitude": "29.990392487914914",
    "geocoded_column": {
      "latitude": "29.990392487914914",
      "longitude": "-90.05711753752021"
    }
  },
  {
    "service_request": "2026-1283355",
    "request_type": "Trash/Recycling",
    "request_reason": "Request a Large Item Pick Up",
    "date_created": "2026-05-21T14:14:54.000",
    "date_modified": "2026-05-21T14:14:56.000",
    "request_status": "Pending",
    "responsible_agency": "Department of Sanitation",
    "final_address": "2808 Palmer Ave",
    "address_councildis": "A",
    "status": "Assigned to Contractor",
    "contractor": "IV Waste",
    "rowid": "1283355",
    "final_x": "3666820.10804",
    "final_y": "526914.559166",
    "longitude": "-90.11457898429398",
    "latitude": "29.943269768648463",
    "geocoded_column": {
      "latitude": "29.943269768648463",
      "longitude": "-90.11457898429398"
    }
  },
  {
    "service_request": "2026-1283354",
    "request_type": "Streetlights",
    "request_reason": "Streetlight Outage/Malfunction",
    "date_created": "2026-05-21T14:14:47.000",
    "date_modified": "2026-05-21T14:14:49.000",
    "request_status": "Pending",
    "responsible_agency": "Department of Public Works",
    "final_address": "4500 Loyola Ave",
    "address_councildis": "B",
    "status": "Pending",
    "rowid": "1283354",
    "final_x": "3670191.33946",
    "final_y": "522910.240635",
    "longitude": "-90.10407075555425",
    "latitude": "29.93216015934588",
    "geocoded_column": {
      "latitude": "29.93216015934588",
      "longitude": "-90.10407075555425"
    }
  },
  {
    "service_request": "2026-1283353",
    "request_type": "Abandoned Vehicles",
    "request_reason": "Abandoned/Junk Vehicles",
    "date_created": "2026-05-21T14:12:52.000",
    "date_modified": "2026-05-21T14:12:53.000",
    "request_status": "Pending",
    "responsible_agency": "Department of Public Works",
    "final_address": "2200 BLK Independence St",
    "address_councildis": "D",
    "status": "Pending",
    "rowid": "1283353",
    "final_x": "3692027.92168",
    "final_y": "539844.682237",
    "longitude": "-90.03452911350865",
    "latitude": "29.97806177384433",
    "geocoded_column": {
      "latitude": "29.97806177384433",
      "longitude": "-90.03452911350865"
    }
  },
  {
    "service_request": "2026-1283352",
    "request_type": "Trash/Recycling",
    "request_reason": "Replace Recycling Cart",
    "date_created": "2026-05-21T14:12:34.000",
    "date_modified": "2026-05-21T14:12:36.000",
    "request_status": "Pending",
    "responsible_agency": "Department of Sanitation",
    "final_address": "4906 Constance St",
    "address_councildis": "B",
    "status": "Pending",
    "rowid": "1283352",
    "final_x": "3668905.12526",
    "final_y": "518168.23871",
    "longitude": "-90.1082912678454",
    "latitude": "29.919159039312156",
    "geocoded_column": {
      "latitude": "29.919159039312156",
      "longitude": "-90.1082912678454"
    }
  },
  {
    "service_request": "2026-1283351",
    "request_type": "Parks & Grass Service",
    "request_reason": "Request Grass Cutting Service (City Owned Property)",
    "date_created": "2026-05-21T14:11:46.000",
    "date_modified": "2026-05-21T14:11:54.000",
    "request_status": "Pending",
    "responsible_agency": "Department of Parks & Parkways",
    "final_address": "2614 Franklin Ave",
    "address_councildis": "D",
    "status": "Pending",
    "rowid": "1283351",
    "final_x": "3687374.09852",
    "final_y": "542214.882253",
    "longitude": "-90.04914360028675",
    "latitude": "29.984723209868612",
    "geocoded_column": {
      "latitude": "29.984723209868612",
      "longitude": "-90.04914360028675"
    }
  },
  {
    "service_request": "2026-1283350",
    "request_type": "Trash/Recycling",
    "request_reason": "Illegal Dumping",
    "date_created": "2026-05-21T14:07:34.000",
    "date_modified": "2026-05-21T14:07:35.000",
    "request_status": "Pending",
    "responsible_agency": "Department of Sanitation",
    "final_address": "2614 Franklin Ave",
    "address_councildis": "D",
    "status": "Pending",
    "rowid": "1283350",
    "final_x": "3687374.09852",
    "final_y": "542214.882253",
    "longitude": "-90.04914360028675",
    "latitude": "29.984723209868612",
    "geocoded_column": {
      "latitude": "29.984723209868612",
      "longitude": "-90.04914360028675"
    }
  },
  {
    "service_request": "2026-1283349",
    "request_type": "Trash/Recycling",
    "request_reason": "Replace Trash Cart",
    "date_created": "2026-05-21T14:05:36.000",
    "date_modified": "2026-05-21T14:05:37.000",
    "request_status": "Pending",
    "responsible_agency": "Department of Sanitation",
    "final_address": "2415 Lamanche St",
    "address_councildis": "E",
    "status": "Assigned to Contractor",
    "contractor": "Waste Pro",
    "rowid": "1283349",
    "final_x": "3699747.3512",
    "final_y": "538669.714633",
    "longitude": "-90.01019142870926",
    "latitude": "29.97458818860911",
    "geocoded_column": {
      "latitude": "29.97458818860911",
      "longitude": "-90.01019142870926"
    }
  },
  {
    "service_request": "2026-1283348",
    "request_type": "General Services",
    "request_reason": "General Service Request",
    "date_created": "2026-05-21T14:05:34.000",
    "date_modified": "2026-05-21T14:05:35.000",
    "request_status": "Pending",
    "responsible_agency": "Orleans Parish Communication District",
    "final_address": "5300 BLK Press Dr",
    "address_councildis": "D",
    "status": "Pending",
    "rowid": "1283348",
    "final_x": "3689262.18246",
    "final_y": "552871.281512",
    "longitude": "-90.04280089110225",
    "latitude": "30.01396611750941",
    "geocoded_column": {
      "latitude": "30.01396611750941",
      "longitude": "-90.04280089110225"
    }
  },
  {
    "service_request": "2026-1283347",
    "request_type": "Abandoned Vehicles",
    "request_reason": "Abandoned/Junk Vehicles",
    "date_created": "2026-05-21T14:04:54.000",
    "date_modified": "2026-05-21T14:06:34.000",
    "request_status": "Pending",
    "responsible_agency": "Department of Public Works",
    "final_address": "SPAIN ST & PRENTISS AVE",
    "address_councildis": "D",
    "status": "Pending",
    "rowid": "1283347",
    "final_x": "3684727.1",
    "final_y": "553873.18",
    "longitude": "-90.05709416219932",
    "latitude": "30.016860636375284",
    "geocoded_column": {
      "latitude": "30.016860636375284",
      "longitude": "-90.05709416219932"
    }
  },
  {
    "service_request": "2026-1283346",
    "request_type": "Street and Traffic Signs",
    "request_reason": "Traffic or Parking Sign Damaged or Missing",
    "date_created": "2026-05-21T14:01:08.000",
    "date_modified": "2026-05-21T14:27:23.000",
    "request_status": "Pending",
    "responsible_agency": "Department of Public Works",
    "final_address": "MAGAZINE ST & HENRY CLAY AVE",
    "address_councildis": "A",
    "status": "Pending",
    "rowid": "1283346",
    "final_x": "3663792.1",
    "final_y": "519586.38",
    "longitude": "-90.1243833286967",
    "latitude": "29.923207804965596",
    "geocoded_column": {
      "latitude": "29.923207804965596",
      "longitude": "-90.1243833286967"
    }
  },
  {
    "service_request": "2026-1283345",
    "request_type": "Homeless Related Request",
    "request_reason": "Homeless Encampment Complaint",
    "date_created": "2026-05-21T13:50:26.000",
    "date_modified": "2026-05-21T15:03:00.000",
    "request_status": "Pending",
    "responsible_agency": "Office Of Homeless Services And Strategy",
    "final_address": "666 Gravier St",
    "address_councildis": "B",
    "status": "Pending",
    "rowid": "1283345",
    "final_x": "3680936.55682",
    "final_y": "530012.706433",
    "longitude": "-90.0699019505673",
    "latitude": "29.951368230146713",
    "geocoded_column": {
      "latitude": "29.951368230146713",
      "longitude": "-90.0699019505673"
    }
  },
  {
    "service_request": "2026-1283344",
    "request_type": "Trash/Recycling",
    "request_reason": "Request a Large Item Pick Up",
    "date_created": "2026-05-21T13:46:49.000",
    "date_modified": "2026-05-21T13:46:50.000",
    "request_status": "Pending",
    "responsible_agency": "Department of Sanitation",
    "final_address": "2748 Wisteria St",
    "address_councildis": "D",
    "status": "Assigned to Contractor",
    "contractor": "IV Waste",
    "rowid": "1283344",
    "final_x": "3688117.12867",
    "final_y": "548431.433746",
    "longitude": "-90.04657619632039",
    "latitude": "30.001793571636597",
    "geocoded_column": {
      "latitude": "30.001793571636597",
      "longitude": "-90.04657619632039"
    }
  },
  {
    "service_request": "2026-1283343",
    "request_type": "Streetlights",
    "request_reason": "Streetlight Outage/Malfunction",
    "date_created": "2026-05-21T13:46:33.000",
    "date_modified": "2026-05-21T13:50:12.000",
    "request_status": "Pending",
    "responsible_agency": "Department of Public Works",
    "final_address": "10132 Lincoln Beach Blvd",
    "address_councildis": "E",
    "status": "Pending",
    "rowid": "1283343",
    "final_x": "3707960.37867",
    "final_y": "565978.790563",
    "longitude": "-89.9832366891367",
    "latitude": "30.04941430103959",
    "geocoded_column": {
      "latitude": "30.04941430103959",
      "longitude": "-89.9832366891367"
    }
  },
  {
    "service_request": "2026-1283342",
    "request_type": "Trash/Recycling",
    "request_reason": "Repair Trash Cart",
    "date_created": "2026-05-21T13:42:38.000",
    "date_modified": "2026-05-21T13:42:39.000",
    "request_status": "Pending",
    "responsible_agency": "Department of Sanitation",
    "final_address": "6509 Brunswick Ct",
    "address_councildis": "C",
    "status": "Assigned to Contractor",
    "contractor": "Richards Disposal",
    "rowid": "1283342",
    "final_x": "3708000.16408",
    "final_y": "516892.594421",
    "longitude": "-89.98493661767117",
    "latitude": "29.914444284965626",
    "geocoded_column": {
      "latitude": "29.914444284965626",
      "longitude": "-89.98493661767117"
    }
  },
  {
    "service_request": "2026-1283341",
    "request_type": "Trash/Recycling",
    "request_reason": "Request a Large Item Pick Up",
    "date_created": "2026-05-21T13:40:11.000",
    "date_modified": "2026-05-21T13:42:30.000",
    "request_status": "Pending",
    "responsible_agency": "Department of Sanitation",
    "final_address": "6117 Willow St",
    "address_councildis": "A",
    "status": "Assigned to Contractor",
    "contractor": "IV Waste",
    "rowid": "1283341",
    "final_x": "3666637.96673",
    "final_y": "525870.759613",
    "longitude": "-90.1151890876228",
    "latitude": "29.940404981418215",
    "geocoded_column": {
      "latitude": "29.940404981418215",
      "longitude": "-90.1151890876228"
    }
  },
  {
    "service_request": "2026-1283340",
    "request_type": "Trash/Recycling",
    "request_reason": "Illegal Dumping",
    "date_created": "2026-05-21T13:39:35.000",
    "date_modified": "2026-05-21T13:39:37.000",
    "request_status": "Pending",
    "responsible_agency": "Department of Sanitation",
    "final_address": "1347 Magazine St",
    "address_councildis": "B",
    "status": "Pending",
    "rowid": "1283340",
    "final_x": "3680400.3444",
    "final_y": "524860.841724",
    "longitude": "-90.07177414442371",
    "latitude": "29.937218568812625",
    "geocoded_column": {
      "latitude": "29.937218568812625",
      "longitude": "-90.07177414442371"
    }
  },
  {
    "service_request": "2026-1283339",
    "request_type": "Property Maintenance",
    "request_reason": "Property Maintenance",
    "date_created": "2026-05-21T13:38:48.000",
    "date_modified": "2026-05-21T13:40:56.000",
    "request_status": "Pending",
    "responsible_agency": "Department of Code Enforcement",
    "final_address": "5414 Urquhart St",
    "address_councildis": "E",
    "status": "Pending",
    "rowid": "1283339",
    "final_x": "3697512.8472",
    "final_y": "534637.749254",
    "longitude": "-90.01739474028902",
    "latitude": "29.963572486380187",
    "geocoded_column": {
      "latitude": "29.963572486380187",
      "longitude": "-90.01739474028902"
    }
  },
  {
    "service_request": "2026-1283338",
    "request_type": "Street and Traffic Signs",
    "request_reason": "Stop Sign Missing or Damaged",
    "date_created": "2026-05-21T13:22:30.000",
    "date_modified": "2026-05-21T13:22:31.000",
    "request_status": "Pending",
    "responsible_agency": "Department of Public Works",
    "final_address": "111 Audubon St",
    "address_councildis": "A",
    "status": "Pending",
    "rowid": "1283338",
    "final_x": "3660916.91347",
    "final_y": "521057.297401",
    "longitude": "-90.13341062217289",
    "latitude": "29.927335469788034",
    "geocoded_column": {
      "latitude": "29.927335469788034",
      "longitude": "-90.13341062217289"
    }
  },
  {
    "service_request": "2026-1283337",
    "request_type": "Drainage",
    "request_reason": "Catch Basin Not Draining",
    "date_created": "2026-05-21T13:21:38.000",
    "date_modified": "2026-05-21T13:21:44.000",
    "request_status": "Pending",
    "responsible_agency": "Sewerage & Water Board",
    "final_address": "262 Hillary St",
    "address_councildis": "A",
    "status": "Pending",
    "rowid": "1283337",
    "final_x": "3661106.89709",
    "final_y": "524807.891132",
    "longitude": "-90.13268682832036",
    "latitude": "29.937642953491448",
    "geocoded_column": {
      "latitude": "29.937642953491448",
      "longitude": "-90.13268682832036"
    }
  },
  {
    "service_request": "2026-1283336",
    "request_type": "Drainage",
    "request_reason": "Catch Basin Not Draining",
    "date_created": "2026-05-21T13:19:59.000",
    "date_modified": "2026-05-21T13:20:22.000",
    "request_status": "Pending",
    "responsible_agency": "Sewerage & Water Board",
    "final_address": "1405 Audubon St",
    "address_councildis": "A",
    "status": "Pending",
    "rowid": "1283336",
    "final_x": "3664906.87053",
    "final_y": "526953.103742",
    "longitude": "-90.12061829705131",
    "latitude": "29.94343157054983",
    "geocoded_column": {
      "latitude": "29.94343157054983",
      "longitude": "-90.12061829705131"
    }
  },
  {
    "service_request": "2026-1283335",
    "request_type": "Mosquito, Termite & Rodent Control",
    "request_reason": "Non-Rodent Complaint (Possums & Snakes)",
    "date_created": "2026-05-21T13:16:22.000",
    "date_modified": "2026-05-21T13:16:24.000",
    "request_status": "Pending",
    "responsible_agency": "Mosquito, Termite & Rodent Control Board",
    "final_address": "2408 St Anthony St",
    "address_councildis": "D",
    "status": "Pending",
    "rowid": "1283335",
    "final_x": "3683089.06076",
    "final_y": "541059.13038",
    "longitude": "-90.06271863484635",
    "latitude": "29.981676652055278",
    "geocoded_column": {
      "latitude": "29.981676652055278",
      "longitude": "-90.06271863484635"
    }
  },
  {
    "service_request": "2026-1283334",
    "request_type": "Property Maintenance",
    "request_reason": "Property Maintenance",
    "date_created": "2026-05-21T13:11:29.000",
    "date_modified": "2026-05-21T13:13:18.000",
    "request_status": "Pending",
    "responsible_agency": "Department of Code Enforcement",
    "final_address": "4427 Music St",
    "address_councildis": "D",
    "status": "Pending",
    "rowid": "1283334",
    "final_x": "3685796.95369",
    "final_y": "549083.180819",
    "longitude": "-90.05388286892739",
    "latitude": "30.003657078539813",
    "geocoded_column": {
      "latitude": "30.003657078539813",
      "longitude": "-90.05388286892739"
    }
  },
  {
    "service_request": "2026-1283333",
    "request_type": "Streetlights",
    "request_reason": "Streetlight Outage/Malfunction",
    "date_created": "2026-05-21T13:06:49.000",
    "date_modified": "2026-05-21T13:06:51.000",
    "request_status": "Pending",
    "responsible_agency": "Department of Public Works",
    "final_address": "2701 Octavia St",
    "address_councildis": "A",
    "status": "Pending",
    "rowid": "1283333",
    "final_x": "3667932.02349",
    "final_y": "525386.066045",
    "longitude": "-90.11111984895606",
    "latitude": "29.939034339134572",
    "geocoded_column": {
      "latitude": "29.939034339134572",
      "longitude": "-90.11111984895606"
    }
  },
  {
    "service_request": "2026-1283332",
    "request_type": "Trash/Recycling",
    "request_reason": "Request a Large Item Pick Up",
    "date_created": "2026-05-21T13:00:59.000",
    "date_modified": "2026-05-21T13:01:01.000",
    "request_status": "Pending",
    "responsible_agency": "Department of Sanitation",
    "final_address": "4124 LaSalle St",
    "address_councildis": "B",
    "status": "Assigned to Contractor",
    "contractor": "IV Waste",
    "rowid": "1283332",
    "final_x": "3671474.80078",
    "final_y": "523749.162107",
    "longitude": "-90.09999047854423",
    "latitude": "29.93442900011561",
    "geocoded_column": {
      "latitude": "29.93442900011561",
      "longitude": "-90.09999047854423"
    }
  },
  {
    "service_request": "2026-1283331",
    "request_type": "Abandoned Vehicles",
    "request_reason": "Abandoned/Junk Vehicles",
    "date_created": "2026-05-21T12:57:07.000",
    "date_modified": "2026-05-21T12:57:09.000",
    "request_status": "Pending",
    "responsible_agency": "Department of Public Works",
    "final_address": "DORSETT DR & WALES ST",
    "address_councildis": "E",
    "status": "Pending",
    "rowid": "1283331",
    "final_x": "3712331.6",
    "final_y": "568120.88",
    "longitude": "-89.96934049592117",
    "latitude": "30.055161833752145",
    "geocoded_column": {
      "latitude": "30.055161833752145",
      "longitude": "-89.96934049592117"
    }
  },
  {
    "service_request": "2026-1283330",
    "request_type": "Trash/Recycling",
    "request_reason": "Dead Animal Pick Up",
    "date_created": "2026-05-21T12:54:56.000",
    "date_modified": "2026-05-21T12:54:59.000",
    "request_status": "Pending",
    "responsible_agency": "Department of Sanitation",
    "final_address": "7754 Briarwood Dr",
    "address_councildis": "E",
    "status": "Assigned to Contractor",
    "contractor": "Waste Pro",
    "rowid": "1283330",
    "final_x": "3716952.64255",
    "final_y": "571538.472232",
    "longitude": "-89.95460451747552",
    "latitude": "30.06440673422739",
    "geocoded_column": {
      "latitude": "30.06440673422739",
      "longitude": "-89.95460451747552"
    }
  },
  {
    "service_request": "2026-1283329",
    "request_type": "Trash/Recycling",
    "request_reason": "Request a Large Item Pick Up",
    "date_created": "2026-05-21T12:53:44.000",
    "date_modified": "2026-05-21T12:53:45.000",
    "request_status": "Pending",
    "responsible_agency": "Department of Sanitation",
    "final_address": "2434 Chartres St",
    "address_councildis": "C",
    "status": "Assigned to Contractor",
    "contractor": "IV Waste",
    "rowid": "1283329",
    "final_x": "3686203.5983",
    "final_y": "534571.242437",
    "longitude": "-90.05311043707961",
    "latitude": "29.963741897367576",
    "geocoded_column": {
      "latitude": "29.963741897367576",
      "longitude": "-90.05311043707961"
    }
  },
  {
    "service_request": "2026-1283328",
    "request_type": "Trash/Recycling",
    "request_reason": "Request a Large Item Pick Up",
    "date_created": "2026-05-21T12:52:11.000",
    "date_modified": "2026-05-21T12:52:13.000",
    "request_status": "Pending",
    "responsible_agency": "Department of Sanitation",
    "final_address": "6101 St Roch Ave",
    "address_councildis": "D",
    "status": "Assigned to Contractor",
    "contractor": "IV Waste",
    "rowid": "1283328",
    "final_x": "3685077.53276",
    "final_y": "555514.786329",
    "longitude": "-90.0559291196056",
    "latitude": "30.021363712549842",
    "geocoded_column": {
      "latitude": "30.021363712549842",
      "longitude": "-90.0559291196056"
    }
  },
  {
    "service_request": "2026-1283327",
    "request_type": "Trash/Recycling",
    "request_reason": "Request a Large Item Pick Up",
    "date_created": "2026-05-21T12:49:35.000",
    "date_modified": "2026-05-21T12:49:37.000",
    "request_status": "Pending",
    "responsible_agency": "Department of Sanitation",
    "final_address": "9548 Palmetto St",
    "address_councildis": "A",
    "status": "Assigned to Contractor",
    "contractor": "IV Waste",
    "rowid": "1283327",
    "final_x": "3664117.4201",
    "final_y": "538631.138185",
    "longitude": "-90.12272125866446",
    "latitude": "29.975565303770072",
    "geocoded_column": {
      "latitude": "29.975565303770072",
      "longitude": "-90.12272125866446"
    }
  },
  {
    "service_request": "2026-1283326",
    "request_type": "Trash/Recycling",
    "request_reason": "Request a Large Item Pick Up",
    "date_created": "2026-05-21T12:49:23.000",
    "date_modified": "2026-05-21T12:49:24.000",
    "request_status": "Pending",
    "responsible_agency": "Department of Sanitation",
    "final_address": "5759 Dauphine St",
    "address_councildis": "E",
    "status": "Assigned to Contractor",
    "contractor": "Waste Pro",
    "rowid": "1283326",
    "final_x": "3698511.95722",
    "final_y": "532463.502468",
    "longitude": "-90.01431871126022",
    "latitude": "29.957562492737036",
    "geocoded_column": {
      "latitude": "29.957562492737036",
      "longitude": "-90.01431871126022"
    }
  },