[
  {
    "service_request": "2023-989307",
    "request_type": "Trash/Recycling",
    "request_reason": "Request a Large Item Pick Up",
    "date_created": "2023-04-07T01:44:53.000",
    "date_modified": "2023-04-07T01:44:53.000",
    "request_status": "Pending",
    "responsible_agency": "Department of Sanitation",
    "final_address": "3069 Royal St",
    "address_councildis": "C",
    "status": "Assigned to Contractor",
    "contractor": "IV Waste",
    "rowid": "989307",
    "final_x": "3688591.82819",
    "final_y": "534542.111685",
    "longitude": "-90.04556969942715",
    "latitude": "29.96358821223487",
    "geocoded_column": {
      "latitude": "29.96358821223487",
      "longitude": "-90.04556969942715"
    }
  },
  {
    "service_request": "2023-989306",
    "request_type": "Health Related Request",
    "request_reason": "Noise Ordinance Complaint",
    "date_created": "2023-04-07T01:31:17.000",
    "date_modified": "2023-04-07T01:31:17.000",
    "request_status": "Pending",
    "responsible_agency": "Health Department",
    "status": "Pending",
    "rowid": "989306",
    "longitude": "0.0",
    "latitude": "0.0",
    "geocoded_column": {
      "latitude": "0.0",
      "longitude": "0.0"
    }
  },
  {
    "service_request": "2023-989305",
    "request_type": "Trash/Recycling",
    "request_reason": "Replace Trash Cart",
    "date_created": "2023-04-07T01:27:59.000",
    "date_modified": "2023-04-07T01:28:00.000",
    "request_status": "Pending",
    "responsible_agency": "Department of Sanitation",
    "status": "Assigned to Contractor",
    "rowid": "989305",
    "longitude": "0.0",
    "latitude": "0.0",
    "geocoded_column": {
      "latitude": "0.0",
      "longitude": "0.0"
    }
  },
  {
    "service_request": "2023-989303",
    "request_type": "Traffic Signals/Signs/Striping/Streetlights",
    "request_reason": "Additional signage",
    "date_created": "2023-04-06T22:33:24.000",
    "date_modified": "2023-04-06T22:33:24.000",
    "request_status": "Pending",
    "responsible_agency": "Department of Public Works",
    "final_address": "2600 Louisiana Ave",
    "address_councildis": "B",
    "status": "Pending",
    "rowid": "989303",
    "final_x": "3672719.42804",
    "final_y": "524796.086844",
    "longitude": "-90.09602552618867",
    "latitude": "29.93727080815933",
    "geocoded_column": {
      "latitude": "29.93727080815933",
      "longitude": "-90.09602552618867"
    }
  },
  {
    "service_request": "2023-989302",
    "request_type": "Trash/Recycling",
    "request_reason": "Request a Large Item Pick Up",
    "date_created": "2023-04-06T22:26:16.000",
    "date_modified": "2023-04-06T22:26:17.000",
    "request_status": "Pending",
    "responsible_agency": "Department of Sanitation",
    "final_address": "1436 Rev John Raphael Jr Way, New Orleans, Louisiana, 70113",
    "status": "Assigned to Contractor",
    "rowid": "989302",
    "longitude": "0.0",
    "latitude": "0.0",
    "geocoded_column": {
      "latitude": "0.0",
      "longitude": "0.0"
    }
  },
  {
    "service_request": "2023-989301",
    "request_type": "Traffic Signals/Signs/Striping/Streetlights",
    "request_reason": "Additional signage",
    "date_created": "2023-04-06T22:17:55.000",
    "date_modified": "2023-04-06T22:17:55.000",
    "request_status": "Pending",
    "responsible_agency": "Department of Public Works",
    "final_address": "7910 Earhart Blvd",
    "address_councildis": "B",
    "status": "Pending",
    "rowid": "989301",
    "final_x": "3667005.87399",
    "final_y": "533034.124676",
    "longitude": "-90.11378683341556",
    "latitude": "29.960091146202156",
    "geocoded_column": {
      "latitude": "29.960091146202156",
      "longitude": "-90.11378683341556"
    }
  },
  {
    "service_request": "2023-989300",
    "request_type": "Safety & Permits",
    "request_reason": "Licenses & Permits",
    "date_created": "2023-04-06T22:13:18.000",
    "date_modified": "2023-04-06T22:13:18.000",
    "request_status": "Pending",
    "responsible_agency": "Safety and Permits",
    "final_address": "7910 Earhart Blvd",
    "address_councildis": "B",
    "status": "Pending",
    "rowid": "989300",
    "final_x": "3667005.87399",
    "final_y": "533034.124676",
    "longitude": "-90.11378683341556",
    "latitude": "29.960091146202156",
    "geocoded_column": {
      "latitude": "29.960091146202156",
      "longitude": "-90.11378683341556"
    }
  },
  {
    "service_request": "2023-989298",
    "request_type": "Trash/Recycling",
    "request_reason": "Illegal Dumping",
    "date_created": "2023-04-06T21:51:15.000",
    "date_modified": "2023-04-06T21:51:15.000",
    "request_status": "Pending",
    "responsible_agency": "Department of Sanitation",
    "final_address": "935 Piety St",
    "address_councildis": "C",
    "status": "Pending",
    "rowid": "989298",
    "final_x": "3689734.11209",
    "final_y": "535272.841862",
    "longitude": "-90.04193649036444",
    "latitude": "29.965562116179317",
    "geocoded_column": {
      "latitude": "29.965562116179317",
      "longitude": "-90.04193649036444"
    }
  },
  {
    "service_request": "2023-989297",
    "request_type": "Health Related Request",
    "request_reason": "Noise Ordinance Complaint",
    "date_created": "2023-04-06T21:27:49.000",
    "date_modified": "2023-04-06T21:27:49.000",
    "request_status": "Pending",
    "responsible_agency": "Health Department",
    "final_address": "711 Bourbon St, New Orleans, Louisiana, 70116",
    "address_councildis": "C",
    "status": "Pending",
    "rowid": "989297",
    "final_x": "3682299.38447",
    "final_y": "532765.705988",
    "longitude": "-90.06550263299877",
    "latitude": "29.95889665479323",
    "geocoded_column": {
      "latitude": "29.95889665479323",
      "longitude": "-90.06550263299877"
    }
  },
  {
    "service_request": "2023-989296",
    "request_type": "Mosquito, Termite & Rodent Control",
    "request_reason": "Mosquito Complaint",
    "date_created": "2023-04-06T21:23:23.000",
    "date_modified": "2023-04-06T21:23:23.000",
    "request_status": "Pending",
    "responsible_agency": "Mosquito, Termite & Rodent Control Board",
    "final_address": "6200 Morrison Rd",
    "address_councildis": "D",
    "status": "Pending",
    "rowid": "989296",
    "final_x": "3696290.34211",
    "final_y": "557667.375131",
    "longitude": "-90.02042197491433",
    "latitude": "30.02693403655978",
    "geocoded_column": {
      "latitude": "30.02693403655978",
      "longitude": "-90.02042197491433"
    }
  },
  {
    "service_request": "2023-989295",
    "request_type": "Traffic Signals/Signs/Striping/Streetlights",
    "request_reason": "Traffic Sign Missing/Damaged",
    "date_created": "2023-04-06T21:14:44.000",
    "date_modified": "2023-04-06T21:14:44.000",
    "request_status": "Pending",
    "responsible_agency": "Department of Public Works",
    "final_address": "Filmore Avenue & Marigny Street",
    "address_councildis": "D",
    "status": "Pending",
    "rowid": "989295",
    "final_x": "3684248.69666",
    "final_y": "552407.501654",
    "longitude": "-90.05865723103683",
    "latitude": "30.0128451994796",
    "geocoded_column": {
      "latitude": "30.0128451994796",
      "longitude": "-90.05865723103683"
    }
  },
  {
    "service_request": "2023-989294",
    "request_type": "Traffic Signals/Signs/Striping/Streetlights",
    "request_reason": "Street Light Outage/Malfunction",
    "date_created": "2023-04-06T21:03:36.000",
    "date_modified": "2023-04-06T21:03:37.000",
    "request_status": "Pending",
    "responsible_agency": "Department of Public Works",
    "final_address": "332 Nashville Ave",
    "address_councildis": "A",
    "status": "Assigned to Contractor",
    "contractor": "Legacy Professional Services",
    "rowid": "989294",
    "final_x": "3665152.01184",
    "final_y": "517544.558262",
    "longitude": "-90.12015882782623",
    "latitude": "29.91755391099801",
    "geocoded_column": {
      "latitude": "29.91755391099801",
      "longitude": "-90.12015882782623"
    }
  },
  {
    "service_request": "2023-989293",
    "request_type": "Health Related Request",
    "request_reason": "Noise Ordinance Complaint",
    "date_created": "2023-04-06T20:30:40.000",
    "date_modified": "2023-04-06T20:30:40.000",
    "request_status": "Pending",
    "responsible_agency": "Health Department",
    "final_address": "711 Bourbon St, New Orleans, Louisiana, 70116",
    "address_councildis": "C",
    "status": "Pending",
    "rowid": "989293",
    "final_x": "3682299.38447",
    "final_y": "532765.705988",
    "longitude": "-90.06550263299877",
    "latitude": "29.95889665479323",
    "geocoded_column": {
      "latitude": "29.95889665479323",
      "longitude": "-90.06550263299877"
    }
  },
  {
    "service_request": "2023-989292",
    "request_type": "Health Related Request",
    "request_reason": "Noise Ordinance Complaint",
    "date_created": "2023-04-06T20:19:35.000",
    "date_modified": "2023-04-06T20:19:35.000",
    "request_status": "Pending",
    "responsible_agency": "Health Department",
    "final_address": "711 Bourbon St, New Orleans, Louisiana, 70116",
    "address_councildis": "C",
    "status": "Pending",
    "rowid": "989292",
    "final_x": "3682299.38447",
    "final_y": "532765.705988",
    "longitude": "-90.06550263299877",
    "latitude": "29.95889665479323",
    "geocoded_column": {
      "latitude": "29.95889665479323",
      "longitude": "-90.06550263299877"
    }
  },
  {
    "service_request": "2023-989291",
    "request_type": "Trash/Recycling",
    "request_reason": "Request a Large Item Pick Up",
    "date_created": "2023-04-06T20:03:03.000",
    "date_modified": "2023-04-06T20:03:04.000",
    "request_status": "Pending",
    "responsible_agency": "Department of Sanitation",
    "final_address": "4519 Viola St",
    "address_councildis": "E",
    "status": "Assigned to Contractor",
    "contractor": "Waste Pro",
    "rowid": "989291",
    "final_x": "3704183.99678",
    "final_y": "553693.932823",
    "longitude": "-89.99562557509235",
    "latitude": "30.015757547338836",
    "geocoded_column": {
      "latitude": "30.015757547338836",
      "longitude": "-89.99562557509235"
    }
  },
  {
    "service_request": "2023-989287",
    "request_type": "Trash/Recycling",
    "request_reason": "Request a Large Item Pick Up",
    "date_created": "2023-04-06T19:24:03.000",
    "date_modified": "2023-04-06T19:24:04.000",
    "request_status": "Pending",
    "responsible_agency": "Department of Sanitation",
    "status": "Assigned to Contractor",
    "rowid": "989287",
    "longitude": "0.0",
    "latitude": "0.0",
    "geocoded_column": {
      "latitude": "0.0",
      "longitude": "0.0"
    }
  },
  {
    "service_request": "2023-989286",
    "request_type": "Abandoned Vehicles",
    "request_reason": "Abandoned/Junk Vehicles",
    "date_created": "2023-04-06T19:10:50.000",
    "date_modified": "2023-04-06T19:10:50.000",
    "request_status": "Pending",
    "responsible_agency": "Department of Public Works",
    "final_address": "3200 Belfort St",
    "address_councildis": "A",
    "status": "Pending",
    "rowid": "989286",
    "final_x": "3678335.33378",
    "final_y": "542500.809421",
    "longitude": "-90.07768323701166",
    "latitude": "29.985784856353497",
    "geocoded_column": {
      "latitude": "29.985784856353497",
      "longitude": "-90.07768323701166"
    }
  },
  {
    "service_request": "2023-989285",
    "request_type": "Trash/Recycling",
    "request_reason": "Replace Recycling Cart",
    "date_created": "2023-04-06T19:02:16.000",
    "date_modified": "2023-04-06T19:02:16.000",
    "request_status": "Pending",
    "responsible_agency": "Department of Sanitation",
    "final_address": "1364 Constance St",
    "address_councildis": "B",
    "status": "Pending",
    "rowid": "989285",
    "final_x": "3680805.01877",
    "final_y": "524620.997244",
    "longitude": "-90.070504908214",
    "latitude": "29.936546818854172",
    "geocoded_column": {
      "latitude": "29.936546818854172",
      "longitude": "-90.070504908214"
    }
  },
  {
    "service_request": "2023-989284",
    "request_type": "Roads/Drainage",
    "request_reason": "Pothole",
    "date_created": "2023-04-06T18:57:50.000",
    "date_modified": "2023-04-06T18:57:50.000",
    "request_status": "Pending",
    "responsible_agency": "Department of Public Works",
    "final_address": "1002 Delery St",
    "address_councildis": "E",
    "status": "Pending",
    "rowid": "989284",
    "final_x": "3700239.02404",
    "final_y": "532581.428676",
    "longitude": "-90.00886087456489",
    "latitude": "29.957831969362832",
    "geocoded_column": {
      "latitude": "29.957831969362832",
      "longitude": "-90.00886087456489"
    }
  },
  {
    "service_request": "2023-989283",
    "request_type": "Trash/Recycling",
    "request_reason": "Replace Trash Cart",
    "date_created": "2023-04-06T18:32:16.000",
    "date_modified": "2023-04-06T18:32:16.000",
    "request_status": "Pending",
    "responsible_agency": "Department of Sanitation",
    "final_address": "812 Eighth St",
    "address_councildis": "B",
    "status": "Assigned to Contractor",
    "contractor": "Richards Disposal",
    "rowid": "989283",
    "final_x": "3676629.2635",
    "final_y": "519369.295543",
    "longitude": "-90.0838687393866",
    "latitude": "29.9222322296058",
    "geocoded_column": {
      "latitude": "29.9222322296058",
      "longitude": "-90.0838687393866"
    }
  },
  {
    "service_request": "2023-989281",
    "request_type": "Trash/Recycling",
    "request_reason": "Missed Trash Pick-Up",
    "date_created": "2023-04-06T18:20:39.000",
    "date_modified": "2023-04-06T18:20:40.000",
    "request_status": "Pending",
    "responsible_agency": "Department of Sanitation",
    "final_address": "2909 Josephine St",
    "address_councildis": "B",
    "status": "Assigned to Contractor",
    "contractor": "Richards Disposal",
    "rowid": "989281",
    "final_x": "3675101.10875",
    "final_y": "527650.756991",
    "longitude": "-90.08840848301757",
    "latitude": "29.945049282822005",
    "geocoded_column": {
      "latitude": "29.945049282822005",
      "longitude": "-90.08840848301757"
    }
  },
  {
    "service_request": "2023-989280",
    "request_type": "Property Maintenance",
    "request_reason": "Property Maintenance",
    "date_created": "2023-04-06T18:19:30.000",
    "date_modified": "2023-04-06T18:19:30.000",
    "request_status": "Pending",
    "responsible_agency": "Department of Code Enforcement",
    "final_address": "1737 Feliciana St",
    "address_councildis": "D",
    "status": "Pending",
    "rowid": "989280",
    "final_x": "3689401.22364",
    "final_y": "538550.002313",
    "longitude": "-90.04287118160441",
    "latitude": "29.97458346752421",
    "geocoded_column": {
      "latitude": "29.97458346752421",
      "longitude": "-90.04287118160441"
    }
  },
  {
    "service_request": "2023-989279",
    "request_type": "Trash/Recycling",
    "request_reason": "Order Recycling Cart",
    "date_created": "2023-04-06T18:13:04.000",
    "date_modified": "2023-04-06T18:13:05.000",
    "request_status": "Pending",
    "responsible_agency": "Department of Sanitation",
    "final_address": "1322 Andry St",
    "address_councildis": "E",
    "status": "Pending",
    "rowid": "989279",
    "final_x": "3697340.15139",
    "final_y": "534927.758918",
    "longitude": "-90.0179295791177",
    "latitude": "29.964375362068164",
    "geocoded_column": {
      "latitude": "29.964375362068164",
      "longitude": "-90.0179295791177"
    }
  },
  {
    "service_request": "2023-989277",
    "request_type": "Trash/Recycling",
    "request_reason": "Order Trash Cart",
    "date_created": "2023-04-06T18:12:01.000",
    "date_modified": "2023-04-06T18:12:01.000",
    "request_status": "Pending",
    "responsible_agency": "Department of Sanitation",
    "final_address": "1322 Andry St",
    "address_councildis": "E",
    "status": "Assigned to Contractor",
    "contractor": "Waste Pro",
    "rowid": "989277",
    "final_x": "3697340.15139",
    "final_y": "534927.758918",
    "longitude": "-90.0179295791177",
    "latitude": "29.964375362068164",
    "geocoded_column": {
      "latitude": "29.964375362068164",
      "longitude": "-90.0179295791177"
    }
  },
  {
    "service_request": "2023-989276",
    "request_type": "Trash/Recycling",
    "request_reason": "Replace Trash Cart",
    "date_created": "2023-04-06T18:09:38.000",
    "date_modified": "2023-04-06T18:09:39.000",
    "request_status": "Pending",
    "responsible_agency": "Department of Sanitation",
    "final_address": "3017 Annette St",
    "address_councildis": "D",
    "status": "Assigned to Contractor",
    "contractor": "IV Waste",
    "rowid": "989276",
    "final_x": "3682584.93148",
    "final_y": "543685.007758",
    "longitude": "-90.06421904944601",
    "latitude": "29.98891225271109",
    "geocoded_column": {
      "latitude": "29.98891225271109",
      "longitude": "-90.06421904944601"
    }
  },
  {
    "service_request": "2023-989275",
    "request_type": "Trash/Recycling",
    "request_reason": "Request a Large Item Pick Up",
    "date_created": "2023-04-06T17:49:15.000",
    "date_modified": "2023-04-06T17:49:15.000",
    "request_status": "Pending",
    "responsible_agency": "Department of Sanitation",
    "final_address": "837 Washington Ave",
    "address_councildis": "B",
    "status": "Assigned to Contractor",
    "contractor": "Richards Disposal",
    "rowid": "989275",
    "final_x": "3677531.77646",
    "final_y": "520175.600504",
    "longitude": "-90.08099205923831",
    "latitude": "29.92442221582028",
    "geocoded_column": {
      "latitude": "29.92442221582028",
      "longitude": "-90.08099205923831"
    }
  },
  {
    "service_request": "2023-989274",
    "request_type": "Trash/Recycling",
    "request_reason": "Order Trash Cart",
    "date_created": "2023-04-06T17:49:03.000",
    "date_modified": "2023-04-06T17:49:04.000",
    "request_status": "Pending",
    "responsible_agency": "Department of Sanitation",
    "final_address": "8814 Jeannette St",
    "address_councildis": "A",
    "status": "Assigned to Contractor",
    "contractor": "Richards Disposal",
    "rowid": "989274",
    "final_x": "3660646.51315",
    "final_y": "530822.516738",
    "longitude": "-90.13394154192771",
    "latitude": "29.954194514952796",
    "geocoded_column": {
      "latitude": "29.954194514952796",
      "longitude": "-90.13394154192771"
    }
  },
  {
    "service_request": "2023-989273",
    "request_type": "Trash/Recycling",
    "request_reason": "Request a Large Item Pick Up",
    "date_created": "2023-04-06T17:42:10.000",
    "date_modified": "2023-04-06T17:42:11.000",
    "request_status": "Pending",
    "responsible_agency": "Department of Sanitation",
    "final_address": "2837 Livaudais St",
    "address_councildis": "B",
    "status": "Assigned to Contractor",
    "contractor": "Richards Disposal",
    "rowid": "989273",
    "final_x": "3677924.57794",
    "final_y": "518927.179063",
    "longitude": "-90.07979523159263",
    "latitude": "29.920977650839923",
    "geocoded_column": {
      "latitude": "29.920977650839923",
      "longitude": "-90.07979523159263"
    }
  },
  {
    "service_request": "2023-989272",
    "request_type": "Traffic Signals/Signs/Striping/Streetlights",
    "request_reason": "Traffic Signal Malfunctioning/Damaged",
    "date_created": "2023-04-06T17:23:09.000",
    "date_modified": "2023-04-06T17:23:09.000",
    "request_status": "Pending",
    "responsible_agency": "Department of Public Works",
    "final_address": "N CLAIBORNE AVE & MAZANT ST",
    "address_councildis": "D",
    "status": "Pending",
    "rowid": "989272",
    "final_x": "3692571.9",
    "final_y": "537102.68",
    "longitude": "-90.03290932977883",
    "latitude": "29.970505277901427",
    "geocoded_column": {
      "latitude": "29.970505277901427",
      "longitude": "-90.03290932977883"
    }
  },
  {
    "service_request": "2023-989271",
    "request_type": "Trash/Recycling",
    "request_reason": "MIssed Recycling Pick-Up",
    "date_created": "2023-04-06T17:22:14.000",
    "date_modified": "2023-04-06T17:23:13.000",
    "request_status": "Pending",
    "responsible_agency": "Department of Sanitation",
    "final_address": "4520 S Saratoga St",
    "address_councildis": "B",
    "status": "Assigned to Contractor",
    "contractor": "Richards Disposal",
    "rowid": "989271",
    "final_x": "3670086.98586",
    "final_y": "522548.54137",
    "longitude": "-90.1044124369227",
    "latitude": "29.931168680267056",
    "geocoded_column": {
      "latitude": "29.931168680267056",
      "longitude": "-90.1044124369227"
    }
  },
  {
    "service_request": "2023-989270",
    "request_type": "Trash/Recycling",
    "request_reason": "Missed Trash Pick-Up",
    "date_created": "2023-04-06T17:19:59.000",
    "date_modified": "2023-04-06T17:20:00.000",
    "request_status": "Pending",
    "responsible_agency": "Department of Sanitation",
    "final_address": "4133 Erato St",
    "address_councildis": "B",
    "status": "Assigned to Contractor",
    "contractor": "Richards Disposal",
    "rowid": "989270",
    "final_x": "3671208.61595",
    "final_y": "531331.386306",
    "longitude": "-90.10057329227133",
    "latitude": "29.95528551600202",
    "geocoded_column": {
      "latitude": "29.95528551600202",
      "longitude": "-90.10057329227133"
    }
  },
  {
    "service_request": "2023-989269",
    "request_type": "Traffic Signals/Signs/Striping/Streetlights",
    "request_reason": "Traffic Sign Missing/Damaged",
    "date_created": "2023-04-06T17:19:13.000",
    "date_modified": "2023-04-06T17:19:14.000",
    "request_status": "Pending",
    "responsible_agency": "Department of Public Works",
    "final_address": "N TONTI ST & ST ANTHONY ST",
    "address_councildis": "D",
    "status": "Pending",
    "rowid": "989269",
    "final_x": "3683156.2",
    "final_y": "540604.68",
    "longitude": "-90.06252249706554",
    "latitude": "29.980425025519747",
    "geocoded_column": {
      "latitude": "29.980425025519747",
      "longitude": "-90.06252249706554"
    }
  },
  {
    "service_request": "2023-989268",
    "request_type": "Abandoned Vehicles",
    "request_reason": "Abandoned/Junk Vehicles",
    "date_created": "2023-04-06T17:11:51.000",
    "date_modified": "2023-04-06T17:11:51.000",
    "request_status": "Pending",
    "responsible_agency": "Department of Public Works",
    "final_address": "3328 Robert St",
    "address_councildis": "B",
    "status": "Pending",
    "rowid": "989268",
    "final_x": "3668873.71886",
    "final_y": "527251.921215",
    "longitude": "-90.10808380560603",
    "latitude": "29.944137184383642",
    "geocoded_column": {
      "latitude": "29.944137184383642",
      "longitude": "-90.10808380560603"
    }
  },
  {
    "service_request": "2023-989267",
    "request_type": "Trash/Recycling",
    "request_reason": "Request a Large Item Pick Up",
    "date_created": "2023-04-06T17:07:11.000",
    "date_modified": "2023-04-06T17:07:12.000",
    "request_status": "Pending",
    "responsible_agency": "Department of Sanitation",
    "final_address": "824 Poland Ave",
    "address_councildis": "C",
    "status": "Assigned to Contractor",
    "contractor": "IV Waste",
    "rowid": "989267",
    "final_x": "3692746.48477",
    "final_y": "534066.954117",
    "longitude": "-90.0324668157968",
    "latitude": "29.96215265355931",
    "geocoded_column": {
      "latitude": "29.96215265355931",
      "longitude": "-90.0324668157968"
    }
  },
  {
    "service_request": "2023-989266",
    "request_type": "Trash/Recycling",
    "request_reason": "Repair Trash Cart",
    "date_created": "2023-04-06T17:01:37.000",
    "date_modified": "2023-04-06T17:01:38.000",
    "request_status": "Pending",
    "responsible_agency": "Department of Sanitation",
    "final_address": "4824 Drexel Dr",
    "address_councildis": "B",
    "status": "Assigned to Contractor",
    "contractor": "Richards Disposal",
    "rowid": "989266",
    "final_x": "3669823.76039",
    "final_y": "533819.488517",
    "longitude": "-90.10486193961584",
    "latitude": "29.962167869022675",
    "geocoded_column": {
      "latitude": "29.962167869022675",
      "longitude": "-90.10486193961584"
    }
  },
  {
    "service_request": "2023-989265",
    "request_type": "Property Maintenance",
    "request_reason": "Property Maintenance",
    "date_created": "2023-04-06T16:57:14.000",
    "date_modified": "2023-04-06T16:57:15.000",
    "request_status": "Pending",
    "responsible_agency": "Department of Code Enforcement",
    "final_address": "6811 Morrison Rd",
    "address_councildis": "E",
    "status": "Pending",
    "rowid": "989265",
    "final_x": "3698847.48759",
    "final_y": "558907.851612",
    "longitude": "-90.01229650429603",
    "latitude": "30.030264058466027",
    "geocoded_column": {
      "latitude": "30.030264058466027",
      "longitude": "-90.01229650429603"
    }
  },
  {
    "service_request": "2023-989264",
    "request_type": "Trash/Recycling",
    "request_reason": "Missed Trash Pick-Up",
    "date_created": "2023-04-06T16:48:20.000",
    "date_modified": "2023-04-06T16:48:21.000",
    "request_status": "Pending",
    "responsible_agency": "Department of Sanitation",
    "final_address": "3546 Mimosa Ct",
    "address_councildis": "C",
    "status": "Assigned to Contractor",
    "contractor": "Richards Disposal",
    "rowid": "989264",
    "final_x": "3703463.06359",
    "final_y": "513079.440561",
    "longitude": "-89.99939726125946",
    "latitude": "29.904105442108115",
    "geocoded_column": {
      "latitude": "29.904105442108115",
      "longitude": "-89.99939726125946"
    }
  },
  {
    "service_request": "2023-989263",
    "request_type": "Trash/Recycling",
    "request_reason": "Replace Recycling Cart",
    "date_created": "2023-04-06T16:46:20.000",
    "date_modified": "2023-04-06T16:46:20.000",
    "request_status": "Pending",
    "responsible_agency": "Department of Sanitation",
    "final_address": "6731 Avenue A",
    "address_councildis": "A",
    "status": "Pending",
    "rowid": "989263",
    "final_x": "3666136.16436",
    "final_y": "552936.320023",
    "longitude": "-90.11586544468672",
    "latitude": "30.014840855168273",
    "geocoded_column": {
      "latitude": "30.014840855168273",
      "longitude": "-90.11586544468672"
    }
  },
  {
    "service_request": "2023-989262",
    "request_type": "Trash/Recycling",
    "request_reason": "Repair Trash Cart",
    "date_created": "2023-04-06T16:46:15.000",
    "date_modified": "2023-04-06T16:46:16.000",
    "request_status": "Pending",
    "responsible_agency": "Department of Sanitation",
    "final_address": "4713 Virgilian St",
    "address_councildis": "D",
    "status": "Assigned to Contractor",
    "contractor": "Waste Pro",
    "rowid": "989262",
    "final_x": "3697577.28963",
    "final_y": "553564.558935",
    "longitude": "-90.01650436108831",
    "latitude": "30.015612241850757",
    "geocoded_column": {
      "latitude": "30.015612241850757",
      "longitude": "-90.01650436108831"
    }
  },
  {
    "service_request": "2023-989261",
    "request_type": "Trash/Recycling",
    "request_reason": "Replace Trash Cart",
    "date_created": "2023-04-06T16:45:51.000",
    "date_modified": "2023-04-06T16:45:51.000",
    "request_status": "Pending",
    "responsible_agency": "Department of Sanitation",
    "final_address": "1527 Conery St",
    "address_councildis": "B",
    "status": "Assigned to Contractor",
    "contractor": "Richards Disposal",
    "rowid": "989261",
    "final_x": "3675895.22792",
    "final_y": "522161.585274",
    "longitude": "-90.08608984811066",
    "latitude": "29.929932111488586",
    "geocoded_column": {
      "latitude": "29.929932111488586",
      "longitude": "-90.08608984811066"
    }
  },
  {
    "service_request": "2023-989260",
    "request_type": "Trash/Recycling",
    "request_reason": "Missed Trash Pick-Up",
    "date_created": "2023-04-06T16:42:02.000",
    "date_modified": "2023-04-06T16:56:05.000",
    "request_status": "Pending",
    "responsible_agency": "Department of Sanitation",
    "final_address": "4830 Virgilian St",
    "address_councildis": "D",
    "status": "Assigned to Contractor",
    "contractor": "Waste Pro",
    "rowid": "989260",
    "final_x": "3697351.18647",
    "final_y": "554267.083352",
    "longitude": "-90.01719324431194",
    "latitude": "30.01755106152455",
    "geocoded_column": {
      "latitude": "30.01755106152455",
      "longitude": "-90.01719324431194"
    }
  },
  {
    "service_request": "2023-989258",
    "request_type": "Trash/Recycling",
    "request_reason": "Order Trash Cart",
    "date_created": "2023-04-06T16:40:41.000",
    "date_modified": "2023-04-06T16:40:42.000",
    "request_status": "Pending",
    "responsible_agency": "Department of Sanitation",
    "final_address": "200 S Scott St",
    "address_councildis": "A",
    "status": "Assigned to Contractor",
    "contractor": "Richards Disposal",
    "rowid": "989258",
    "final_x": "3671538.36372",
    "final_y": "537439.15956",
    "longitude": "-90.09932436614052",
    "latitude": "29.972070093465597",
    "geocoded_column": {
      "latitude": "29.972070093465597",
      "longitude": "-90.09932436614052"
    }
  },
  {
    "service_request": "2023-989257",
    "request_type": "Property Maintenance",
    "request_reason": "Property Maintenance",
    "date_created": "2023-04-06T16:40:31.000",
    "date_modified": "2023-04-06T16:40:31.000",
    "request_status": "Pending",
    "responsible_agency": "Department of Code Enforcement",
    "final_address": "915 N Tonti St",
    "address_councildis": "D",
    "status": "Pending",
    "rowid": "989257",
    "final_x": "3678287.06862",
    "final_y": "536829.069896",
    "longitude": "-90.07803194859812",
    "latitude": "29.97019098501181",
    "geocoded_column": {
      "latitude": "29.97019098501181",
      "longitude": "-90.07803194859812"
    }
  },
  {
    "service_request": "2023-989256",
    "request_type": "Trash/Recycling",
    "request_reason": "Replace Trash Cart",
    "date_created": "2023-04-06T16:36:37.000",
    "date_modified": "2023-04-06T16:36:37.000",
    "request_status": "Pending",
    "responsible_agency": "Department of Sanitation",
    "final_address": "6241 Cameron Blvd",
    "address_councildis": "D",
    "status": "Assigned to Contractor",
    "contractor": "IV Waste",
    "rowid": "989256",
    "final_x": "3682265.52149",
    "final_y": "556194.200538",
    "longitude": "-90.06479052835225",
    "latitude": "30.023317750146",
    "geocoded_column": {
      "latitude": "30.023317750146",
      "longitude": "-90.06479052835225"
    }
  },
  {
    "service_request": "2023-989255",
    "request_type": "Trash/Recycling",
    "request_reason": "Missed Trash Pick-Up",
    "date_created": "2023-04-06T16:14:07.000",
    "date_modified": "2023-04-06T16:15:16.000",
    "request_status": "Pending",
    "responsible_agency": "Department of Sanitation",
    "final_address": "7551 Rochon Ave",
    "address_councildis": "E",
    "status": "Assigned to Contractor",
    "contractor": "Waste Pro",
    "rowid": "989255",
    "final_x": "3718962.38917",
    "final_y": "571467.157224",
    "longitude": "-89.9482543334188",
    "latitude": "30.064144003089986",
    "geocoded_column": {
      "latitude": "30.064144003089986",
      "longitude": "-89.9482543334188"
    }
  },
  {
    "service_request": "2023-989254",
    "request_type": "Trash/Recycling",
    "request_reason": "Order Trash Cart",
    "date_created": "2023-04-06T16:13:32.000",
    "date_modified": "2023-04-06T16:13:33.000",
    "request_status": "Pending",
    "responsible_agency": "Department of Sanitation",
    "final_address": "7551 Rochon Ave",
    "address_councildis": "E",
    "status": "Assigned to Contractor",
    "contractor": "Waste Pro",
    "rowid": "989254",
    "final_x": "3718962.38917",
    "final_y": "571467.157224",
    "longitude": "-89.9482543334188",
    "latitude": "30.064144003089986",
    "geocoded_column": {
      "latitude": "30.064144003089986",
      "longitude": "-89.9482543334188"
    }
  },
  {
    "service_request": "2023-989253",
    "request_type": "Trash/Recycling",
    "request_reason": "Missed Trash Pick-Up",
    "date_created": "2023-04-06T16:08:02.000",
    "date_modified": "2023-04-06T16:08:03.000",
    "request_status": "Pending",
    "responsible_agency": "Department of Sanitation",
    "final_address": "7709 Green St",
    "address_councildis": "A",
    "status": "Assigned to Contractor",
    "contractor": "Richards Disposal",
    "rowid": "989253",
    "final_x": "3664184.98394",
    "final_y": "528781.347712",
    "longitude": "-90.12283650999898",
    "latitude": "29.948479642303386",
    "geocoded_column": {
      "latitude": "29.948479642303386",
      "longitude": "-90.12283650999898"
    }
  },
  {
    "service_request": "2023-989252",
    "request_type": "Traffic Signals/Signs/Striping/Streetlights",
    "request_reason": "Street Light Outage/Malfunction",
    "date_created": "2023-04-06T15:59:20.000",
    "date_modified": "2023-04-06T15:59:20.000",
    "request_status": "Pending",
    "responsible_agency": "Department of Public Works",
    "final_address": "10912 N Hardy St",
    "address_councildis": "E",
    "status": "Assigned to Contractor",
    "contractor": "Legacy Professional Services",
    "rowid": "989252",
    "final_x": "3712544.40414",
    "final_y": "561929.936287",
    "longitude": "-89.96890088519433",
    "latitude": "30.038132276094736",
    "geocoded_column": {
      "latitude": "30.038132276094736",
      "longitude": "-89.96890088519433"
    }
  },
  {
    "service_request": "2023-989251",
    "request_type": "Trash/Recycling",
    "request_reason": "Request a Large Item Pick Up",
    "date_created": "2023-04-06T15:57:33.000",
    "date_modified": "2023-04-06T15:57:34.000",
    "request_status": "Pending",
    "responsible_agency": "Department of Sanitation",
    "final_address": "2107 Milan St",
    "address_councildis": "B",
    "status": "Assigned to Contractor",
    "contractor": "Richards Disposal",
    "rowid": "989251",
    "final_x": "3671444.00257",
    "final_y": "522849.688443",
    "longitude": "-90.10011826938208",
    "latitude": "29.93195664904832",
    "geocoded_column": {
      "latitude": "29.93195664904832",
      "longitude": "-90.10011826938208"
    }
  },
  {
    "service_request": "2023-989249",
    "request_type": "Property Maintenance",
    "request_reason": "Property Maintenance",
    "date_created": "2023-04-06T15:48:45.000",
    "date_modified": "2023-04-06T15:48:45.000",
    "request_status": "Pending",
    "responsible_agency": "Department of Code Enforcement",
    "final_address": "2129 Congress St",
    "address_councildis": "D",
    "status": "Pending",
    "rowid": "989249",
    "final_x": "3691748.3158",
    "final_y": "539586.340938",
    "longitude": "-90.0354214466712",
    "latitude": "29.977360138923498",
    "geocoded_column": {
      "latitude": "29.977360138923498",
      "longitude": "-90.0354214466712"
    }
  },
  {
    "service_request": "2023-989248",
    "request_type": "Trash/Recycling",
    "request_reason": "Replace Trash Cart",
    "date_created": "2023-04-06T15:48:11.000",
    "date_modified": "2023-04-06T15:48:11.000",
    "request_status": "Pending",
    "responsible_agency": "Department of Sanitation",
    "final_address": "15 Snipe St",
    "address_councildis": "D",
    "status": "Assigned to Contractor",
    "contractor": "IV Waste",
    "rowid": "989248",
    "final_x": "3672190.01467",
    "final_y": "556520.148506",
    "longitude": "-90.09661593854678",
    "latitude": "30.024516847660834",
    "geocoded_column": {
      "latitude": "30.024516847660834",
      "longitude": "-90.09661593854678"
    }
  },
  {
    "service_request": "2023-989247",
    "request_type": "Roads/Drainage",
    "request_reason": "Catch Basin - Broken/Damage",
    "date_created": "2023-04-06T15:47:45.000",
    "date_modified": "2023-04-06T15:47:45.000",
    "request_status": "Pending",
    "responsible_agency": "Department of Public Works",
    "final_address": "3435 Blair St",
    "address_councildis": "C",
    "status": "Pending",
    "rowid": "989247",
    "final_x": "3709325.92587",
    "final_y": "518022.878454",
    "longitude": "-89.98070998658874",
    "latitude": "29.917509207166468",
    "geocoded_column": {
      "latitude": "29.917509207166468",
      "longitude": "-89.98070998658874"
    }
  },
  {
    "service_request": "2023-989246",
    "request_type": "Trash/Recycling",
    "request_reason": "Replace Recycling Cart",
    "date_created": "2023-04-06T15:47:15.000",
    "date_modified": "2023-04-06T15:47:15.000",
    "request_status": "Pending",
    "responsible_agency": "Department of Sanitation",
    "final_address": "15 Snipe St",
    "address_councildis": "D",
    "status": "Pending",
    "rowid": "989246",
    "final_x": "3672190.01467",
    "final_y": "556520.148506",
    "longitude": "-90.09661593854678",
    "latitude": "30.024516847660834",
    "geocoded_column": {
      "latitude": "30.024516847660834",
      "longitude": "-90.09661593854678"
    }
  },
  {
    "service_request": "2023-989245",
    "request_type": "Trash/Recycling",
    "request_reason": "MIssed Recycling Pick-Up",
    "date_created": "2023-04-06T15:44:47.000",
    "date_modified": "2023-04-06T15:44:47.000",
    "request_status": "Pending",
    "responsible_agency": "Department of Sanitation",
    "final_address": "1220 Leonidas St",
    "address_councildis": "A",
    "status": "Assigned to Contractor",
    "contractor": "Richards Disposal",
    "rowid": "989245",
    "final_x": "3660741.74854",
    "final_y": "529732.308737",
    "longitude": "-90.13367686638833",
    "latitude": "29.951194051621812",
    "geocoded_column": {
      "latitude": "29.951194051621812",
      "longitude": "-90.13367686638833"
    }
  },
  {
    "service_request": "2023-989244",
    "request_type": "Trash/Recycling",
    "request_reason": "Missed Trash Pick-Up",
    "date_created": "2023-04-06T15:44:46.000",
    "date_modified": "2023-04-06T15:44:47.000",
    "request_status": "Pending",
    "responsible_agency": "Department of Sanitation",
    "final_address": "1607 N Villere St",
    "address_councildis": "C",
    "status": "Assigned to Contractor",
    "contractor": "IV Waste",
    "rowid": "989244",
    "final_x": "3682592.50415",
    "final_y": "537323.870856",
    "longitude": "-90.06441764058462",
    "latitude": "29.97142112021534",
    "geocoded_column": {
      "latitude": "29.97142112021534",
      "longitude": "-90.06441764058462"
    }
  },
  {
    "service_request": "2023-989243",
    "request_type": "Trash/Recycling",
    "request_reason": "Missed Trash Pick-Up",
    "date_created": "2023-04-06T15:44:11.000",
    "date_modified": "2023-04-06T15:44:12.000",
    "request_status": "Pending",
    "responsible_agency": "Department of Sanitation",
    "final_address": "4700 BLK Lynhuber Dr",
    "address_councildis": "D",
    "status": "Assigned to Contractor",
    "contractor": "Waste Pro",
    "rowid": "989243",
    "final_x": "3698031.05272",
    "final_y": "554287.859388",
    "longitude": "-90.0150443930662",
    "latitude": "30.017586698058267",
    "geocoded_column": {
      "latitude": "30.017586698058267",
      "longitude": "-90.0150443930662"
    }
  },
  {
    "service_request": "2023-989242",
    "request_type": "Roads/Drainage",
    "request_reason": "Catch Basin - Broken/Damage",
    "date_created": "2023-04-06T15:40:04.000",
    "date_modified": "2023-04-06T15:40:04.000",
    "request_status": "Pending",
    "responsible_agency": "Department of Public Works",
    "status": "Pending",
    "rowid": "989242",
    "longitude": "0.0",
    "latitude": "0.0",
    "geocoded_column": {
      "latitude": "0.0",
      "longitude": "0.0"
    }
  },
  {
    "service_request": "2023-989241",
    "request_type": "Traffic Signals/Signs/Striping/Streetlights",
    "request_reason": "Street Light Outage/Malfunction",
    "date_created": "2023-04-06T15:34:24.000",
    "date_modified": "2023-04-06T15:34:24.000",
    "request_status": "Pending",
    "responsible_agency": "Department of Public Works",
    "final_address": "984 Harding Dr",
    "address_councildis": "A",
    "status": "Assigned to Contractor",
    "contractor": "Legacy Professional Services",
    "rowid": "989241",
    "final_x": "3674548.98427",
    "final_y": "540286.715147",
    "longitude": "-90.08971871391604",
    "latitude": "29.97981040443285",
    "geocoded_column": {
      "latitude": "29.97981040443285",
      "longitude": "-90.08971871391604"
    }
  },
  {
    "service_request": "2023-989240",
    "request_type": "Trash/Recycling",
    "request_reason": "Request a Large Item Pick Up",
    "date_created": "2023-04-06T15:30:11.000",
    "date_modified": "2023-04-06T15:30:11.000",
    "request_status": "Pending",
    "responsible_agency": "Department of Sanitation",
    "final_address": "3929 Chestnut St",
    "address_councildis": "B",
    "status": "Assigned to Contractor",
    "contractor": "Richards Disposal",
    "rowid": "989240",
    "final_x": "3672655.58516",
    "final_y": "519726.395128",
    "longitude": "-90.0963998601554",
    "latitude": "29.923332685777872",
    "geocoded_column": {
      "latitude": "29.923332685777872",
      "longitude": "-90.0963998601554"
    }
  },
  {
    "service_request": "2023-989239",
    "request_type": "Trash/Recycling",
    "request_reason": "Request a Large Item Pick Up",
    "date_created": "2023-04-06T15:30:10.000",
    "date_modified": "2023-04-06T15:30:11.000",
    "request_status": "Pending",
    "responsible_agency": "Department of Sanitation",
    "final_address": "3415 Bruxelles St",
    "address_councildis": "D",
    "status": "Assigned to Contractor",
    "contractor": "IV Waste",
    "rowid": "989239",
    "final_x": "3680174.56155",
    "final_y": "544942.455119",
    "longitude": "-90.07178894721278",
    "latitude": "29.992442977161183",
    "geocoded_column": {
      "latitude": "29.992442977161183",
      "longitude": "-90.07178894721278"
    }
  },
  {
    "service_request": "2023-989238",
    "request_type": "Trash/Recycling",
    "request_reason": "Request a Large Item Pick Up",
    "date_created": "2023-04-06T15:22:36.000",
    "date_modified": "2023-04-06T15:22:37.000",
    "request_status": "Pending",
    "responsible_agency": "Department of Sanitation",
    "final_address": "622 Flood St",
    "address_councildis": "E",
    "status": "Assigned to Contractor",
    "contractor": "Waste Pro",
    "rowid": "989238",
    "final_x": "3697228.50173",
    "final_y": "532204.144771",
    "longitude": "-90.01838086130502",
    "latitude": "29.956889912451327",
    "geocoded_column": {
      "latitude": "29.956889912451327",
      "longitude": "-90.01838086130502"
    }
  },
  {
    "service_request": "2023-989237",
    "request_type": "Safety & Permits",
    "request_reason": "Licenses & Permits",
    "date_created": "2023-04-06T15:21:39.000",
    "date_modified": "2023-04-06T15:24:59.000",
    "request_status": "Pending",
    "responsible_agency": "Safety and Permits",
    "final_address": "New Orleans,LA",
    "address_councildis": "A",
    "rowid": "989237",
    "final_x": "3670678.10126",
    "final_y": "541222.133644",
    "longitude": "-90.10191282757432",
    "latitude": "29.982497437245858",
    "geocoded_column": {
      "latitude": "29.982497437245858",
      "longitude": "-90.10191282757432"
    }
  },
  {
    "service_request": "2023-989236",
    "request_type": "Trash/Recycling",
    "request_reason": "Request a Large Item Pick Up",
    "date_created": "2023-04-06T15:21:27.000",
    "date_modified": "2023-04-06T15:21:28.000",
    "request_status": "Pending",
    "responsible_agency": "Department of Sanitation",
    "final_address": "926 Toulouse St",
    "address_councildis": "C",
    "status": "Assigned to Contractor",
    "contractor": "Empire Services",
    "rowid": "989236",
    "final_x": "3681505.43279",
    "final_y": "532644.076228",
    "longitude": "-90.06801397143775",
    "latitude": "29.958586345646566",
    "geocoded_column": {
      "latitude": "29.958586345646566",
      "longitude": "-90.06801397143775"
    }
  },
  {
    "service_request": "2023-989235",
    "request_type": "Trash/Recycling",
    "request_reason": "Request a Large Item Pick Up",
    "date_created": "2023-04-06T15:13:51.000",
    "date_modified": "2023-04-06T15:13:52.000",
    "request_status": "Pending",
    "responsible_agency": "Department of Sanitation",
    "final_address": "4633 Corinne St",
    "address_councildis": "E",
    "status": "Assigned to Contractor",
    "contractor": "Waste Pro",
    "rowid": "989235",
    "final_x": "3715165.4524",
    "final_y": "556305.183386",
    "longitude": "-89.96083071219037",
    "latitude": "30.022580374916206",
    "geocoded_column": {
      "latitude": "30.022580374916206",
      "longitude": "-89.96083071219037"
    }
  },
  {
    "service_request": "2023-989234",
    "request_type": "Property Maintenance",
    "request_reason": "Property Maintenance",
    "date_created": "2023-04-06T15:12:25.000",
    "date_modified": "2023-04-06T15:12:26.000",
    "request_status": "Pending",
    "responsible_agency": "Department of Code Enforcement",
    "final_address": "1816 Benefit St",
    "address_councildis": "D",
    "status": "Pending",
    "rowid": "989234",
    "final_x": "3681538.69314",
    "final_y": "544150.024974",
    "longitude": "-90.067507571057",
    "latitude": "29.990222707410656",
    "geocoded_column": {
      "latitude": "29.990222707410656",
      "longitude": "-90.067507571057"
    }
  },
  {
    "service_request": "2023-989233",
    "request_type": "Abandoned Vehicles",
    "request_reason": "Abandoned/Junk Vehicles",
    "date_created": "2023-04-06T15:09:55.000",
    "date_modified": "2023-04-06T15:09:55.000",
    "request_status": "Pending",
    "responsible_agency": "Department of Public Works",
    "final_address": "7130 Boston Dr",
    "address_councildis": "E",
    "status": "Pending",
    "rowid": "989233",
    "final_x": "3706156.50795",
    "final_y": "561114.945438",
    "longitude": "-89.98911832195373",
    "latitude": "30.036098975803455",
    "geocoded_column": {
      "latitude": "30.036098975803455",
      "longitude": "-89.98911832195373"
    }
  },
  {
    "service_request": "2023-989232",
    "request_type": "Roads/Drainage",
    "request_reason": "Accessibility Ramps, Curbs and Sidewalk Repair",
    "date_created": "2023-04-06T15:09:48.000",
    "date_modified": "2023-04-06T15:09:49.000",
    "request_status": "Pending",
    "responsible_agency": "Department of Public Works",
    "final_address": "1816 Benefit St",
    "address_councildis": "D",
    "status": "Pending",
    "rowid": "989232",
    "final_x": "3681538.69314",
    "final_y": "544150.024974",
    "longitude": "-90.067507571057",
    "latitude": "29.990222707410656",
    "geocoded_column": {
      "latitude": "29.990222707410656",
      "longitude": "-90.067507571057"
    }
  },
  {
    "service_request": "2023-989231",
    "request_type": "Abandoned Vehicles",
    "request_reason": "Abandoned/Junk Vehicles",
    "date_created": "2023-04-06T15:09:22.000",
    "date_modified": "2023-04-06T15:12:25.000",
    "request_status": "Pending",
    "responsible_agency": "Department of Public Works",
    "final_address": "TERPSICHORE ST & PRYTANIA ST",
    "address_councildis": "B",
    "status": "Pending",
    "rowid": "989231",
    "final_x": "3679482.5",
    "final_y": "524993.88",
    "longitude": "-90.07466722191613",
    "latitude": "29.937612134623546",
    "geocoded_column": {
      "latitude": "29.937612134623546",
      "longitude": "-90.07466722191613"
    }
  },
  {
    "service_request": "2023-989230",
    "request_type": "Roads/Drainage",
    "request_reason": "Pothole",
    "date_created": "2023-04-06T15:08:13.000",
    "date_modified": "2023-04-06T15:08:13.000",
    "request_status": "Pending",
    "responsible_agency": "Department of Public Works",
    "final_address": "ROBERT E LEE BLVD & PARIS AVE",
    "address_councildis": "D",
    "status": "Pending",
    "rowid": "989230",
    "final_x": "3678859.1",
    "final_y": "555407.18",
    "longitude": "-90.07558139400464",
    "latitude": "30.02125698468573",
    "geocoded_column": {
      "latitude": "30.02125698468573",
      "longitude": "-90.07558139400464"
    }
  },
  {
    "service_request": "2023-989229",
    "request_type": "Roads/Drainage",
    "request_reason": "Pothole",
    "date_created": "2023-04-06T15:06:52.000",
    "date_modified": "2023-04-06T15:06:53.000",
    "request_status": "Pending",
    "responsible_agency": "Department of Public Works",
    "final_address": "ST ANN ST & ROYAL ST",
    "address_councildis": "C",
    "status": "Pending",
    "rowid": "989229",
    "final_x": "3682781.8",
    "final_y": "532764.28",
    "longitude": "-90.06397933809633",
    "latitude": "29.95887804798944",
    "geocoded_column": {
      "latitude": "29.95887804798944",
      "longitude": "-90.06397933809633"
    }
  },
  {
    "service_request": "2023-989228",
    "request_type": "Trash/Recycling",
    "request_reason": "Missed Trash Pick-Up",
    "date_created": "2023-04-06T15:06:15.000",
    "date_modified": "2023-04-06T15:06:16.000",
    "request_status": "Pending",
    "responsible_agency": "Department of Sanitation",
    "final_address": "1816 Benefit St",
    "address_councildis": "D",
    "status": "Assigned to Contractor",
    "contractor": "IV Waste",
    "rowid": "989228",
    "final_x": "3681538.69314",
    "final_y": "544150.024974",
    "longitude": "-90.067507571057",
    "latitude": "29.990222707410656",
    "geocoded_column": {
      "latitude": "29.990222707410656",
      "longitude": "-90.067507571057"
    }
  },
  {
    "service_request": "2023-989227",
    "request_type": "Trash/Recycling",
    "request_reason": "Order Trash Cart",
    "date_created": "2023-04-06T15:05:57.000",
    "date_modified": "2023-04-06T15:05:57.000",
    "request_status": "Pending",
    "responsible_agency": "Department of Sanitation",
    "final_address": "3321 Hamilton St",
    "address_councildis": "A",
    "status": "Assigned to Contractor",
    "contractor": "Richards Disposal",
    "rowid": "989227",
    "final_x": "3664556.35623",
    "final_y": "536406.521159",
    "longitude": "-90.12140928327275",
    "latitude": "29.969435586362504",
    "geocoded_column": {
      "latitude": "29.969435586362504",
      "longitude": "-90.12140928327275"
    }
  },
  {
    "service_request": "2023-989226",
    "request_type": "Property Maintenance",
    "request_reason": "Property Maintenance",
    "date_created": "2023-04-06T15:02:20.000",
    "date_modified": "2023-04-06T15:02:20.000",
    "request_status": "Pending",
    "responsible_agency": "Department of Code Enforcement",
    "final_address": "13900 Hayne Blvd",
    "address_councildis": "E",
    "status": "Pending",
    "rowid": "989226",
    "final_x": "3717393.92191",
    "final_y": "572843.408361",
    "longitude": "-89.95315992476364",
    "latitude": "30.06798015606697",
    "geocoded_column": {
      "latitude": "30.06798015606697",
      "longitude": "-89.95315992476364"
    }
  },
  {
    "service_request": "2023-989225",
    "request_type": "Traffic Signals/Signs/Striping/Streetlights",
    "request_reason": "Traffic Sign Missing/Damaged",
    "date_created": "2023-04-06T14:58:35.000",
    "date_modified": "2023-04-06T14:58:36.000",
    "request_status": "Pending",
    "responsible_agency": "Department of Public Works",
    "final_address": "ST PHILIP ST & ROYAL ST",
    "address_councildis": "C",
    "status": "Pending",
    "rowid": "989225",
    "final_x": "3683225.8",
    "final_y": "533339.68",
    "longitude": "-90.06255714939553",
    "latitude": "29.960446669176594",
    "geocoded_column": {
      "latitude": "29.960446669176594",
      "longitude": "-90.06255714939553"
    }
  },
  {
    "service_request": "2023-989224",
    "request_type": "Trash/Recycling",
    "request_reason": "Illegal Dumping",
    "date_created": "2023-04-06T14:52:47.000",
    "date_modified": "2023-04-06T14:52:48.000",
    "request_status": "Pending",
    "responsible_agency": "Department of Sanitation",
    "final_address": "ST PHILIP ST & ROYAL ST",
    "address_councildis": "C",
    "status": "Pending",
    "rowid": "989224",
    "final_x": "3683225.8",
    "final_y": "533339.68",
    "longitude": "-90.06255714939553",
    "latitude": "29.960446669176594",
    "geocoded_column": {
      "latitude": "29.960446669176594",
      "longitude": "-90.06255714939553"
    }
  },
  {
    "service_request": "2023-989223",
    "request_type": "Trash/Recycling",
    "request_reason": "Request a Large Item Pick Up",
    "date_created": "2023-04-06T14:51:43.000",
    "date_modified": "2023-04-06T14:51:44.000",
    "request_status": "Pending",
    "responsible_agency": "Department of Sanitation",
    "final_address": "1723 Marais St",
    "address_councildis": "C",
    "status": "Assigned to Contractor",
    "contractor": "IV Waste",
    "rowid": "989223",
    "final_x": "3683318.33225",
    "final_y": "536574.275655",
    "longitude": "-90.06215163673379",
    "latitude": "29.96933787166319",
    "geocoded_column": {
      "latitude": "29.96933787166319",
      "longitude": "-90.06215163673379"
    }
  },
  {
    "service_request": "2023-989222",
    "request_type": "Trash/Recycling",
    "request_reason": "Illegal Dumping",
    "date_created": "2023-04-06T14:48:45.000",
    "date_modified": "2023-04-06T14:48:45.000",
    "request_status": "Pending",
    "responsible_agency": "Department of Sanitation",
    "final_address": "3500 BLK Gravier St",
    "address_councildis": "B",
    "status": "Pending",
    "rowid": "989222",
    "final_x": "3671028.86821",
    "final_y": "534855.218463",
    "longitude": "-90.10102120425631",
    "latitude": "29.964980199888885",
    "geocoded_column": {
      "latitude": "29.964980199888885",
      "longitude": "-90.10102120425631"
    }
  },
  {
    "service_request": "2023-989221",
    "request_type": "Roads/Drainage",
    "request_reason": "Street Flooding / Drainage",
    "date_created": "2023-04-06T14:47:30.000",
    "date_modified": "2023-04-06T14:47:30.000",
    "request_status": "Pending",
    "responsible_agency": "Department of Public Works",
    "final_address": "243 Stafford Pl",
    "address_councildis": "A",
    "status": "Pending",
    "rowid": "989221",
    "final_x": "3665664.07508",
    "final_y": "554018.661912",
    "longitude": "-90.11732073455657",
    "latitude": "30.017830699267385",
    "geocoded_column": {
      "latitude": "30.017830699267385",
      "longitude": "-90.11732073455657"
    }
  },
  {
    "service_request": "2023-989220",
    "request_type": "Trash/Recycling",
    "request_reason": "Request a Large Item Pick Up",
    "date_created": "2023-04-06T14:41:42.000",
    "date_modified": "2023-04-06T14:41:43.000",
    "request_status": "Pending",
    "responsible_agency": "Department of Sanitation",
    "final_address": "633 N Scott St",
    "address_councildis": "A",
    "status": "Assigned to Contractor",
    "contractor": "Richards Disposal",
    "rowid": "989220",
    "final_x": "3672987.90638",
    "final_y": "539499.06497",
    "longitude": "-90.09467613864246",
    "latitude": "29.97769112978986",
    "geocoded_column": {
      "latitude": "29.97769112978986",
      "longitude": "-90.09467613864246"
    }
  },
  {
    "service_request": "2023-989219",
    "request_type": "Trash/Recycling",
    "request_reason": "Order Recycling Cart",
    "date_created": "2023-04-06T14:40:54.000",
    "date_modified": "2023-04-06T14:43:24.000",
    "request_status": "Pending",
    "responsible_agency": "Department of Sanitation",
    "final_address": "739 S Clark St",
    "address_councildis": "B",
    "status": "Pending",
    "rowid": "989219",
    "final_x": "3671192.91655",
    "final_y": "534872.34567",
    "longitude": "-90.10050256626383",
    "latitude": "29.965022441781148",
    "geocoded_column": {
      "latitude": "29.965022441781148",
      "longitude": "-90.10050256626383"
    }
  },
  {
    "service_request": "2023-989218",
    "request_type": "Trash/Recycling",
    "request_reason": "Request a Large Item Pick Up",
    "date_created": "2023-04-06T14:40:19.000",
    "date_modified": "2023-04-06T14:40:21.000",
    "request_status": "Pending",
    "responsible_agency": "Department of Sanitation",
    "final_address": "5249 Pratt Dr",
    "address_councildis": "D",
    "status": "Assigned to Contractor",
    "contractor": "IV Waste",
    "rowid": "989218",
    "final_x": "3680473.21461",
    "final_y": "551864.86607",
    "longitude": "-90.07060458746255",
    "latitude": "30.011468091838687",
    "geocoded_column": {
      "latitude": "30.011468091838687",
      "longitude": "-90.07060458746255"
    }
  },
  {
    "service_request": "2023-989217",
    "request_type": "Trash/Recycling",
    "request_reason": "Request a Large Item Pick Up",
    "date_created": "2023-04-06T14:38:33.000",
    "date_modified": "2023-04-06T14:38:34.000",
    "request_status": "Pending",
    "responsible_agency": "Department of Sanitation",
    "final_address": "28 St Claude Ct",
    "address_councildis": "E",
    "status": "Assigned to Contractor",
    "contractor": "Waste Pro",
    "rowid": "989217",
    "final_x": "3697413.61706",
    "final_y": "533566.957445",
    "longitude": "-90.01774692065975",
    "latitude": "29.960631322418738",
    "geocoded_column": {
      "latitude": "29.960631322418738",
      "longitude": "-90.01774692065975"
    }
  },
  {
    "service_request": "2023-989216",
    "request_type": "Trash/Recycling",
    "request_reason": "Order Recycling Cart",
    "date_created": "2023-04-06T14:38:30.000",
    "date_modified": "2023-04-06T14:38:32.000",
    "request_status": "Pending",
    "responsible_agency": "Department of Sanitation",
    "final_address": "5249 Pratt Dr",
    "address_councildis": "D",
    "status": "Pending",
    "rowid": "989216",
    "final_x": "3680473.21461",
    "final_y": "551864.86607",
    "longitude": "-90.07060458746255",
    "latitude": "30.011468091838687",
    "geocoded_column": {
      "latitude": "30.011468091838687",
      "longitude": "-90.07060458746255"
    }
  },
  {
    "service_request": "2023-989215",
    "request_type": "Trash/Recycling",
    "request_reason": "Order Trash Cart",
    "date_created": "2023-04-06T14:36:48.000",
    "date_modified": "2023-04-06T14:36:49.000",
    "request_status": "Pending",
    "responsible_agency": "Department of Sanitation",
    "final_address": "5249 Pratt Dr",
    "address_councildis": "D",
    "status": "Assigned to Contractor",
    "contractor": "IV Waste",
    "rowid": "989215",
    "final_x": "3680473.21461",
    "final_y": "551864.86607",
    "longitude": "-90.07060458746255",
    "latitude": "30.011468091838687",
    "geocoded_column": {
      "latitude": "30.011468091838687",
      "longitude": "-90.07060458746255"
    }
  },
  {
    "service_request": "2023-989214",
    "request_type": "Trash/Recycling",
    "request_reason": "Request a Large Item Pick Up",
    "date_created": "2023-04-06T14:36:24.000",
    "date_modified": "2023-04-06T14:36:25.000",
    "request_status": "Pending",
    "responsible_agency": "Department of Sanitation",
    "final_address": "5506 Elysian Fields Ave",
    "address_councildis": "D",
    "status": "Assigned to Contractor",
    "contractor": "IV Waste",
    "rowid": "989214",
    "final_x": "3683489.47125",
    "final_y": "553123.548887",
    "longitude": "-90.06103084682086",
    "latitude": "30.01483726968",
    "geocoded_column": {
      "latitude": "30.01483726968",
      "longitude": "-90.06103084682086"
    }
  },
  {
    "service_request": "2023-989213",
    "request_type": "Trash/Recycling",
    "request_reason": "Replace Trash Cart",
    "date_created": "2023-04-06T14:33:59.000",
    "date_modified": "2023-04-06T14:33:59.000",
    "request_status": "Pending",
    "responsible_agency": "Department of Sanitation",
    "final_address": "1890 Saltus St",
    "address_councildis": "A",
    "status": "Assigned to Contractor",
    "contractor": "IV Waste",
    "rowid": "989213",
    "final_x": "3678063.04456",
    "final_y": "543027.255565",
    "longitude": "-90.0785250799978",
    "latitude": "29.9872406014759",
    "geocoded_column": {
      "latitude": "29.9872406014759",
      "longitude": "-90.0785250799978"
    }
  },
  {
    "service_request": "2023-989212",
    "request_type": "Roads/Drainage",
    "request_reason": "Pothole",
    "date_created": "2023-04-06T14:26:53.000",
    "date_modified": "2023-04-06T14:26:53.000",
    "request_status": "Pending",
    "responsible_agency": "Department of Public Works",
    "final_address": "101 West Robert E Lee Blvd",
    "address_councildis": "D",
    "status": "Pending",
    "rowid": "989212",
    "final_x": "3666734.08109",
    "final_y": "555016.436761",
    "longitude": "-90.11390636608914",
    "latitude": "30.02054296132822",
    "geocoded_column": {
      "latitude": "30.02054296132822",
      "longitude": "-90.11390636608914"
    }
  },
  {
    "service_request": "2023-989211",
    "request_type": "Abandoned Vehicles",
    "request_reason": "Abandoned/Junk Vehicles",
    "date_created": "2023-04-06T14:26:25.000",
    "date_modified": "2023-04-06T14:36:23.000",
    "request_status": "Pending",
    "responsible_agency": "Department of Public Works",
    "final_address": "9555 Stroelitz St",
    "address_councildis": "A",
    "status": "Pending",
    "rowid": "989211",
    "final_x": "3664017.34439",
    "final_y": "538586.201737",
    "longitude": "-90.12303882575885",
    "latitude": "29.97544465039475",
    "geocoded_column": {
      "latitude": "29.97544465039475",
      "longitude": "-90.12303882575885"
    }
  },
  {
    "service_request": "2023-989210",
    "request_type": "Roads/Drainage",
    "request_reason": "Unpermitted work in ROW",
    "date_created": "2023-04-06T14:24:18.000",
    "date_modified": "2023-04-06T14:24:18.000",
    "request_status": "Pending",
    "responsible_agency": "Department of Public Works",
    "status": "Pending",
    "rowid": "989210",
    "longitude": "0.0",
    "latitude": "0.0",
    "geocoded_column": {
      "latitude": "0.0",
      "longitude": "0.0"
    }
  },
  {
    "service_request": "2023-989209",
    "request_type": "Abandoned Vehicles",
    "request_reason": "Abandoned/Junk Vehicles",
    "date_created": "2023-04-06T14:23:56.000",
    "date_modified": "2023-04-06T14:25:37.000",
    "request_status": "Pending",
    "responsible_agency": "Department of Public Works",
    "final_address": "NEW ORLEANS ST & BRUTUS ST",
    "address_councildis": "D",
    "status": "Pending",
    "rowid": "989209",
    "final_x": "3681284.5",
    "final_y": "550093.08",
    "longitude": "-90.068103214906",
    "latitude": "30.006571711100968",
    "geocoded_column": {
      "latitude": "30.006571711100968",
      "longitude": "-90.068103214906"
    }
  },
  {
    "service_request": "2023-989208",
    "request_type": "Trash/Recycling",
    "request_reason": "Order Trash Cart",
    "date_created": "2023-04-06T14:21:33.000",
    "date_modified": "2023-04-06T14:21:34.000",
    "request_status": "Pending",
    "responsible_agency": "Department of Sanitation",
    "status": "Assigned to Contractor",
    "rowid": "989208",
    "longitude": "0.0",
    "latitude": "0.0",
    "geocoded_column": {
      "latitude": "0.0",
      "longitude": "0.0"
    }
  },
  {
    "service_request": "2023-989207",
    "request_type": "Trash/Recycling",
    "request_reason": "Illegal Dumping",
    "date_created": "2023-04-06T14:21:33.000",
    "date_modified": "2023-04-06T14:21:33.000",
    "request_status": "Pending",
    "responsible_agency": "Department of Sanitation",
    "final_address": "401 Girod St",
    "address_councildis": "B",
    "status": "Pending",
    "rowid": "989207",
    "final_x": "3681659.46792",
    "final_y": "528304.593024",
    "longitude": "-90.06767892710181",
    "latitude": "29.94664955611906",
    "geocoded_column": {
      "latitude": "29.94664955611906",
      "longitude": "-90.06767892710181"
    }
  },
  {
    "service_request": "2023-989206",
    "request_type": "Trash/Recycling",
    "request_reason": "Return Trash Cart",
    "date_created": "2023-04-06T14:14:03.000",
    "date_modified": "2023-04-06T14:14:26.000",
    "request_status": "Pending",
    "responsible_agency": "Department of Sanitation",
    "final_address": "741 Fourth St",
    "address_councildis": "B",
    "contractor": "Richards Disposal",
    "rowid": "989206",
    "final_x": "3678000.09941",
    "final_y": "520024.761336",
    "longitude": "-90.07951893393168",
    "latitude": "29.92399337451059",
    "geocoded_column": {
      "latitude": "29.92399337451059",
      "longitude": "-90.07951893393168"
    }
  },
  {
    "service_request": "2023-989205",
    "request_type": "Trash/Recycling",
    "request_reason": "Request a Large Item Pick Up",
    "date_created": "2023-04-06T14:13:43.000",
    "date_modified": "2023-04-06T14:13:44.000",
    "request_status": "Pending",
    "responsible_agency": "Department of Sanitation",
    "final_address": "304 Mound Ave",
    "address_councildis": "A",
    "status": "Assigned to Contractor",
    "contractor": "IV Waste",
    "rowid": "989205",
    "final_x": "3666789.75137",
    "final_y": "543809.978894",
    "longitude": "-90.11410723275792",
    "latitude": "29.98972746257726",
    "geocoded_column": {
      "latitude": "29.98972746257726",
      "longitude": "-90.11410723275792"
    }
  },
  {
    "service_request": "2023-989204",
    "request_type": "Trash/Recycling",
    "request_reason": "Request a Large Item Pick Up",
    "date_created": "2023-04-06T14:06:20.000",
    "date_modified": "2023-04-06T14:09:16.000",
    "request_status": "Pending",
    "responsible_agency": "Department of Sanitation",
    "final_address": "2320 Conti St",
    "address_councildis": "B",
    "status": "Assigned to Contractor",
    "contractor": "Richards Disposal",
    "rowid": "989204",
    "final_x": "3677247.29749",
    "final_y": "535088.389766",
    "longitude": "-90.08137572046951",
    "latitude": "29.965435987428844",
    "geocoded_column": {
      "latitude": "29.965435987428844",
      "longitude": "-90.08137572046951"
    }
  },
  {
    "service_request": "2023-989203",
    "request_type": "Trash/Recycling",
    "request_reason": "Request a Large Item Pick Up",
    "date_created": "2023-04-06T13:56:37.000",
    "date_modified": "2023-04-06T13:56:38.000",
    "request_status": "Pending",
    "responsible_agency": "Department of Sanitation",
    "final_address": "915 Touro St",
    "address_councildis": "C",
    "status": "Assigned to Contractor",
    "contractor": "IV Waste",
    "rowid": "989203",
    "final_x": "3684306.54434",
    "final_y": "535665.120326",
    "longitude": "-90.05906272071569",
    "latitude": "29.96680782758884",
    "geocoded_column": {
      "latitude": "29.96680782758884",
      "longitude": "-90.05906272071569"
    }
  },
  {
    "service_request": "2023-989202",
    "request_type": "Safety & Permits",
    "request_reason": "Licenses & Permits",
    "date_created": "2023-04-06T13:56:12.000",
    "date_modified": "2023-04-06T14:33:07.000",
    "request_status": "Pending",
    "responsible_agency": "Safety and Permits",
    "final_address": "7410 Dalewood Rd",
    "address_councildis": "E",
    "status": "Pending",
    "rowid": "989202",
    "final_x": "3700094.27402",
    "final_y": "559736.590941",
    "longitude": "-90.00832639248532",
    "latitude": "30.032503188755705",
    "geocoded_column": {
      "latitude": "30.032503188755705",
      "longitude": "-90.00832639248532"
    }
  },
  {
    "service_request": "2023-989201",
    "request_type": "Roads/Drainage",
    "request_reason": "Street Flooding / Drainage",
    "date_created": "2023-04-06T13:53:02.000",
    "date_modified": "2023-04-06T13:53:02.000",
    "request_status": "Pending",
    "responsible_agency": "Department of Public Works",
    "final_address": "2901 Tulane Ave",
    "address_councildis": "B",
    "status": "Pending",
    "rowid": "989201",
    "final_x": "3673482.06177",
    "final_y": "534234.434373",
    "longitude": "-90.09329536837686",
    "latitude": "29.963200479027005",
    "geocoded_column": {
      "latitude": "29.963200479027005",
      "longitude": "-90.09329536837686"
    }
  },
  {
    "service_request": "2023-989200",
    "request_type": "Trash/Recycling",
    "request_reason": "Replace Trash Cart",
    "date_created": "2023-04-06T13:48:20.000",
    "date_modified": "2023-04-06T13:48:21.000",
    "request_status": "Pending",
    "responsible_agency": "Department of Sanitation",
    "final_address": "4935 Eunice Dr",
    "address_councildis": "E",
    "status": "Assigned to Contractor",
    "contractor": "Waste Pro",
    "rowid": "989200",
    "final_x": "3710491.94718",
    "final_y": "556991.430746",
    "longitude": "-89.9755720460466",
    "latitude": "30.024620381506185",
    "geocoded_column": {
      "latitude": "30.024620381506185",
      "longitude": "-89.9755720460466"
    }
  },
  {
    "service_request": "2023-989199",
    "request_type": "Trash/Recycling",
    "request_reason": "Dead Animal Pick Up",
    "date_created": "2023-04-06T13:48:07.000",
    "date_modified": "2023-04-06T19:51:51.000",
    "request_status": "Pending",
    "responsible_agency": "Department of Sanitation",
    "final_address": "7110 Hanover Rd",
    "address_councildis": "E",
    "status": "Assigned to Contractor",
    "contractor": "Waste Pro",
    "rowid": "989199",
    "final_x": "3709797.00229",
    "final_y": "562668.271456",
    "longitude": "-89.97755568870741",
    "latitude": "30.04025207168541",
    "geocoded_column": {
      "latitude": "30.04025207168541",
      "longitude": "-89.97755568870741"
    }
  },
  {
    "service_request": "2023-989198",
    "request_type": "Trash/Recycling",
    "request_reason": "MIssed Recycling Pick-Up",
    "date_created": "2023-04-06T13:46:29.000",
    "date_modified": "2023-04-06T13:46:30.000",
    "request_status": "Pending",
    "responsible_agency": "Department of Sanitation",
    "final_address": "4935 Eunice Dr",
    "address_councildis": "E",
    "status": "Assigned to Contractor",
    "contractor": "Waste Pro",
    "rowid": "989198",
    "final_x": "3710491.94718",
    "final_y": "556991.430746",
    "longitude": "-89.9755720460466",
    "latitude": "30.024620381506185",
    "geocoded_column": {
      "latitude": "30.024620381506185",
      "longitude": "-89.9755720460466"
    }
  },
  {
    "service_request": "2023-989197",
    "request_type": "Trash/Recycling",
    "request_reason": "Replace Trash Cart",
    "date_created": "2023-04-06T13:45:02.000",
    "date_modified": "2023-04-06T13:45:03.000",
    "request_status": "Pending",
    "responsible_agency": "Department of Sanitation",
    "final_address": "7 Marlborough Gate Pl",
    "address_councildis": "B",
    "status": "Assigned to Contractor",
    "contractor": "Richards Disposal",
    "rowid": "989197",
    "final_x": "3669013.66894",
    "final_y": "523789.163259",
    "longitude": "-90.10775887941415",
    "latitude": "29.934611601956675",
    "geocoded_column": {
      "latitude": "29.934611601956675",
      "longitude": "-90.10775887941415"
    }
  },
  {
    "service_request": "2023-989196",
    "request_type": "Trash/Recycling",
    "request_reason": "Missed Trash Pick-Up",
    "date_created": "2023-04-06T13:42:47.000",
    "date_modified": "2023-04-06T13:42:48.000",
    "request_status": "Pending",
    "responsible_agency": "Department of Sanitation",
    "final_address": "8801 Dwyer Rd",
    "address_councildis": "E",
    "status": "Assigned to Contractor",
    "contractor": "Waste Pro",
    "rowid": "989196",
    "final_x": "3707659.46392",
    "final_y": "557071.876762",
    "longitude": "-89.98451913554773",
    "latitude": "30.024933559417754",
    "geocoded_column": {
      "latitude": "30.024933559417754",
      "longitude": "-89.98451913554773"
    }
  },
  {
    "service_request": "2023-989195",
    "request_type": "Abandoned Vehicles",
    "request_reason": "Abandoned/Junk Vehicles",
    "date_created": "2023-04-06T13:36:19.000",
    "date_modified": "2023-04-06T13:36:19.000",
    "request_status": "Pending",
    "responsible_agency": "Department of Public Works",
    "final_address": "1523 St Ann St",
    "address_councildis": "C",
    "status": "Pending",
    "rowid": "989195",
    "final_x": "3680407.10946",
    "final_y": "534636.248646",
    "longitude": "-90.07141290667813",
    "latitude": "29.964097445092584",
    "geocoded_column": {
      "latitude": "29.964097445092584",
      "longitude": "-90.07141290667813"
    }
  },
  {
    "service_request": "2023-989194",
    "request_type": "Trash/Recycling",
    "request_reason": "Order Trash Cart",
    "date_created": "2023-04-06T13:28:57.000",
    "date_modified": "2023-04-06T13:28:58.000",
    "request_status": "Pending",
    "responsible_agency": "Department of Sanitation",
    "final_address": "4011 Erato St",
    "address_councildis": "B",
    "status": "Assigned to Contractor",
    "contractor": "Richards Disposal",
    "rowid": "989194",
    "final_x": "3671636.76916",
    "final_y": "531060.49901",
    "longitude": "-90.09923055089786",
    "latitude": "29.95452799275341",
    "geocoded_column": {
      "latitude": "29.95452799275341",
      "longitude": "-90.09923055089786"
    }
  },
  {
    "service_request": "2023-989193",
    "request_type": "Abandoned Vehicles",
    "request_reason": "Abandoned/Junk Vehicles",
    "date_created": "2023-04-06T13:24:40.000",
    "date_modified": "2023-04-06T13:24:41.000",
    "request_status": "Pending",
    "responsible_agency": "Department of Public Works",
    "final_address": "2116 Willow St",
    "address_councildis": "B",
    "status": "Pending",
    "rowid": "989193",
    "final_x": "3675037.00577",
    "final_y": "527439.459455",
    "longitude": "-90.08861812320177",
    "latitude": "29.944470199135278",
    "geocoded_column": {
      "latitude": "29.944470199135278",
      "longitude": "-90.08861812320177"
    }
  },
  {
    "service_request": "2023-989192",
    "request_type": "Trash/Recycling",
    "request_reason": "Order Recycling Cart",
    "date_created": "2023-04-06T13:22:22.000",
    "date_modified": "2023-04-06T13:22:22.000",
    "request_status": "Pending",
    "responsible_agency": "Department of Sanitation",
    "final_address": "3255 Kabel Dr",
    "address_councildis": "C",
    "status": "Pending",
    "rowid": "989192",
    "final_x": "3700508.29098",
    "final_y": "519145.968823",
    "longitude": "-90.00850113712526",
    "latitude": "29.920880587270062",
    "geocoded_column": {
      "latitude": "29.920880587270062",
      "longitude": "-90.00850113712526"
    }
  },
  {
    "service_request": "2023-989191",
    "request_type": "Trash/Recycling",
    "request_reason": "Order Trash Cart",
    "date_created": "2023-04-06T13:22:07.000",
    "date_modified": "2023-04-06T13:22:08.000",
    "request_status": "Pending",
    "responsible_agency": "Department of Sanitation",
    "final_address": "3024 Leonidas St",
    "address_councildis": "A",
    "status": "Assigned to Contractor",
    "contractor": "Richards Disposal",
    "rowid": "989191",
    "final_x": "3665101.66189",
    "final_y": "534516.191941",
    "longitude": "-90.11975038416868",
    "latitude": "29.964221934810457",
    "geocoded_column": {
      "latitude": "29.964221934810457",
      "longitude": "-90.11975038416868"
    }
  },
  {
    "service_request": "2023-989190",
    "request_type": "Trash/Recycling",
    "request_reason": "Missed Trash Pick-Up",
    "date_created": "2023-04-06T13:21:44.000",
    "date_modified": "2023-04-06T13:21:44.000",
    "request_status": "Pending",
    "responsible_agency": "Department of Sanitation",
    "final_address": "2515 Laharpe St",
    "address_councildis": "D",
    "status": "Assigned to Contractor",
    "contractor": "IV Waste",
    "rowid": "989190",
    "final_x": "3679234.23317",
    "final_y": "539618.349002",
    "longitude": "-90.07494396285878",
    "latitude": "29.977831976143964",
    "geocoded_column": {
      "latitude": "29.977831976143964",
      "longitude": "-90.07494396285878"
    }
  },
  {
    "service_request": "2023-989189",
    "request_type": "Trash/Recycling",
    "request_reason": "MIssed Recycling Pick-Up",
    "date_created": "2023-04-06T13:17:51.000",
    "date_modified": "2023-04-06T13:17:52.000",
    "request_status": "Pending",
    "responsible_agency": "Department of Sanitation",
    "final_address": "923 Port St",
    "address_councildis": "C",
    "status": "Assigned to Contractor",
    "contractor": "IV Waste",
    "rowid": "989189",
    "final_x": "3687292.54959",
    "final_y": "535784.599815",
    "longitude": "-90.0496287186683",
    "latitude": "29.967044709195868",
    "geocoded_column": {
      "latitude": "29.967044709195868",
      "longitude": "-90.0496287186683"
    }
  },
  {
    "service_request": "2023-989188",
    "request_type": "Abandoned Vehicles",
    "request_reason": "Abandoned/Junk Vehicles",
    "date_created": "2023-04-06T13:16:23.000",
    "date_modified": "2023-04-06T13:18:11.000",
    "request_status": "Pending",
    "responsible_agency": "Department of Public Works",
    "final_address": "300 BLK Elmira Ave",
    "address_councildis": "C",
    "status": "Pending",
    "rowid": "989188",
    "final_x": "3688239.35085",
    "final_y": "530540.965937",
    "longitude": "-90.04682464653887",
    "latitude": "29.952597332562025",
    "geocoded_column": {
      "latitude": "29.952597332562025",
      "longitude": "-90.04682464653887"
    }
  },
  {
    "service_request": "2023-989187",
    "request_type": "Trash/Recycling",
    "request_reason": "Request a Large Item Pick Up",
    "date_created": "2023-04-06T13:12:15.000",
    "date_modified": "2023-04-06T13:12:16.000",
    "request_status": "Pending",
    "responsible_agency": "Department of Sanitation",
    "final_address": "4441 Eastview Dr",
    "address_councildis": "E",
    "status": "Assigned to Contractor",
    "contractor": "Waste Pro",
    "rowid": "989187",
    "final_x": "3705353.39076",
    "final_y": "553663.253783",
    "longitude": "-89.99193198387559",
    "latitude": "30.01563560182086",
    "geocoded_column": {
      "latitude": "30.01563560182086",
      "longitude": "-89.99193198387559"
    }
  },
  {
    "service_request": "2023-989186",
    "request_type": "Trash/Recycling",
    "request_reason": "Missed Trash Pick-Up",
    "date_created": "2023-04-06T13:09:39.000",
    "date_modified": "2023-04-06T13:09:39.000",
    "request_status": "Pending",
    "responsible_agency": "Department of Sanitation",
    "final_address": "254 Pine St",
    "address_councildis": "A",
    "status": "Assigned to Contractor",
    "contractor": "Richards Disposal",
    "rowid": "989186",
    "final_x": "3661446.63424",
    "final_y": "523059.555963",
    "longitude": "-90.13167213227169",
    "latitude": "29.932825789884046",
    "geocoded_column": {
      "latitude": "29.932825789884046",
      "longitude": "-90.13167213227169"
    }
  },
  {
    "service_request": "2023-989185",
    "request_type": "Traffic Signals/Signs/Striping/Streetlights",
    "request_reason": "Street Light Outage/Malfunction",
    "date_created": "2023-04-06T13:07:34.000",
    "date_modified": "2023-04-06T13:13:53.000",
    "request_status": "Pending",
    "responsible_agency": "Department of Public Works",
    "final_address": "4200 Gen Meyers Ave",
    "address_councildis": "C",
    "status": "Assigned to Contractor",
    "contractor": "Legacy Professional Services",
    "rowid": "989185",
    "final_x": "3699649.82647",
    "final_y": "524521.289404",
    "longitude": "-90.01101509519901",
    "latitude": "29.935688131423554",
    "geocoded_column": {
      "latitude": "29.935688131423554",
      "longitude": "-90.01101509519901"
    }
  },
  {
    "service_request": "2023-989184",
    "request_type": "Trash/Recycling",
    "request_reason": "Request a Large Item Pick Up",
    "date_created": "2023-04-06T13:05:10.000",
    "date_modified": "2023-04-06T13:05:10.000",
    "request_status": "Pending",
    "responsible_agency": "Department of Sanitation",
    "final_address": "4607 Haydel St",
    "address_councildis": "E",
    "status": "Assigned to Contractor",
    "contractor": "Waste Pro",
    "rowid": "989184",
    "final_x": "3699167.99428",
    "final_y": "553673.120855",
    "longitude": "-90.01147453520497",
    "latitude": "30.01586038464293",
    "geocoded_column": {
      "latitude": "30.01586038464293",
      "longitude": "-90.01147453520497"
    }
  },
  {
    "service_request": "2023-989183",
    "request_type": "Property Maintenance",
    "request_reason": "Property Maintenance",
    "date_created": "2023-04-06T13:03:09.000",
    "date_modified": "2023-04-06T13:03:10.000",
    "request_status": "Pending",
    "responsible_agency": "Department of Code Enforcement",
    "final_address": "2039 Alvar St",
    "address_councildis": "D",
    "status": "Pending",
    "rowid": "989183",
    "final_x": "3692458.63529",
    "final_y": "539051.06081",
    "longitude": "-90.03319721353505",
    "latitude": "29.975866166940822",
    "geocoded_column": {
      "latitude": "29.975866166940822",
      "longitude": "-90.03319721353505"
    }
  },
  {
    "service_request": "2023-989182",
    "request_type": "Trash/Recycling",
    "request_reason": "MIssed Recycling Pick-Up",
    "date_created": "2023-04-06T12:58:56.000",
    "date_modified": "2023-04-06T12:58:57.000",
    "request_status": "Pending",
    "responsible_agency": "Department of Sanitation",
    "final_address": "2651 Ursulines Ave",
    "address_councildis": "D",
    "status": "Assigned to Contractor",
    "contractor": "Richards Disposal",
    "rowid": "989182",
    "final_x": "3677778.1531",
    "final_y": "538127.505225",
    "longitude": "-90.07959429060442",
    "latitude": "29.97377655795738",
    "geocoded_column": {
      "latitude": "29.97377655795738",
      "longitude": "-90.07959429060442"
    }
  },
  {
    "service_request": "2023-989181",
    "request_type": "Trash/Recycling",
    "request_reason": "Replace Trash Cart",
    "date_created": "2023-04-06T12:54:24.000",
    "date_modified": "2023-04-06T13:20:24.000",
    "request_status": "Pending",
    "responsible_agency": "Department of Sanitation",
    "final_address": "3255 Kabel Dr",
    "address_councildis": "C",
    "status": "Assigned to Contractor",
    "contractor": "Richards Disposal",
    "rowid": "989181",
    "final_x": "3700508.29098",
    "final_y": "519145.968823",
    "longitude": "-90.00850113712526",
    "latitude": "29.920880587270062",
    "geocoded_column": {
      "latitude": "29.920880587270062",
      "longitude": "-90.00850113712526"
    }
  },
  {
    "service_request": "2023-989180",
    "request_type": "Trash/Recycling",
    "request_reason": "Missed Trash Pick-Up",
    "date_created": "2023-04-06T12:46:43.000",
    "date_modified": "2023-04-06T12:46:44.000",
    "request_status": "Pending",
    "responsible_agency": "Department of Sanitation",
    "final_address": "5200 Timber Haven Ln",
    "address_councildis": "C",
    "status": "Assigned to Contractor",
    "contractor": "Richards Disposal",
    "rowid": "989180",
    "final_x": "3703382.24682",
    "final_y": "511478.934448",
    "longitude": "-89.99971110831603",
    "latitude": "29.89970717887425",
    "geocoded_column": {
      "latitude": "29.89970717887425",
      "longitude": "-89.99971110831603"
    }
  },
  {
    "service_request": "2023-989179",
    "request_type": "Trash/Recycling",
    "request_reason": "MIssed Recycling Pick-Up",
    "date_created": "2023-04-06T12:34:44.000",
    "date_modified": "2023-04-06T12:34:45.000",
    "request_status": "Pending",
    "responsible_agency": "Department of Sanitation",
    "final_address": "1137 Ninth St",
    "address_councildis": "B",
    "status": "Assigned to Contractor",
    "contractor": "Richards Disposal",
    "rowid": "989179",
    "final_x": "3675721.79278",
    "final_y": "520319.115256",
    "longitude": "-90.08670063413273",
    "latitude": "29.92487110541648",
    "geocoded_column": {
      "latitude": "29.92487110541648",
      "longitude": "-90.08670063413273"
    }
  },
  {
    "service_request": "2023-989178",
    "request_type": "Trash/Recycling",
    "request_reason": "Order Recycling Cart",
    "date_created": "2023-04-06T12:33:15.000",
    "date_modified": "2023-04-06T12:33:51.000",
    "request_status": "Pending",
    "responsible_agency": "Department of Sanitation",
    "final_address": "3001 Hyman Pl",
    "address_councildis": "C",
    "status": "Pending",
    "rowid": "989178",
    "final_x": "3700946.44708",
    "final_y": "520127.31692",
    "longitude": "-90.00708223317291",
    "latitude": "29.923565020384476",
    "geocoded_column": {
      "latitude": "29.923565020384476",
      "longitude": "-90.00708223317291"
    }
  },
  {
    "service_request": "2023-989177",
    "request_type": "Trash/Recycling",
    "request_reason": "Repair Trash Cart",
    "date_created": "2023-04-06T12:32:16.000",
    "date_modified": "2023-04-06T12:32:16.000",
    "request_status": "Pending",
    "responsible_agency": "Department of Sanitation",
    "final_address": "3001 Hyman Pl",
    "address_councildis": "C",
    "status": "Assigned to Contractor",
    "contractor": "Richards Disposal",
    "rowid": "989177",
    "final_x": "3700946.44708",
    "final_y": "520127.31692",
    "longitude": "-90.00708223317291",
    "latitude": "29.923565020384476",
    "geocoded_column": {
      "latitude": "29.923565020384476",
      "longitude": "-90.00708223317291"
    }
  },
  {
    "service_request": "2023-989176",
    "request_type": "Trash/Recycling",
    "request_reason": "Return Trash Cart",
    "date_created": "2023-04-06T12:31:11.000",
    "date_modified": "2023-04-06T12:31:12.000",
    "request_status": "Pending",
    "responsible_agency": "Department of Sanitation",
    "final_address": "2083 Law St",
    "address_councildis": "D",
    "status": "Assigned to Contractor",
    "contractor": "IV Waste",
    "rowid": "989176",
    "final_x": "3683244.05858",
    "final_y": "541761.82254",
    "longitude": "-90.062204458645",
    "latitude": "29.983604081767677",
    "geocoded_column": {
      "latitude": "29.983604081767677",
      "longitude": "-90.062204458645"
    }
  },
  {
    "service_request": "2023-989175",
    "request_type": "Trash/Recycling",
    "request_reason": "Replace Recycling Cart",
    "date_created": "2023-04-06T12:27:59.000",
    "date_modified": "2023-04-06T12:27:59.000",
    "request_status": "Pending",
    "responsible_agency": "Department of Sanitation",
    "final_address": "3623 Dauphine St",
    "address_councildis": "C",
    "status": "Pending",
    "rowid": "989175",
    "final_x": "3690636.38236",
    "final_y": "534411.885061",
    "longitude": "-90.03911787761778",
    "latitude": "29.963166794811347",
    "geocoded_column": {
      "latitude": "29.963166794811347",
      "longitude": "-90.03911787761778"
    }
  },
  {
    "service_request": "2023-989174",
    "request_type": "Trash/Recycling",
    "request_reason": "Request a Large Item Pick Up",
    "date_created": "2023-04-06T12:24:20.000",
    "date_modified": "2023-04-06T12:24:21.000",
    "request_status": "Pending",
    "responsible_agency": "Department of Sanitation",
    "final_address": "4908 Pecan St",
    "address_councildis": "E",
    "status": "Assigned to Contractor",
    "contractor": "Waste Pro",
    "rowid": "989174",
    "final_x": "3701654.75191",
    "final_y": "555110.973529",
    "longitude": "-90.0035648305922",
    "latitude": "30.019734815594887",
    "geocoded_column": {
      "latitude": "30.019734815594887",
      "longitude": "-90.0035648305922"
    }
  },
  {
    "service_request": "2023-989173",
    "request_type": "Trash/Recycling",
    "request_reason": "Replace Trash Cart",
    "date_created": "2023-04-06T12:17:52.000",
    "date_modified": "2023-04-06T12:17:53.000",
    "request_status": "Pending",
    "responsible_agency": "Department of Sanitation",
    "final_address": "5617 Laurel St",
    "address_councildis": "A",
    "status": "Assigned to Contractor",
    "contractor": "Richards Disposal",
    "rowid": "989173",
    "final_x": "3665755.43764",
    "final_y": "517944.055094",
    "longitude": "-90.11824077096996",
    "latitude": "29.918634821374102",
    "geocoded_column": {
      "latitude": "29.918634821374102",
      "longitude": "-90.11824077096996"
    }
  },
  {
    "service_request": "2023-989172",
    "request_type": "Trash/Recycling",
    "request_reason": "Request a Large Item Pick Up",
    "date_created": "2023-04-06T12:14:35.000",
    "date_modified": "2023-04-06T12:14:35.000",
    "request_status": "Pending",
    "responsible_agency": "Department of Sanitation",
    "final_address": "7227 S Claiborne Ave",
    "address_councildis": "A",
    "status": "Assigned to Contractor",
    "contractor": "Richards Disposal",
    "rowid": "989172",
    "final_x": "3666351.10618",
    "final_y": "530074.076417",
    "longitude": "-90.11595376542205",
    "latitude": "29.951971126773017",
    "geocoded_column": {
      "latitude": "29.951971126773017",
      "longitude": "-90.11595376542205"
    }
  },
  {
    "service_request": "2023-989171",
    "request_type": "Trash/Recycling",
    "request_reason": "Request a Large Item Pick Up",
    "date_created": "2023-04-06T12:04:02.000",
    "date_modified": "2023-04-06T12:04:03.000",
    "request_status": "Pending",
    "responsible_agency": "Department of Sanitation",
    "final_address": "814 Marigny St",
    "address_councildis": "C",
    "status": "Assigned to Contractor",
    "contractor": "IV Waste",
    "rowid": "989171",
    "final_x": "3685456.42364",
    "final_y": "535383.446918",
    "longitude": "-90.0554413316134",
    "latitude": "29.965998111682694",
    "geocoded_column": {
      "latitude": "29.965998111682694",
      "longitude": "-90.0554413316134"
    }
  },
  {
    "service_request": "2023-989170",
    "request_type": "Trash/Recycling",
    "request_reason": "Order Trash Cart",
    "date_created": "2023-04-06T12:03:39.000",
    "date_modified": "2023-04-06T12:03:40.000",
    "request_status": "Pending",
    "responsible_agency": "Department of Sanitation",
    "final_address": "814 Marigny St",
    "address_councildis": "C",
    "status": "Assigned to Contractor",
    "contractor": "IV Waste",
    "rowid": "989170",
    "final_x": "3685456.42364",
    "final_y": "535383.446918",
    "longitude": "-90.0554413316134",
    "latitude": "29.965998111682694",
    "geocoded_column": {
      "latitude": "29.965998111682694",
      "longitude": "-90.0554413316134"
    }
  },
  {
    "service_request": "2023-989169",
    "request_type": "Trash/Recycling",
    "request_reason": "Missed Trash Pick-Up",
    "date_created": "2023-04-06T12:03:36.000",
    "date_modified": "2023-04-06T13:18:43.000",
    "request_status": "Pending",
    "responsible_agency": "Department of Sanitation",
    "final_address": "7628 St Charles Ave",
    "address_councildis": "A",
    "status": "Assigned to Contractor",
    "contractor": "Richards Disposal",
    "rowid": "989169",
    "final_x": "3661672.20352",
    "final_y": "525742.494333",
    "longitude": "-90.1308711399783",
    "latitude": "29.94019651666562",
    "geocoded_column": {
      "latitude": "29.94019651666562",
      "longitude": "-90.1308711399783"
    }
  },
  {
    "service_request": "2023-989168",
    "request_type": "Trash/Recycling",
    "request_reason": "Order Recycling Cart",
    "date_created": "2023-04-06T12:01:08.000",
    "date_modified": "2023-04-06T12:01:09.000",
    "request_status": "Pending",
    "responsible_agency": "Department of Sanitation",
    "final_address": "825 Delachaise St",
    "address_councildis": "B",
    "status": "Pending",
    "rowid": "989168",
    "final_x": "3675053.44117",
    "final_y": "518665.927095",
    "longitude": "-90.08886708057233",
    "latitude": "29.92034534675146",
    "geocoded_column": {
      "latitude": "29.92034534675146",
      "longitude": "-90.08886708057233"
    }
  },
  {
    "service_request": "2023-989167",
    "request_type": "Trash/Recycling",
    "request_reason": "Order Trash Cart",
    "date_created": "2023-04-06T12:00:40.000",
    "date_modified": "2023-04-06T12:00:41.000",
    "request_status": "Pending",
    "responsible_agency": "Department of Sanitation",
    "final_address": "825 Delachaise St",
    "address_councildis": "B",
    "status": "Assigned to Contractor",
    "contractor": "Richards Disposal",
    "rowid": "989167",
    "final_x": "3675053.44117",
    "final_y": "518665.927095",
    "longitude": "-90.08886708057233",
    "latitude": "29.92034534675146",
    "geocoded_column": {
      "latitude": "29.92034534675146",
      "longitude": "-90.08886708057233"
    }
  },
  {
    "service_request": "2023-989166",
    "request_type": "Trash/Recycling",
    "request_reason": "Order Recycling Cart",
    "date_created": "2023-04-06T11:59:53.000",
    "date_modified": "2023-04-06T11:59:53.000",
    "request_status": "Pending",
    "responsible_agency": "Department of Sanitation",
    "final_address": "823 Delachaise St",
    "address_councildis": "B",
    "status": "Pending",
    "rowid": "989166",
    "final_x": "3675058.45211",
    "final_y": "518657.297655",
    "longitude": "-90.08885155921963",
    "latitude": "29.92032146891454",
    "geocoded_column": {
      "latitude": "29.92032146891454",
      "longitude": "-90.08885155921963"
    }
  },
  {
    "service_request": "2023-989165",
    "request_type": "Trash/Recycling",
    "request_reason": "Order Trash Cart",
    "date_created": "2023-04-06T11:59:06.000",
    "date_modified": "2023-04-06T12:00:18.000",
    "request_status": "Pending",
    "responsible_agency": "Department of Sanitation",
    "final_address": "823 Delachaise St",
    "address_councildis": "B",
    "status": "Assigned to Contractor",
    "contractor": "Richards Disposal",
    "rowid": "989165",
    "final_x": "3675058.45211",
    "final_y": "518657.297655",
    "longitude": "-90.08885155921963",
    "latitude": "29.92032146891454",
    "geocoded_column": {
      "latitude": "29.92032146891454",
      "longitude": "-90.08885155921963"
    }
  },
  {
    "service_request": "2023-989164",
    "request_type": "Trash/Recycling",
    "request_reason": "Repair Trash Cart",
    "date_created": "2023-04-06T11:58:21.000",
    "date_modified": "2023-04-06T11:58:21.000",
    "request_status": "Pending",
    "responsible_agency": "Department of Sanitation",
    "final_address": "1907 W Homestead Dr",
    "address_councildis": "C",
    "status": "Assigned to Contractor",
    "contractor": "Richards Disposal",
    "rowid": "989164",
    "final_x": "3696856.50365",
    "final_y": "524927.825276",
    "longitude": "-90.01981889189001",
    "latitude": "29.936894305789064",
    "geocoded_column": {
      "latitude": "29.936894305789064",
      "longitude": "-90.01981889189001"
    }
  },
  {
    "service_request": "2023-989163",
    "request_type": "Trash/Recycling",
    "request_reason": "Repair Trash Cart",
    "date_created": "2023-04-06T11:58:14.000",
    "date_modified": "2023-04-06T11:58:14.000",
    "request_status": "Pending",
    "responsible_agency": "Department of Sanitation",
    "final_address": "1460 N Prieur St",
    "address_councildis": "D",
    "status": "Assigned to Contractor",
    "contractor": "IV Waste",
    "rowid": "989163",
    "final_x": "3680816.20399",
    "final_y": "537647.757448",
    "longitude": "-90.07001617181476",
    "latitude": "29.972365665367313",
    "geocoded_column": {
      "latitude": "29.972365665367313",
      "longitude": "-90.07001617181476"
    }
  },
  {
    "service_request": "2023-989162",
    "request_type": "Roads/Drainage",
    "request_reason": "Catch Basin - Clogged",
    "date_created": "2023-04-06T11:56:22.000",
    "date_modified": "2023-04-06T14:46:14.000",
    "case_close_date": "2023-04-06T09:46:14.000",
    "request_status": "Closed",
    "responsible_agency": "Department of Public Works",
    "final_address": "2200 St Maurice Ave",
    "address_councildis": "E",
    "status": "Duplicate Request",
    "rowid": "989162",
    "final_x": "3701354.02954",
    "final_y": "537167.85492",
    "longitude": "-90.00517216070358",
    "latitude": "29.970407507465133",
    "geocoded_column": {
      "latitude": "29.970407507465133",
      "longitude": "-90.00517216070358"
    }
  },
  {
    "service_request": "2023-989161",
    "request_type": "Trash/Recycling",
    "request_reason": "Order Recycling Cart",
    "date_created": "2023-04-06T11:55:52.000",
    "date_modified": "2023-04-06T11:55:53.000",
    "request_status": "Pending",
    "responsible_agency": "Department of Sanitation",
    "final_address": "6101 Mandeville St",
    "address_councildis": "D",
    "status": "Pending",
    "rowid": "989161",
    "final_x": "3684319.63977",
    "final_y": "555446.483033",
    "longitude": "-90.05832625110361",
    "latitude": "30.02119911390135",
    "geocoded_column": {
      "latitude": "30.02119911390135",
      "longitude": "-90.05832625110361"
    }
  },
  {
    "service_request": "2023-989160",
    "request_type": "Trash/Recycling",
    "request_reason": "Order Recycling Cart",
    "date_created": "2023-04-06T11:50:39.000",
    "date_modified": "2023-04-06T11:50:39.000",
    "request_status": "Pending",
    "responsible_agency": "Department of Sanitation",
    "final_address": "538 S Olympia St",
    "address_councildis": "A",
    "status": "Pending",
    "rowid": "989160",
    "final_x": "3668272.35642",
    "final_y": "538064.006345",
    "longitude": "-90.10961791297723",
    "latitude": "29.973884522753558",
    "geocoded_column": {
      "latitude": "29.973884522753558",
      "longitude": "-90.10961791297723"
    }
  },
  {
    "service_request": "2023-989159",
    "request_type": "Trash/Recycling",
    "request_reason": "Replace Trash Cart",
    "date_created": "2023-04-06T11:50:34.000",
    "date_modified": "2023-04-06T13:17:28.000",
    "request_status": "Pending",
    "responsible_agency": "Department of Sanitation",
    "final_address": "11130 N Parkwood Ct",
    "address_councildis": "E",
    "status": "Assigned to Contractor",
    "contractor": "Waste Pro",
    "rowid": "989159",
    "final_x": "3716346.23909",
    "final_y": "558976.165532",
    "longitude": "-89.95699837554773",
    "latitude": "30.02988556824181",
    "geocoded_column": {
      "latitude": "30.02988556824181",
      "longitude": "-89.95699837554773"
    }
  },
  {
    "service_request": "2023-989158",
    "request_type": "Trash/Recycling",
    "request_reason": "Order Recycling Cart",
    "date_created": "2023-04-06T11:50:00.000",
    "date_modified": "2023-04-06T11:50:00.000",
    "request_status": "Pending",
    "responsible_agency": "Department of Sanitation",
    "final_address": "540 S Olympia St",
    "address_councildis": "A",
    "status": "Pending",
    "rowid": "989158",
    "final_x": "3668267.31789",
    "final_y": "538056.722889",
    "longitude": "-90.10963407148287",
    "latitude": "29.973864643649442",
    "geocoded_column": {
      "latitude": "29.973864643649442",
      "longitude": "-90.10963407148287"
    }
  },