[
  {
    "service_request": "2026-1257211",
    "request_type": "Trash/Recycling",
    "request_reason": "Replace Trash Cart",
    "date_created": "2026-02-07T23:54:12.000",
    "date_modified": "2026-02-07T23:54:14.000",
    "request_status": "Pending",
    "responsible_agency": "Department of Sanitation",
    "final_address": "3 Lark St",
    "address_councildis": "D",
    "status": "Assigned to Contractor",
    "contractor": "IV Waste",
    "rowid": "1257211",
    "final_x": "3676107.80417",
    "final_y": "556318.384218",
    "longitude": "-90.08424334631535",
    "latitude": "30.023845218515444",
    "geocoded_column": {
      "latitude": "30.023845218515444",
      "longitude": "-90.08424334631535"
    }
  },
  {
    "service_request": "2026-1257210",
    "request_type": "General Services",
    "request_reason": "General Service Request",
    "date_created": "2026-02-07T22:50:44.000",
    "date_modified": "2026-02-07T22:50:46.000",
    "request_status": "Pending",
    "responsible_agency": "Orleans Parish Communication District",
    "final_address": "4815 Dreux Ave",
    "address_councildis": "D",
    "status": "Pending",
    "rowid": "1257210",
    "final_x": "3691213.16726",
    "final_y": "553247.146071",
    "longitude": "-90.03662335583506",
    "latitude": "30.014939042126144",
    "geocoded_column": {
      "latitude": "30.014939042126144",
      "longitude": "-90.03662335583506"
    }
  },
  {
    "service_request": "2026-1257209",
    "request_type": "Trash/Recycling",
    "request_reason": "Request a Large Item Pick Up",
    "date_created": "2026-02-07T22:42:45.000",
    "date_modified": "2026-02-07T22:42:48.000",
    "request_status": "Pending",
    "responsible_agency": "Department of Sanitation",
    "final_address": "4510 Pitt St",
    "address_councildis": "B",
    "status": "Assigned to Contractor",
    "contractor": "IV Waste",
    "rowid": "1257209",
    "final_x": "3670362.80334",
    "final_y": "520471.142072",
    "longitude": "-90.10361209626618",
    "latitude": "29.925448359668522",
    "geocoded_column": {
      "latitude": "29.925448359668522",
      "longitude": "-90.10361209626618"
    }
  },
  {
    "service_request": "2026-1257208",
    "request_type": "Property Maintenance",
    "request_reason": "Property Maintenance",
    "date_created": "2026-02-07T22:30:17.000",
    "date_modified": "2026-02-07T22:30:19.000",
    "request_status": "Pending",
    "responsible_agency": "Department of Code Enforcement",
    "final_address": "3401 Clouet St",
    "address_councildis": "D",
    "status": "Pending",
    "rowid": "1257208",
    "final_x": "3691330.22179",
    "final_y": "545080.190927",
    "longitude": "-90.0365455497166",
    "latitude": "29.992479268969493",
    "geocoded_column": {
      "latitude": "29.992479268969493",
      "longitude": "-90.0365455497166"
    }
  },
  {
    "service_request": "2026-1257207",
    "request_type": "Safety & Permits",
    "request_reason": "Zoning Enforcement",
    "date_created": "2026-02-07T22:26:24.000",
    "date_modified": "2026-02-07T22:26:27.000",
    "request_status": "Pending",
    "responsible_agency": "Safety and Permits",
    "final_address": "3501 Johnny Jackson Jr Blvd",
    "address_councildis": "D",
    "status": "Pending",
    "rowid": "1257207",
    "final_x": "3691992.01776",
    "final_y": "545316.244175",
    "longitude": "-90.03444661745519",
    "latitude": "29.993107718923813",
    "geocoded_column": {
      "latitude": "29.993107718923813",
      "longitude": "-90.03444661745519"
    }
  },
  {
    "service_request": "2026-1257206",
    "request_type": "Property Maintenance",
    "request_reason": "Property Maintenance",
    "date_created": "2026-02-07T22:22:14.000",
    "date_modified": "2026-02-07T22:22:15.000",
    "request_status": "Pending",
    "responsible_agency": "Department of Code Enforcement",
    "final_address": "3214 Clouet St",
    "address_councildis": "D",
    "status": "Pending",
    "rowid": "1257206",
    "final_x": "3691085.24918",
    "final_y": "544433.051151",
    "longitude": "-90.03734248954684",
    "latitude": "29.990707489536398",
    "geocoded_column": {
      "latitude": "29.990707489536398",
      "longitude": "-90.03734248954684"
    }
  },
  {
    "service_request": "2026-1257205",
    "request_type": "Property Maintenance",
    "request_reason": "Property Maintenance",
    "date_created": "2026-02-07T22:19:46.000",
    "date_modified": "2026-02-07T22:19:48.000",
    "request_status": "Pending",
    "responsible_agency": "Department of Code Enforcement",
    "final_address": "3215 Feliciana St",
    "address_councildis": "D",
    "status": "Pending",
    "rowid": "1257205",
    "final_x": "3690924.67088",
    "final_y": "544476.014927",
    "longitude": "-90.03784818078236",
    "latitude": "29.990830617345885",
    "geocoded_column": {
      "latitude": "29.990830617345885",
      "longitude": "-90.03784818078236"
    }
  },
  {
    "service_request": "2026-1257204",
    "request_type": "Parks & Parkways",
    "request_reason": "Request Grass Cutting Service (City Owned Property)",
    "date_created": "2026-02-07T22:15:17.000",
    "date_modified": "2026-02-07T22:15:19.000",
    "request_status": "Pending",
    "responsible_agency": "Department of Parks & Parkway",
    "final_address": "3010 Clouet St",
    "address_councildis": "D",
    "status": "Pending",
    "rowid": "1257204",
    "final_x": "3690883.1158",
    "final_y": "543634.333518",
    "longitude": "-90.03800949784309",
    "latitude": "29.98851758877471",
    "geocoded_column": {
      "latitude": "29.98851758877471",
      "longitude": "-90.03800949784309"
    }
  },
  {
    "service_request": "2026-1257203",
    "request_type": "Property Maintenance",
    "request_reason": "Property Maintenance",
    "date_created": "2026-02-07T22:12:34.000",
    "date_modified": "2026-02-07T22:12:37.000",
    "request_status": "Pending",
    "responsible_agency": "Department of Code Enforcement",
    "final_address": "2661 Piety St",
    "address_councildis": "D",
    "status": "Pending",
    "rowid": "1257203",
    "final_x": "3691396.23772",
    "final_y": "541902.186508",
    "longitude": "-90.03645063849724",
    "latitude": "29.983738847734603",
    "geocoded_column": {
      "latitude": "29.983738847734603",
      "longitude": "-90.03645063849724"
    }
  },
  {
    "service_request": "2026-1257202",
    "request_type": "Streetlights",
    "request_reason": "Streetlight Knocked Down/Leaning",
    "date_created": "2026-02-07T22:02:37.000",
    "date_modified": "2026-02-07T22:02:38.000",
    "request_status": "Pending",
    "responsible_agency": "Department of Public Works",
    "final_address": "1012 Toulouse St",
    "address_councildis": "C",
    "status": "Pending",
    "rowid": "1257202",
    "final_x": "3681322.7892",
    "final_y": "532839.376068",
    "longitude": "-90.06858390457786",
    "latitude": "29.959128898237424",
    "geocoded_column": {
      "latitude": "29.959128898237424",
      "longitude": "-90.06858390457786"
    }
  },
  {
    "service_request": "2026-1257201",
    "request_type": "Trash/Recycling",
    "request_reason": "Illegal Dumping",
    "date_created": "2026-02-07T22:02:03.000",
    "date_modified": "2026-02-07T22:02:04.000",
    "request_status": "Pending",
    "responsible_agency": "Department of Sanitation",
    "final_address": "FLORIDA AVE & BARTHOLOMEW ST",
    "address_councildis": "D",
    "status": "Pending",
    "rowid": "1257201",
    "final_x": "3693328.3",
    "final_y": "541392.04",
    "longitude": "-90.03036650370174",
    "latitude": "29.982275859291228",
    "geocoded_column": {
      "latitude": "29.982275859291228",
      "longitude": "-90.03036650370174"
    }
  },
  {
    "service_request": "2026-1257200",
    "request_type": "Trash/Recycling",
    "request_reason": "Illegal Dumping",
    "date_created": "2026-02-07T21:55:44.000",
    "date_modified": "2026-02-07T21:55:47.000",
    "request_status": "Pending",
    "responsible_agency": "Department of Sanitation",
    "final_address": "2739 Metropolitan St",
    "address_councildis": "D",
    "status": "Pending",
    "rowid": "1257200",
    "final_x": "3690990.65744",
    "final_y": "542582.857997",
    "longitude": "-90.0377073632654",
    "latitude": "29.985623066028836",
    "geocoded_column": {
      "latitude": "29.985623066028836",
      "longitude": "-90.0377073632654"
    }
  },
  {
    "service_request": "2026-1257199",
    "request_type": "Trash/Recycling",
    "request_reason": "Illegal Dumping",
    "date_created": "2026-02-07T21:47:11.000",
    "date_modified": "2026-02-07T21:47:13.000",
    "request_status": "Pending",
    "responsible_agency": "Department of Sanitation",
    "final_address": "2801 Clouet St",
    "address_councildis": "D",
    "status": "Pending",
    "rowid": "1257199",
    "final_x": "3690752.76502",
    "final_y": "542818.336141",
    "longitude": "-90.03845036079908",
    "latitude": "29.986277940524385",
    "geocoded_column": {
      "latitude": "29.986277940524385",
      "longitude": "-90.03845036079908"
    }
  },
  {
    "service_request": "2026-1257198",
    "request_type": "Property Maintenance",
    "request_reason": "Property Maintenance",
    "date_created": "2026-02-07T21:47:11.000",
    "date_modified": "2026-02-07T21:47:12.000",
    "request_status": "Pending",
    "responsible_agency": "Department of Code Enforcement",
    "final_address": "2338 Lapeyrouse St",
    "address_councildis": "D",
    "status": "Pending",
    "rowid": "1257198",
    "final_x": "3679939.29173",
    "final_y": "539451.62497",
    "longitude": "-90.07272293705104",
    "latitude": "29.977352233073915",
    "geocoded_column": {
      "latitude": "29.977352233073915",
      "longitude": "-90.07272293705104"
    }
  },
  {
    "service_request": "2026-1257197",
    "request_type": "Trash/Recycling",
    "request_reason": "Illegal Dumping",
    "date_created": "2026-02-07T21:44:39.000",
    "date_modified": "2026-02-07T21:44:40.000",
    "request_status": "Pending",
    "responsible_agency": "Department of Sanitation",
    "final_address": "INDUSTRY ST & CLOUET ST",
    "address_councildis": "D",
    "status": "Pending",
    "rowid": "1257197",
    "final_x": "3690703.9",
    "final_y": "542786.18",
    "longitude": "-90.03860585366208",
    "latitude": "29.98619104097541",
    "geocoded_column": {
      "latitude": "29.98619104097541",
      "longitude": "-90.03860585366208"
    }
  },
  {
    "service_request": "2026-1257196",
    "request_type": "Property Maintenance",
    "request_reason": "Property Maintenance",
    "date_created": "2026-02-07T21:44:34.000",
    "date_modified": "2026-02-07T21:44:36.000",
    "request_status": "Pending",
    "responsible_agency": "Department of Code Enforcement",
    "final_address": "1572 N Rocheblave St",
    "address_councildis": "D",
    "status": "Pending",
    "rowid": "1257196",
    "final_x": "3679902.86997",
    "final_y": "539409.807434",
    "longitude": "-90.07283942191299",
    "latitude": "29.977238351063264",
    "geocoded_column": {
      "latitude": "29.977238351063264",
      "longitude": "-90.07283942191299"
    }
  },
  {
    "service_request": "2026-1257195",
    "request_type": "Property Maintenance",
    "request_reason": "Property Maintenance",
    "date_created": "2026-02-07T21:42:47.000",
    "date_modified": "2026-02-07T21:42:48.000",
    "request_status": "Pending",
    "responsible_agency": "Department of Code Enforcement",
    "final_address": "2839 Clouet St",
    "address_councildis": "D",
    "status": "Pending",
    "rowid": "1257195",
    "final_x": "3690860.45756",
    "final_y": "543058.504653",
    "longitude": "-90.03810162780627",
    "latitude": "29.986934970858993",
    "geocoded_column": {
      "latitude": "29.986934970858993",
      "longitude": "-90.03810162780627"
    }
  },
  {
    "service_request": "2026-1257194",
    "request_type": "Trash/Recycling",
    "request_reason": "Illegal Dumping",
    "date_created": "2026-02-07T21:40:17.000",
    "date_modified": "2026-02-07T21:40:19.000",
    "request_status": "Pending",
    "responsible_agency": "Department of Sanitation",
    "final_address": "2927 Clouet St",
    "address_councildis": "D",
    "status": "Pending",
    "rowid": "1257194",
    "final_x": "3690934.65564",
    "final_y": "543353.03611",
    "longitude": "-90.03785674592999",
    "latitude": "29.987742520034374",
    "geocoded_column": {
      "latitude": "29.987742520034374",
      "longitude": "-90.03785674592999"
    }
  },
  {
    "service_request": "2026-1257193",
    "request_type": "Trash/Recycling",
    "request_reason": "Illegal Dumping",
    "date_created": "2026-02-07T21:38:26.000",
    "date_modified": "2026-02-07T21:38:28.000",
    "request_status": "Pending",
    "responsible_agency": "Department of Sanitation",
    "final_address": "2927 Clouet St",
    "address_councildis": "D",
    "status": "Pending",
    "rowid": "1257193",
    "final_x": "3690934.65564",
    "final_y": "543353.03611",
    "longitude": "-90.03785674592999",
    "latitude": "29.987742520034374",
    "geocoded_column": {
      "latitude": "29.987742520034374",
      "longitude": "-90.03785674592999"
    }
  },
  {
    "service_request": "2026-1257191",
    "request_type": "Trash/Recycling",
    "request_reason": "Illegal Dumping",
    "date_created": "2026-02-07T21:35:15.000",
    "date_modified": "2026-02-07T21:35:16.000",
    "request_status": "Pending",
    "responsible_agency": "Department of Sanitation",
    "final_address": "3238 Clouet St",
    "address_councildis": "D",
    "status": "Pending",
    "rowid": "1257191",
    "final_x": "3691080.86928",
    "final_y": "544612.019407",
    "longitude": "-90.03734993061316",
    "latitude": "29.99119972378827",
    "geocoded_column": {
      "latitude": "29.99119972378827",
      "longitude": "-90.03734993061316"
    }
  },
  {
    "service_request": "2026-1257190",
    "request_type": "Parks & Parkways",
    "request_reason": "Request Grass Cutting Service (City Owned Property)",
    "date_created": "2026-02-07T21:33:02.000",
    "date_modified": "2026-02-07T21:33:04.000",
    "request_status": "Pending",
    "responsible_agency": "Department of Parks & Parkway",
    "final_address": "3238 Clouet St",
    "address_councildis": "D",
    "status": "Pending",
    "rowid": "1257190",
    "final_x": "3691080.86928",
    "final_y": "544612.019407",
    "longitude": "-90.03734993061316",
    "latitude": "29.99119972378827",
    "geocoded_column": {
      "latitude": "29.99119972378827",
      "longitude": "-90.03734993061316"
    }
  },
  {
    "service_request": "2026-1257189",
    "request_type": "Trash/Recycling",
    "request_reason": "Illegal Dumping",
    "date_created": "2026-02-07T21:29:01.000",
    "date_modified": "2026-02-07T21:29:04.000",
    "request_status": "Pending",
    "responsible_agency": "Department of Sanitation",
    "final_address": "CLOUET ST & HUMANITY ST",
    "address_councildis": "D",
    "status": "Pending",
    "rowid": "1257189",
    "final_x": "3691177.7",
    "final_y": "544672.88",
    "longitude": "-90.03704189089866",
    "latitude": "29.991364056683377",
    "geocoded_column": {
      "latitude": "29.991364056683377",
      "longitude": "-90.03704189089866"
    }
  },
  {
    "service_request": "2026-1257188",
    "request_type": "Trash/Recycling",
    "request_reason": "Illegal Dumping",
    "date_created": "2026-02-07T21:24:20.000",
    "date_modified": "2026-02-07T21:24:22.000",
    "request_status": "Pending",
    "responsible_agency": "Department of Sanitation",
    "final_address": "3300 Feliciana St",
    "address_councildis": "D",
    "status": "Pending",
    "rowid": "1257188",
    "final_x": "3690876.47657",
    "final_y": "544791.425487",
    "longitude": "-90.03798915143916",
    "latitude": "29.991699380586745",
    "geocoded_column": {
      "latitude": "29.991699380586745",
      "longitude": "-90.03798915143916"
    }
  },
  {
    "service_request": "2026-1257187",
    "request_type": "Trash/Recycling",
    "request_reason": "Request a Large Item Pick Up",
    "date_created": "2026-02-07T21:23:03.000",
    "date_modified": "2026-02-07T21:23:05.000",
    "request_status": "Pending",
    "responsible_agency": "Department of Sanitation",
    "final_address": "1523 Columbus St",
    "address_councildis": "C",
    "status": "Assigned to Contractor",
    "contractor": "IV Waste",
    "rowid": "1257187",
    "final_x": "3681890.22044",
    "final_y": "537101.27412",
    "longitude": "-90.0666433231348",
    "latitude": "29.97083042193257",
    "geocoded_column": {
      "latitude": "29.97083042193257",
      "longitude": "-90.0666433231348"
    }
  },
  {
    "service_request": "2026-1257186",
    "request_type": "Roads and Streets",
    "request_reason": "Pothole",
    "date_created": "2026-02-07T21:22:49.000",
    "date_modified": "2026-02-07T21:22:51.000",
    "request_status": "Pending",
    "responsible_agency": "Department of Public Works",
    "final_address": "4132 St Charles Ave",
    "address_councildis": "B",
    "status": "Pending",
    "rowid": "1257186",
    "final_x": "3671712.26548",
    "final_y": "520782.789241",
    "longitude": "-90.09934165922358",
    "latitude": "29.926265398527075",
    "geocoded_column": {
      "latitude": "29.926265398527075",
      "longitude": "-90.09934165922358"
    }
  },
  {
    "service_request": "2026-1257185",
    "request_type": "Property Maintenance",
    "request_reason": "Property Maintenance",
    "date_created": "2026-02-07T21:21:00.000",
    "date_modified": "2026-02-07T21:21:02.000",
    "request_status": "Pending",
    "responsible_agency": "Department of Code Enforcement",
    "final_address": "3314 Clouet St",
    "address_councildis": "D",
    "status": "Pending",
    "rowid": "1257185",
    "final_x": "3691137.67568",
    "final_y": "544827.721487",
    "longitude": "-90.03716278548384",
    "latitude": "29.99179105974541",
    "geocoded_column": {
      "latitude": "29.99179105974541",
      "longitude": "-90.03716278548384"
    }
  },
  {
    "service_request": "2026-1257184",
    "request_type": "Trash/Recycling",
    "request_reason": "Illegal Dumping",
    "date_created": "2026-02-07T21:17:42.000",
    "date_modified": "2026-02-07T21:17:43.000",
    "request_status": "Pending",
    "responsible_agency": "Department of Sanitation",
    "final_address": "3300 BLK Clouet St",
    "address_councildis": "D",
    "status": "Pending",
    "rowid": "1257184",
    "final_x": "3691230.92131",
    "final_y": "544866.905133",
    "longitude": "-90.03686684289366",
    "latitude": "29.99189589996388",
    "geocoded_column": {
      "latitude": "29.99189589996388",
      "longitude": "-90.03686684289366"
    }
  },
  {
    "service_request": "2026-1257183",
    "request_type": "Trash/Recycling",
    "request_reason": "Illegal Dumping",
    "date_created": "2026-02-07T21:14:39.000",
    "date_modified": "2026-02-07T21:14:40.000",
    "request_status": "Pending",
    "responsible_agency": "Department of Sanitation",
    "final_address": "3516 Piety St",
    "address_councildis": "D",
    "status": "Pending",
    "rowid": "1257183",
    "final_x": "3692198.87158",
    "final_y": "545362.703376",
    "longitude": "-90.03379153950236",
    "latitude": "29.993229015793144",
    "geocoded_column": {
      "latitude": "29.993229015793144",
      "longitude": "-90.03379153950236"
    }
  },
  {
    "service_request": "2026-1257182",
    "request_type": "Property Maintenance",
    "request_reason": "Property Maintenance",
    "date_created": "2026-02-07T21:11:11.000",
    "date_modified": "2026-02-07T21:11:12.000",
    "request_status": "Pending",
    "responsible_agency": "Department of Code Enforcement",
    "final_address": "3407 Clouet St",
    "address_councildis": "D",
    "status": "Pending",
    "rowid": "1257182",
    "final_x": "3691347.77014",
    "final_y": "545143.096847",
    "longitude": "-90.03648786906662",
    "latitude": "29.992651691370725",
    "geocoded_column": {
      "latitude": "29.992651691370725",
      "longitude": "-90.03648786906662"
    }
  },
  {
    "service_request": "2026-1257181",
    "request_type": "Street and Traffic Signs",
    "request_reason": "Street Name Sign Damaged or Missing",
    "date_created": "2026-02-07T21:09:03.000",
    "date_modified": "2026-02-07T21:09:06.000",
    "request_status": "Pending",
    "responsible_agency": "Department of Public Works",
    "final_address": "PLEASURE ST & CLOUET ST",
    "address_councildis": "D",
    "status": "Pending",
    "rowid": "1257181",
    "final_x": "3691278.8",
    "final_y": "545057.88",
    "longitude": "-90.03670877830615",
    "latitude": "29.992419522077864",
    "geocoded_column": {
      "latitude": "29.992419522077864",
      "longitude": "-90.03670877830615"
    }
  },
  {
    "service_request": "2026-1257180",
    "request_type": "Roads and Streets",
    "request_reason": "Street Subsidence (Sinking)",
    "date_created": "2026-02-07T21:06:30.000",
    "date_modified": "2026-02-07T21:06:32.000",
    "request_status": "Pending",
    "responsible_agency": "Sewerage & Water Board",
    "final_address": "3335 Clouet St",
    "address_councildis": "D",
    "status": "Pending",
    "rowid": "1257180",
    "final_x": "3691304.27721",
    "final_y": "545002.569423",
    "longitude": "-90.03663027815941",
    "latitude": "29.992266645275915",
    "geocoded_column": {
      "latitude": "29.992266645275915",
      "longitude": "-90.03663027815941"
    }
  },
  {
    "service_request": "2026-1257179",
    "request_type": "Trash/Recycling",
    "request_reason": "Illegal Dumping",
    "date_created": "2026-02-07T21:02:15.000",
    "date_modified": "2026-02-07T21:02:17.000",
    "request_status": "Pending",
    "responsible_agency": "Department of Sanitation",
    "final_address": "3100 BLK Pleasure St",
    "address_councildis": "D",
    "status": "Pending",
    "rowid": "1257179",
    "final_x": "3691143.6144",
    "final_y": "545091.191101",
    "longitude": "-90.03713461187407",
    "latitude": "29.992515321124067",
    "geocoded_column": {
      "latitude": "29.992515321124067",
      "longitude": "-90.03713461187407"
    }
  },
  {
    "service_request": "2026-1257178",
    "request_type": "Property Maintenance",
    "request_reason": "Property Maintenance",
    "date_created": "2026-02-07T21:00:11.000",
    "date_modified": "2026-02-07T21:00:12.000",
    "request_status": "Pending",
    "responsible_agency": "Department of Code Enforcement",
    "final_address": "3200 BLK Pleasure St",
    "address_councildis": "D",
    "status": "Pending",
    "rowid": "1257178",
    "final_x": "3691687.61593",
    "final_y": "544953.360012",
    "longitude": "-90.03542115172392",
    "latitude": "29.99211940343673",
    "geocoded_column": {
      "latitude": "29.99211940343673",
      "longitude": "-90.03542115172392"
    }
  },
  {
    "service_request": "2026-1257177",
    "request_type": "Property Maintenance",
    "request_reason": "Property Maintenance",
    "date_created": "2026-02-07T20:57:46.000",
    "date_modified": "2026-02-07T20:57:47.000",
    "request_status": "Pending",
    "responsible_agency": "Department of Code Enforcement",
    "final_address": "3300 Albert St",
    "address_councildis": "C",
    "status": "Pending",
    "rowid": "1257177",
    "final_x": "3712037.94846",
    "final_y": "518352.438966",
    "longitude": "-89.97213738534121",
    "latitude": "29.918327075001457",
    "geocoded_column": {
      "latitude": "29.918327075001457",
      "longitude": "-89.97213738534121"
    }
  },
  {
    "service_request": "2026-1257176",
    "request_type": "Trash/Recycling",
    "request_reason": "Illegal Dumping",
    "date_created": "2026-02-07T20:57:16.000",
    "date_modified": "2026-02-07T20:57:19.000",
    "request_status": "Pending",
    "responsible_agency": "Department of Sanitation",
    "final_address": "3200 BLK Pleasure St",
    "address_councildis": "D",
    "status": "Pending",
    "rowid": "1257176",
    "final_x": "3691687.61593",
    "final_y": "544953.360012",
    "longitude": "-90.03542115172392",
    "latitude": "29.99211940343673",
    "geocoded_column": {
      "latitude": "29.99211940343673",
      "longitude": "-90.03542115172392"
    }
  },
  {
    "service_request": "2026-1257175",
    "request_type": "Trash/Recycling",
    "request_reason": "Start Trash Service",
    "date_created": "2026-02-07T18:47:54.000",
    "date_modified": "2026-02-07T18:47:56.000",
    "request_status": "Pending",
    "responsible_agency": "Department of Sanitation",
    "final_address": "223 S White St",
    "address_councildis": "B",
    "status": "Assigned to Contractor",
    "contractor": "IV Waste",
    "rowid": "1257175",
    "final_x": "3674474.46958",
    "final_y": "534984.597958",
    "longitude": "-90.09013575338571",
    "latitude": "29.965233607908434",
    "geocoded_column": {
      "latitude": "29.965233607908434",
      "longitude": "-90.09013575338571"
    }
  },
  {
    "service_request": "2026-1257174",
    "request_type": "Trash/Recycling",
    "request_reason": "Replace Recycling Cart",
    "date_created": "2026-02-07T18:46:54.000",
    "date_modified": "2026-02-07T18:46:56.000",
    "request_status": "Pending",
    "responsible_agency": "Department of Sanitation",
    "final_address": "223 S White St",
    "address_councildis": "B",
    "status": "Pending",
    "rowid": "1257174",
    "final_x": "3674474.46958",
    "final_y": "534984.597958",
    "longitude": "-90.09013575338571",
    "latitude": "29.965233607908434",
    "geocoded_column": {
      "latitude": "29.965233607908434",
      "longitude": "-90.09013575338571"
    }
  },
  {
    "service_request": "2026-1257173",
    "request_type": "Streetlights",
    "request_reason": "Streetlight Outage/Malfunction",
    "date_created": "2026-02-07T18:34:23.000",
    "date_modified": "2026-02-07T18:34:25.000",
    "request_status": "Pending",
    "responsible_agency": "Department of Public Works",
    "final_address": "1001 Loyola Ave Lot PARKING",
    "address_councildis": "B",
    "status": "Pending",
    "rowid": "1257173",
    "final_x": "3678533.06638",
    "final_y": "528148.887871",
    "longitude": "-90.07755549222132",
    "latitude": "29.9463160030668",
    "geocoded_column": {
      "latitude": "29.9463160030668",
      "longitude": "-90.07755549222132"
    }
  },
  {
    "service_request": "2026-1257172",
    "request_type": "Streetlights",
    "request_reason": "Streetlight Outage/Malfunction",
    "date_created": "2026-02-07T18:21:47.000",
    "date_modified": "2026-02-07T18:21:50.000",
    "request_status": "Pending",
    "responsible_agency": "Department of Public Works",
    "final_address": "15520 Dwyer Blvd",
    "address_councildis": "E",
    "status": "Pending",
    "rowid": "1257172",
    "final_x": "3730985.17587",
    "final_y": "563708.999265",
    "longitude": "-89.91055447174456",
    "latitude": "30.04240728018116",
    "geocoded_column": {
      "latitude": "30.04240728018116",
      "longitude": "-89.91055447174456"
    }
  },
  {
    "service_request": "2026-1257171",
    "request_type": "Trash/Recycling",
    "request_reason": "Request a Large Item Pick Up",
    "date_created": "2026-02-07T18:09:25.000",
    "date_modified": "2026-02-07T18:09:27.000",
    "request_status": "Pending",
    "responsible_agency": "Department of Sanitation",
    "final_address": "2029 Mediamolle Dr",
    "address_councildis": "C",
    "status": "Assigned to Contractor",
    "contractor": "Richards Disposal",
    "rowid": "1257171",
    "final_x": "3699192.52669",
    "final_y": "523825.370555",
    "longitude": "-90.01248411354189",
    "latitude": "29.933789098597618",
    "geocoded_column": {
      "latitude": "29.933789098597618",
      "longitude": "-90.01248411354189"
    }
  },
  {
    "service_request": "2026-1257170",
    "request_type": "Trash/Recycling",
    "request_reason": "Request a Large Item Pick Up",
    "date_created": "2026-02-07T17:59:48.000",
    "date_modified": "2026-02-07T17:59:50.000",
    "request_status": "Pending",
    "responsible_agency": "Department of Sanitation",
    "final_address": "2209 Bienville Ave",
    "address_councildis": "B",
    "status": "Assigned to Contractor",
    "contractor": "IV Waste",
    "rowid": "1257170",
    "final_x": "3677365.40578",
    "final_y": "534630.44487",
    "longitude": "-90.0810185451714",
    "latitude": "29.964173245454223",
    "geocoded_column": {
      "latitude": "29.964173245454223",
      "longitude": "-90.0810185451714"
    }
  },
  {
    "service_request": "2026-1257169",
    "request_type": "Abandoned Vehicles",
    "request_reason": "Abandoned/Junk Vehicles",
    "date_created": "2026-02-07T17:34:20.000",
    "date_modified": "2026-02-07T17:34:23.000",
    "request_status": "Pending",
    "responsible_agency": "Department of Public Works",
    "final_address": "2634 Cleveland Ave",
    "address_councildis": "B",
    "status": "Pending",
    "rowid": "1257169",
    "final_x": "3675254.89128",
    "final_y": "534538.239941",
    "longitude": "-90.08768654280928",
    "latitude": "29.963982968674113",
    "geocoded_column": {
      "latitude": "29.963982968674113",
      "longitude": "-90.08768654280928"
    }
  },
  {
    "service_request": "2026-1257168",
    "request_type": "Streetlights",
    "request_reason": "Streetlight Outage/Malfunction",
    "date_created": "2026-02-07T17:24:56.000",
    "date_modified": "2026-02-07T17:24:57.000",
    "request_status": "Pending",
    "responsible_agency": "Department of Public Works",
    "final_address": "5724 Marshal Foch St",
    "address_councildis": "A",
    "status": "Pending",
    "rowid": "1257168",
    "final_x": "3669621.39201",
    "final_y": "545515.45224",
    "longitude": "-90.10510509291545",
    "latitude": "29.994333777147773",
    "geocoded_column": {
      "latitude": "29.994333777147773",
      "longitude": "-90.10510509291545"
    }
  },
  {
    "service_request": "2026-1257167",
    "request_type": "Trash/Recycling",
    "request_reason": "Request a Large Item Pick Up",
    "date_created": "2026-02-07T17:20:45.000",
    "date_modified": "2026-02-07T17:20:49.000",
    "request_status": "Pending",
    "responsible_agency": "Department of Sanitation",
    "final_address": "2416 Urquhart St",
    "address_councildis": "C",
    "status": "Assigned to Contractor",
    "contractor": "IV Waste",
    "rowid": "1257167",
    "final_x": "3686629.94358",
    "final_y": "537127.63188",
    "longitude": "-90.05167378694782",
    "latitude": "29.970757974020632",
    "geocoded_column": {
      "latitude": "29.970757974020632",
      "longitude": "-90.05167378694782"
    }
  },
  {
    "service_request": "2026-1257166",
    "request_type": "Trash/Recycling",
    "request_reason": "MIssed Recycling Pick-Up",
    "date_created": "2026-02-07T17:05:47.000",
    "date_modified": "2026-02-07T17:05:49.000",
    "request_status": "Pending",
    "responsible_agency": "Department of Sanitation",
    "final_address": "4549 Danneel St",
    "address_councildis": "B",
    "status": "Assigned to Contractor",
    "contractor": "IV Waste",
    "rowid": "1257166",
    "final_x": "3669987.74823",
    "final_y": "522255.919098",
    "longitude": "-90.1047356230178",
    "latitude": "29.930366988954045",
    "geocoded_column": {
      "latitude": "29.930366988954045",
      "longitude": "-90.1047356230178"
    }
  },
  {
    "service_request": "2026-1257165",
    "request_type": "Trash/Recycling",
    "request_reason": "Request a Large Item Pick Up",
    "date_created": "2026-02-07T17:02:39.000",
    "date_modified": "2026-02-07T17:02:41.000",
    "request_status": "Pending",
    "responsible_agency": "Department of Sanitation",
    "final_address": "144 18Th St",
    "address_councildis": "A",
    "status": "Assigned to Contractor",
    "contractor": "IV Waste",
    "rowid": "1257165",
    "final_x": "3665737.09485",
    "final_y": "548648.305747",
    "longitude": "-90.11727010110681",
    "latitude": "30.003061960300787",
    "geocoded_column": {
      "latitude": "30.003061960300787",
      "longitude": "-90.11727010110681"
    }
  },
  {
    "service_request": "2026-1257164",
    "request_type": "Trash/Recycling",
    "request_reason": "Illegal Dumping",
    "date_created": "2026-02-07T16:40:15.000",
    "date_modified": "2026-02-07T16:40:18.000",
    "request_status": "Pending",
    "responsible_agency": "Department of Sanitation",
    "final_address": "1941 Montegut St",
    "address_councildis": "D",
    "status": "Pending",
    "rowid": "1257164",
    "final_x": "3689354.62972",
    "final_y": "539461.984586",
    "longitude": "-90.042985901096",
    "latitude": "29.977092539005415",
    "geocoded_column": {
      "latitude": "29.977092539005415",
      "longitude": "-90.042985901096"
    }
  },
  {
    "service_request": "2026-1257163",
    "request_type": "Trash/Recycling",
    "request_reason": "Illegal Dumping",
    "date_created": "2026-02-07T16:39:08.000",
    "date_modified": "2026-02-07T16:39:10.000",
    "request_status": "Pending",
    "responsible_agency": "Department of Sanitation",
    "final_address": "1941 Montegut St",
    "address_councildis": "D",
    "status": "Pending",
    "rowid": "1257163",
    "final_x": "3689354.62972",
    "final_y": "539461.984586",
    "longitude": "-90.042985901096",
    "latitude": "29.977092539005415",
    "geocoded_column": {
      "latitude": "29.977092539005415",
      "longitude": "-90.042985901096"
    }
  },
  {
    "service_request": "2026-1257162",
    "request_type": "Trash/Recycling",
    "request_reason": "Illegal Dumping",
    "date_created": "2026-02-07T16:37:43.000",
    "date_modified": "2026-02-07T16:37:45.000",
    "request_status": "Pending",
    "responsible_agency": "Department of Sanitation",
    "final_address": "1931 Montegut St",
    "address_councildis": "D",
    "status": "Pending",
    "rowid": "1257162",
    "final_x": "3689331.9526",
    "final_y": "539372.078666",
    "longitude": "-90.04306071998771",
    "latitude": "29.976846031723262",
    "geocoded_column": {
      "latitude": "29.976846031723262",
      "longitude": "-90.04306071998771"
    }
  },
  {
    "service_request": "2026-1257161",
    "request_type": "Drainage",
    "request_reason": "Drainage Manhole Cover Missing or Damaged",
    "date_created": "2026-02-07T16:26:03.000",
    "date_modified": "2026-02-07T16:26:04.000",
    "request_status": "Pending",
    "responsible_agency": "Sewerage & Water Board",
    "final_address": "4047 Buick St",
    "address_councildis": "D",
    "status": "Pending",
    "rowid": "1257161",
    "final_x": "3688884.67081",
    "final_y": "548239.559314",
    "longitude": "-90.04415827666648",
    "latitude": "30.001242264299787",
    "geocoded_column": {
      "latitude": "30.001242264299787",
      "longitude": "-90.04415827666648"
    }
  },
  {
    "service_request": "2026-1257160",
    "request_type": "Graffiti Removal",
    "request_reason": "Graffiti Removal",
    "date_created": "2026-02-07T16:22:09.000",
    "date_modified": "2026-02-07T16:22:12.000",
    "request_status": "Pending",
    "responsible_agency": "Department of Code Enforcement",
    "final_address": "3637 Desaix Blvd",
    "address_councildis": "D",
    "status": "Pending",
    "rowid": "1257160",
    "final_x": "3675467.35681",
    "final_y": "543794.89915",
    "longitude": "-90.08669756441621",
    "latitude": "29.989429259283128",
    "geocoded_column": {
      "latitude": "29.989429259283128",
      "longitude": "-90.08669756441621"
    }
  },
  {
    "service_request": "2026-1257159",
    "request_type": "Drainage",
    "request_reason": "Drainage Manhole Cover Missing or Damaged",
    "date_created": "2026-02-07T15:38:13.000",
    "date_modified": "2026-02-07T15:38:15.000",
    "request_status": "Pending",
    "responsible_agency": "Sewerage & Water Board",
    "final_address": "4302 Paris Ave",
    "address_councildis": "D",
    "status": "Pending",
    "rowid": "1257159",
    "final_x": "3679347.87887",
    "final_y": "548138.214802",
    "longitude": "-90.07428935895642",
    "latitude": "30.001255185703332",
    "geocoded_column": {
      "latitude": "30.001255185703332",
      "longitude": "-90.07428935895642"
    }
  },
  {
    "service_request": "2026-1257158",
    "request_type": "General Services",
    "request_reason": "General Service Request",
    "date_created": "2026-02-07T15:36:36.000",
    "date_modified": "2026-02-07T15:36:38.000",
    "request_status": "Pending",
    "responsible_agency": "Orleans Parish Communication District",
    "final_address": "4302 Paris Ave",
    "address_councildis": "D",
    "status": "Pending",
    "rowid": "1257158",
    "final_x": "3679347.87887",
    "final_y": "548138.214802",
    "longitude": "-90.07428935895642",
    "latitude": "30.001255185703332",
    "geocoded_column": {
      "latitude": "30.001255185703332",
      "longitude": "-90.07428935895642"
    }
  },
  {
    "service_request": "2026-1257157",
    "request_type": "Trash/Recycling",
    "request_reason": "Request a Large Item Pick Up",
    "date_created": "2026-02-07T15:33:00.000",
    "date_modified": "2026-02-07T15:33:02.000",
    "request_status": "Pending",
    "responsible_agency": "Department of Sanitation",
    "final_address": "1925 Clouet St",
    "address_councildis": "D",
    "status": "Assigned to Contractor",
    "contractor": "IV Waste",
    "rowid": "1257157",
    "final_x": "3689843.93923",
    "final_y": "539190.048074",
    "longitude": "-90.04145019174835",
    "latitude": "29.976329649826322",
    "geocoded_column": {
      "latitude": "29.976329649826322",
      "longitude": "-90.04145019174835"
    }
  },
  {
    "service_request": "2026-1257156",
    "request_type": "Trash/Recycling",
    "request_reason": "Request a Large Item Pick Up",
    "date_created": "2026-02-07T15:32:13.000",
    "date_modified": "2026-02-07T15:32:16.000",
    "request_status": "Pending",
    "responsible_agency": "Department of Sanitation",
    "final_address": "1923 Clouet St",
    "address_councildis": "D",
    "status": "Assigned to Contractor",
    "contractor": "IV Waste",
    "rowid": "1257156",
    "final_x": "3689839.10179",
    "final_y": "539177.491082",
    "longitude": "-90.04146591691",
    "latitude": "29.976295272512164",
    "geocoded_column": {
      "latitude": "29.976295272512164",
      "longitude": "-90.04146591691"
    }
  },
  {
    "service_request": "2026-1257155",
    "request_type": "Health Related Request",
    "request_reason": "Noise Ordinance Complaint",
    "date_created": "2026-02-07T15:32:08.000",
    "date_modified": "2026-02-07T15:32:11.000",
    "request_status": "Pending",
    "responsible_agency": "Health Department",
    "final_address": "5128 Arts St, New Orleans, Louisiana, 70122",
    "address_councildis": "D",
    "status": "Pending",
    "rowid": "1257155",
    "final_x": "3685741.40406",
    "final_y": "551715.238869",
    "longitude": "-90.05396551823368",
    "latitude": "30.01089598648946",
    "geocoded_column": {
      "latitude": "30.01089598648946",
      "longitude": "-90.05396551823368"
    }
  },
  {
    "service_request": "2026-1257154",
    "request_type": "Health Related Request",
    "request_reason": "Noise Ordinance Complaint",
    "date_created": "2026-02-07T15:23:45.000",
    "date_modified": "2026-02-07T15:23:48.000",
    "request_status": "Pending",
    "responsible_agency": "Health Department",
    "final_address": "5130 Arts St, New Orleans, Louisiana, 70122",
    "address_councildis": "D",
    "status": "Pending",
    "rowid": "1257154",
    "final_x": "3685736.10473",
    "final_y": "551777.650581",
    "longitude": "-90.05398005928335",
    "latitude": "30.011067758595686",
    "geocoded_column": {
      "latitude": "30.011067758595686",
      "longitude": "-90.05398005928335"
    }
  },
  {
    "service_request": "2026-1257153",
    "request_type": "Trash/Recycling",
    "request_reason": "Request a Large Item Pick Up",
    "date_created": "2026-02-07T15:22:22.000",
    "date_modified": "2026-02-07T15:22:27.000",
    "request_status": "Pending",
    "responsible_agency": "Department of Sanitation",
    "final_address": "2801 Lepage St",
    "address_councildis": "A",
    "status": "Assigned to Contractor",
    "contractor": "IV Waste",
    "rowid": "1257153",
    "final_x": "3677569.67394",
    "final_y": "539865.740554",
    "longitude": "-90.08019267561637",
    "latitude": "29.97856237792439",
    "geocoded_column": {
      "latitude": "29.97856237792439",
      "longitude": "-90.08019267561637"
    }
  },
  {
    "service_request": "2026-1257152",
    "request_type": "General Services",
    "request_reason": "General Service Request",
    "date_created": "2026-02-07T15:04:02.000",
    "date_modified": "2026-02-07T15:04:05.000",
    "request_status": "Pending",
    "responsible_agency": "Orleans Parish Communication District",
    "final_address": "634 Julia St",
    "address_councildis": "B",
    "status": "Pending",
    "rowid": "1257152",
    "final_x": "3680484.86664",
    "final_y": "527962.238271",
    "longitude": "-90.0713994693415",
    "latitude": "29.945743817653977",
    "geocoded_column": {
      "latitude": "29.945743817653977",
      "longitude": "-90.0713994693415"
    }
  },
  {
    "service_request": "2026-1257151",
    "request_type": "Trash/Recycling",
    "request_reason": "Request a Large Item Pick Up",
    "date_created": "2026-02-07T14:55:26.000",
    "date_modified": "2026-02-07T14:55:35.000",
    "request_status": "Pending",
    "responsible_agency": "Department of Sanitation",
    "final_address": "3613 Calhoun St",
    "address_councildis": "A",
    "status": "Assigned to Contractor",
    "contractor": "IV Waste",
    "rowid": "1257151",
    "final_x": "3667918.00967",
    "final_y": "529813.577409",
    "longitude": "-90.11101498084517",
    "latitude": "29.951208971944077",
    "geocoded_column": {
      "latitude": "29.951208971944077",
      "longitude": "-90.11101498084517"
    }
  },
  {
    "service_request": "2026-1257150",
    "request_type": "Street and Traffic Signs",
    "request_reason": "Street Name Sign Damaged or Missing",
    "date_created": "2026-02-07T14:47:01.000",
    "date_modified": "2026-02-07T14:47:04.000",
    "request_status": "Pending",
    "responsible_agency": "Department of Public Works",
    "final_address": "4500 Constance St",
    "address_councildis": "B",
    "status": "Pending",
    "rowid": "1257150",
    "final_x": "3670642.95521",
    "final_y": "518337.254646",
    "longitude": "-90.10280008061042",
    "latitude": "29.919572577541757",
    "geocoded_column": {
      "latitude": "29.919572577541757",
      "longitude": "-90.10280008061042"
    }
  },
  {
    "service_request": "2026-1257149",
    "request_type": "Roads and Streets",
    "request_reason": "Road Shoulder Damage",
    "date_created": "2026-02-07T14:33:24.000",
    "date_modified": "2026-02-07T14:33:27.000",
    "request_status": "Pending",
    "responsible_agency": "Department of Public Works",
    "final_address": "2411 Almonaster Ave A",
    "address_councildis": "D",
    "status": "Pending",
    "rowid": "1257149",
    "final_x": "3688448.3935",
    "final_y": "541467.19342",
    "longitude": "-90.0457769164328",
    "latitude": "29.982634182142736",
    "geocoded_column": {
      "latitude": "29.982634182142736",
      "longitude": "-90.0457769164328"
    }
  },
  {
    "service_request": "2026-1257148",
    "request_type": "Trash/Recycling",
    "request_reason": "Request a Large Item Pick Up",
    "date_created": "2026-02-07T13:53:50.000",
    "date_modified": "2026-02-07T13:53:54.000",
    "request_status": "Pending",
    "responsible_agency": "Department of Sanitation",
    "final_address": "2422 Lark St",
    "address_councildis": "D",
    "status": "Assigned to Contractor",
    "contractor": "IV Waste",
    "rowid": "1257148",
    "final_x": "3684835.087",
    "final_y": "557846.080027",
    "longitude": "-90.05661310403092",
    "latitude": "30.027781336340333",
    "geocoded_column": {
      "latitude": "30.027781336340333",
      "longitude": "-90.05661310403092"
    }
  },
  {
    "service_request": "2026-1257147",
    "request_type": "Property Maintenance",
    "request_reason": "Property Maintenance",
    "date_created": "2026-02-07T13:47:51.000",
    "date_modified": "2026-02-07T13:47:55.000",
    "request_status": "Pending",
    "responsible_agency": "Department of Code Enforcement",
    "final_address": "1301 Clouet St",
    "address_councildis": "C",
    "status": "Pending",
    "rowid": "1257147",
    "final_x": "3689271.92054",
    "final_y": "536822.90772",
    "longitude": "-90.04334095899789",
    "latitude": "29.96983856912688",
    "geocoded_column": {
      "latitude": "29.96983856912688",
      "longitude": "-90.04334095899789"
    }
  },
  {
    "service_request": "2026-1257146",
    "request_type": "Trash/Recycling",
    "request_reason": "Request a Large Item Pick Up",
    "date_created": "2026-02-07T13:34:41.000",
    "date_modified": "2026-02-07T13:34:43.000",
    "request_status": "Pending",
    "responsible_agency": "Department of Sanitation",
    "final_address": "10210 Seawood St",
    "address_councildis": "E",
    "status": "Assigned to Contractor",
    "contractor": "Waste Pro",
    "rowid": "1257146",
    "final_x": "3713129.82206",
    "final_y": "557361.871707",
    "longitude": "-89.96722294744801",
    "latitude": "30.025552737647814",
    "geocoded_column": {
      "latitude": "30.025552737647814",
      "longitude": "-89.96722294744801"
    }
  },
  {
    "service_request": "2026-1257145",
    "request_type": "Trash/Recycling",
    "request_reason": "Request a Large Item Pick Up",
    "date_created": "2026-02-07T13:13:48.000",
    "date_modified": "2026-02-07T13:13:50.000",
    "request_status": "Pending",
    "responsible_agency": "Department of Sanitation",
    "final_address": "4616 Baccich St",
    "address_councildis": "D",
    "status": "Assigned to Contractor",
    "contractor": "IV Waste",
    "rowid": "1257145",
    "final_x": "3687728.61743",
    "final_y": "549877.806356",
    "longitude": "-90.04775227630874",
    "latitude": "30.00578256079095",
    "geocoded_column": {
      "latitude": "30.00578256079095",
      "longitude": "-90.04775227630874"
    }
  },
  {
    "service_request": "2026-1257144",
    "request_type": "Roads and Streets",
    "request_reason": "Pothole",
    "date_created": "2026-02-07T13:10:50.000",
    "date_modified": "2026-02-07T13:10:53.000",
    "request_status": "Pending",
    "responsible_agency": "Department of Public Works",
    "final_address": "0 BLK Belleville Ct",
    "address_councildis": "C",
    "status": "Pending",
    "rowid": "1257144",
    "final_x": "3687657.76408",
    "final_y": "526987.448437",
    "longitude": "-90.04878681649089",
    "latitude": "29.942844314399935",
    "geocoded_column": {
      "latitude": "29.942844314399935",
      "longitude": "-90.04878681649089"
    }
  },
  {
    "service_request": "2026-1257143",
    "request_type": "Trash/Recycling",
    "request_reason": "Missed Trash Pick-Up",
    "date_created": "2026-02-07T12:55:33.000",
    "date_modified": "2026-02-07T12:55:36.000",
    "request_status": "Pending",
    "responsible_agency": "Department of Sanitation",
    "final_address": "1427 Esplanade Ave Apt D",
    "address_councildis": "C",
    "status": "Assigned to Contractor",
    "contractor": "IV Waste",
    "rowid": "1257143",
    "final_x": "3681691.95093",
    "final_y": "536368.240519",
    "longitude": "-90.06729506113913",
    "latitude": "29.968820857519077",
    "geocoded_column": {
      "latitude": "29.968820857519077",
      "longitude": "-90.06729506113913"
    }
  },
  {
    "service_request": "2026-1257142",
    "request_type": "Abandoned Vehicles",
    "request_reason": "Abandoned/Junk Vehicles",
    "date_created": "2026-02-07T12:36:24.000",
    "date_modified": "2026-02-07T12:36:27.000",
    "request_status": "Pending",
    "responsible_agency": "Department of Public Works",
    "final_address": "845 Pontalba St",
    "address_councildis": "A",
    "status": "Pending",
    "rowid": "1257142",
    "final_x": "3669099.22362",
    "final_y": "544419.198159",
    "longitude": "-90.10679162778186",
    "latitude": "29.991334835089173",
    "geocoded_column": {
      "latitude": "29.991334835089173",
      "longitude": "-90.10679162778186"
    }
  },
  {
    "service_request": "2026-1257141",
    "request_type": "Streetlights",
    "request_reason": "Streetlight Outage/Malfunction",
    "date_created": "2026-02-07T12:34:23.000",
    "date_modified": "2026-02-07T12:34:25.000",
    "request_status": "Pending",
    "responsible_agency": "Department of Public Works",
    "final_address": "608 Fourth St",
    "address_councildis": "B",
    "status": "Pending",
    "rowid": "1257141",
    "final_x": "3678258.99406",
    "final_y": "519522.130295",
    "longitude": "-90.07871906804004",
    "latitude": "29.922603510131566",
    "geocoded_column": {
      "latitude": "29.922603510131566",
      "longitude": "-90.07871906804004"
    }
  },
  {
    "service_request": "2026-1257140",
    "request_type": "Drainage",
    "request_reason": "Catch Basin Not Draining",
    "date_created": "2026-02-07T12:32:38.000",
    "date_modified": "2026-02-07T12:32:45.000",
    "request_status": "Pending",
    "responsible_agency": "Sewerage & Water Board",
    "final_address": "927 St Ferdinand St",
    "address_councildis": "C",
    "status": "Pending",
    "rowid": "1257140",
    "final_x": "3687612.57014",
    "final_y": "535737.370951",
    "longitude": "-90.04861976690562",
    "latitude": "29.966904984217486",
    "geocoded_column": {
      "latitude": "29.966904984217486",
      "longitude": "-90.04861976690562"
    }
  },
  {
    "service_request": "2026-1257139",
    "request_type": "Trash/Recycling",
    "request_reason": "Replace Trash Cart",
    "date_created": "2026-02-07T12:29:51.000",
    "date_modified": "2026-02-07T12:29:54.000",
    "request_status": "Pending",
    "responsible_agency": "Department of Sanitation",
    "final_address": "2627 St Thomas St",
    "address_councildis": "B",
    "status": "Assigned to Contractor",
    "contractor": "IV Waste",
    "rowid": "1257139",
    "final_x": "3678347.10933",
    "final_y": "519524.043575",
    "longitude": "-90.07844085720814",
    "latitude": "29.92260611785074",
    "geocoded_column": {
      "latitude": "29.92260611785074",
      "longitude": "-90.07844085720814"
    }
  },
  {
    "service_request": "2026-1257138",
    "request_type": "Trash/Recycling",
    "request_reason": "Order Recycling Cart",
    "date_created": "2026-02-07T12:21:24.000",
    "date_modified": "2026-02-07T12:21:28.000",
    "request_status": "Pending",
    "responsible_agency": "Department of Sanitation",
    "final_address": "3141 St Philip St",
    "address_councildis": "A",
    "status": "Pending",
    "rowid": "1257138",
    "final_x": "3675719.54421",
    "final_y": "539194.374602",
    "longitude": "-90.08605915716954",
    "latitude": "29.97677185812415",
    "geocoded_column": {
      "latitude": "29.97677185812415",
      "longitude": "-90.08605915716954"
    }
  },
  {
    "service_request": "2026-1257137",
    "request_type": "Trash/Recycling",
    "request_reason": "Request a Large Item Pick Up",
    "date_created": "2026-02-07T12:18:05.000",
    "date_modified": "2026-02-07T12:18:08.000",
    "request_status": "Pending",
    "responsible_agency": "Department of Sanitation",
    "final_address": "3141 St Philip St",
    "address_councildis": "A",
    "status": "Assigned to Contractor",
    "contractor": "IV Waste",
    "rowid": "1257137",
    "final_x": "3675719.54421",
    "final_y": "539194.374602",
    "longitude": "-90.08605915716954",
    "latitude": "29.97677185812415",
    "geocoded_column": {
      "latitude": "29.97677185812415",
      "longitude": "-90.08605915716954"
    }
  },
  {
    "service_request": "2026-1257136",
    "request_type": "Street and Traffic Signs",
    "request_reason": "Traffic or Parking Sign Damaged or Missing",
    "date_created": "2026-02-07T12:15:31.000",
    "date_modified": "2026-02-07T12:15:34.000",
    "request_status": "Pending",
    "responsible_agency": "Department of Public Works",
    "final_address": "5909 General Meyer Ave",
    "address_councildis": "C",
    "status": "Pending",
    "rowid": "1257136",
    "final_x": "3705922.29137",
    "final_y": "521199.712249",
    "longitude": "-89.99133581893898",
    "latitude": "29.926354434636036",
    "geocoded_column": {
      "latitude": "29.926354434636036",
      "longitude": "-89.99133581893898"
    }
  },
  {
    "service_request": "2026-1257135",
    "request_type": "Trash/Recycling",
    "request_reason": "Replace Trash Cart",
    "date_created": "2026-02-07T11:50:47.000",
    "date_modified": "2026-02-07T11:50:49.000",
    "request_status": "Pending",
    "responsible_agency": "Department of Sanitation",
    "final_address": "3936 Toledano St",
    "address_councildis": "B",
    "status": "Assigned to Contractor",
    "contractor": "IV Waste",
    "rowid": "1257135",
    "final_x": "3671267.69659",
    "final_y": "529300.959553",
    "longitude": "-90.10045572032408",
    "latitude": "29.949700763539546",
    "geocoded_column": {
      "latitude": "29.949700763539546",
      "longitude": "-90.10045572032408"
    }
  },
  {
    "service_request": "2026-1257134",
    "request_type": "Trash/Recycling",
    "request_reason": "Request a Large Item Pick Up",
    "date_created": "2026-02-07T11:23:01.000",
    "date_modified": "2026-02-07T11:23:03.000",
    "request_status": "Pending",
    "responsible_agency": "Department of Sanitation",
    "final_address": "1229 N Johnson St",
    "address_councildis": "D",
    "status": "Assigned to Contractor",
    "contractor": "IV Waste",
    "rowid": "1257134",
    "final_x": "3679864.69263",
    "final_y": "537140.93524",
    "longitude": "-90.07303881458745",
    "latitude": "29.971000890018807",
    "geocoded_column": {
      "latitude": "29.971000890018807",
      "longitude": "-90.07303881458745"
    }
  },
  {
    "service_request": "2026-1257133",
    "request_type": "Trash/Recycling",
    "request_reason": "Missed Trash Pick-Up",
    "date_created": "2026-02-07T11:22:53.000",
    "date_modified": "2026-02-07T12:48:19.000",
    "case_close_date": "2026-02-07T06:48:17.000",
    "request_status": "Closed",
    "responsible_agency": "Department of Sanitation",
    "final_address": "1427 Esplanade Ave Apt D",
    "address_councildis": "C",
    "status": "Invalid Request",
    "contractor": "IV Waste",
    "contractor_action": "Invalid",
    "rowid": "1257133",
    "final_x": "3681691.95093",
    "final_y": "536368.240519",
    "longitude": "-90.06729506113913",
    "latitude": "29.968820857519077",
    "geocoded_column": {
      "latitude": "29.968820857519077",
      "longitude": "-90.06729506113913"
    }
  },
  {
    "service_request": "2026-1257132",
    "request_type": "Trash/Recycling",
    "request_reason": "Request a Large Item Pick Up",
    "date_created": "2026-02-07T11:14:20.000",
    "date_modified": "2026-02-07T11:14:23.000",
    "request_status": "Pending",
    "responsible_agency": "Department of Sanitation",
    "final_address": "4534 Annette St",
    "address_councildis": "D",
    "status": "Assigned to Contractor",
    "contractor": "IV Waste",
    "rowid": "1257132",
    "final_x": "3682035.96898",
    "final_y": "549364.569619",
    "longitude": "-90.06575459418951",
    "latitude": "30.004545732608978",
    "geocoded_column": {
      "latitude": "30.004545732608978",
      "longitude": "-90.06575459418951"
    }
  },
  {
    "service_request": "2026-1257131",
    "request_type": "Trash/Recycling",
    "request_reason": "Return Recycling Cart",
    "date_created": "2026-02-07T10:54:51.000",
    "date_modified": "2026-02-07T10:54:53.000",
    "request_status": "Pending",
    "responsible_agency": "Department of Sanitation",
    "final_address": "1140 Eighth St",
    "address_councildis": "B",
    "status": "Pending",
    "rowid": "1257131",
    "final_x": "3675891.35861",
    "final_y": "520465.131576",
    "longitude": "-90.08616035314938",
    "latitude": "29.92526752938172",
    "geocoded_column": {
      "latitude": "29.92526752938172",
      "longitude": "-90.08616035314938"
    }
  },
  {
    "service_request": "2026-1257130",
    "request_type": "General Services",
    "request_reason": "General Service Request",
    "date_created": "2026-02-07T10:20:53.000",
    "date_modified": "2026-02-07T10:20:56.000",
    "request_status": "Pending",
    "responsible_agency": "Orleans Parish Communication District",
    "final_address": "1019 S Clark St",
    "address_councildis": "B",
    "status": "Pending",
    "rowid": "1257130",
    "final_x": "3670181.40692",
    "final_y": "533470.180612",
    "longitude": "-90.10374437895457",
    "latitude": "29.961196840206267",
    "geocoded_column": {
      "latitude": "29.961196840206267",
      "longitude": "-90.10374437895457"
    }
  },
  {
    "service_request": "2026-1257129",
    "request_type": "Abandoned Vehicles",
    "request_reason": "Abandoned/Junk Vehicles",
    "date_created": "2026-02-07T09:49:11.000",
    "date_modified": "2026-02-07T09:49:13.000",
    "request_status": "Pending",
    "responsible_agency": "Department of Public Works",
    "final_address": "6311 St Roch Ave",
    "address_councildis": "D",
    "status": "Pending",
    "rowid": "1257129",
    "final_x": "3684975.02524",
    "final_y": "556467.65385",
    "longitude": "-90.05621945734437",
    "latitude": "30.0239868878123",
    "geocoded_column": {
      "latitude": "30.0239868878123",
      "longitude": "-90.05621945734437"
    }
  },
  {
    "service_request": "2026-1257128",
    "request_type": "Abandoned Vehicles",
    "request_reason": "Abandoned/Junk Vehicles",
    "date_created": "2026-02-07T09:37:21.000",
    "date_modified": "2026-02-07T09:37:23.000",
    "request_status": "Pending",
    "responsible_agency": "Department of Public Works",
    "final_address": "8524 Oak St",
    "address_councildis": "A",
    "status": "Pending",
    "rowid": "1257128",
    "final_x": "3660730.39437",
    "final_y": "529442.698113",
    "longitude": "-90.13372229102296",
    "latitude": "29.950398042046363",
    "geocoded_column": {
      "latitude": "29.950398042046363",
      "longitude": "-90.13372229102296"
    }
  },
  {
    "service_request": "2026-1257127",
    "request_type": "General Services",
    "request_reason": "General Service Request",
    "date_created": "2026-02-07T09:33:18.000",
    "date_modified": "2026-02-07T09:33:21.000",
    "request_status": "Pending",
    "responsible_agency": "Orleans Parish Communication District",
    "final_address": "4702 Perrier St",
    "address_councildis": "B",
    "status": "Pending",
    "rowid": "1257127",
    "final_x": "3669764.67463",
    "final_y": "519926.11404",
    "longitude": "-90.10551864389504",
    "latitude": "29.923967342927465",
    "geocoded_column": {
      "latitude": "29.923967342927465",
      "longitude": "-90.10551864389504"
    }
  },
  {
    "service_request": "2026-1257126",
    "request_type": "Trash/Recycling",
    "request_reason": "Repair Trash Cart",
    "date_created": "2026-02-07T09:20:04.000",
    "date_modified": "2026-02-07T09:20:07.000",
    "request_status": "Pending",
    "responsible_agency": "Department of Sanitation",
    "final_address": "4211 S Johnson St",
    "address_councildis": "B",
    "status": "Assigned to Contractor",
    "contractor": "IV Waste",
    "rowid": "1257126",
    "final_x": "3670834.37025",
    "final_y": "527329.560127",
    "longitude": "-90.101890829193",
    "latitude": "29.9442928728466",
    "geocoded_column": {
      "latitude": "29.9442928728466",
      "longitude": "-90.101890829193"
    }
  },
  {
    "service_request": "2026-1257125",
    "request_type": "Trash/Recycling",
    "request_reason": "Replace Recycling Cart",
    "date_created": "2026-02-07T09:18:12.000",
    "date_modified": "2026-02-07T09:18:14.000",
    "request_status": "Pending",
    "responsible_agency": "Department of Sanitation",
    "final_address": "4211 S Johnson St",
    "address_councildis": "B",
    "status": "Pending",
    "rowid": "1257125",
    "final_x": "3670834.37025",
    "final_y": "527329.560127",
    "longitude": "-90.101890829193",
    "latitude": "29.9442928728466",
    "geocoded_column": {
      "latitude": "29.9442928728466",
      "longitude": "-90.101890829193"
    }
  },
  {
    "service_request": "2026-1257124",
    "request_type": "Trash/Recycling",
    "request_reason": "Order Recycling Cart",
    "date_created": "2026-02-07T09:14:52.000",
    "date_modified": "2026-02-07T09:14:55.000",
    "request_status": "Pending",
    "responsible_agency": "Department of Sanitation",
    "final_address": "3215 Cherry St",
    "address_councildis": "A",
    "status": "Pending",
    "rowid": "1257124",
    "final_x": "3663758.11635",
    "final_y": "536570.515207",
    "longitude": "-90.12392473466345",
    "latitude": "29.9699097064629",
    "geocoded_column": {
      "latitude": "29.9699097064629",
      "longitude": "-90.12392473466345"
    }
  },
  {
    "service_request": "2026-1257123",
    "request_type": "Abandoned Vehicles",
    "request_reason": "Abandoned/Junk Vehicles",
    "date_created": "2026-02-07T09:06:39.000",
    "date_modified": "2026-02-07T09:06:41.000",
    "request_status": "Pending",
    "responsible_agency": "Department of Public Works",
    "final_address": "6311 St Roch Ave",
    "address_councildis": "D",
    "status": "Pending",
    "rowid": "1257123",
    "final_x": "3684975.02524",
    "final_y": "556467.65385",
    "longitude": "-90.05621945734437",
    "latitude": "30.0239868878123",
    "geocoded_column": {
      "latitude": "30.0239868878123",
      "longitude": "-90.05621945734437"
    }
  },
  {
    "service_request": "2026-1257122",
    "request_type": "Trash/Recycling",
    "request_reason": "Order Recycling Cart",
    "date_created": "2026-02-07T09:00:48.000",
    "date_modified": "2026-02-07T09:00:50.000",
    "request_status": "Pending",
    "responsible_agency": "Department of Sanitation",
    "final_address": "11296 Notaway Ln, New Orleans, Louisiana, 70128",
    "address_councildis": "E",
    "status": "Pending",
    "rowid": "1257122",
    "final_x": "3718453.16607",
    "final_y": "559780.510237",
    "longitude": "-89.95030990061292",
    "latitude": "30.032027437831545",
    "geocoded_column": {
      "latitude": "30.032027437831545",
      "longitude": "-89.95030990061292"
    }
  },
  {
    "service_request": "2026-1257121",
    "request_type": "Abandoned Vehicles",
    "request_reason": "Abandoned/Junk Vehicles",
    "date_created": "2026-02-07T08:50:20.000",
    "date_modified": "2026-02-07T08:50:23.000",
    "request_status": "Pending",
    "responsible_agency": "Department of Public Works",
    "final_address": "6311 St Roch Ave",
    "address_councildis": "D",
    "status": "Pending",
    "rowid": "1257121",
    "final_x": "3684975.02524",
    "final_y": "556467.65385",
    "longitude": "-90.05621945734437",
    "latitude": "30.0239868878123",
    "geocoded_column": {
      "latitude": "30.0239868878123",
      "longitude": "-90.05621945734437"
    }
  },
  {
    "service_request": "2026-1257120",
    "request_type": "Abandoned Vehicles",
    "request_reason": "Abandoned/Junk Vehicles",
    "date_created": "2026-02-07T08:33:11.000",
    "date_modified": "2026-02-07T08:33:14.000",
    "request_status": "Pending",
    "responsible_agency": "Department of Public Works",
    "final_address": "2300 Louisiana Ave",
    "address_councildis": "B",
    "status": "Pending",
    "rowid": "1257120",
    "final_x": "3673116.80379",
    "final_y": "523850.247035",
    "longitude": "-90.09480325976006",
    "latitude": "29.934658251183727",
    "geocoded_column": {
      "latitude": "29.934658251183727",
      "longitude": "-90.09480325976006"
    }
  },
  {
    "service_request": "2026-1257119",
    "request_type": "Roads and Streets",
    "request_reason": "Debris in Driving Lanes",
    "date_created": "2026-02-07T08:10:04.000",
    "date_modified": "2026-02-07T08:10:07.000",
    "request_status": "Pending",
    "responsible_agency": "Department of Public Works",
    "final_address": "619 Napoleon Ave A",
    "address_councildis": "B",
    "status": "Pending",
    "rowid": "1257119",
    "final_x": "3671253.35489",
    "final_y": "517933.288566",
    "longitude": "-90.10088706217999",
    "latitude": "29.91844376025812",
    "geocoded_column": {
      "latitude": "29.91844376025812",
      "longitude": "-90.10088706217999"
    }
  },
  {
    "service_request": "2026-1257118",
    "request_type": "Roads and Streets",
    "request_reason": "Abandoned Service Cut",
    "date_created": "2026-02-07T07:11:12.000",
    "date_modified": "2026-02-07T07:11:15.000",
    "request_status": "Pending",
    "responsible_agency": "Department of Public Works",
    "final_address": "725 Fern St",
    "address_councildis": "A",
    "status": "Pending",
    "rowid": "1257118",
    "final_x": "3661544.37856",
    "final_y": "526701.458494",
    "longitude": "-90.13124294309793",
    "latitude": "29.942837051441494",
    "geocoded_column": {
      "latitude": "29.942837051441494",
      "longitude": "-90.13124294309793"
    }
  },
  {
    "service_request": "2026-1257117",
    "request_type": "Health Related Request",
    "request_reason": "Noise Ordinance Complaint",
    "date_created": "2026-02-07T01:11:55.000",
    "date_modified": "2026-02-07T01:11:58.000",
    "request_status": "Pending",
    "responsible_agency": "Health Department",
    "final_address": "1125 Saint Mary St, New Orleans, Louisiana, 70130",
    "address_councildis": "B",
    "status": "Pending",
    "rowid": "1257117",
    "final_x": "3679638.07797",
    "final_y": "522995.941243",
    "longitude": "-90.07424536126065",
    "latitude": "29.932113761941242",
    "geocoded_column": {
      "latitude": "29.932113761941242",
      "longitude": "-90.07424536126065"
    }
  },
  {
    "service_request": "2026-1257116",
    "request_type": "Health Related Request",
    "request_reason": "Noise Ordinance Complaint",
    "date_created": "2026-02-07T01:10:56.000",
    "date_modified": "2026-02-07T01:11:03.000",
    "request_status": "Pending",
    "responsible_agency": "Health Department",
    "final_address": "1125 Saint Mary St, New Orleans, Louisiana, 70130",
    "address_councildis": "B",
    "status": "Pending",
    "rowid": "1257116",
    "final_x": "3679638.07797",
    "final_y": "522995.941243",
    "longitude": "-90.07424536126065",
    "latitude": "29.932113761941242",
    "geocoded_column": {
      "latitude": "29.932113761941242",
      "longitude": "-90.07424536126065"
    }
  },
  {
    "service_request": "2026-1257115",
    "request_type": "General Services",
    "request_reason": "General Service Request",
    "date_created": "2026-02-06T23:39:25.000",
    "date_modified": "2026-02-06T23:39:27.000",
    "request_status": "Pending",
    "responsible_agency": "Orleans Parish Communication District",
    "final_address": "3504 Pauger St, New Orleans, Louisiana, 70119",
    "address_councildis": "D",
    "status": "Pending",
    "rowid": "1257115",
    "final_x": "3683323.44098",
    "final_y": "542510.944141",
    "longitude": "-90.0619274732045",
    "latitude": "29.98566148073622",
    "geocoded_column": {
      "latitude": "29.98566148073622",
      "longitude": "-90.0619274732045"
    }
  },
  {
    "service_request": "2026-1257114",
    "request_type": "Trash/Recycling",
    "request_reason": "Request a Large Item Pick Up",
    "date_created": "2026-02-06T23:34:39.000",
    "date_modified": "2026-02-06T23:34:42.000",
    "request_status": "Pending",
    "responsible_agency": "Department of Sanitation",
    "final_address": "2510 Cambronne St",
    "address_councildis": "A",
    "status": "Assigned to Contractor",
    "contractor": "IV Waste",
    "rowid": "1257114",
    "final_x": "3664368.40058",
    "final_y": "532674.200836",
    "longitude": "-90.12212745892796",
    "latitude": "29.95917839627396",
    "geocoded_column": {
      "latitude": "29.95917839627396",
      "longitude": "-90.12212745892796"
    }
  },
  {
    "service_request": "2026-1257113",
    "request_type": "General Services",
    "request_reason": "General Service Request",
    "date_created": "2026-02-06T22:59:08.000",
    "date_modified": "2026-02-06T22:59:10.000",
    "request_status": "Pending",
    "responsible_agency": "Orleans Parish Communication District",
    "final_address": "4002 Franklin Ave",
    "address_councildis": "D",
    "status": "Pending",
    "rowid": "1257113",
    "final_x": "3686956.94294",
    "final_y": "547540.614482",
    "longitude": "-90.05027284879758",
    "latitude": "29.99937991412933",
    "geocoded_column": {
      "latitude": "29.99937991412933",
      "longitude": "-90.05027284879758"
    }
  },
  {
    "service_request": "2026-1257112",
    "request_type": "Streetlights",
    "request_reason": "Streetlight Outage/Malfunction",
    "date_created": "2026-02-06T22:48:39.000",
    "date_modified": "2026-02-06T22:48:43.000",
    "request_status": "Pending",
    "responsible_agency": "Department of Public Works",
    "final_address": "4002 Franklin Ave",
    "address_councildis": "D",
    "status": "Pending",
    "rowid": "1257112",
    "final_x": "3686956.94294",
    "final_y": "547540.614482",
    "longitude": "-90.05027284879758",
    "latitude": "29.99937991412933",
    "geocoded_column": {
      "latitude": "29.99937991412933",
      "longitude": "-90.05027284879758"
    }
  },
  {
    "service_request": "2026-1257111",
    "request_type": "Trash/Recycling",
    "request_reason": "Request a Large Item Pick Up",
    "date_created": "2026-02-06T21:23:36.000",
    "date_modified": "2026-02-06T21:23:40.000",
    "request_status": "Pending",
    "responsible_agency": "Department of Sanitation",
    "final_address": "7718 Benjamin St",
    "address_councildis": "A",
    "status": "Assigned to Contractor",
    "contractor": "IV Waste",
    "rowid": "1257111",
    "final_x": "3660766.14317",
    "final_y": "525151.110973",
    "longitude": "-90.13375127596495",
    "latitude": "29.938596513092808",
    "geocoded_column": {
      "latitude": "29.938596513092808",
      "longitude": "-90.13375127596495"
    }
  },
  {
    "service_request": "2026-1257110",
    "request_type": "Property Maintenance",
    "request_reason": "Property Maintenance",
    "date_created": "2026-02-06T20:59:03.000",
    "date_modified": "2026-02-06T20:59:05.000",
    "request_status": "Pending",
    "responsible_agency": "Department of Code Enforcement",
    "final_address": "232 Bellaire Dr",
    "address_councildis": "A",
    "status": "Pending",
    "rowid": "1257110",
    "final_x": "3663838.35367",
    "final_y": "540961.003147",
    "longitude": "-90.12352493967039",
    "latitude": "29.98197975895096",
    "geocoded_column": {
      "latitude": "29.98197975895096",
      "longitude": "-90.12352493967039"
    }
  },
  {
    "service_request": "2026-1257109",
    "request_type": "Property Maintenance",
    "request_reason": "Property Maintenance",
    "date_created": "2026-02-06T20:57:11.000",
    "date_modified": "2026-02-06T20:57:13.000",
    "request_status": "Pending",
    "responsible_agency": "Department of Code Enforcement",
    "final_address": "232 Bellaire Dr",
    "address_councildis": "A",
    "status": "Pending",
    "rowid": "1257109",
    "final_x": "3663838.35367",
    "final_y": "540961.003147",
    "longitude": "-90.12352493967039",
    "latitude": "29.98197975895096",
    "geocoded_column": {
      "latitude": "29.98197975895096",
      "longitude": "-90.12352493967039"
    }
  },
  {
    "service_request": "2026-1257108",
    "request_type": "Abandoned Vehicles",
    "request_reason": "Abandoned/Junk Vehicles",
    "date_created": "2026-02-06T19:59:16.000",
    "date_modified": "2026-02-06T19:59:18.000",
    "request_status": "Pending",
    "responsible_agency": "Department of Public Works",
    "final_address": "2920 Baudin St",
    "address_councildis": "B",
    "status": "Pending",
    "rowid": "1257108",
    "final_x": "3673456.75592",
    "final_y": "534480.270661",
    "longitude": "-90.09336688050102",
    "latitude": "29.96387719933772",
    "geocoded_column": {
      "latitude": "29.96387719933772",
      "longitude": "-90.09336688050102"
    }
  },
  {
    "service_request": "2026-1257107",
    "request_type": "Abandoned Vehicles",
    "request_reason": "Abandoned/Junk Vehicles",
    "date_created": "2026-02-06T18:44:31.000",
    "date_modified": "2026-02-06T18:44:33.000",
    "request_status": "Pending",
    "responsible_agency": "Department of Public Works",
    "final_address": "1701 St Thomas St",
    "address_councildis": "B",
    "status": "Pending",
    "rowid": "1257107",
    "final_x": "3681317.88616",
    "final_y": "522003.649722",
    "longitude": "-90.06897694345304",
    "latitude": "29.929334426274345",
    "geocoded_column": {
      "latitude": "29.929334426274345",
      "longitude": "-90.06897694345304"
    }
  },
  {
    "service_request": "2026-1257105",
    "request_type": "Trash/Recycling",
    "request_reason": "Request a Large Item Pick Up",
    "date_created": "2026-02-06T18:01:46.000",
    "date_modified": "2026-02-06T18:01:49.000",
    "request_status": "Pending",
    "responsible_agency": "Department of Sanitation",
    "final_address": "75 Thrasher St",
    "address_councildis": "D",
    "status": "Assigned to Contractor",
    "contractor": "IV Waste",
    "rowid": "1257105",
    "final_x": "3672745.75752",
    "final_y": "556452.67241",
    "longitude": "-90.09486218929389",
    "latitude": "30.024314808154045",
    "geocoded_column": {
      "latitude": "30.024314808154045",
      "longitude": "-90.09486218929389"
    }
  },
  {
    "service_request": "2026-1257104",
    "request_type": "Trash/Recycling",
    "request_reason": "Return Trash Cart",
    "date_created": "2026-02-06T17:41:32.000",
    "date_modified": "2026-02-06T17:41:34.000",
    "request_status": "Pending",
    "responsible_agency": "Department of Sanitation",
    "final_address": "814 Alix St",
    "address_councildis": "C",
    "status": "Assigned to Contractor",
    "contractor": "Richards Disposal",
    "rowid": "1257104",
    "final_x": "3688019.527",
    "final_y": "530375.641346",
    "longitude": "-90.04752460693267",
    "latitude": "29.9521495313259",
    "geocoded_column": {
      "latitude": "29.9521495313259",
      "longitude": "-90.04752460693267"
    }
  },
  {
    "service_request": "2026-1257103",
    "request_type": "Drainage",
    "request_reason": "Catch Basin Frame and Cover Missing or Damaged",
    "date_created": "2026-02-06T17:25:07.000",
    "date_modified": "2026-02-06T17:25:10.000",
    "request_status": "Pending",
    "responsible_agency": "Sewerage & Water Board",
    "final_address": "436 Hillary St",
    "address_councildis": "A",
    "status": "Pending",
    "rowid": "1257103",
    "final_x": "3661579.62746",
    "final_y": "525337.631677",
    "longitude": "-90.13117682894404",
    "latitude": "29.93908594364971",
    "geocoded_column": {
      "latitude": "29.93908594364971",
      "longitude": "-90.13117682894404"
    }
  },
  {
    "service_request": "2026-1257102",
    "request_type": "Abandoned Vehicles",
    "request_reason": "Abandoned/Junk Vehicles",
    "date_created": "2026-02-06T17:05:46.000",
    "date_modified": "2026-02-06T17:05:48.000",
    "request_status": "Pending",
    "responsible_agency": "Department of Public Works",
    "final_address": "8930 Colapissa St",
    "address_councildis": "A",
    "status": "Pending",
    "rowid": "1257102",
    "final_x": "3664245.10317",
    "final_y": "535438.576454",
    "longitude": "-90.12242455443376",
    "latitude": "29.96678310602334",
    "geocoded_column": {
      "latitude": "29.96678310602334",
      "longitude": "-90.12242455443376"
    }
  },
  {
    "service_request": "2026-1257101",
    "request_type": "Trash/Recycling",
    "request_reason": "Repair Trash Cart",
    "date_created": "2026-02-06T16:48:24.000",
    "date_modified": "2026-02-06T16:48:26.000",
    "request_status": "Pending",
    "responsible_agency": "Department of Sanitation",
    "final_address": "2643 Jefferson Ave",
    "address_councildis": "B",
    "status": "Assigned to Contractor",
    "contractor": "IV Waste",
    "rowid": "1257101",
    "final_x": "3668294.60948",
    "final_y": "525221.917117",
    "longitude": "-90.10998065101649",
    "latitude": "29.938572343002797",
    "geocoded_column": {
      "latitude": "29.938572343002797",
      "longitude": "-90.10998065101649"
    }
  },
  {
    "service_request": "2026-1257100",
    "request_type": "Trash/Recycling",
    "request_reason": "Replace Trash Cart",
    "date_created": "2026-02-06T16:45:50.000",
    "date_modified": "2026-02-06T16:45:52.000",
    "request_status": "Pending",
    "responsible_agency": "Department of Sanitation",
    "final_address": "2023 Martin Luther King, Jr. Blvd",
    "address_councildis": "B",
    "status": "Assigned to Contractor",
    "contractor": "IV Waste",
    "rowid": "1257100",
    "final_x": "3677628.32981",
    "final_y": "526627.204926",
    "longitude": "-90.0804645956573",
    "latitude": "29.942159112632076",
    "geocoded_column": {
      "latitude": "29.942159112632076",
      "longitude": "-90.0804645956573"
    }
  },
  {
    "service_request": "2026-1257099",
    "request_type": "Trash/Recycling",
    "request_reason": "Request a Large Item Pick Up",
    "date_created": "2026-02-06T16:43:16.000",
    "date_modified": "2026-02-06T16:43:18.000",
    "request_status": "Pending",
    "responsible_agency": "Department of Sanitation",
    "final_address": "4813 Babylon St",
    "address_councildis": "D",
    "status": "Assigned to Contractor",
    "contractor": "Waste Pro",
    "rowid": "1257099",
    "final_x": "3696660.49443",
    "final_y": "554485.072088",
    "longitude": "-90.01936764812726",
    "latitude": "30.01817224424655",
    "geocoded_column": {
      "latitude": "30.01817224424655",
      "longitude": "-90.01936764812726"
    }
  },
  {
    "service_request": "2026-1257098",
    "request_type": "Trash/Recycling",
    "request_reason": "Request a Large Item Pick Up",
    "date_created": "2026-02-06T16:42:26.000",
    "date_modified": "2026-02-06T16:42:28.000",
    "request_status": "Pending",
    "responsible_agency": "Department of Sanitation",
    "final_address": "18 Brownlee Ct",
    "address_councildis": "E",
    "status": "Assigned to Contractor",
    "contractor": "Waste Pro",
    "rowid": "1257098",
    "final_x": "3712586.14981",
    "final_y": "567257.8081",
    "longitude": "-89.96856841616861",
    "latitude": "30.052780404013546",
    "geocoded_column": {
      "latitude": "30.052780404013546",
      "longitude": "-89.96856841616861"
    }
  },
  {
    "service_request": "2026-1257097",
    "request_type": "Drainage",
    "request_reason": "Drainage Manhole Cover Missing or Damaged",
    "date_created": "2026-02-06T16:38:22.000",
    "date_modified": "2026-02-06T16:38:24.000",
    "request_status": "Pending",
    "responsible_agency": "Sewerage & Water Board",
    "final_address": "1719 Napoleon Ave",
    "address_councildis": "B",
    "status": "Pending",
    "rowid": "1257097",
    "final_x": "3670882.20014",
    "final_y": "521424.252409",
    "longitude": "-90.10194018463818",
    "latitude": "29.928053770998776",
    "geocoded_column": {
      "latitude": "29.928053770998776",
      "longitude": "-90.10194018463818"
    }
  },
  {
    "service_request": "2026-1257096",
    "request_type": "Abandoned Vehicles",
    "request_reason": "Abandoned/Junk Vehicles",
    "date_created": "2026-02-06T16:36:24.000",
    "date_modified": "2026-02-06T16:36:27.000",
    "request_status": "Pending",
    "responsible_agency": "Department of Public Works",
    "final_address": "2900 BLK Dryades St",
    "address_councildis": "B",
    "status": "Pending",
    "rowid": "1257096",
    "final_x": "3674770.78461",
    "final_y": "523076.345367",
    "longitude": "-90.08960818628212",
    "latitude": "29.93248101176539",
    "geocoded_column": {
      "latitude": "29.93248101176539",
      "longitude": "-90.08960818628212"
    }
  },
  {
    "service_request": "2026-1257095",
    "request_type": "Streetlights",
    "request_reason": "Streetlight Outage/Malfunction",
    "date_created": "2026-02-06T16:33:47.000",
    "date_modified": "2026-02-06T16:33:48.000",
    "request_status": "Pending",
    "responsible_agency": "Department of Public Works",
    "final_address": "627 Ursulines Ave",
    "address_councildis": "C",
    "status": "Pending",
    "rowid": "1257095",
    "final_x": "3683547.06786",
    "final_y": "533570.952581",
    "longitude": "-90.06153454627135",
    "latitude": "29.961072788621696",
    "geocoded_column": {
      "latitude": "29.961072788621696",
      "longitude": "-90.06153454627135"
    }
  },
  {
    "service_request": "2026-1257094",
    "request_type": "Roads and Streets",
    "request_reason": "Abandoned Service Cut",
    "date_created": "2026-02-06T16:33:33.000",
    "date_modified": "2026-02-06T16:33:35.000",
    "request_status": "Pending",
    "responsible_agency": "Department of Public Works",
    "final_address": "1300 Montegut St",
    "address_councildis": "C",
    "status": "Pending",
    "rowid": "1257094",
    "final_x": "3688596.72604",
    "final_y": "536921.995144",
    "longitude": "-90.04546976328999",
    "latitude": "29.970131908658484",
    "geocoded_column": {
      "latitude": "29.970131908658484",
      "longitude": "-90.04546976328999"
    }
  },
  {
    "service_request": "2026-1257093",
    "request_type": "Trash/Recycling",
    "request_reason": "Request a Large Item Pick Up",
    "date_created": "2026-02-06T16:29:27.000",
    "date_modified": "2026-02-06T16:29:29.000",
    "request_status": "Pending",
    "responsible_agency": "Department of Sanitation",
    "final_address": "7126 E Hermes St",
    "address_councildis": "D",
    "status": "Assigned to Contractor",
    "contractor": "Waste Pro",
    "rowid": "1257093",
    "final_x": "3697250.34679",
    "final_y": "557268.283035",
    "longitude": "-90.01740295411135",
    "latitude": "30.025806405381054",
    "geocoded_column": {
      "latitude": "30.025806405381054",
      "longitude": "-90.01740295411135"
    }
  },
  {
    "service_request": "2026-1257092",
    "request_type": "Trash/Recycling",
    "request_reason": "Request a Large Item Pick Up",
    "date_created": "2026-02-06T16:20:45.000",
    "date_modified": "2026-02-06T16:20:47.000",
    "request_status": "Pending",
    "responsible_agency": "Department of Sanitation",
    "final_address": "14000 Linden St",
    "address_councildis": "E",
    "status": "Assigned to Contractor",
    "contractor": "Waste Pro",
    "rowid": "1257092",
    "final_x": "3718372.08319",
    "final_y": "572376.049705",
    "longitude": "-89.95008563198658",
    "latitude": "30.066662683650527",
    "geocoded_column": {
      "latitude": "30.066662683650527",
      "longitude": "-89.95008563198658"
    }
  },
  {
    "service_request": "2026-1257091",
    "request_type": "General Services",
    "request_reason": "General Service Request",
    "date_created": "2026-02-06T16:18:45.000",
    "date_modified": "2026-02-06T16:18:47.000",
    "request_status": "Pending",
    "responsible_agency": "Orleans Parish Communication District",
    "final_address": "1301 Clouet St",
    "address_councildis": "C",
    "status": "Pending",
    "rowid": "1257091",
    "final_x": "3689271.92054",
    "final_y": "536822.90772",
    "longitude": "-90.04334095899789",
    "latitude": "29.96983856912688",
    "geocoded_column": {
      "latitude": "29.96983856912688",
      "longitude": "-90.04334095899789"
    }
  },
  {
    "service_request": "2026-1257090",
    "request_type": "Streetlights",
    "request_reason": "Streetlight Outage/Malfunction",
    "date_created": "2026-02-06T16:18:25.000",
    "date_modified": "2026-02-06T16:18:26.000",
    "request_status": "Pending",
    "responsible_agency": "Department of Public Works",
    "final_address": "5820 Winchester Park Dr",
    "address_councildis": "E",
    "status": "Pending",
    "rowid": "1257090",
    "final_x": "3715058.20696",
    "final_y": "562196.537439",
    "longitude": "-89.96094662193268",
    "latitude": "30.03878277619461",
    "geocoded_column": {
      "latitude": "30.03878277619461",
      "longitude": "-89.96094662193268"
    }
  },
  {
    "service_request": "2026-1257089",
    "request_type": "Abandoned Vehicles",
    "request_reason": "Abandoned/Junk Vehicles",
    "date_created": "2026-02-06T16:14:20.000",
    "date_modified": "2026-02-06T16:14:21.000",
    "request_status": "Pending",
    "responsible_agency": "Department of Public Works",
    "final_address": "2500 Bayou Rd",
    "address_councildis": "D",
    "status": "Pending",
    "rowid": "1257089",
    "final_x": "3678817.83317",
    "final_y": "538913.07905",
    "longitude": "-90.07628353538173",
    "latitude": "29.975905294865406",
    "geocoded_column": {
      "latitude": "29.975905294865406",
      "longitude": "-90.07628353538173"
    }
  },
  {
    "service_request": "2026-1257088",
    "request_type": "Trash/Recycling",
    "request_reason": "Request a Large Item Pick Up",
    "date_created": "2026-02-06T16:12:30.000",
    "date_modified": "2026-02-06T16:12:32.000",
    "request_status": "Pending",
    "responsible_agency": "Department of Sanitation",
    "final_address": "8621 Palm St",
    "address_councildis": "A",
    "status": "Assigned to Contractor",
    "contractor": "IV Waste",
    "rowid": "1257088",
    "final_x": "3666292.97434",
    "final_y": "536060.753671",
    "longitude": "-90.11593648300584",
    "latitude": "29.968434221178466",
    "geocoded_column": {
      "latitude": "29.968434221178466",
      "longitude": "-90.11593648300584"
    }
  },
  {
    "service_request": "2026-1257087",
    "request_type": "Trash/Recycling",
    "request_reason": "Order Second Trash Cart",
    "date_created": "2026-02-06T16:09:46.000",
    "date_modified": "2026-02-06T16:09:47.000",
    "request_status": "Pending",
    "responsible_agency": "Department of Sanitation",
    "final_address": "1747 N Miro St",
    "address_councildis": "D",
    "status": "Assigned to Contractor",
    "contractor": "IV Waste",
    "rowid": "1257087",
    "final_x": "3681358.50684",
    "final_y": "540125.860363",
    "longitude": "-90.06821707679629",
    "latitude": "29.979163137329575",
    "geocoded_column": {
      "latitude": "29.979163137329575",
      "longitude": "-90.06821707679629"
    }
  },
  {
    "service_request": "2026-1257086",
    "request_type": "Trash/Recycling",
    "request_reason": "Missed Trash Pick-Up",
    "date_created": "2026-02-06T16:08:13.000",
    "date_modified": "2026-02-06T16:08:15.000",
    "request_status": "Pending",
    "responsible_agency": "Department of Sanitation",
    "final_address": "938 Jourdan Ave",
    "address_councildis": "E",
    "status": "Assigned to Contractor",
    "contractor": "Waste Pro",
    "rowid": "1257086",
    "final_x": "3694814.05283",
    "final_y": "534034.842821",
    "longitude": "-90.02593893329619",
    "latitude": "29.9619996542102",
    "geocoded_column": {
      "latitude": "29.9619996542102",
      "longitude": "-90.02593893329619"
    }
  },
  {
    "service_request": "2026-1257085",
    "request_type": "Trash/Recycling",
    "request_reason": "Order Recycling Cart",
    "date_created": "2026-02-06T16:05:08.000",
    "date_modified": "2026-02-06T16:05:10.000",
    "request_status": "Pending",
    "responsible_agency": "Department of Sanitation",
    "final_address": "4119 N Claiborne Ave",
    "address_councildis": "D",
    "status": "Pending",
    "rowid": "1257085",
    "final_x": "3692750.11517",
    "final_y": "537092.379144",
    "longitude": "-90.03234687750223",
    "latitude": "29.970471391604484",
    "geocoded_column": {
      "latitude": "29.970471391604484",
      "longitude": "-90.03234687750223"
    }
  },
  {
    "service_request": "2026-1257084",
    "request_type": "Trash/Recycling",
    "request_reason": "Order Recycling Cart",
    "date_created": "2026-02-06T16:04:07.000",
    "date_modified": "2026-02-06T16:04:09.000",
    "request_status": "Pending",
    "responsible_agency": "Department of Sanitation",
    "final_address": "4117 N Claiborne Ave",
    "address_councildis": "D",
    "status": "Pending",
    "rowid": "1257084",
    "final_x": "3692739.69853",
    "final_y": "537096.719368",
    "longitude": "-90.03237961867578",
    "latitude": "29.970483650880702",
    "geocoded_column": {
      "latitude": "29.970483650880702",
      "longitude": "-90.03237961867578"
    }
  },
  {
    "service_request": "2026-1257083",
    "request_type": "Trash/Recycling",
    "request_reason": "Request a Large Item Pick Up",
    "date_created": "2026-02-06T15:55:53.000",
    "date_modified": "2026-02-06T15:55:57.000",
    "request_status": "Pending",
    "responsible_agency": "Department of Sanitation",
    "final_address": "7210 Voyageur Dr",
    "address_councildis": "E",
    "status": "Assigned to Contractor",
    "contractor": "Waste Pro",
    "rowid": "1257083",
    "final_x": "3726632.56326",
    "final_y": "568839.051429",
    "longitude": "-89.92411082951509",
    "latitude": "30.05666066194751",
    "geocoded_column": {
      "latitude": "30.05666066194751",
      "longitude": "-89.92411082951509"
    }
  },
  {
    "service_request": "2026-1257082",
    "request_type": "Trash/Recycling",
    "request_reason": "Order Second Trash Cart",
    "date_created": "2026-02-06T15:54:53.000",
    "date_modified": "2026-02-06T15:55:03.000",
    "request_status": "Pending",
    "responsible_agency": "Department of Sanitation",
    "final_address": "1129 Allen Toussaint Blvd",
    "address_councildis": "D",
    "status": "Assigned to Contractor",
    "contractor": "IV Waste",
    "rowid": "1257082",
    "final_x": "3674908.13467",
    "final_y": "554879.7302",
    "longitude": "-90.08808347430332",
    "latitude": "30.01992534352437",
    "geocoded_column": {
      "latitude": "30.01992534352437",
      "longitude": "-90.08808347430332"
    }
  },
  {
    "service_request": "2026-1257081",
    "request_type": "Abandoned Vehicles",
    "request_reason": "Abandoned/Junk Vehicles",
    "date_created": "2026-02-06T15:54:21.000",
    "date_modified": "2026-02-06T15:54:23.000",
    "request_status": "Pending",
    "responsible_agency": "Department of Public Works",
    "final_address": "719 Desire St",
    "address_councildis": "C",
    "status": "Pending",
    "rowid": "1257081",
    "final_x": "3689907.17865",
    "final_y": "534358.634373",
    "longitude": "-90.04142250575885",
    "latitude": "29.963043000816846",
    "geocoded_column": {
      "latitude": "29.963043000816846",
      "longitude": "-90.04142250575885"
    }
  },
  {
    "service_request": "2026-1257080",
    "request_type": "Abandoned Vehicles",
    "request_reason": "Abandoned/Junk Vehicles",
    "date_created": "2026-02-06T15:43:00.000",
    "date_modified": "2026-02-06T15:43:01.000",
    "request_status": "Pending",
    "responsible_agency": "Department of Public Works",
    "final_address": "724 Desire St",
    "address_councildis": "C",
    "status": "Pending",
    "rowid": "1257080",
    "final_x": "3689815.99401",
    "final_y": "534405.553157",
    "longitude": "-90.0417087847128",
    "latitude": "29.963174837668397",
    "geocoded_column": {
      "latitude": "29.963174837668397",
      "longitude": "-90.0417087847128"
    }
  },
  {
    "service_request": "2026-1257079",
    "request_type": "Trash/Recycling",
    "request_reason": "Request a Large Item Pick Up",
    "date_created": "2026-02-06T15:41:31.000",
    "date_modified": "2026-02-06T15:41:33.000",
    "request_status": "Pending",
    "responsible_agency": "Department of Sanitation",
    "final_address": "11140 Woodvine Ln",
    "address_councildis": "E",
    "status": "Assigned to Contractor",
    "contractor": "Waste Pro",
    "rowid": "1257079",
    "final_x": "3716218.03666",
    "final_y": "559596.455645",
    "longitude": "-89.9573799524483",
    "latitude": "30.03159535108372",
    "geocoded_column": {
      "latitude": "30.03159535108372",
      "longitude": "-89.9573799524483"
    }
  },
  {
    "service_request": "2026-1257078",
    "request_type": "General Services",
    "request_reason": "General Service Request",
    "date_created": "2026-02-06T15:40:20.000",
    "date_modified": "2026-02-06T15:40:22.000",
    "request_status": "Pending",
    "responsible_agency": "Orleans Parish Communication District",
    "final_address": "1300 Perdido St",
    "address_councildis": "B",
    "status": "Pending",
    "rowid": "1257078",
    "final_x": "3678683.48347",
    "final_y": "530227.987073",
    "longitude": "-90.07700859883013",
    "latitude": "29.952028297123956",
    "geocoded_column": {
      "latitude": "29.952028297123956",
      "longitude": "-90.07700859883013"
    }
  },
  {
    "service_request": "2026-1257077",
    "request_type": "Property Maintenance",
    "request_reason": "Property Maintenance",
    "date_created": "2026-02-06T15:38:27.000",
    "date_modified": "2026-02-06T15:58:33.000",
    "request_status": "Pending",
    "responsible_agency": "Department of Code Enforcement",
    "final_address": "4946 Warren Dr",
    "address_councildis": "E",
    "status": "Pending",
    "rowid": "1257077",
    "final_x": "3713279.72498",
    "final_y": "557326.303387",
    "longitude": "-89.96675062100451",
    "latitude": "30.025450023876502",
    "geocoded_column": {
      "latitude": "30.025450023876502",
      "longitude": "-89.96675062100451"
    }
  },
  {
    "service_request": "2026-1257076",
    "request_type": "Streetlights",
    "request_reason": "Streetlight Outage/Malfunction",
    "date_created": "2026-02-06T15:37:41.000",
    "date_modified": "2026-02-06T15:37:43.000",
    "request_status": "Pending",
    "responsible_agency": "Department of Public Works",
    "final_address": "4400 BLK Perlita St",
    "address_councildis": "D",
    "status": "Pending",
    "rowid": "1257076",
    "final_x": "3678770.52398",
    "final_y": "548894.323259",
    "longitude": "-90.07608706586066",
    "latitude": "30.003351646003107",
    "geocoded_column": {
      "latitude": "30.003351646003107",
      "longitude": "-90.07608706586066"
    }
  },
  {
    "service_request": "2026-1257075",
    "request_type": "Trash/Recycling",
    "request_reason": "Request a Large Item Pick Up",
    "date_created": "2026-02-06T15:23:50.000",
    "date_modified": "2026-02-06T15:23:52.000",
    "request_status": "Pending",
    "responsible_agency": "Department of Sanitation",
    "final_address": "6132 Constance St",
    "address_councildis": "A",
    "status": "Assigned to Contractor",
    "contractor": "IV Waste",
    "rowid": "1257075",
    "final_x": "3663813.7152",
    "final_y": "519142.300087",
    "longitude": "-90.12432988809304",
    "latitude": "29.92198609686308",
    "geocoded_column": {
      "latitude": "29.92198609686308",
      "longitude": "-90.12432988809304"
    }
  },
  {
    "service_request": "2026-1257074",
    "request_type": "Trash/Recycling",
    "request_reason": "Illegal Dumping",
    "date_created": "2026-02-06T15:21:57.000",
    "date_modified": "2026-02-06T15:36:58.000",
    "request_status": "Pending",
    "responsible_agency": "Department of Sanitation",
    "final_address": "8900 Old Gentilly Rd",
    "address_councildis": "E",
    "status": "Pending",
    "rowid": "1257074",
    "final_x": "3708682.29163",
    "final_y": "552619.300822",
    "longitude": "-89.98145318769768",
    "latitude": "30.012657560264174",
    "geocoded_column": {
      "latitude": "30.012657560264174",
      "longitude": "-89.98145318769768"
    }
  },
  {
    "service_request": "2026-1257073",
    "request_type": "Drainage",
    "request_reason": "Catch Basin Not Draining",
    "date_created": "2026-02-06T15:20:32.000",
    "date_modified": "2026-02-06T15:20:34.000",
    "request_status": "Pending",
    "responsible_agency": "Sewerage & Water Board",
    "final_address": "2100 Milton St",
    "address_councildis": "D",
    "status": "Pending",
    "rowid": "1257073",
    "final_x": "3683726.92277",
    "final_y": "546547.255185",
    "longitude": "-90.06051142044791",
    "latitude": "29.99674758624791",
    "geocoded_column": {
      "latitude": "29.99674758624791",
      "longitude": "-90.06051142044791"
    }
  },
  {
    "service_request": "2026-1257072",
    "request_type": "Utility Poles",
    "request_reason": "Wires Sagging/Hanging Low",
    "date_created": "2026-02-06T15:12:10.000",
    "date_modified": "2026-02-06T15:12:12.000",
    "request_status": "Pending",
    "responsible_agency": "Utility Company Collective",
    "final_address": "2604 General Pershing St",
    "address_councildis": "B",
    "status": "Pending",
    "rowid": "1257072",
    "final_x": "3670851.29236",
    "final_y": "524505.28838",
    "longitude": "-90.10193322985418",
    "latitude": "29.93652654224942",
    "geocoded_column": {
      "latitude": "29.93652654224942",
      "longitude": "-90.10193322985418"
    }
  },
  {
    "service_request": "2026-1257071",
    "request_type": "Trash/Recycling",
    "request_reason": "Request a Large Item Pick Up",
    "date_created": "2026-02-06T15:11:49.000",
    "date_modified": "2026-02-06T15:11:51.000",
    "request_status": "Pending",
    "responsible_agency": "Department of Sanitation",
    "final_address": "822 Flood St",
    "address_councildis": "E",
    "status": "Assigned to Contractor",
    "contractor": "Waste Pro",
    "rowid": "1257071",
    "final_x": "3697402.1128",
    "final_y": "532844.770564",
    "longitude": "-90.01780943096678",
    "latitude": "29.958645927513004",
    "geocoded_column": {
      "latitude": "29.958645927513004",
      "longitude": "-90.01780943096678"
    }
  },
  {
    "service_request": "2026-1257070",
    "request_type": "Drainage",
    "request_reason": "Drainage Manhole Cover Missing or Damaged",
    "date_created": "2026-02-06T15:04:51.000",
    "date_modified": "2026-02-06T15:04:53.000",
    "request_status": "Pending",
    "responsible_agency": "Sewerage & Water Board",
    "final_address": "100 BLK S Saratoga St",
    "address_councildis": "B",
    "status": "Pending",
    "rowid": "1257070",
    "final_x": "3679469.49437",
    "final_y": "531684.19659",
    "longitude": "-90.07447623050955",
    "latitude": "29.95600866281603",
    "geocoded_column": {
      "latitude": "29.95600866281603",
      "longitude": "-90.07447623050955"
    }
  },
  {
    "service_request": "2026-1257069",
    "request_type": "Traffic Signals",
    "request_reason": "Traffic Signal Malfunctioning or Damaged",
    "date_created": "2026-02-06T15:04:34.000",
    "date_modified": "2026-02-06T15:04:36.000",
    "request_status": "Pending",
    "responsible_agency": "Department of Public Works",
    "final_address": "400 Calliope St Lot D-E-F",
    "address_councildis": "B",
    "status": "Pending",
    "rowid": "1257069",
    "final_x": "3682430.7309",
    "final_y": "525188.131517",
    "longitude": "-90.06535266110208",
    "latitude": "29.93805688346651",
    "geocoded_column": {
      "latitude": "29.93805688346651",
      "longitude": "-90.06535266110208"
    }
  },