[
  {
    "service_request": "2026-1266456",
    "request_type": "Parks & Parkways",
    "request_reason": "Request Tree Service (Right of Way/Public Property)",
    "date_created": "2026-03-17T23:11:09.000",
    "date_modified": "2026-03-17T23:11:10.000",
    "request_status": "Pending",
    "responsible_agency": "Department of Parks & Parkway",
    "final_address": "72 Fontainebleau Dr",
    "address_councildis": "A",
    "status": "Pending",
    "rowid": "1266456",
    "final_x": "3666748.16039",
    "final_y": "530765.036738",
    "longitude": "-90.1146768470918",
    "latitude": "29.95385943714382",
    "geocoded_column": {
      "latitude": "29.95385943714382",
      "longitude": "-90.1146768470918"
    }
  },
  {
    "service_request": "2026-1266455",
    "request_type": "Trash/Recycling",
    "request_reason": "Order Recycling Cart",
    "date_created": "2026-03-17T22:42:57.000",
    "date_modified": "2026-03-17T22:42:58.000",
    "request_status": "Pending",
    "responsible_agency": "Department of Sanitation",
    "final_address": "3648 Inwood Ave",
    "address_councildis": "C",
    "status": "Pending",
    "rowid": "1266455",
    "final_x": "3704113.71108",
    "final_y": "515037.895923",
    "longitude": "-89.99727175428404",
    "latitude": "29.90946968325286",
    "geocoded_column": {
      "latitude": "29.90946968325286",
      "longitude": "-89.99727175428404"
    }
  },
  {
    "service_request": "2026-1266454",
    "request_type": "Parks & Parkways",
    "request_reason": "Request Tree Service (Right of Way/Public Property)",
    "date_created": "2026-03-17T22:41:58.000",
    "date_modified": "2026-03-17T22:42:00.000",
    "request_status": "Pending",
    "responsible_agency": "Department of Parks & Parkway",
    "final_address": "717 Valence St",
    "address_councildis": "B",
    "status": "Pending",
    "rowid": "1266454",
    "final_x": "3670048.5442",
    "final_y": "518103.400886",
    "longitude": "-90.10468426134845",
    "latitude": "29.91894709274877",
    "geocoded_column": {
      "latitude": "29.91894709274877",
      "longitude": "-90.10468426134845"
    }
  },
  {
    "service_request": "2026-1266453",
    "request_type": "Trash/Recycling",
    "request_reason": "Request a Large Item Pick Up",
    "date_created": "2026-03-17T22:12:03.000",
    "date_modified": "2026-03-17T22:12:05.000",
    "request_status": "Pending",
    "responsible_agency": "Department of Sanitation",
    "final_address": "503 Warrington Dr",
    "address_councildis": "D",
    "status": "Assigned to Contractor",
    "contractor": "IV Waste",
    "rowid": "1266453",
    "final_x": "3681434.69231",
    "final_y": "548460.884306",
    "longitude": "-90.06768567596386",
    "latitude": "30.002079197581367",
    "geocoded_column": {
      "latitude": "30.002079197581367",
      "longitude": "-90.06768567596386"
    }
  },
  {
    "service_request": "2026-1266452",
    "request_type": "Trash/Recycling",
    "request_reason": "Order Recycling Cart",
    "date_created": "2026-03-17T22:01:45.000",
    "date_modified": "2026-03-17T22:01:48.000",
    "request_status": "Pending",
    "responsible_agency": "Department of Sanitation",
    "final_address": "4524 Loyola Ave",
    "address_councildis": "B",
    "status": "Pending",
    "rowid": "1266452",
    "final_x": "3669980.72455",
    "final_y": "522896.221883",
    "longitude": "-90.10473612247968",
    "latitude": "29.93212782344512",
    "geocoded_column": {
      "latitude": "29.93212782344512",
      "longitude": "-90.10473612247968"
    }
  },
  {
    "service_request": "2026-1266451",
    "request_type": "Trash/Recycling",
    "request_reason": "Request a Large Item Pick Up",
    "date_created": "2026-03-17T21:53:40.000",
    "date_modified": "2026-03-17T21:53:43.000",
    "request_status": "Pending",
    "responsible_agency": "Department of Sanitation",
    "final_address": "4860 Alcee Fortier Blvd",
    "address_councildis": "E",
    "status": "Assigned to Contractor",
    "contractor": "Waste Pro",
    "rowid": "1266451",
    "final_x": "3730207.67347",
    "final_y": "562610.185376",
    "longitude": "-89.91305468788939",
    "latitude": "30.039412523807478",
    "geocoded_column": {
      "latitude": "30.039412523807478",
      "longitude": "-89.91305468788939"
    }
  },
  {
    "service_request": "2026-1266450",
    "request_type": "Roads and Streets",
    "request_reason": "Debris in Driving Lanes",
    "date_created": "2026-03-17T21:48:54.000",
    "date_modified": "2026-03-17T21:48:56.000",
    "request_status": "Pending",
    "responsible_agency": "Department of Public Works",
    "final_address": "3800 Magellan St",
    "address_councildis": "C",
    "status": "Pending",
    "rowid": "1266450",
    "final_x": "3698212.95479",
    "final_y": "524288.330172",
    "longitude": "-90.01555974958391",
    "latitude": "29.935093090087246",
    "geocoded_column": {
      "latitude": "29.935093090087246",
      "longitude": "-90.01555974958391"
    }
  },
  {
    "service_request": "2026-1266449",
    "request_type": "Trash/Recycling",
    "request_reason": "Order Second Trash Cart",
    "date_created": "2026-03-17T21:43:06.000",
    "date_modified": "2026-03-17T21:43:13.000",
    "request_status": "Pending",
    "responsible_agency": "Department of Sanitation",
    "final_address": "1421 Harmony St",
    "address_councildis": "B",
    "status": "Assigned to Contractor",
    "contractor": "IV Waste",
    "rowid": "1266449",
    "final_x": "3675258.46203",
    "final_y": "521119.529081",
    "longitude": "-90.08813576137923",
    "latitude": "29.9270858375576",
    "geocoded_column": {
      "latitude": "29.9270858375576",
      "longitude": "-90.08813576137923"
    }
  },
  {
    "service_request": "2026-1266448",
    "request_type": "Trash/Recycling",
    "request_reason": "Order Recycling Cart",
    "date_created": "2026-03-17T21:28:28.000",
    "date_modified": "2026-03-17T21:28:31.000",
    "request_status": "Pending",
    "responsible_agency": "Department of Sanitation",
    "final_address": "4630 Laurel St",
    "address_councildis": "B",
    "status": "Pending",
    "rowid": "1266448",
    "final_x": "3670126.72263",
    "final_y": "517912.127606",
    "longitude": "-90.10444396683002",
    "latitude": "29.918418846462952",
    "geocoded_column": {
      "latitude": "29.918418846462952",
      "longitude": "-90.10444396683002"
    }
  },
  {
    "service_request": "2026-1266447",
    "request_type": "Streetlights",
    "request_reason": "Streetlight Outage/Malfunction",
    "date_created": "2026-03-17T21:13:43.000",
    "date_modified": "2026-03-17T21:13:45.000",
    "request_status": "Pending",
    "responsible_agency": "Department of Public Works",
    "final_address": "7040 Coliseum St",
    "address_councildis": "A",
    "status": "Pending",
    "rowid": "1266447",
    "final_x": "3661608.85203",
    "final_y": "521943.33209",
    "longitude": "-90.13119699024115",
    "latitude": "29.929751845778004",
    "geocoded_column": {
      "latitude": "29.929751845778004",
      "longitude": "-90.13119699024115"
    }
  },
  {
    "service_request": "2026-1266446",
    "request_type": "Trash/Recycling",
    "request_reason": "Request a Large Item Pick Up",
    "date_created": "2026-03-17T20:51:42.000",
    "date_modified": "2026-03-17T20:51:44.000",
    "request_status": "Pending",
    "responsible_agency": "Department of Sanitation",
    "final_address": "3953 Peach Tree Ct",
    "address_councildis": "C",
    "status": "Assigned to Contractor",
    "contractor": "Richards Disposal",
    "rowid": "1266446",
    "final_x": "3704207.11972",
    "final_y": "512837.160433",
    "longitude": "-89.99705794465588",
    "latitude": "29.90341541555236",
    "geocoded_column": {
      "latitude": "29.90341541555236",
      "longitude": "-89.99705794465588"
    }
  },
  {
    "service_request": "2026-1266445",
    "request_type": "Trash/Recycling",
    "request_reason": "Order Recycling Cart",
    "date_created": "2026-03-17T20:42:51.000",
    "date_modified": "2026-03-17T20:42:53.000",
    "request_status": "Pending",
    "responsible_agency": "Department of Sanitation",
    "final_address": "6613 Memphis St",
    "address_councildis": "A",
    "status": "Pending",
    "rowid": "1266445",
    "final_x": "3669663.29236",
    "final_y": "551443.707285",
    "longitude": "-90.10477194963022",
    "latitude": "30.010633178931162",
    "geocoded_column": {
      "latitude": "30.010633178931162",
      "longitude": "-90.10477194963022"
    }
  },
  {
    "service_request": "2026-1266444",
    "request_type": "Trash/Recycling",
    "request_reason": "Order Trash Cart",
    "date_created": "2026-03-17T20:26:47.000",
    "date_modified": "2026-03-17T20:26:49.000",
    "request_status": "Pending",
    "responsible_agency": "Department of Sanitation",
    "final_address": "2147 Holiday Dr",
    "address_councildis": "C",
    "status": "Assigned to Contractor",
    "contractor": "Richards Disposal",
    "rowid": "1266444",
    "final_x": "3698811.97917",
    "final_y": "523219.578171",
    "longitude": "-90.01370750205946",
    "latitude": "29.9321354352877",
    "geocoded_column": {
      "latitude": "29.9321354352877",
      "longitude": "-90.01370750205946"
    }
  },
  {
    "service_request": "2026-1266443",
    "request_type": "Trash/Recycling",
    "request_reason": "Request a Large Item Pick Up",
    "date_created": "2026-03-17T20:25:48.000",
    "date_modified": "2026-03-17T20:25:49.000",
    "request_status": "Pending",
    "responsible_agency": "Department of Sanitation",
    "final_address": "4603 Arts St",
    "address_councildis": "D",
    "status": "Assigned to Contractor",
    "contractor": "IV Waste",
    "rowid": "1266443",
    "final_x": "3686075.61398",
    "final_y": "549639.599188",
    "longitude": "-90.05298289541811",
    "latitude": "30.00517846870325",
    "geocoded_column": {
      "latitude": "30.00517846870325",
      "longitude": "-90.05298289541811"
    }
  },
  {
    "service_request": "2026-1266442",
    "request_type": "Trash/Recycling",
    "request_reason": "Request a Large Item Pick Up",
    "date_created": "2026-03-17T20:24:22.000",
    "date_modified": "2026-03-17T20:24:24.000",
    "request_status": "Pending",
    "responsible_agency": "Department of Sanitation",
    "final_address": "6328 Annunciation St",
    "address_councildis": "A",
    "status": "Assigned to Contractor",
    "contractor": "IV Waste",
    "rowid": "1266442",
    "final_x": "3662699.03539",
    "final_y": "518456.263478",
    "longitude": "-90.12787126339161",
    "latitude": "29.920132002180992",
    "geocoded_column": {
      "latitude": "29.920132002180992",
      "longitude": "-90.12787126339161"
    }
  },
  {
    "service_request": "2026-1266441",
    "request_type": "Trash/Recycling",
    "request_reason": "Return Trash Cart",
    "date_created": "2026-03-17T20:07:05.000",
    "date_modified": "2026-03-17T20:07:08.000",
    "request_status": "Pending",
    "responsible_agency": "Department of Sanitation",
    "final_address": "3153 State Street Dr",
    "address_councildis": "A",
    "status": "Assigned to Contractor",
    "contractor": "IV Waste",
    "rowid": "1266441",
    "final_x": "3667591.66381",
    "final_y": "527971.220607",
    "longitude": "-90.1121074226305",
    "latitude": "29.94615265792306",
    "geocoded_column": {
      "latitude": "29.94615265792306",
      "longitude": "-90.1121074226305"
    }
  },
  {
    "service_request": "2026-1266440",
    "request_type": "Trash/Recycling",
    "request_reason": "Request a Large Item Pick Up",
    "date_created": "2026-03-17T20:02:16.000",
    "date_modified": "2026-03-17T20:02:19.000",
    "request_status": "Pending",
    "responsible_agency": "Department of Sanitation",
    "final_address": "2933 St Philip St",
    "address_councildis": "A",
    "status": "Assigned to Contractor",
    "contractor": "IV Waste",
    "rowid": "1266440",
    "final_x": "3676492.44987",
    "final_y": "538670.491337",
    "longitude": "-90.08363612254765",
    "latitude": "29.975308202616628",
    "geocoded_column": {
      "latitude": "29.975308202616628",
      "longitude": "-90.08363612254765"
    }
  },
  {
    "service_request": "2026-1266439",
    "request_type": "Trash/Recycling",
    "request_reason": "Request a Large Item Pick Up",
    "date_created": "2026-03-17T19:56:05.000",
    "date_modified": "2026-03-17T19:56:07.000",
    "request_status": "Pending",
    "responsible_agency": "Department of Sanitation",
    "final_address": "7730 St Charles Ave",
    "address_councildis": "A",
    "status": "Assigned to Contractor",
    "contractor": "IV Waste",
    "rowid": "1266439",
    "final_x": "3661430.78752",
    "final_y": "525963.224701",
    "longitude": "-90.13162602334448",
    "latitude": "29.94081041916",
    "geocoded_column": {
      "latitude": "29.94081041916",
      "longitude": "-90.13162602334448"
    }
  },
  {
    "service_request": "2026-1266438",
    "request_type": "Abandoned Vehicles",
    "request_reason": "Abandoned/Junk Vehicles",
    "date_created": "2026-03-17T19:17:21.000",
    "date_modified": "2026-03-17T19:17:24.000",
    "request_status": "Pending",
    "responsible_agency": "Department of Public Works",
    "final_address": "3126 Dauphine St",
    "address_councildis": "C",
    "status": "Pending",
    "rowid": "1266438",
    "final_x": "3688935.22588",
    "final_y": "534760.744262",
    "longitude": "-90.04447752256405",
    "latitude": "29.964178759365762",
    "geocoded_column": {
      "latitude": "29.964178759365762",
      "longitude": "-90.04447752256405"
    }
  },
  {
    "service_request": "2026-1266437",
    "request_type": "General Services",
    "request_reason": "General Service Request",
    "date_created": "2026-03-17T19:00:55.000",
    "date_modified": "2026-03-17T19:00:57.000",
    "request_status": "Pending",
    "responsible_agency": "Orleans Parish Communication District",
    "final_address": "3141 Ponce De Leon St",
    "address_councildis": "A",
    "status": "Pending",
    "rowid": "1266437",
    "final_x": "3676280.52334",
    "final_y": "540562.560011",
    "longitude": "-90.08424030237236",
    "latitude": "29.9805170951782",
    "geocoded_column": {
      "latitude": "29.9805170951782",
      "longitude": "-90.08424030237236"
    }
  },
  {
    "service_request": "2026-1266436",
    "request_type": "Trash/Recycling",
    "request_reason": "Order Recycling Cart",
    "date_created": "2026-03-17T18:52:09.000",
    "date_modified": "2026-03-17T18:52:11.000",
    "request_status": "Pending",
    "responsible_agency": "Department of Sanitation",
    "final_address": "5581 Milne St",
    "address_councildis": "A",
    "status": "Pending",
    "rowid": "1266436",
    "final_x": "3666826.11047",
    "final_y": "544526.144719",
    "longitude": "-90.1139683107116",
    "latitude": "29.991695610528783",
    "geocoded_column": {
      "latitude": "29.991695610528783",
      "longitude": "-90.1139683107116"
    }
  },
  {
    "service_request": "2026-1266435",
    "request_type": "Abandoned Vehicles",
    "request_reason": "Abandoned/Junk Vehicles",
    "date_created": "2026-03-17T18:49:26.000",
    "date_modified": "2026-03-17T18:49:28.000",
    "request_status": "Pending",
    "responsible_agency": "Department of Public Works",
    "final_address": "4400 Canal St",
    "address_councildis": "A",
    "status": "Pending",
    "rowid": "1266435",
    "final_x": "3669921.30778",
    "final_y": "539132.76897",
    "longitude": "-90.10437394188354",
    "latitude": "29.976774734441904",
    "geocoded_column": {
      "latitude": "29.976774734441904",
      "longitude": "-90.10437394188354"
    }
  },
  {
    "service_request": "2026-1266434",
    "request_type": "Streetlights",
    "request_reason": "Streetlight Outage/Malfunction",
    "date_created": "2026-03-17T18:45:40.000",
    "date_modified": "2026-03-17T18:45:42.000",
    "request_status": "Pending",
    "responsible_agency": "Department of Public Works",
    "final_address": "2433 George Nick Connor Dr",
    "address_councildis": "D",
    "status": "Pending",
    "rowid": "1266434",
    "final_x": "3681226.5382",
    "final_y": "541106.712268",
    "longitude": "-90.06859969130716",
    "latitude": "29.98186414378612",
    "geocoded_column": {
      "latitude": "29.98186414378612",
      "longitude": "-90.06859969130716"
    }
  },
  {
    "service_request": "2026-1266433",
    "request_type": "Trash/Recycling",
    "request_reason": "Replace Trash Cart",
    "date_created": "2026-03-17T18:42:39.000",
    "date_modified": "2026-03-17T18:42:41.000",
    "request_status": "Pending",
    "responsible_agency": "Department of Sanitation",
    "final_address": "2412 Lark St",
    "address_councildis": "D",
    "status": "Assigned to Contractor",
    "contractor": "IV Waste",
    "rowid": "1266433",
    "final_x": "3684764.70044",
    "final_y": "557834.498267",
    "longitude": "-90.05683592787588",
    "latitude": "30.027751647049946",
    "geocoded_column": {
      "latitude": "30.027751647049946",
      "longitude": "-90.05683592787588"
    }
  },
  {
    "service_request": "2026-1266432",
    "request_type": "Abandoned Vehicles",
    "request_reason": "Abandoned/Junk Vehicles",
    "date_created": "2026-03-17T18:42:02.000",
    "date_modified": "2026-03-17T18:42:04.000",
    "request_status": "Pending",
    "responsible_agency": "Department of Public Works",
    "final_address": "3606 Cleveland Ave",
    "address_councildis": "B",
    "status": "Pending",
    "rowid": "1266432",
    "final_x": "3672243.717",
    "final_y": "536844.005896",
    "longitude": "-90.09711701828621",
    "latitude": "29.970412715765885",
    "geocoded_column": {
      "latitude": "29.970412715765885",
      "longitude": "-90.09711701828621"
    }
  },
  {
    "service_request": "2026-1266431",
    "request_type": "Trash/Recycling",
    "request_reason": "Order Second Trash Cart",
    "date_created": "2026-03-17T18:37:15.000",
    "date_modified": "2026-03-17T18:37:16.000",
    "request_status": "Pending",
    "responsible_agency": "Department of Sanitation",
    "final_address": "2111 Easter Ln",
    "address_councildis": "C",
    "status": "Assigned to Contractor",
    "contractor": "Richards Disposal",
    "rowid": "1266431",
    "final_x": "3699433.48176",
    "final_y": "523582.236603",
    "longitude": "-90.01173228739772",
    "latitude": "29.93311292480641",
    "geocoded_column": {
      "latitude": "29.93311292480641",
      "longitude": "-90.01173228739772"
    }
  },
  {
    "service_request": "2026-1266430",
    "request_type": "Trash/Recycling",
    "request_reason": "Missed Trash Pick-Up",
    "date_created": "2026-03-17T18:32:34.000",
    "date_modified": "2026-03-17T18:32:36.000",
    "request_status": "Pending",
    "responsible_agency": "Department of Sanitation",
    "final_address": "44 Marywood Ct",
    "address_councildis": "E",
    "status": "Assigned to Contractor",
    "contractor": "Waste Pro",
    "rowid": "1266430",
    "final_x": "3712233.94373",
    "final_y": "567025.747748",
    "longitude": "-89.96969035871096",
    "latitude": "30.052153862366005",
    "geocoded_column": {
      "latitude": "30.052153862366005",
      "longitude": "-89.96969035871096"
    }
  },
  {
    "service_request": "2026-1266429",
    "request_type": "Trash/Recycling",
    "request_reason": "Request a Large Item Pick Up",
    "date_created": "2026-03-17T18:21:00.000",
    "date_modified": "2026-03-17T18:21:02.000",
    "request_status": "Pending",
    "responsible_agency": "Department of Sanitation",
    "final_address": "4423 Lancelot Dr",
    "address_councildis": "E",
    "status": "Assigned to Contractor",
    "contractor": "Waste Pro",
    "rowid": "1266429",
    "final_x": "3707699.91006",
    "final_y": "553715.845143",
    "longitude": "-89.98451616330931",
    "latitude": "30.015704466651023",
    "geocoded_column": {
      "latitude": "30.015704466651023",
      "longitude": "-89.98451616330931"
    }
  },
  {
    "service_request": "2026-1266428",
    "request_type": "Trash/Recycling",
    "request_reason": "Request a Large Item Pick Up",
    "date_created": "2026-03-17T18:15:59.000",
    "date_modified": "2026-03-17T18:16:00.000",
    "request_status": "Pending",
    "responsible_agency": "Department of Sanitation",
    "final_address": "415 S Alexander St",
    "address_councildis": "A",
    "status": "Assigned to Contractor",
    "contractor": "IV Waste",
    "rowid": "1266428",
    "final_x": "3669139.80916",
    "final_y": "538106.073993",
    "longitude": "-90.10687687447187",
    "latitude": "29.97397469308735",
    "geocoded_column": {
      "latitude": "29.97397469308735",
      "longitude": "-90.10687687447187"
    }
  },
  {
    "service_request": "2026-1266427",
    "request_type": "Trash/Recycling",
    "request_reason": "Repair Trash Cart",
    "date_created": "2026-03-17T17:55:10.000",
    "date_modified": "2026-03-17T17:55:11.000",
    "request_status": "Pending",
    "responsible_agency": "Department of Sanitation",
    "final_address": "5745 Vermillion Blvd",
    "address_councildis": "D",
    "status": "Assigned to Contractor",
    "contractor": "IV Waste",
    "rowid": "1266427",
    "final_x": "3683271.53448",
    "final_y": "554198.982296",
    "longitude": "-90.06168171197385",
    "latitude": "30.01780097058792",
    "geocoded_column": {
      "latitude": "30.01780097058792",
      "longitude": "-90.06168171197385"
    }
  },
  {
    "service_request": "2026-1266426",
    "request_type": "Trash/Recycling",
    "request_reason": "MIssed Recycling Pick-Up",
    "date_created": "2026-03-17T17:52:09.000",
    "date_modified": "2026-03-17T17:52:11.000",
    "request_status": "Pending",
    "responsible_agency": "Department of Sanitation",
    "final_address": "500 Filmore Ave",
    "address_councildis": "A",
    "status": "Assigned to Contractor",
    "contractor": "IV Waste",
    "rowid": "1266426",
    "final_x": "3668219.58669",
    "final_y": "552002.972886",
    "longitude": "-90.10931431240509",
    "latitude": "30.0122134466364",
    "geocoded_column": {
      "latitude": "30.0122134466364",
      "longitude": "-90.10931431240509"
    }
  },
  {
    "service_request": "2026-1266425",
    "request_type": "Trash/Recycling",
    "request_reason": "Request a Large Item Pick Up",
    "date_created": "2026-03-17T17:38:31.000",
    "date_modified": "2026-03-17T17:38:34.000",
    "request_status": "Pending",
    "responsible_agency": "Department of Sanitation",
    "final_address": "11300 S Parkwood Ct",
    "address_councildis": "E",
    "status": "Assigned to Contractor",
    "contractor": "Waste Pro",
    "rowid": "1266425",
    "final_x": "3716924.78373",
    "final_y": "559068.849116",
    "longitude": "-89.95516667639004",
    "latitude": "30.03012129048611",
    "geocoded_column": {
      "latitude": "30.03012129048611",
      "longitude": "-89.95516667639004"
    }
  },
  {
    "service_request": "2026-1266424",
    "request_type": "Drainage",
    "request_reason": "Catch Basin Not Draining",
    "date_created": "2026-03-17T17:32:05.000",
    "date_modified": "2026-03-17T17:32:07.000",
    "request_status": "Pending",
    "responsible_agency": "Sewerage & Water Board",
    "final_address": "965 Navarre St",
    "address_councildis": "A",
    "status": "Pending",
    "rowid": "1266424",
    "final_x": "3670335.99034",
    "final_y": "543731.92763",
    "longitude": "-90.10290826236762",
    "latitude": "29.98940861754111",
    "geocoded_column": {
      "latitude": "29.98940861754111",
      "longitude": "-90.10290826236762"
    }
  },
  {
    "service_request": "2026-1266423",
    "request_type": "Streetlights",
    "request_reason": "Streetlight Outage/Malfunction",
    "date_created": "2026-03-17T17:30:37.000",
    "date_modified": "2026-03-17T17:30:42.000",
    "request_status": "Pending",
    "responsible_agency": "Department of Public Works",
    "final_address": "2122 Benefit St",
    "address_councildis": "D",
    "status": "Pending",
    "rowid": "1266423",
    "final_x": "3683796.83836",
    "final_y": "544324.496463",
    "longitude": "-90.06036856693578",
    "latitude": "29.990633655990155",
    "geocoded_column": {
      "latitude": "29.990633655990155",
      "longitude": "-90.06036856693578"
    }
  },
  {
    "service_request": "2026-1266422",
    "request_type": "Trash/Recycling",
    "request_reason": "Order Second Trash Cart",
    "date_created": "2026-03-17T17:18:11.000",
    "date_modified": "2026-03-17T17:18:13.000",
    "request_status": "Pending",
    "responsible_agency": "Department of Sanitation",
    "final_address": "1920 Hermosa St",
    "address_councildis": "C",
    "status": "Assigned to Contractor",
    "contractor": "Richards Disposal",
    "rowid": "1266422",
    "final_x": "3687722.49071",
    "final_y": "524342.702012",
    "longitude": "-90.04867607645325",
    "latitude": "29.9355701608099",
    "geocoded_column": {
      "latitude": "29.9355701608099",
      "longitude": "-90.04867607645325"
    }
  },
  {
    "service_request": "2026-1266421",
    "request_type": "Trash/Recycling",
    "request_reason": "Change Size of Trash Cart",
    "date_created": "2026-03-17T17:12:07.000",
    "date_modified": "2026-03-17T17:12:08.000",
    "request_status": "Pending",
    "responsible_agency": "Department of Sanitation",
    "final_address": "5581 Milne St",
    "address_councildis": "A",
    "status": "Assigned to Contractor",
    "contractor": "IV Waste",
    "rowid": "1266421",
    "final_x": "3666826.11047",
    "final_y": "544526.144719",
    "longitude": "-90.1139683107116",
    "latitude": "29.991695610528783",
    "geocoded_column": {
      "latitude": "29.991695610528783",
      "longitude": "-90.1139683107116"
    }
  },
  {
    "service_request": "2026-1266420",
    "request_type": "Trash/Recycling",
    "request_reason": "Request a Large Item Pick Up",
    "date_created": "2026-03-17T17:07:12.000",
    "date_modified": "2026-03-17T17:07:13.000",
    "request_status": "Pending",
    "responsible_agency": "Department of Sanitation",
    "final_address": "3230 Jackson Ave",
    "address_councildis": "B",
    "status": "Assigned to Contractor",
    "contractor": "IV Waste",
    "rowid": "1266420",
    "final_x": "3673746.21217",
    "final_y": "528677.58304",
    "longitude": "-90.0926512142127",
    "latitude": "29.947913123564458",
    "geocoded_column": {
      "latitude": "29.947913123564458",
      "longitude": "-90.0926512142127"
    }
  },
  {
    "service_request": "2026-1266419",
    "request_type": "Trash/Recycling",
    "request_reason": "Request a Large Item Pick Up",
    "date_created": "2026-03-17T17:04:01.000",
    "date_modified": "2026-03-17T17:04:03.000",
    "request_status": "Pending",
    "responsible_agency": "Department of Sanitation",
    "final_address": "6737 Deanne St",
    "address_councildis": "D",
    "status": "Assigned to Contractor",
    "contractor": "Waste Pro",
    "rowid": "1266419",
    "final_x": "3695989.65008",
    "final_y": "555561.341145",
    "longitude": "-90.02144831939718",
    "latitude": "30.021152712746023",
    "geocoded_column": {
      "latitude": "30.021152712746023",
      "longitude": "-90.02144831939718"
    }
  },
  {
    "service_request": "2026-1266418",
    "request_type": "Roads and Streets",
    "request_reason": "Sidewalk Damaged or Missing",
    "date_created": "2026-03-17T16:59:06.000",
    "date_modified": "2026-03-17T16:59:08.000",
    "request_status": "Pending",
    "responsible_agency": "Department of Public Works",
    "final_address": "1349 Mithra St",
    "address_councildis": "D",
    "status": "Pending",
    "rowid": "1266418",
    "final_x": "3677486.55182",
    "final_y": "552178.588502",
    "longitude": "-90.08002984905312",
    "latitude": "30.012420877716053",
    "geocoded_column": {
      "latitude": "30.012420877716053",
      "longitude": "-90.08002984905312"
    }
  },
  {
    "service_request": "2026-1266417",
    "request_type": "Abandoned Vehicles",
    "request_reason": "Abandoned/Junk Vehicles",
    "date_created": "2026-03-17T16:53:22.000",
    "date_modified": "2026-03-17T16:53:23.000",
    "request_status": "Pending",
    "responsible_agency": "Department of Public Works",
    "final_address": "1718 Bordeaux St",
    "address_councildis": "B",
    "status": "Pending",
    "rowid": "1266417",
    "final_x": "3669289.00282",
    "final_y": "521240.118969",
    "longitude": "-90.10697578111542",
    "latitude": "29.927594445194373",
    "geocoded_column": {
      "latitude": "29.927594445194373",
      "longitude": "-90.10697578111542"
    }
  },
  {
    "service_request": "2026-1266416",
    "request_type": "Trash/Recycling",
    "request_reason": "Order Recycling Cart",
    "date_created": "2026-03-17T16:52:00.000",
    "date_modified": "2026-03-17T16:52:03.000",
    "request_status": "Pending",
    "responsible_agency": "Department of Sanitation",
    "final_address": "2324 Oriole St",
    "address_councildis": "D",
    "status": "Pending",
    "rowid": "1266416",
    "final_x": "3684235.2678",
    "final_y": "558021.653403",
    "longitude": "-90.05850231452513",
    "latitude": "30.02828246093063",
    "geocoded_column": {
      "latitude": "30.02828246093063",
      "longitude": "-90.05850231452513"
    }
  },
  {
    "service_request": "2026-1266415",
    "request_type": "Trash/Recycling",
    "request_reason": "Repair Recycling Cart",
    "date_created": "2026-03-17T16:50:21.000",
    "date_modified": "2026-03-17T16:50:23.000",
    "request_status": "Pending",
    "responsible_agency": "Department of Sanitation",
    "final_address": "926 Mazant St",
    "address_councildis": "C",
    "status": "Pending",
    "rowid": "1266415",
    "final_x": "3691930.39881",
    "final_y": "534662.46599",
    "longitude": "-90.03502257553771",
    "latitude": "29.963815552570033",
    "geocoded_column": {
      "latitude": "29.963815552570033",
      "longitude": "-90.03502257553771"
    }
  },
  {
    "service_request": "2026-1266414",
    "request_type": "Trash/Recycling",
    "request_reason": "Order Trash Cart",
    "date_created": "2026-03-17T16:49:06.000",
    "date_modified": "2026-03-17T16:49:08.000",
    "request_status": "Pending",
    "responsible_agency": "Department of Sanitation",
    "final_address": "2324 Oriole St",
    "address_councildis": "D",
    "status": "Assigned to Contractor",
    "contractor": "IV Waste",
    "rowid": "1266414",
    "final_x": "3684235.2678",
    "final_y": "558021.653403",
    "longitude": "-90.05850231452513",
    "latitude": "30.02828246093063",
    "geocoded_column": {
      "latitude": "30.02828246093063",
      "longitude": "-90.05850231452513"
    }
  },
  {
    "service_request": "2026-1266413",
    "request_type": "Trash/Recycling",
    "request_reason": "Replace Trash Cart",
    "date_created": "2026-03-17T16:48:53.000",
    "date_modified": "2026-03-17T16:48:55.000",
    "request_status": "Pending",
    "responsible_agency": "Department of Sanitation",
    "final_address": "926 Mazant St",
    "address_councildis": "C",
    "status": "Assigned to Contractor",
    "contractor": "IV Waste",
    "rowid": "1266413",
    "final_x": "3691930.39881",
    "final_y": "534662.46599",
    "longitude": "-90.03502257553771",
    "latitude": "29.963815552570033",
    "geocoded_column": {
      "latitude": "29.963815552570033",
      "longitude": "-90.03502257553771"
    }
  },
  {
    "service_request": "2026-1266412",
    "request_type": "Drainage",
    "request_reason": "Ditch and Culvert Maintenance",
    "date_created": "2026-03-17T16:48:43.000",
    "date_modified": "2026-03-17T16:48:47.000",
    "request_status": "Pending",
    "responsible_agency": "Department of Public Works",
    "final_address": "907 Lamanche St",
    "address_councildis": "E",
    "status": "Pending",
    "rowid": "1266412",
    "final_x": "3698210.72624",
    "final_y": "532935.894852",
    "longitude": "-90.01525274534077",
    "latitude": "29.95887093556051",
    "geocoded_column": {
      "latitude": "29.95887093556051",
      "longitude": "-90.01525274534077"
    }
  },
  {
    "service_request": "2026-1266411",
    "request_type": "Trash/Recycling",
    "request_reason": "Replace Trash Cart",
    "date_created": "2026-03-17T16:45:12.000",
    "date_modified": "2026-03-17T16:45:13.000",
    "request_status": "Pending",
    "responsible_agency": "Department of Sanitation",
    "final_address": "2321 Short St",
    "address_councildis": "A",
    "status": "Assigned to Contractor",
    "contractor": "IV Waste",
    "rowid": "1266411",
    "final_x": "3665052.41044",
    "final_y": "531040.346242",
    "longitude": "-90.12002214449032",
    "latitude": "29.95466593038805",
    "geocoded_column": {
      "latitude": "29.95466593038805",
      "longitude": "-90.12002214449032"
    }
  },
  {
    "service_request": "2026-1266410",
    "request_type": "Trash/Recycling",
    "request_reason": "Request a Large Item Pick Up",
    "date_created": "2026-03-17T16:44:45.000",
    "date_modified": "2026-03-17T16:44:47.000",
    "request_status": "Pending",
    "responsible_agency": "Department of Sanitation",
    "final_address": "3315 Louisiana Avenue Prkwy",
    "address_councildis": "B",
    "status": "Assigned to Contractor",
    "contractor": "IV Waste",
    "rowid": "1266410",
    "final_x": "3671883.37076",
    "final_y": "527367.620671",
    "longitude": "-90.0985775329248",
    "latitude": "29.944366486325162",
    "geocoded_column": {
      "latitude": "29.944366486325162",
      "longitude": "-90.0985775329248"
    }
  },
  {
    "service_request": "2026-1266409",
    "request_type": "Property Maintenance",
    "request_reason": "Property Maintenance",
    "date_created": "2026-03-17T16:43:56.000",
    "date_modified": "2026-03-17T16:43:58.000",
    "request_status": "Pending",
    "responsible_agency": "Department of Code Enforcement",
    "final_address": "1618 Egania St",
    "address_councildis": "E",
    "status": "Pending",
    "rowid": "1266409",
    "final_x": "3697340.7761",
    "final_y": "536076.269575",
    "longitude": "-90.01788596883084",
    "latitude": "29.96753333703245",
    "geocoded_column": {
      "latitude": "29.96753333703245",
      "longitude": "-90.01788596883084"
    }
  },
  {
    "service_request": "2026-1266408",
    "request_type": "Roads and Streets",
    "request_reason": "Debris in Driving Lanes",
    "date_created": "2026-03-17T16:35:25.000",
    "date_modified": "2026-03-17T16:35:27.000",
    "request_status": "Pending",
    "responsible_agency": "Department of Public Works",
    "final_address": "7618 St Charles Ave",
    "address_councildis": "A",
    "status": "Pending",
    "rowid": "1266408",
    "final_x": "3661747.12179",
    "final_y": "525675.573117",
    "longitude": "-90.13063682774626",
    "latitude": "29.940010342531107",
    "geocoded_column": {
      "latitude": "29.940010342531107",
      "longitude": "-90.13063682774626"
    }
  },
  {
    "service_request": "2026-1266407",
    "request_type": "Roads and Streets",
    "request_reason": "Abandoned Service Cut",
    "date_created": "2026-03-17T16:33:29.000",
    "date_modified": "2026-03-17T16:33:33.000",
    "request_status": "Pending",
    "responsible_agency": "Department of Public Works",
    "final_address": "2801 Joseph St",
    "address_councildis": "A",
    "status": "Pending",
    "rowid": "1266407",
    "final_x": "3667797.06618",
    "final_y": "526118.050494",
    "longitude": "-90.11152128484572",
    "latitude": "29.941051018207762",
    "geocoded_column": {
      "latitude": "29.941051018207762",
      "longitude": "-90.11152128484572"
    }
  },
  {
    "service_request": "2026-1266406",
    "request_type": "Trash/Recycling",
    "request_reason": "Request a Large Item Pick Up",
    "date_created": "2026-03-17T16:31:12.000",
    "date_modified": "2026-03-17T16:31:13.000",
    "request_status": "Pending",
    "responsible_agency": "Department of Sanitation",
    "final_address": "9424 Lincoln Beach Blvd",
    "address_councildis": "E",
    "status": "Assigned to Contractor",
    "contractor": "Waste Pro",
    "rowid": "1266406",
    "final_x": "3705810.72491",
    "final_y": "564813.026466",
    "longitude": "-89.99007405252702",
    "latitude": "30.046278383359994",
    "geocoded_column": {
      "latitude": "30.046278383359994",
      "longitude": "-89.99007405252702"
    }
  },
  {
    "service_request": "2026-1266405",
    "request_type": "Roads and Streets",
    "request_reason": "Sidewalk Damaged or Missing",
    "date_created": "2026-03-17T16:30:54.000",
    "date_modified": "2026-03-17T16:31:33.000",
    "request_status": "Pending",
    "responsible_agency": "Department of Public Works",
    "final_address": "1201 Casa Calvo St",
    "address_councildis": "C",
    "status": "Pending",
    "rowid": "1266405",
    "final_x": "3691987.29667",
    "final_y": "526910.206206",
    "longitude": "-90.0351202612168",
    "latitude": "29.942497756121007",
    "geocoded_column": {
      "latitude": "29.942497756121007",
      "longitude": "-90.0351202612168"
    }
  },
  {
    "service_request": "2026-1266404",
    "request_type": "Trash/Recycling",
    "request_reason": "Request a Large Item Pick Up",
    "date_created": "2026-03-17T16:29:32.000",
    "date_modified": "2026-03-17T16:29:34.000",
    "request_status": "Pending",
    "responsible_agency": "Department of Sanitation",
    "final_address": "11511 Curran Rd",
    "address_councildis": "E",
    "status": "Assigned to Contractor",
    "contractor": "Waste Pro",
    "rowid": "1266404",
    "final_x": "3711862.33381",
    "final_y": "567076.805732",
    "longitude": "-89.97086297566489",
    "latitude": "30.052306405878277",
    "geocoded_column": {
      "latitude": "30.052306405878277",
      "longitude": "-89.97086297566489"
    }
  },
  {
    "service_request": "2026-1266403",
    "request_type": "Roads and Streets",
    "request_reason": "Sidewalk Damaged or Missing",
    "date_created": "2026-03-17T16:29:14.000",
    "date_modified": "2026-03-17T16:29:16.000",
    "request_status": "Pending",
    "responsible_agency": "Department of Public Works",
    "final_address": "1205 Casa Calvo St",
    "address_councildis": "C",
    "status": "Pending",
    "rowid": "1266403",
    "final_x": "3692054.89078",
    "final_y": "526892.061502",
    "longitude": "-90.03490750115148",
    "latitude": "29.94244575847051",
    "geocoded_column": {
      "latitude": "29.94244575847051",
      "longitude": "-90.03490750115148"
    }
  },
  {
    "service_request": "2026-1266402",
    "request_type": "Trash/Recycling",
    "request_reason": "Request a Large Item Pick Up",
    "date_created": "2026-03-17T16:27:15.000",
    "date_modified": "2026-03-17T16:27:17.000",
    "request_status": "Pending",
    "responsible_agency": "Department of Sanitation",
    "final_address": "7831 Sycamore St",
    "address_councildis": "A",
    "status": "Assigned to Contractor",
    "contractor": "IV Waste",
    "rowid": "1266402",
    "final_x": "3664998.81146",
    "final_y": "530415.12685",
    "longitude": "-90.12021229131435",
    "latitude": "29.9529483406681",
    "geocoded_column": {
      "latitude": "29.9529483406681",
      "longitude": "-90.12021229131435"
    }
  },
  {
    "service_request": "2026-1266401",
    "request_type": "Trash/Recycling",
    "request_reason": "Replace Trash Cart",
    "date_created": "2026-03-17T16:21:37.000",
    "date_modified": "2026-03-17T16:21:38.000",
    "request_status": "Pending",
    "responsible_agency": "Department of Sanitation",
    "final_address": "6229 Carlson Dr",
    "address_councildis": "D",
    "status": "Assigned to Contractor",
    "contractor": "IV Waste",
    "rowid": "1266401",
    "final_x": "3679791.05755",
    "final_y": "556168.055194",
    "longitude": "-90.0726102157595",
    "latitude": "30.023320952514844",
    "geocoded_column": {
      "latitude": "30.023320952514844",
      "longitude": "-90.0726102157595"
    }
  },
  {
    "service_request": "2026-1266400",
    "request_type": "Trash/Recycling",
    "request_reason": "Illegal Dumping",
    "date_created": "2026-03-17T16:20:51.000",
    "date_modified": "2026-03-17T16:21:25.000",
    "request_status": "Pending",
    "responsible_agency": "Department of Sanitation",
    "final_address": "2900 BLK Burgundy St",
    "address_councildis": "C",
    "status": "Pending",
    "rowid": "1266400",
    "final_x": "3688054.45686",
    "final_y": "535396.667183",
    "longitude": "-90.04723636842726",
    "latitude": "29.965954537351646",
    "geocoded_column": {
      "latitude": "29.965954537351646",
      "longitude": "-90.04723636842726"
    }
  },
  {
    "service_request": "2026-1266399",
    "request_type": "Trash/Recycling",
    "request_reason": "Repair Trash Cart",
    "date_created": "2026-03-17T16:20:36.000",
    "date_modified": "2026-03-17T16:20:39.000",
    "request_status": "Pending",
    "responsible_agency": "Department of Sanitation",
    "final_address": "5905 Argonne Blvd",
    "address_councildis": "A",
    "status": "Assigned to Contractor",
    "contractor": "IV Waste",
    "rowid": "1266399",
    "final_x": "3670151.83994",
    "final_y": "546522.463249",
    "longitude": "-90.10339532785684",
    "latitude": "29.99708706435225",
    "geocoded_column": {
      "latitude": "29.99708706435225",
      "longitude": "-90.10339532785684"
    }
  },
  {
    "service_request": "2026-1266398",
    "request_type": "Trash/Recycling",
    "request_reason": "Request a Large Item Pick Up",
    "date_created": "2026-03-17T16:17:58.000",
    "date_modified": "2026-03-17T16:18:00.000",
    "request_status": "Pending",
    "responsible_agency": "Department of Sanitation",
    "final_address": "7400 Newcastle St",
    "address_councildis": "E",
    "status": "Assigned to Contractor",
    "contractor": "Waste Pro",
    "rowid": "1266398",
    "final_x": "3697312.36848",
    "final_y": "558768.433436",
    "longitude": "-90.0171525254449",
    "latitude": "30.029929286466874",
    "geocoded_column": {
      "latitude": "30.029929286466874",
      "longitude": "-90.0171525254449"
    }
  },
  {
    "service_request": "2026-1266397",
    "request_type": "Trash/Recycling",
    "request_reason": "Repair Trash Cart",
    "date_created": "2026-03-17T16:17:16.000",
    "date_modified": "2026-03-17T16:17:17.000",
    "request_status": "Pending",
    "responsible_agency": "Department of Sanitation",
    "final_address": "7801 Pebble Dr",
    "address_councildis": "E",
    "status": "Assigned to Contractor",
    "contractor": "Waste Pro",
    "rowid": "1266397",
    "final_x": "3714784.73144",
    "final_y": "569575.688742",
    "longitude": "-89.96153168240247",
    "latitude": "30.05908143760802",
    "geocoded_column": {
      "latitude": "30.05908143760802",
      "longitude": "-89.96153168240247"
    }
  },
  {
    "service_request": "2026-1266396",
    "request_type": "Trash/Recycling",
    "request_reason": "Request a Large Item Pick Up",
    "date_created": "2026-03-17T16:15:33.000",
    "date_modified": "2026-03-17T16:15:35.000",
    "request_status": "Pending",
    "responsible_agency": "Department of Sanitation",
    "final_address": "1810 Deslonde St",
    "address_councildis": "E",
    "status": "Assigned to Contractor",
    "contractor": "Waste Pro",
    "rowid": "1266396",
    "final_x": "3696100.66262",
    "final_y": "537142.63636",
    "longitude": "-90.02176370579599",
    "latitude": "29.970504553062888",
    "geocoded_column": {
      "latitude": "29.970504553062888",
      "longitude": "-90.02176370579599"
    }
  },
  {
    "service_request": "2026-1266395",
    "request_type": "Trash/Recycling",
    "request_reason": "Order Recycling Cart",
    "date_created": "2026-03-17T16:09:38.000",
    "date_modified": "2026-03-17T16:09:40.000",
    "request_status": "Pending",
    "responsible_agency": "Department of Sanitation",
    "final_address": "4829 Flake Ave",
    "address_councildis": "E",
    "status": "Pending",
    "rowid": "1266395",
    "final_x": "3706088.60996",
    "final_y": "556008.368025",
    "longitude": "-89.98952214977368",
    "latitude": "30.02206007357457",
    "geocoded_column": {
      "latitude": "30.02206007357457",
      "longitude": "-89.98952214977368"
    }
  },
  {
    "service_request": "2026-1266394",
    "request_type": "Trash/Recycling",
    "request_reason": "Order Second Trash Cart",
    "date_created": "2026-03-17T16:08:41.000",
    "date_modified": "2026-03-17T16:08:42.000",
    "request_status": "Pending",
    "responsible_agency": "Department of Sanitation",
    "final_address": "4829 Flake Ave",
    "address_councildis": "E",
    "status": "Assigned to Contractor",
    "contractor": "Waste Pro",
    "rowid": "1266394",
    "final_x": "3706088.60996",
    "final_y": "556008.368025",
    "longitude": "-89.98952214977368",
    "latitude": "30.02206007357457",
    "geocoded_column": {
      "latitude": "30.02206007357457",
      "longitude": "-89.98952214977368"
    }
  },
  {
    "service_request": "2026-1266393",
    "request_type": "Property Maintenance",
    "request_reason": "Property Maintenance",
    "date_created": "2026-03-17T16:08:00.000",
    "date_modified": "2026-03-17T16:09:42.000",
    "request_status": "Pending",
    "responsible_agency": "Department of Code Enforcement",
    "final_address": "4817 Flake Ave",
    "address_councildis": "E",
    "status": "Pending",
    "rowid": "1266393",
    "final_x": "3706093.70673",
    "final_y": "555958.937753",
    "longitude": "-89.98950787713912",
    "latitude": "30.02192399513294",
    "geocoded_column": {
      "latitude": "30.02192399513294",
      "longitude": "-89.98950787713912"
    }
  },
  {
    "service_request": "2026-1266392",
    "request_type": "Trash/Recycling",
    "request_reason": "Request a Large Item Pick Up",
    "date_created": "2026-03-17T16:07:08.000",
    "date_modified": "2026-03-17T16:07:09.000",
    "request_status": "Pending",
    "responsible_agency": "Department of Sanitation",
    "final_address": "1606 S Rampart St",
    "address_councildis": "B",
    "status": "Assigned to Contractor",
    "contractor": "IV Waste",
    "rowid": "1266392",
    "final_x": "3677577.16885",
    "final_y": "526096.911614",
    "longitude": "-90.08064442578028",
    "latitude": "29.94070251934776",
    "geocoded_column": {
      "latitude": "29.94070251934776",
      "longitude": "-90.08064442578028"
    }
  },
  {
    "service_request": "2026-1266391",
    "request_type": "Safety & Permits",
    "request_reason": "Construction permit",
    "date_created": "2026-03-17T16:06:08.000",
    "date_modified": "2026-03-17T16:06:10.000",
    "request_status": "Pending",
    "responsible_agency": "Safety and Permits",
    "final_address": "2817 Monroe St",
    "address_councildis": "A",
    "status": "Pending",
    "rowid": "1266391",
    "final_x": "3664404.02752",
    "final_y": "534147.126021",
    "longitude": "-90.12196578593053",
    "latitude": "29.96322742291956",
    "geocoded_column": {
      "latitude": "29.96322742291956",
      "longitude": "-90.12196578593053"
    }
  },
  {
    "service_request": "2026-1266390",
    "request_type": "Traffic Signals",
    "request_reason": "Traffic Signal Malfunctioning or Damaged",
    "date_created": "2026-03-17T16:04:41.000",
    "date_modified": "2026-03-17T16:04:43.000",
    "request_status": "Pending",
    "responsible_agency": "Department of Public Works",
    "final_address": "CANAL BLVD & HARRISON AVE",
    "address_councildis": "A",
    "status": "Pending",
    "rowid": "1266390",
    "final_x": "3668723.1",
    "final_y": "549310.28",
    "longitude": "-90.10781447934356",
    "latitude": "30.00479468473077",
    "geocoded_column": {
      "latitude": "30.00479468473077",
      "longitude": "-90.10781447934356"
    }
  },
  {
    "service_request": "2026-1266389",
    "request_type": "Trash/Recycling",
    "request_reason": "Missed Trash Pick-Up",
    "date_created": "2026-03-17T16:03:22.000",
    "date_modified": "2026-03-17T16:03:23.000",
    "request_status": "Pending",
    "responsible_agency": "Department of Sanitation",
    "final_address": "7462 Dominique Pl",
    "address_councildis": "E",
    "status": "Assigned to Contractor",
    "contractor": "Waste Pro",
    "rowid": "1266389",
    "final_x": "3725637.4775",
    "final_y": "569710.072038",
    "longitude": "-89.92722230857153",
    "latitude": "30.059089213791886",
    "geocoded_column": {
      "latitude": "30.059089213791886",
      "longitude": "-89.92722230857153"
    }
  },
  {
    "service_request": "2026-1266388",
    "request_type": "Trash/Recycling",
    "request_reason": "Request a Large Item Pick Up",
    "date_created": "2026-03-17T16:03:14.000",
    "date_modified": "2026-03-17T16:03:15.000",
    "request_status": "Pending",
    "responsible_agency": "Department of Sanitation",
    "final_address": "5090 E St Andrews Cir",
    "address_councildis": "E",
    "status": "Assigned to Contractor",
    "contractor": "Waste Pro",
    "rowid": "1266388",
    "final_x": "3719361.60057",
    "final_y": "560351.195997",
    "longitude": "-89.9474174143551",
    "latitude": "30.033566412661138",
    "geocoded_column": {
      "latitude": "30.033566412661138",
      "longitude": "-89.9474174143551"
    }
  },
  {
    "service_request": "2026-1266387",
    "request_type": "Property Maintenance",
    "request_reason": "Property Maintenance",
    "date_created": "2026-03-17T15:59:56.000",
    "date_modified": "2026-03-17T15:59:59.000",
    "request_status": "Pending",
    "responsible_agency": "Department of Code Enforcement",
    "final_address": "1420 Hendee St",
    "address_councildis": "C",
    "status": "Pending",
    "rowid": "1266387",
    "final_x": "3690761.87593",
    "final_y": "525948.817341",
    "longitude": "-90.03902346717162",
    "latitude": "29.939892383876092",
    "geocoded_column": {
      "latitude": "29.939892383876092",
      "longitude": "-90.03902346717162"
    }
  },
  {
    "service_request": "2026-1266386",
    "request_type": "Trash/Recycling",
    "request_reason": "Request a Large Item Pick Up",
    "date_created": "2026-03-17T15:55:53.000",
    "date_modified": "2026-03-17T15:55:55.000",
    "request_status": "Pending",
    "responsible_agency": "Department of Sanitation",
    "final_address": "1933 Bayou Rd",
    "address_councildis": "D",
    "status": "Assigned to Contractor",
    "contractor": "IV Waste",
    "rowid": "1266386",
    "final_x": "3680366.42197",
    "final_y": "537000.61236",
    "longitude": "-90.07145916871656",
    "latitude": "29.970599866992384",
    "geocoded_column": {
      "latitude": "29.970599866992384",
      "longitude": "-90.07145916871656"
    }
  },
  {
    "service_request": "2026-1266385",
    "request_type": "Trash/Recycling",
    "request_reason": "Illegal Dumping",
    "date_created": "2026-03-17T15:54:12.000",
    "date_modified": "2026-03-17T15:54:14.000",
    "request_status": "Pending",
    "responsible_agency": "Department of Sanitation",
    "final_address": "7020 Salem Dr",
    "address_councildis": "E",
    "status": "Pending",
    "rowid": "1266385",
    "final_x": "3706628.37195",
    "final_y": "560751.973342",
    "longitude": "-89.98764062499659",
    "latitude": "30.03508571648842",
    "geocoded_column": {
      "latitude": "30.03508571648842",
      "longitude": "-89.98764062499659"
    }
  },
  {
    "service_request": "2026-1266384",
    "request_type": "Trash/Recycling",
    "request_reason": "Request a Large Item Pick Up",
    "date_created": "2026-03-17T15:53:21.000",
    "date_modified": "2026-03-17T15:53:22.000",
    "request_status": "Pending",
    "responsible_agency": "Department of Sanitation",
    "final_address": "5592 Catina St",
    "address_councildis": "A",
    "status": "Assigned to Contractor",
    "contractor": "IV Waste",
    "rowid": "1266384",
    "final_x": "3666578.18055",
    "final_y": "544676.413711",
    "longitude": "-90.11474642311438",
    "latitude": "29.992116051281585",
    "geocoded_column": {
      "latitude": "29.992116051281585",
      "longitude": "-90.11474642311438"
    }
  },
  {
    "service_request": "2026-1266383",
    "request_type": "Roads and Streets",
    "request_reason": "Sidewalk Damaged or Missing",
    "date_created": "2026-03-17T15:52:25.000",
    "date_modified": "2026-03-17T15:52:32.000",
    "request_status": "Pending",
    "responsible_agency": "Department of Public Works",
    "final_address": "36 Yellowstone Dr",
    "address_councildis": "C",
    "status": "Pending",
    "rowid": "1266383",
    "final_x": "3700238.87549",
    "final_y": "517513.95103",
    "longitude": "-90.00941107525529",
    "latitude": "29.916401658276733",
    "geocoded_column": {
      "latitude": "29.916401658276733",
      "longitude": "-90.00941107525529"
    }
  },
  {
    "service_request": "2026-1266382",
    "request_type": "Trash/Recycling",
    "request_reason": "Illegal Dumping",
    "date_created": "2026-03-17T15:52:01.000",
    "date_modified": "2026-03-17T15:52:02.000",
    "request_status": "Pending",
    "responsible_agency": "Department of Sanitation",
    "final_address": "6960 Salem Dr",
    "address_councildis": "E",
    "status": "Pending",
    "rowid": "1266382",
    "final_x": "3706726.82609",
    "final_y": "560586.043102",
    "longitude": "-89.9873356564372",
    "latitude": "30.034626294050206",
    "geocoded_column": {
      "latitude": "30.034626294050206",
      "longitude": "-89.9873356564372"
    }
  },
  {
    "service_request": "2026-1266381",
    "request_type": "Parks & Parkways",
    "request_reason": "Request Grass Cutting Service (City Owned Property)",
    "date_created": "2026-03-17T15:51:10.000",
    "date_modified": "2026-03-17T15:51:12.000",
    "request_status": "Pending",
    "responsible_agency": "Department of Parks & Parkway",
    "final_address": "13374 Lourdes St",
    "address_councildis": "E",
    "status": "Pending",
    "rowid": "1266381",
    "final_x": "3725770.9488",
    "final_y": "560790.027998",
    "longitude": "-89.92714643959879",
    "latitude": "30.034558306125394",
    "geocoded_column": {
      "latitude": "30.034558306125394",
      "longitude": "-89.92714643959879"
    }
  },
  {
    "service_request": "2026-1266380",
    "request_type": "Trash/Recycling",
    "request_reason": "Request a Large Item Pick Up",
    "date_created": "2026-03-17T15:48:49.000",
    "date_modified": "2026-03-17T15:48:51.000",
    "request_status": "Pending",
    "responsible_agency": "Department of Sanitation",
    "final_address": "8733 Curran Rd",
    "address_councildis": "E",
    "status": "Assigned to Contractor",
    "contractor": "Waste Pro",
    "rowid": "1266380",
    "final_x": "3704556.31646",
    "final_y": "562831.82192",
    "longitude": "-89.99411178154045",
    "latitude": "30.040871229756565",
    "geocoded_column": {
      "latitude": "30.040871229756565",
      "longitude": "-89.99411178154045"
    }
  },
  {
    "service_request": "2026-1266379",
    "request_type": "Trash/Recycling",
    "request_reason": "Illegal Dumping",
    "date_created": "2026-03-17T15:46:32.000",
    "date_modified": "2026-03-17T15:46:57.000",
    "request_status": "Pending",
    "responsible_agency": "Department of Sanitation",
    "final_address": "4722 Majestic Oaks Dr",
    "address_councildis": "D",
    "status": "Pending",
    "rowid": "1266379",
    "final_x": "3697677.87914",
    "final_y": "554306.931928",
    "longitude": "-90.01615958323194",
    "latitude": "30.01765030807066",
    "geocoded_column": {
      "latitude": "30.01765030807066",
      "longitude": "-90.01615958323194"
    }
  },
  {
    "service_request": "2026-1266378",
    "request_type": "Health Related Request",
    "request_reason": "Homeless Encampment Complaint",
    "date_created": "2026-03-17T15:42:39.000",
    "date_modified": "2026-03-17T15:42:41.000",
    "request_status": "Pending",
    "responsible_agency": "Office Of Homeless Services And Strategy",
    "final_address": "1222 Simon Bolivar Ave",
    "address_councildis": "B",
    "status": "Pending",
    "rowid": "1266378",
    "final_x": "3677793.71413",
    "final_y": "527352.983231",
    "longitude": "-90.07991737539807",
    "latitude": "29.944149789178095",
    "geocoded_column": {
      "latitude": "29.944149789178095",
      "longitude": "-90.07991737539807"
    }
  },
  {
    "service_request": "2026-1266377",
    "request_type": "Trash/Recycling",
    "request_reason": "Request a Large Item Pick Up",
    "date_created": "2026-03-17T15:42:15.000",
    "date_modified": "2026-03-17T15:42:17.000",
    "request_status": "Pending",
    "responsible_agency": "Department of Sanitation",
    "final_address": "6736 Coventry St",
    "address_councildis": "E",
    "status": "Assigned to Contractor",
    "contractor": "Waste Pro",
    "rowid": "1266377",
    "final_x": "3698233.45098",
    "final_y": "559465.776989",
    "longitude": "-90.01421655653228",
    "latitude": "30.031817589486497",
    "geocoded_column": {
      "latitude": "30.031817589486497",
      "longitude": "-90.01421655653228"
    }
  },
  {
    "service_request": "2026-1266376",
    "request_type": "Trash/Recycling",
    "request_reason": "Replace Recycling Cart",
    "date_created": "2026-03-17T15:40:08.000",
    "date_modified": "2026-03-17T15:40:09.000",
    "request_status": "Pending",
    "responsible_agency": "Department of Sanitation",
    "final_address": "9870 E Rockton Cir",
    "address_councildis": "E",
    "status": "Pending",
    "rowid": "1266376",
    "final_x": "3708690.12747",
    "final_y": "563257.83024",
    "longitude": "-89.9810317502557",
    "latitude": "30.041909087935842",
    "geocoded_column": {
      "latitude": "30.041909087935842",
      "longitude": "-89.9810317502557"
    }
  },
  {
    "service_request": "2026-1266375",
    "request_type": "Healthy Homes",
    "request_reason": "Healthy Homes",
    "date_created": "2026-03-17T15:39:55.000",
    "date_modified": "2026-03-17T15:39:56.000",
    "request_status": "Pending",
    "responsible_agency": "Department of Code Enforcement",
    "final_address": "6881 Parc Brittany Blvd",
    "address_councildis": "E",
    "status": "Pending",
    "rowid": "1266375",
    "final_x": "3703116.16849",
    "final_y": "557799.739099",
    "longitude": "-89.99884832270635",
    "latitude": "30.027081169313153",
    "geocoded_column": {
      "latitude": "30.027081169313153",
      "longitude": "-89.99884832270635"
    }
  },
  {
    "service_request": "2026-1266374",
    "request_type": "Trash/Recycling",
    "request_reason": "Order Trash Cart",
    "date_created": "2026-03-17T15:39:21.000",
    "date_modified": "2026-03-17T15:39:23.000",
    "request_status": "Pending",
    "responsible_agency": "Department of Sanitation",
    "final_address": "924 Deslonde St Apt A",
    "address_councildis": "E",
    "status": "Assigned to Contractor",
    "contractor": "Waste Pro",
    "rowid": "1266374",
    "final_x": "3695158.95882",
    "final_y": "533841.785477",
    "longitude": "-90.02485674050735",
    "latitude": "29.961457989323254",
    "geocoded_column": {
      "latitude": "29.961457989323254",
      "longitude": "-90.02485674050735"
    }
  },
  {
    "service_request": "2026-1266373",
    "request_type": "Trash/Recycling",
    "request_reason": "Request a Large Item Pick Up",
    "date_created": "2026-03-17T15:37:36.000",
    "date_modified": "2026-03-17T18:11:35.000",
    "case_close_date": "2026-03-17T13:11:34.000",
    "request_status": "Closed",
    "responsible_agency": "Department of Sanitation",
    "final_address": "4400 BLK Wilson Ave",
    "address_councildis": "E",
    "status": "Invalid Request",
    "contractor": "Waste Pro",
    "contractor_action": "Invalid",
    "rowid": "1266373",
    "final_x": "3703210.34682",
    "final_y": "552681.050265",
    "longitude": "-89.998739119837",
    "latitude": "30.013003725714103",
    "geocoded_column": {
      "latitude": "30.013003725714103",
      "longitude": "-89.998739119837"
    }
  },
  {
    "service_request": "2026-1266372",
    "request_type": "Trash/Recycling",
    "request_reason": "Request a Large Item Pick Up",
    "date_created": "2026-03-17T15:37:14.000",
    "date_modified": "2026-03-17T15:37:15.000",
    "request_status": "Pending",
    "responsible_agency": "Department of Sanitation",
    "final_address": "8800 Tilford Rd",
    "address_councildis": "E",
    "status": "Assigned to Contractor",
    "contractor": "Waste Pro",
    "rowid": "1266372",
    "final_x": "3707606.04785",
    "final_y": "557189.168219",
    "longitude": "-89.98468355800516",
    "latitude": "30.02525779394253",
    "geocoded_column": {
      "latitude": "30.02525779394253",
      "longitude": "-89.98468355800516"
    }
  },
  {
    "service_request": "2026-1266371",
    "request_type": "Trash/Recycling",
    "request_reason": "Request a Large Item Pick Up",
    "date_created": "2026-03-17T15:36:59.000",
    "date_modified": "2026-03-17T15:37:00.000",
    "request_status": "Pending",
    "responsible_agency": "Department of Sanitation",
    "final_address": "48 Tradewinds Ct",
    "address_councildis": "E",
    "status": "Assigned to Contractor",
    "contractor": "Waste Pro",
    "rowid": "1266371",
    "final_x": "3715513.43851",
    "final_y": "570550.117159",
    "longitude": "-89.9591913858564",
    "latitude": "30.061736704714146",
    "geocoded_column": {
      "latitude": "30.061736704714146",
      "longitude": "-89.9591913858564"
    }
  },
  {
    "service_request": "2026-1266369",
    "request_type": "Trash/Recycling",
    "request_reason": "Request a Large Item Pick Up",
    "date_created": "2026-03-17T15:34:29.000",
    "date_modified": "2026-03-17T15:34:30.000",
    "request_status": "Pending",
    "responsible_agency": "Department of Sanitation",
    "final_address": "1002 Arabella St",
    "address_councildis": "A",
    "status": "Assigned to Contractor",
    "contractor": "IV Waste",
    "rowid": "1266369",
    "final_x": "3665943.29037",
    "final_y": "519649.49836",
    "longitude": "-90.11759070040601",
    "latitude": "29.923318776665322",
    "geocoded_column": {
      "latitude": "29.923318776665322",
      "longitude": "-90.11759070040601"
    }
  },
  {
    "service_request": "2026-1266368",
    "request_type": "Streetlights",
    "request_reason": "Streetlight Outage/Malfunction",
    "date_created": "2026-03-17T15:29:43.000",
    "date_modified": "2026-03-17T15:29:44.000",
    "request_status": "Pending",
    "responsible_agency": "Department of Public Works",
    "final_address": "1700 BLK Orleans Ave",
    "address_councildis": "D",
    "status": "Pending",
    "rowid": "1266368",
    "final_x": "3679739.12507",
    "final_y": "534823.263146",
    "longitude": "-90.07351584911994",
    "latitude": "29.96463188228322",
    "geocoded_column": {
      "latitude": "29.96463188228322",
      "longitude": "-90.07351584911994"
    }
  },
  {
    "service_request": "2026-1266367",
    "request_type": "Abandoned Vehicles",
    "request_reason": "Abandoned/Junk Vehicles",
    "date_created": "2026-03-17T15:28:51.000",
    "date_modified": "2026-03-17T15:32:27.000",
    "request_status": "Pending",
    "responsible_agency": "Department of Public Works",
    "final_address": "9105 Apricot St",
    "address_councildis": "A",
    "status": "Pending",
    "rowid": "1266367",
    "final_x": "3663174.92487",
    "final_y": "535094.531078",
    "longitude": "-90.12581564024883",
    "latitude": "29.965868148104136",
    "geocoded_column": {
      "latitude": "29.965868148104136",
      "longitude": "-90.12581564024883"
    }
  },
  {
    "service_request": "2026-1266366",
    "request_type": "Trash/Recycling",
    "request_reason": "Repair Trash Cart",
    "date_created": "2026-03-17T15:28:44.000",
    "date_modified": "2026-03-17T15:28:46.000",
    "request_status": "Pending",
    "responsible_agency": "Department of Sanitation",
    "final_address": "5718 W Louis Prima Dr",
    "address_councildis": "E",
    "status": "Assigned to Contractor",
    "contractor": "Waste Pro",
    "rowid": "1266366",
    "final_x": "3715782.68588",
    "final_y": "561722.727455",
    "longitude": "-89.95867505791306",
    "latitude": "30.03745611115637",
    "geocoded_column": {
      "latitude": "30.03745611115637",
      "longitude": "-89.95867505791306"
    }
  },
  {
    "service_request": "2026-1266365",
    "request_type": "Abandoned Vehicles",
    "request_reason": "Abandoned/Junk Vehicles",
    "date_created": "2026-03-17T15:26:50.000",
    "date_modified": "2026-03-17T15:26:51.000",
    "request_status": "Pending",
    "responsible_agency": "Department of Public Works",
    "final_address": "2801 Monticello Ave",
    "address_councildis": "A",
    "status": "Pending",
    "rowid": "1266365",
    "final_x": "3662493.27104",
    "final_y": "535723.449607",
    "longitude": "-90.12794739878305",
    "latitude": "29.967617202294523",
    "geocoded_column": {
      "latitude": "29.967617202294523",
      "longitude": "-90.12794739878305"
    }
  },
  {
    "service_request": "2026-1266364",
    "request_type": "Trash/Recycling",
    "request_reason": "Request a Large Item Pick Up",
    "date_created": "2026-03-17T15:24:47.000",
    "date_modified": "2026-03-17T15:24:49.000",
    "request_status": "Pending",
    "responsible_agency": "Department of Sanitation",
    "final_address": "1716 Hero Blvd",
    "address_councildis": "C",
    "status": "Assigned to Contractor",
    "contractor": "Richards Disposal",
    "rowid": "1266364",
    "final_x": "3690461.03459",
    "final_y": "523431.353531",
    "longitude": "-90.04006297024557",
    "latitude": "29.93297955365141",
    "geocoded_column": {
      "latitude": "29.93297955365141",
      "longitude": "-90.04006297024557"
    }
  },
  {
    "service_request": "2026-1266363",
    "request_type": "Abandoned Vehicles",
    "request_reason": "Abandoned/Junk Vehicles",
    "date_created": "2026-03-17T15:22:23.000",
    "date_modified": "2026-03-17T15:22:47.000",
    "request_status": "Pending",
    "responsible_agency": "Department of Public Works",
    "final_address": "7700 BLK Swift St",
    "address_councildis": "E",
    "status": "Inspected",
    "rowid": "1266363",
    "final_x": "3695301.61133",
    "final_y": "559185.092047",
    "longitude": "-90.02349142919732",
    "latitude": "30.031138292670022",
    "geocoded_column": {
      "latitude": "30.031138292670022",
      "longitude": "-90.02349142919732"
    }
  },
  {
    "service_request": "2026-1266362",
    "request_type": "Abandoned Vehicles",
    "request_reason": "Abandoned/Junk Vehicles",
    "date_created": "2026-03-17T15:22:23.000",
    "date_modified": "2026-03-17T15:22:24.000",
    "request_status": "Pending",
    "responsible_agency": "Department of Public Works",
    "final_address": "7700 BLK Swift St",
    "address_councildis": "E",
    "status": "Pending",
    "rowid": "1266362",
    "final_x": "3695301.61133",
    "final_y": "559185.092047",
    "longitude": "-90.02349142919732",
    "latitude": "30.031138292670022",
    "geocoded_column": {
      "latitude": "30.031138292670022",
      "longitude": "-90.02349142919732"
    }
  },
  {
    "service_request": "2026-1266361",
    "request_type": "Trash/Recycling",
    "request_reason": "Request a Large Item Pick Up",
    "date_created": "2026-03-17T15:22:11.000",
    "date_modified": "2026-03-17T15:22:13.000",
    "request_status": "Pending",
    "responsible_agency": "Department of Sanitation",
    "final_address": "11133 Prentiss Ave",
    "address_councildis": "E",
    "status": "Assigned to Contractor",
    "contractor": "Waste Pro",
    "rowid": "1266361",
    "final_x": "3716487.77343",
    "final_y": "556762.005786",
    "longitude": "-89.95663519662209",
    "latitude": "30.023792837499368",
    "geocoded_column": {
      "latitude": "30.023792837499368",
      "longitude": "-89.95663519662209"
    }
  },
  {
    "service_request": "2026-1266360",
    "request_type": "Property Maintenance",
    "request_reason": "Property Maintenance",
    "date_created": "2026-03-17T15:22:08.000",
    "date_modified": "2026-03-17T15:22:09.000",
    "request_status": "Pending",
    "responsible_agency": "Department of Code Enforcement",
    "final_address": "7816 Devine Ave",
    "address_councildis": "E",
    "status": "Pending",
    "rowid": "1266360",
    "final_x": "3705315.265",
    "final_y": "563528.947232",
    "longitude": "-89.99168746666332",
    "latitude": "30.0427636364847",
    "geocoded_column": {
      "latitude": "30.0427636364847",
      "longitude": "-89.99168746666332"
    }
  },
  {
    "service_request": "2026-1266359",
    "request_type": "Trash/Recycling",
    "request_reason": "Damaged Caused By Contractor",
    "date_created": "2026-03-17T15:19:46.000",
    "date_modified": "2026-03-17T17:50:41.000",
    "case_close_date": "2026-03-17T12:50:39.000",
    "request_status": "Closed",
    "responsible_agency": "Department of Sanitation",
    "final_address": "9870 E Rockton Cir",
    "address_councildis": "E",
    "status": "Invalid Request",
    "contractor": "Waste Pro",
    "contractor_action": "Invalid Request",
    "rowid": "1266359",
    "final_x": "3708690.12747",
    "final_y": "563257.83024",
    "longitude": "-89.9810317502557",
    "latitude": "30.041909087935842",
    "geocoded_column": {
      "latitude": "30.041909087935842",
      "longitude": "-89.9810317502557"
    }
  },
  {
    "service_request": "2026-1266358",
    "request_type": "Trash/Recycling",
    "request_reason": "Request a Large Item Pick Up",
    "date_created": "2026-03-17T15:19:26.000",
    "date_modified": "2026-03-17T15:19:28.000",
    "request_status": "Pending",
    "responsible_agency": "Department of Sanitation",
    "final_address": "1214 Soniat St",
    "address_councildis": "B",
    "status": "Assigned to Contractor",
    "contractor": "IV Waste",
    "rowid": "1266358",
    "final_x": "3668340.59578",
    "final_y": "519796.55404",
    "longitude": "-90.11001833274011",
    "latitude": "29.923652976059227",
    "geocoded_column": {
      "latitude": "29.923652976059227",
      "longitude": "-90.11001833274011"
    }
  },
  {
    "service_request": "2026-1266357",
    "request_type": "Trash/Recycling",
    "request_reason": "Request a Large Item Pick Up",
    "date_created": "2026-03-17T15:18:13.000",
    "date_modified": "2026-03-17T15:18:14.000",
    "request_status": "Pending",
    "responsible_agency": "Department of Sanitation",
    "final_address": "7421 Dalewood Rd",
    "address_councildis": "E",
    "status": "Assigned to Contractor",
    "contractor": "Waste Pro",
    "rowid": "1266357",
    "final_x": "3700234.3512",
    "final_y": "559855.187357",
    "longitude": "-90.0078794053116",
    "latitude": "30.032824828389344",
    "geocoded_column": {
      "latitude": "30.032824828389344",
      "longitude": "-90.0078794053116"
    }
  },
  {
    "service_request": "2026-1266356",
    "request_type": "Trash/Recycling",
    "request_reason": "Illegal Dumping",
    "date_created": "2026-03-17T15:17:01.000",
    "date_modified": "2026-03-17T15:17:02.000",
    "request_status": "Pending",
    "responsible_agency": "Department of Sanitation",
    "final_address": "2734 Marais St",
    "address_councildis": "C",
    "status": "Pending",
    "rowid": "1266356",
    "final_x": "3687774.32905",
    "final_y": "536645.379463",
    "longitude": "-90.04807676964661",
    "latitude": "29.969396702597287",
    "geocoded_column": {
      "latitude": "29.969396702597287",
      "longitude": "-90.04807676964661"
    }
  },
  {
    "service_request": "2026-1266355",
    "request_type": "Trash/Recycling",
    "request_reason": "Request a Large Item Pick Up",
    "date_created": "2026-03-17T15:16:46.000",
    "date_modified": "2026-03-17T15:16:48.000",
    "request_status": "Pending",
    "responsible_agency": "Department of Sanitation",
    "final_address": "336 Henry Clay Ave",
    "address_councildis": "A",
    "status": "Assigned to Contractor",
    "contractor": "IV Waste",
    "rowid": "1266355",
    "final_x": "3663188.42669",
    "final_y": "518235.35487",
    "longitude": "-90.12633382719379",
    "latitude": "29.919510406247458",
    "geocoded_column": {
      "latitude": "29.919510406247458",
      "longitude": "-90.12633382719379"
    }
  },
  {
    "service_request": "2026-1266354",
    "request_type": "Trash/Recycling",
    "request_reason": "Request a Large Item Pick Up",
    "date_created": "2026-03-17T15:16:14.000",
    "date_modified": "2026-03-17T15:16:15.000",
    "request_status": "Pending",
    "responsible_agency": "Department of Sanitation",
    "final_address": "3615 Elysian Fields Ave",
    "address_councildis": "D",
    "status": "Assigned to Contractor",
    "contractor": "IV Waste",
    "rowid": "1266354",
    "final_x": "3684377.11714",
    "final_y": "546015.30152",
    "longitude": "-90.0584761911619",
    "latitude": "29.99526502865968",
    "geocoded_column": {
      "latitude": "29.99526502865968",
      "longitude": "-90.0584761911619"
    }
  },
  {
    "service_request": "2026-1266353",
    "request_type": "Trash/Recycling",
    "request_reason": "Request a Large Item Pick Up",
    "date_created": "2026-03-17T15:15:39.000",
    "date_modified": "2026-03-17T15:15:40.000",
    "request_status": "Pending",
    "responsible_agency": "Department of Sanitation",
    "final_address": "7717 Edward St",
    "address_councildis": "E",
    "status": "Assigned to Contractor",
    "contractor": "Waste Pro",
    "rowid": "1266353",
    "final_x": "3700993.3265",
    "final_y": "561272.282974",
    "longitude": "-90.00542909566802",
    "latitude": "30.03669712824314",
    "geocoded_column": {
      "latitude": "30.03669712824314",
      "longitude": "-90.00542909566802"
    }
  },
  {
    "service_request": "2026-1266352",
    "request_type": "Streetlights",
    "request_reason": "Streetlight Outage/Malfunction",
    "date_created": "2026-03-17T15:14:59.000",
    "date_modified": "2026-03-17T15:15:01.000",
    "request_status": "Pending",
    "responsible_agency": "Department of Public Works",
    "final_address": "600 BLK N Claiborne Ave",
    "address_councildis": "D",
    "status": "Pending",
    "rowid": "1266352",
    "final_x": "3679662.37095",
    "final_y": "534562.558943",
    "longitude": "-90.07376728311918",
    "latitude": "29.963917354793622",
    "geocoded_column": {
      "latitude": "29.963917354793622",
      "longitude": "-90.07376728311918"
    }
  },
  {
    "service_request": "2026-1266351",
    "request_type": "Roads and Streets",
    "request_reason": "Debris in Driving Lanes",
    "date_created": "2026-03-17T15:13:20.000",
    "date_modified": "2026-03-17T15:13:21.000",
    "request_status": "Pending",
    "responsible_agency": "Department of Public Works",
    "final_address": "RANDOLPH AVE & MANDOLIN ST",
    "address_councildis": "D",
    "status": "Pending",
    "rowid": "1266351",
    "final_x": "3677762.0",
    "final_y": "547997.18",
    "longitude": "-90.07930416885945",
    "latitude": "30.00091520874032",
    "geocoded_column": {
      "latitude": "30.00091520874032",
      "longitude": "-90.07930416885945"
    }
  },
  {
    "service_request": "2026-1266350",
    "request_type": "Property Maintenance",
    "request_reason": "Property Maintenance",
    "date_created": "2026-03-17T15:11:20.000",
    "date_modified": "2026-03-17T15:12:43.000",
    "request_status": "Pending",
    "responsible_agency": "Department of Code Enforcement",
    "final_address": "4943 Hickerson Dr",
    "address_councildis": "E",
    "status": "Pending",
    "rowid": "1266350",
    "final_x": "3710246.06347",
    "final_y": "557029.539674",
    "longitude": "-89.97634756276888",
    "latitude": "30.024733175098074",
    "geocoded_column": {
      "latitude": "30.024733175098074",
      "longitude": "-89.97634756276888"
    }
  },
  {
    "service_request": "2026-1266349",
    "request_type": "Abandoned Vehicles",
    "request_reason": "Abandoned/Junk Vehicles",
    "date_created": "2026-03-17T15:07:53.000",
    "date_modified": "2026-03-17T15:07:55.000",
    "request_status": "Pending",
    "responsible_agency": "Department of Public Works",
    "final_address": "7089 W Tamaron Blvd",
    "address_councildis": "E",
    "status": "Pending",
    "rowid": "1266349",
    "final_x": "3718518.00473",
    "final_y": "568591.747173",
    "longitude": "-89.94976880238389",
    "latitude": "30.05625258496631",
    "geocoded_column": {
      "latitude": "30.05625258496631",
      "longitude": "-89.94976880238389"
    }
  },
  {
    "service_request": "2026-1266348",
    "request_type": "Streetlights",
    "request_reason": "Streetlight Outage/Malfunction",
    "date_created": "2026-03-17T15:01:49.000",
    "date_modified": "2026-03-17T15:01:54.000",
    "request_status": "Pending",
    "responsible_agency": "Department of Public Works",
    "final_address": "8008 Mercier St",
    "address_councildis": "E",
    "status": "Pending",
    "rowid": "1266348",
    "final_x": "3710738.04792",
    "final_y": "567490.149412",
    "longitude": "-89.97440098346397",
    "latitude": "30.053479643264083",
    "geocoded_column": {
      "latitude": "30.053479643264083",
      "longitude": "-89.97440098346397"
    }
  },
  {
    "service_request": "2026-1266347",
    "request_type": "Trash/Recycling",
    "request_reason": "Request a Large Item Pick Up",
    "date_created": "2026-03-17T15:00:06.000",
    "date_modified": "2026-03-17T15:00:10.000",
    "request_status": "Pending",
    "responsible_agency": "Department of Sanitation",
    "final_address": "5698 Tullis Dr",
    "address_councildis": "C",
    "status": "Assigned to Contractor",
    "contractor": "Richards Disposal",
    "rowid": "1266347",
    "final_x": "3705069.03358",
    "final_y": "512717.402225",
    "longitude": "-89.99434218925428",
    "latitude": "29.903058454467985",
    "geocoded_column": {
      "latitude": "29.903058454467985",
      "longitude": "-89.99434218925428"
    }
  },
  {
    "service_request": "2026-1266346",
    "request_type": "Trash/Recycling",
    "request_reason": "Repair Recycling Cart",
    "date_created": "2026-03-17T14:55:39.000",
    "date_modified": "2026-03-17T14:55:41.000",
    "request_status": "Pending",
    "responsible_agency": "Department of Sanitation",
    "final_address": "11288 Waverly Dr",
    "address_councildis": "E",
    "status": "Pending",
    "rowid": "1266346",
    "final_x": "3717766.09522",
    "final_y": "560317.136861",
    "longitude": "-89.95246062540947",
    "latitude": "30.033525729243692",
    "geocoded_column": {
      "latitude": "30.033525729243692",
      "longitude": "-89.95246062540947"
    }
  },
  {
    "service_request": "2026-1266345",
    "request_type": "Street and Traffic Signs",
    "request_reason": "Street Name Sign Damaged or Missing",
    "date_created": "2026-03-17T14:51:42.000",
    "date_modified": "2026-03-17T14:51:44.000",
    "request_status": "Pending",
    "responsible_agency": "Department of Public Works",
    "final_address": "MANDEVILLE ST & FILMORE ST",
    "address_councildis": "D",
    "status": "Pending",
    "rowid": "1266345",
    "final_x": "3684483.0",
    "final_y": "552475.38",
    "longitude": "-90.057914574132",
    "latitude": "30.013024671202075",
    "geocoded_column": {
      "latitude": "30.013024671202075",
      "longitude": "-90.057914574132"
    }
  },
  {
    "service_request": "2026-1266344",
    "request_type": "Street and Traffic Signs",
    "request_reason": "Street Name Sign Damaged or Missing",
    "date_created": "2026-03-17T14:51:39.000",
    "date_modified": "2026-03-17T14:51:41.000",
    "request_status": "Pending",
    "responsible_agency": "Department of Public Works",
    "final_address": "MANDEVILLE ST & MITHRA ST",
    "address_councildis": "D",
    "status": "Pending",
    "rowid": "1266344",
    "final_x": "3684463.3",
    "final_y": "552724.68",
    "longitude": "-90.0579680485291",
    "latitude": "30.013710758087463",
    "geocoded_column": {
      "latitude": "30.013710758087463",
      "longitude": "-90.0579680485291"
    }
  },
  {
    "service_request": "2026-1266343",
    "request_type": "Traffic Signals",
    "request_reason": "Traffic Signal Malfunctioning or Damaged",
    "date_created": "2026-03-17T14:50:24.000",
    "date_modified": "2026-03-17T14:50:26.000",
    "request_status": "Pending",
    "responsible_agency": "Department of Public Works",
    "final_address": "ORLEANS AVE & N GALVEZ ST",
    "address_councildis": "D",
    "status": "Pending",
    "rowid": "1266343",
    "final_x": "3678374.2",
    "final_y": "535783.38",
    "longitude": "-90.07779296410732",
    "latitude": "29.96731307006448",
    "geocoded_column": {
      "latitude": "29.96731307006448",
      "longitude": "-90.07779296410732"
    }
  },
  {
    "service_request": "2026-1266342",
    "request_type": "Trash/Recycling",
    "request_reason": "Request a Large Item Pick Up",
    "date_created": "2026-03-17T14:49:09.000",
    "date_modified": "2026-03-17T14:49:11.000",
    "request_status": "Pending",
    "responsible_agency": "Department of Sanitation",
    "final_address": "4028 Annunciation St",
    "address_councildis": "B",
    "status": "Assigned to Contractor",
    "contractor": "IV Waste",
    "rowid": "1266342",
    "final_x": "3672379.08065",
    "final_y": "517830.757238",
    "longitude": "-90.09733722860796",
    "latitude": "29.918128490286563",
    "geocoded_column": {
      "latitude": "29.918128490286563",
      "longitude": "-90.09733722860796"
    }
  },
  {
    "service_request": "2026-1266341",
    "request_type": "Trash/Recycling",
    "request_reason": "Request a Large Item Pick Up",
    "date_created": "2026-03-17T14:47:10.000",
    "date_modified": "2026-03-17T14:47:11.000",
    "request_status": "Pending",
    "responsible_agency": "Department of Sanitation",
    "final_address": "4830 Deanne St",
    "address_councildis": "D",
    "status": "Assigned to Contractor",
    "contractor": "Waste Pro",
    "rowid": "1266341",
    "final_x": "3696387.37975",
    "final_y": "554594.78076",
    "longitude": "-90.02022661093442",
    "latitude": "30.018482510363235",
    "geocoded_column": {
      "latitude": "30.018482510363235",
      "longitude": "-90.02022661093442"
    }
  },
  {
    "service_request": "2026-1266340",
    "request_type": "Trash/Recycling",
    "request_reason": "Request a Large Item Pick Up",
    "date_created": "2026-03-17T14:47:04.000",
    "date_modified": "2026-03-17T14:47:06.000",
    "request_status": "Pending",
    "responsible_agency": "Department of Sanitation",
    "final_address": "1914 Delachaise St",
    "address_councildis": "B",
    "status": "Assigned to Contractor",
    "contractor": "IV Waste",
    "rowid": "1266340",
    "final_x": "3673304.54145",
    "final_y": "522509.251962",
    "longitude": "-90.09425635429247",
    "latitude": "29.93096536788819",
    "geocoded_column": {
      "latitude": "29.93096536788819",
      "longitude": "-90.09425635429247"
    }
  },
  {
    "service_request": "2026-1266339",
    "request_type": "Trash/Recycling",
    "request_reason": "Request a Large Item Pick Up",
    "date_created": "2026-03-17T14:45:52.000",
    "date_modified": "2026-03-17T14:45:54.000",
    "request_status": "Pending",
    "responsible_agency": "Department of Sanitation",
    "final_address": "4652 Wright Rd",
    "address_councildis": "E",
    "status": "Assigned to Contractor",
    "contractor": "Waste Pro",
    "rowid": "1266339",
    "final_x": "3716653.44146",
    "final_y": "556491.348762",
    "longitude": "-89.95612200367641",
    "latitude": "30.023043164295903",
    "geocoded_column": {
      "latitude": "30.023043164295903",
      "longitude": "-89.95612200367641"
    }
  },
  {
    "service_request": "2026-1266338",
    "request_type": "Trash/Recycling",
    "request_reason": "Request a Large Item Pick Up",
    "date_created": "2026-03-17T14:44:57.000",
    "date_modified": "2026-03-17T14:44:59.000",
    "request_status": "Pending",
    "responsible_agency": "Department of Sanitation",
    "final_address": "4840 Major Dr",
    "address_councildis": "E",
    "status": "Assigned to Contractor",
    "contractor": "Waste Pro",
    "rowid": "1266338",
    "final_x": "3718096.80978",
    "final_y": "557538.435099",
    "longitude": "-89.95152143666341",
    "latitude": "30.025874453420638",
    "geocoded_column": {
      "latitude": "30.025874453420638",
      "longitude": "-89.95152143666341"
    }
  },
  {
    "service_request": "2026-1266337",
    "request_type": "Trash/Recycling",
    "request_reason": "Request a Large Item Pick Up",
    "date_created": "2026-03-17T14:43:56.000",
    "date_modified": "2026-03-17T16:33:18.000",
    "request_status": "Pending",
    "responsible_agency": "Department of Sanitation",
    "final_address": "3634 Third St",
    "address_councildis": "B",
    "status": "Assigned to Contractor",
    "contractor": "IV Waste",
    "rowid": "1266337",
    "final_x": "3672371.26676",
    "final_y": "528970.65056",
    "longitude": "-90.09698249150068",
    "latitude": "29.948759826937792",
    "geocoded_column": {
      "latitude": "29.948759826937792",
      "longitude": "-90.09698249150068"
    }
  },
  {
    "service_request": "2026-1266336",
    "request_type": "Streetlights",
    "request_reason": "Streetlight Outage/Malfunction",
    "date_created": "2026-03-17T14:41:14.000",
    "date_modified": "2026-03-17T14:43:29.000",
    "request_status": "Pending",
    "responsible_agency": "Department of Public Works",
    "final_address": "2933 S Saratoga St",
    "address_councildis": "B",
    "status": "Pending",
    "rowid": "1266336",
    "final_x": "3674321.15131",
    "final_y": "523671.375995",
    "longitude": "-90.09100727470073",
    "latitude": "29.934130564651635",
    "geocoded_column": {
      "latitude": "29.934130564651635",
      "longitude": "-90.09100727470073"
    }
  },
  {
    "service_request": "2026-1266335",
    "request_type": "Trash/Recycling",
    "request_reason": "Request a Large Item Pick Up",
    "date_created": "2026-03-17T14:39:02.000",
    "date_modified": "2026-03-17T15:07:33.000",
    "request_status": "Pending",
    "responsible_agency": "Department of Sanitation",
    "final_address": "2265 Mithra St",
    "address_councildis": "D",
    "status": "Assigned to Contractor",
    "contractor": "IV Waste",
    "rowid": "1266335",
    "final_x": "3684303.3462",
    "final_y": "552766.215702",
    "longitude": "-90.05847195897289",
    "latitude": "30.013829860442346",
    "geocoded_column": {
      "latitude": "30.013829860442346",
      "longitude": "-90.05847195897289"
    }
  },
  {
    "service_request": "2026-1266334",
    "request_type": "Trash/Recycling",
    "request_reason": "Replace Trash Cart",
    "date_created": "2026-03-17T14:38:33.000",
    "date_modified": "2026-03-17T14:38:35.000",
    "request_status": "Pending",
    "responsible_agency": "Department of Sanitation",
    "final_address": "204 N Pierce St",
    "address_councildis": "A",
    "status": "Assigned to Contractor",
    "contractor": "IV Waste",
    "rowid": "1266334",
    "final_x": "3671808.89454",
    "final_y": "538438.442953",
    "longitude": "-90.09843597157318",
    "latitude": "29.97480977113289",
    "geocoded_column": {
      "latitude": "29.97480977113289",
      "longitude": "-90.09843597157318"
    }
  },
  {
    "service_request": "2026-1266333",
    "request_type": "Streetlights",
    "request_reason": "Streetlight Outage/Malfunction",
    "date_created": "2026-03-17T14:38:09.000",
    "date_modified": "2026-03-17T14:38:10.000",
    "request_status": "Pending",
    "responsible_agency": "Department of Public Works",
    "final_address": "1700 BLK Lafitte Ave",
    "address_councildis": "D",
    "status": "Pending",
    "rowid": "1266333",
    "final_x": "3679409.48038",
    "final_y": "534489.344523",
    "longitude": "-90.07456842771663",
    "latitude": "29.963723681432015",
    "geocoded_column": {
      "latitude": "29.963723681432015",
      "longitude": "-90.07456842771663"
    }
  },
  {
    "service_request": "2026-1266332",
    "request_type": "Trash/Recycling",
    "request_reason": "Request a Large Item Pick Up",
    "date_created": "2026-03-17T14:35:15.000",
    "date_modified": "2026-03-17T14:35:19.000",
    "request_status": "Pending",
    "responsible_agency": "Department of Sanitation",
    "final_address": "4566 Viola St",
    "address_councildis": "E",
    "status": "Assigned to Contractor",
    "contractor": "Waste Pro",
    "rowid": "1266332",
    "final_x": "3704052.03646",
    "final_y": "554030.100952",
    "longitude": "-89.99603011066687",
    "latitude": "30.01668611615896",
    "geocoded_column": {
      "latitude": "30.01668611615896",
      "longitude": "-89.99603011066687"
    }
  },
  {
    "service_request": "2026-1266331",
    "request_type": "Trash/Recycling",
    "request_reason": "Repair Trash Cart",
    "date_created": "2026-03-17T14:31:44.000",
    "date_modified": "2026-03-17T14:31:48.000",
    "request_status": "Pending",
    "responsible_agency": "Department of Sanitation",
    "final_address": "8209 Nelson St",
    "address_councildis": "A",
    "status": "Assigned to Contractor",
    "contractor": "IV Waste",
    "rowid": "1266331",
    "final_x": "3664812.14356",
    "final_y": "532174.353987",
    "longitude": "-90.12074292413438",
    "latitude": "29.95779107571706",
    "geocoded_column": {
      "latitude": "29.95779107571706",
      "longitude": "-90.12074292413438"
    }
  },
  {
    "service_request": "2026-1266330",
    "request_type": "Trash/Recycling",
    "request_reason": "Request a Large Item Pick Up",
    "date_created": "2026-03-17T14:28:32.000",
    "date_modified": "2026-03-17T14:28:34.000",
    "request_status": "Pending",
    "responsible_agency": "Department of Sanitation",
    "final_address": "605 S Scott St",
    "address_councildis": "B",
    "status": "Assigned to Contractor",
    "contractor": "IV Waste",
    "rowid": "1266330",
    "final_x": "3670504.04987",
    "final_y": "536217.742343",
    "longitude": "-90.10263233906836",
    "latitude": "29.968742194222905",
    "geocoded_column": {
      "latitude": "29.968742194222905",
      "longitude": "-90.10263233906836"
    }
  },
  {
    "service_request": "2026-1266329",
    "request_type": "Trash/Recycling",
    "request_reason": "Replace Trash Cart",
    "date_created": "2026-03-17T14:26:17.000",
    "date_modified": "2026-03-17T14:26:19.000",
    "request_status": "Pending",
    "responsible_agency": "Department of Sanitation",
    "final_address": "7613 Willow St",
    "address_councildis": "A",
    "status": "Assigned to Contractor",
    "contractor": "IV Waste",
    "rowid": "1266329",
    "final_x": "3663712.57389",
    "final_y": "527797.995071",
    "longitude": "-90.12436087209126",
    "latitude": "29.94578945278062",
    "geocoded_column": {
      "latitude": "29.94578945278062",
      "longitude": "-90.12436087209126"
    }
  },
  {
    "service_request": "2026-1266328",
    "request_type": "Trash/Recycling",
    "request_reason": "Return Recycling Cart",
    "date_created": "2026-03-17T14:25:27.000",
    "date_modified": "2026-03-17T14:25:29.000",
    "request_status": "Pending",
    "responsible_agency": "Department of Sanitation",
    "final_address": "2 Olympic Ct",
    "address_councildis": "C",
    "status": "Pending",
    "rowid": "1266328",
    "final_x": "3700237.74404",
    "final_y": "516506.460021",
    "longitude": "-90.00945138812452",
    "latitude": "29.913631436788148",
    "geocoded_column": {
      "latitude": "29.913631436788148",
      "longitude": "-90.00945138812452"
    }
  },
  {
    "service_request": "2026-1266327",
    "request_type": "Trash/Recycling",
    "request_reason": "Order Recycling Cart",
    "date_created": "2026-03-17T14:22:36.000",
    "date_modified": "2026-03-17T14:22:38.000",
    "request_status": "Pending",
    "responsible_agency": "Department of Sanitation",
    "final_address": "2 Olympic Ct",
    "address_councildis": "C",
    "status": "Pending",
    "rowid": "1266327",
    "final_x": "3700237.74404",
    "final_y": "516506.460021",
    "longitude": "-90.00945138812452",
    "latitude": "29.913631436788148",
    "geocoded_column": {
      "latitude": "29.913631436788148",
      "longitude": "-90.00945138812452"
    }
  },
  {
    "service_request": "2026-1266326",
    "request_type": "Trash/Recycling",
    "request_reason": "Replace Recycling Cart",
    "date_created": "2026-03-17T14:21:46.000",
    "date_modified": "2026-03-17T14:26:02.000",
    "request_status": "Pending",
    "responsible_agency": "Department of Sanitation",
    "final_address": "7613 Willow St",
    "address_councildis": "A",
    "status": "Pending",
    "rowid": "1266326",
    "final_x": "3663712.57389",
    "final_y": "527797.995071",
    "longitude": "-90.12436087209126",
    "latitude": "29.94578945278062",
    "geocoded_column": {
      "latitude": "29.94578945278062",
      "longitude": "-90.12436087209126"
    }
  },
  {
    "service_request": "2026-1266325",
    "request_type": "Trash/Recycling",
    "request_reason": "Repair Recycling Cart",
    "date_created": "2026-03-17T14:21:40.000",
    "date_modified": "2026-03-17T14:21:42.000",
    "request_status": "Pending",
    "responsible_agency": "Department of Sanitation",
    "final_address": "11429 N St Andrews Cir",
    "address_councildis": "E",
    "status": "Pending",
    "rowid": "1266325",
    "final_x": "3719160.18482",
    "final_y": "560393.763166",
    "longitude": "-89.94805227635207",
    "latitude": "30.03369015213004",
    "geocoded_column": {
      "latitude": "30.03369015213004",
      "longitude": "-89.94805227635207"
    }
  },
  {
    "service_request": "2026-1266324",
    "request_type": "Streetlights",
    "request_reason": "Streetlight Outage/Malfunction",
    "date_created": "2026-03-17T14:19:20.000",
    "date_modified": "2026-03-17T14:19:21.000",
    "request_status": "Pending",
    "responsible_agency": "Department of Public Works",
    "final_address": "62 Yellowstone Dr",
    "address_councildis": "C",
    "status": "Pending",
    "rowid": "1266324",
    "final_x": "3700295.26352",
    "final_y": "516616.542645",
    "longitude": "-90.00926582467974",
    "latitude": "29.913932299114002",
    "geocoded_column": {
      "latitude": "29.913932299114002",
      "longitude": "-90.00926582467974"
    }
  },
  {
    "service_request": "2026-1266323",
    "request_type": "Trash/Recycling",
    "request_reason": "Request a Large Item Pick Up",
    "date_created": "2026-03-17T14:17:03.000",
    "date_modified": "2026-03-17T14:17:05.000",
    "request_status": "Pending",
    "responsible_agency": "Department of Sanitation",
    "final_address": "7938 Parry St",
    "address_councildis": "E",
    "status": "Assigned to Contractor",
    "contractor": "Waste Pro",
    "rowid": "1266323",
    "final_x": "3713682.65682",
    "final_y": "569338.106726",
    "longitude": "-89.96502418291038",
    "latitude": "30.058464417179678",
    "geocoded_column": {
      "latitude": "30.058464417179678",
      "longitude": "-89.96502418291038"
    }
  },
  {
    "service_request": "2026-1266322",
    "request_type": "Traffic Signals",
    "request_reason": "Traffic Signal Malfunctioning or Damaged",
    "date_created": "2026-03-17T14:16:30.000",
    "date_modified": "2026-03-17T14:16:31.000",
    "request_status": "Pending",
    "responsible_agency": "Department of Public Works",
    "final_address": "S CARROLLTON AVE & TULANE AVE",
    "address_councildis": "A",
    "status": "Pending",
    "rowid": "1266322",
    "final_x": "3669337.8",
    "final_y": "536308.78",
    "longitude": "-90.10631235722039",
    "latitude": "29.96902690865695",
    "geocoded_column": {
      "latitude": "29.96902690865695",
      "longitude": "-90.10631235722039"
    }
  },
  {
    "service_request": "2026-1266321",
    "request_type": "Streetlights",
    "request_reason": "Streetlight Outage/Malfunction",
    "date_created": "2026-03-17T14:14:37.000",
    "date_modified": "2026-03-17T14:14:39.000",
    "request_status": "Pending",
    "responsible_agency": "Department of Public Works",
    "final_address": "2200 BLK Magic St",
    "address_councildis": "D",
    "status": "Pending",
    "rowid": "1266321",
    "final_x": "3678073.39152",
    "final_y": "535625.479062",
    "longitude": "-90.07874838155675",
    "latitude": "29.96688795592884",
    "geocoded_column": {
      "latitude": "29.96688795592884",
      "longitude": "-90.07874838155675"
    }
  },
  {
    "service_request": "2026-1266320",
    "request_type": "Street and Traffic Signs",
    "request_reason": "Traffic or Parking Sign Damaged or Missing",
    "date_created": "2026-03-17T14:13:20.000",
    "date_modified": "2026-03-17T14:13:22.000",
    "request_status": "Pending",
    "responsible_agency": "Department of Public Works",
    "final_address": "OKEEFE AVE & LAFAYETTE ST",
    "address_councildis": "B",
    "status": "Pending",
    "rowid": "1266320",
    "final_x": "3679446.1",
    "final_y": "529190.88",
    "longitude": "-90.07463658656482",
    "latitude": "29.949153587277227",
    "geocoded_column": {
      "latitude": "29.949153587277227",
      "longitude": "-90.07463658656482"
    }
  },
  {
    "service_request": "2026-1266319",
    "request_type": "Abandoned Vehicles",
    "request_reason": "Abandoned/Junk Vehicles",
    "date_created": "2026-03-17T14:12:46.000",
    "date_modified": "2026-03-17T14:12:48.000",
    "request_status": "Pending",
    "responsible_agency": "Department of Public Works",
    "final_address": "317 Homer St",
    "address_councildis": "C",
    "status": "Pending",
    "rowid": "1266319",
    "final_x": "3686314.83881",
    "final_y": "528240.193152",
    "longitude": "-90.05298254903028",
    "latitude": "29.9463302652577",
    "geocoded_column": {
      "latitude": "29.9463302652577",
      "longitude": "-90.05298254903028"
    }
  },
  {
    "service_request": "2026-1266318",
    "request_type": "Trash/Recycling",
    "request_reason": "Order Second Trash Cart",
    "date_created": "2026-03-17T14:08:34.000",
    "date_modified": "2026-03-17T14:08:35.000",
    "request_status": "Pending",
    "responsible_agency": "Department of Sanitation",
    "final_address": "136 S Solomon St",
    "address_councildis": "A",
    "status": "Assigned to Contractor",
    "contractor": "IV Waste",
    "rowid": "1266318",
    "final_x": "3670446.15745",
    "final_y": "538394.501513",
    "longitude": "-90.1027413392566",
    "latitude": "29.97472925952119",
    "geocoded_column": {
      "latitude": "29.97472925952119",
      "longitude": "-90.1027413392566"
    }
  },
  {
    "service_request": "2026-1266317",
    "request_type": "Trash/Recycling",
    "request_reason": "Order Recycling Cart",
    "date_created": "2026-03-17T14:08:34.000",
    "date_modified": "2026-03-17T14:08:36.000",
    "request_status": "Pending",
    "responsible_agency": "Department of Sanitation",
    "final_address": "1220 N Prieur St",
    "address_councildis": "D",
    "status": "Pending",
    "rowid": "1266317",
    "final_x": "3680215.38165",
    "final_y": "536826.495688",
    "longitude": "-90.07194222503591",
    "latitude": "29.970125678794645",
    "geocoded_column": {
      "latitude": "29.970125678794645",
      "longitude": "-90.07194222503591"
    }
  },