[
  {
    "service_request": "2026-1250021",
    "request_type": "Trash/Recycling",
    "request_reason": "Repair Trash Cart",
    "date_created": "2026-01-06T23:11:49.000",
    "date_modified": "2026-01-06T23:11:51.000",
    "request_status": "Pending",
    "responsible_agency": "Department of Sanitation",
    "final_address": "6631 Morrison Rd",
    "address_councildis": "E",
    "status": "Assigned to Contractor",
    "contractor": "Waste Pro",
    "rowid": "1250021",
    "final_x": "3698116.08285",
    "final_y": "558584.11702",
    "longitude": "-90.01461950858598",
    "latitude": "30.0293970782149",
    "geocoded_column": {
      "latitude": "30.0293970782149",
      "longitude": "-90.01461950858598"
    }
  },
  {
    "service_request": "2026-1250020",
    "request_type": "Property Maintenance",
    "request_reason": "Property Maintenance",
    "date_created": "2026-01-06T22:40:45.000",
    "date_modified": "2026-01-06T22:40:47.000",
    "request_status": "Pending",
    "responsible_agency": "Department of Code Enforcement",
    "final_address": "3601 Laurel St",
    "address_councildis": "B",
    "status": "Pending",
    "rowid": "1250020",
    "final_x": "3674350.48884",
    "final_y": "518618.596855",
    "longitude": "-90.09108759228242",
    "latitude": "29.920236177644792",
    "geocoded_column": {
      "latitude": "29.920236177644792",
      "longitude": "-90.09108759228242"
    }
  },
  {
    "service_request": "2026-1250019",
    "request_type": "Street and Traffic Signs",
    "request_reason": "Street Name Sign Damaged or Missing",
    "date_created": "2026-01-06T22:21:45.000",
    "date_modified": "2026-01-06T22:21:47.000",
    "request_status": "Pending",
    "responsible_agency": "Department of Public Works",
    "final_address": "DAUPHINE ST & ESPLANADE AVE",
    "address_councildis": "C",
    "status": "Pending",
    "rowid": "1250019",
    "final_x": "3683488.2",
    "final_y": "534888.38",
    "longitude": "-90.06167426991615",
    "latitude": "29.964697057818046",
    "geocoded_column": {
      "latitude": "29.964697057818046",
      "longitude": "-90.06167426991615"
    }
  },
  {
    "service_request": "2026-1250018",
    "request_type": "General Services",
    "request_reason": "General Service Request",
    "date_created": "2026-01-06T21:41:36.000",
    "date_modified": "2026-01-06T21:41:42.000",
    "request_status": "Pending",
    "responsible_agency": "Orleans Parish Communication District",
    "final_address": "2200 BLK Upperline St",
    "address_councildis": "B",
    "status": "Pending",
    "rowid": "1250018",
    "final_x": "3669135.49568",
    "final_y": "523020.49607",
    "longitude": "-90.10740023666168",
    "latitude": "29.93249443019217",
    "geocoded_column": {
      "latitude": "29.93249443019217",
      "longitude": "-90.10740023666168"
    }
  },
  {
    "service_request": "2026-1250017",
    "request_type": "Trash/Recycling",
    "request_reason": "Replace Trash Cart",
    "date_created": "2026-01-06T21:39:00.000",
    "date_modified": "2026-01-06T21:39:02.000",
    "request_status": "Pending",
    "responsible_agency": "Department of Sanitation",
    "final_address": "36 Fontainebleau Dr",
    "address_councildis": "A",
    "status": "Assigned to Contractor",
    "contractor": "IV Waste",
    "rowid": "1250017",
    "final_x": "3666024.12327",
    "final_y": "531424.331011",
    "longitude": "-90.11694096744584",
    "latitude": "29.955693435294833",
    "geocoded_column": {
      "latitude": "29.955693435294833",
      "longitude": "-90.11694096744584"
    }
  },
  {
    "service_request": "2026-1250016",
    "request_type": "Trash/Recycling",
    "request_reason": "Request a Large Item Pick Up",
    "date_created": "2026-01-06T21:30:40.000",
    "date_modified": "2026-01-06T21:30:42.000",
    "request_status": "Pending",
    "responsible_agency": "Department of Sanitation",
    "final_address": "2601 Calhoun St",
    "address_councildis": "A",
    "status": "Assigned to Contractor",
    "contractor": "IV Waste",
    "rowid": "1250016",
    "final_x": "3666374.15777",
    "final_y": "526372.882942",
    "longitude": "-90.11600513664193",
    "latitude": "29.941793368244124",
    "geocoded_column": {
      "latitude": "29.941793368244124",
      "longitude": "-90.11600513664193"
    }
  },
  {
    "service_request": "2026-1250015",
    "request_type": "Trash/Recycling",
    "request_reason": "Order Trash Cart",
    "date_created": "2026-01-06T21:23:42.000",
    "date_modified": "2026-01-06T21:23:45.000",
    "request_status": "Pending",
    "responsible_agency": "Department of Sanitation",
    "final_address": "4616 Conti St Apt 2B",
    "address_councildis": "A",
    "status": "Assigned to Contractor",
    "contractor": "IV Waste",
    "rowid": "1250015",
    "final_x": "3669945.75866",
    "final_y": "540608.702411",
    "longitude": "-90.10424671689495",
    "latitude": "29.980832330384356",
    "geocoded_column": {
      "latitude": "29.980832330384356",
      "longitude": "-90.10424671689495"
    }
  },
  {
    "service_request": "2026-1250014",
    "request_type": "Abandoned Vehicles",
    "request_reason": "Abandoned/Junk Vehicles",
    "date_created": "2026-01-06T21:01:52.000",
    "date_modified": "2026-01-06T21:01:54.000",
    "request_status": "Pending",
    "responsible_agency": "Department of Public Works",
    "final_address": "911 Delachaise St",
    "address_councildis": "B",
    "status": "Pending",
    "rowid": "1250014",
    "final_x": "3674950.97537",
    "final_y": "518922.500151",
    "longitude": "-90.08918172349557",
    "latitude": "29.921053899929753",
    "geocoded_column": {
      "latitude": "29.921053899929753",
      "longitude": "-90.08918172349557"
    }
  },
  {
    "service_request": "2026-1250013",
    "request_type": "Trash/Recycling",
    "request_reason": "Request a Large Item Pick Up",
    "date_created": "2026-01-06T20:59:04.000",
    "date_modified": "2026-01-06T20:59:06.000",
    "request_status": "Pending",
    "responsible_agency": "Department of Sanitation",
    "final_address": "4624 Charlene Dr",
    "address_councildis": "E",
    "status": "Assigned to Contractor",
    "contractor": "Waste Pro",
    "rowid": "1250013",
    "final_x": "3707930.75934",
    "final_y": "554674.717464",
    "longitude": "-89.98375110809992",
    "latitude": "30.018333520397995",
    "geocoded_column": {
      "latitude": "30.018333520397995",
      "longitude": "-89.98375110809992"
    }
  },
  {
    "service_request": "2026-1250012",
    "request_type": "Streetlights",
    "request_reason": "Streetlight Outage/Malfunction",
    "date_created": "2026-01-06T20:18:51.000",
    "date_modified": "2026-01-06T20:18:57.000",
    "request_status": "Pending",
    "responsible_agency": "Department of Public Works",
    "final_address": "7730 Swift St",
    "address_councildis": "E",
    "status": "Pending",
    "rowid": "1250012",
    "final_x": "3695270.65469",
    "final_y": "559134.242268",
    "longitude": "-90.02359108949773",
    "latitude": "30.030999448196816",
    "geocoded_column": {
      "latitude": "30.030999448196816",
      "longitude": "-90.02359108949773"
    }
  },
  {
    "service_request": "2026-1250011",
    "request_type": "Trash/Recycling",
    "request_reason": "Request a Large Item Pick Up",
    "date_created": "2026-01-06T20:07:20.000",
    "date_modified": "2026-01-06T20:07:22.000",
    "request_status": "Pending",
    "responsible_agency": "Department of Sanitation",
    "final_address": "2001 Clouet St",
    "address_councildis": "D",
    "status": "Assigned to Contractor",
    "contractor": "IV Waste",
    "rowid": "1250011",
    "final_x": "3689933.68368",
    "final_y": "539399.701258",
    "longitude": "-90.04115928576677",
    "latitude": "29.976903339281165",
    "geocoded_column": {
      "latitude": "29.976903339281165",
      "longitude": "-90.04115928576677"
    }
  },
  {
    "service_request": "2026-1250010",
    "request_type": "Streetlights",
    "request_reason": "Streetlight Outage/Malfunction",
    "date_created": "2026-01-06T19:38:04.000",
    "date_modified": "2026-01-06T19:38:05.000",
    "request_status": "Pending",
    "responsible_agency": "Department of Public Works",
    "final_address": "10700 BLK Roger Dr",
    "address_councildis": "E",
    "status": "Pending",
    "rowid": "1250010",
    "final_x": "3711946.31393",
    "final_y": "563291.888624",
    "longitude": "-89.9707398013987",
    "latitude": "30.041896667804124",
    "geocoded_column": {
      "latitude": "30.041896667804124",
      "longitude": "-89.9707398013987"
    }
  },
  {
    "service_request": "2026-1250009",
    "request_type": "Trash/Recycling",
    "request_reason": "Request a Large Item Pick Up",
    "date_created": "2026-01-06T19:36:44.000",
    "date_modified": "2026-01-06T19:36:45.000",
    "request_status": "Pending",
    "responsible_agency": "Department of Sanitation",
    "final_address": "3802 State Street Dr",
    "address_councildis": "A",
    "status": "Assigned to Contractor",
    "contractor": "IV Waste",
    "rowid": "1250009",
    "final_x": "3667983.10484",
    "final_y": "529462.759873",
    "longitude": "-90.11082126017182",
    "latitude": "29.950242428610746",
    "geocoded_column": {
      "latitude": "29.950242428610746",
      "longitude": "-90.11082126017182"
    }
  },
  {
    "service_request": "2026-1250008",
    "request_type": "Trash/Recycling",
    "request_reason": "Repair Trash Cart",
    "date_created": "2026-01-06T19:35:11.000",
    "date_modified": "2026-01-06T19:35:13.000",
    "request_status": "Pending",
    "responsible_agency": "Department of Sanitation",
    "final_address": "3802 State Street Dr",
    "address_councildis": "A",
    "status": "Assigned to Contractor",
    "contractor": "IV Waste",
    "rowid": "1250008",
    "final_x": "3667983.10484",
    "final_y": "529462.759873",
    "longitude": "-90.11082126017182",
    "latitude": "29.950242428610746",
    "geocoded_column": {
      "latitude": "29.950242428610746",
      "longitude": "-90.11082126017182"
    }
  },
  {
    "service_request": "2026-1250007",
    "request_type": "Trash/Recycling",
    "request_reason": "Replace Trash Cart",
    "date_created": "2026-01-06T19:34:58.000",
    "date_modified": "2026-01-06T19:35:00.000",
    "request_status": "Pending",
    "responsible_agency": "Department of Sanitation",
    "final_address": "7516 Zimple St",
    "address_councildis": "A",
    "status": "Assigned to Contractor",
    "contractor": "IV Waste",
    "rowid": "1250007",
    "final_x": "3663107.15187",
    "final_y": "526716.120638",
    "longitude": "-90.12630838241886",
    "latitude": "29.942832194518868",
    "geocoded_column": {
      "latitude": "29.942832194518868",
      "longitude": "-90.12630838241886"
    }
  },
  {
    "service_request": "2026-1250006",
    "request_type": "Trash/Recycling",
    "request_reason": "Request a Large Item Pick Up",
    "date_created": "2026-01-06T18:37:58.000",
    "date_modified": "2026-01-06T18:38:00.000",
    "request_status": "Pending",
    "responsible_agency": "Department of Sanitation",
    "final_address": "3034 Fortin St",
    "address_councildis": "A",
    "status": "Assigned to Contractor",
    "contractor": "IV Waste",
    "rowid": "1250006",
    "final_x": "3676873.8804",
    "final_y": "540901.458443",
    "longitude": "-90.08235453721537",
    "latitude": "29.981431150068623",
    "geocoded_column": {
      "latitude": "29.981431150068623",
      "longitude": "-90.08235453721537"
    }
  },
  {
    "service_request": "2026-1250005",
    "request_type": "Trash/Recycling",
    "request_reason": "Request a Large Item Pick Up",
    "date_created": "2026-01-06T18:29:00.000",
    "date_modified": "2026-01-06T18:29:01.000",
    "request_status": "Pending",
    "responsible_agency": "Department of Sanitation",
    "final_address": "4851 Ken Ct",
    "address_councildis": "C",
    "status": "Assigned to Contractor",
    "contractor": "Richards Disposal",
    "rowid": "1250005",
    "final_x": "3702144.70257",
    "final_y": "518440.761846",
    "longitude": "-90.00336160432953",
    "latitude": "29.918889384303846",
    "geocoded_column": {
      "latitude": "29.918889384303846",
      "longitude": "-90.00336160432953"
    }
  },
  {
    "service_request": "2026-1250004",
    "request_type": "Trash/Recycling",
    "request_reason": "Damaged Caused By Contractor",
    "date_created": "2026-01-06T18:26:30.000",
    "date_modified": "2026-01-06T18:26:32.000",
    "request_status": "Pending",
    "responsible_agency": "Department of Sanitation",
    "final_address": "4851 Ken Ct",
    "address_councildis": "C",
    "status": "Assigned to Contractor",
    "contractor": "Richards Disposal",
    "rowid": "1250004",
    "final_x": "3702144.70257",
    "final_y": "518440.761846",
    "longitude": "-90.00336160432953",
    "latitude": "29.918889384303846",
    "geocoded_column": {
      "latitude": "29.918889384303846",
      "longitude": "-90.00336160432953"
    }
  },
  {
    "service_request": "2026-1250003",
    "request_type": "Property Maintenance",
    "request_reason": "Property Maintenance",
    "date_created": "2026-01-06T18:19:36.000",
    "date_modified": "2026-01-06T18:19:37.000",
    "request_status": "Pending",
    "responsible_agency": "Department of Code Enforcement",
    "final_address": "4691 Arthur Dr",
    "address_councildis": "E",
    "status": "Pending",
    "rowid": "1250003",
    "final_x": "3707795.4147",
    "final_y": "555157.185305",
    "longitude": "-89.9841607939076",
    "latitude": "30.019664502321678",
    "geocoded_column": {
      "latitude": "30.019664502321678",
      "longitude": "-89.9841607939076"
    }
  },
  {
    "service_request": "2026-1250002",
    "request_type": "General Services",
    "request_reason": "General Service Request",
    "date_created": "2026-01-06T18:12:21.000",
    "date_modified": "2026-01-06T18:12:22.000",
    "request_status": "Pending",
    "responsible_agency": "Orleans Parish Communication District",
    "final_address": "8201 Oak St",
    "address_councildis": "A",
    "status": "Pending",
    "rowid": "1250002",
    "final_x": "3661693.04051",
    "final_y": "528662.752576",
    "longitude": "-90.13070858774088",
    "latitude": "29.948225695010812",
    "geocoded_column": {
      "latitude": "29.948225695010812",
      "longitude": "-90.13070858774088"
    }
  },
  {
    "service_request": "2026-1250001",
    "request_type": "Trash/Recycling",
    "request_reason": "Request a Large Item Pick Up",
    "date_created": "2026-01-06T18:10:16.000",
    "date_modified": "2026-01-06T18:10:18.000",
    "request_status": "Pending",
    "responsible_agency": "Department of Sanitation",
    "final_address": "1521 Lowerline St",
    "address_councildis": "A",
    "status": "Assigned to Contractor",
    "contractor": "IV Waste",
    "rowid": "1250001",
    "final_x": "3664439.59015",
    "final_y": "527798.926783",
    "longitude": "-90.12206539863567",
    "latitude": "29.945770902700563",
    "geocoded_column": {
      "latitude": "29.945770902700563",
      "longitude": "-90.12206539863567"
    }
  },
  {
    "service_request": "2026-1250000",
    "request_type": "Trash/Recycling",
    "request_reason": "Illegal Dumping",
    "date_created": "2026-01-06T18:00:32.000",
    "date_modified": "2026-01-06T18:00:34.000",
    "request_status": "Pending",
    "responsible_agency": "Department of Sanitation",
    "final_address": "6821 Mayo Rd",
    "address_councildis": "E",
    "status": "Pending",
    "rowid": "1250000",
    "final_x": "3702089.95274",
    "final_y": "557324.814235",
    "longitude": "-90.00210848062339",
    "latitude": "30.025808131978636",
    "geocoded_column": {
      "latitude": "30.025808131978636",
      "longitude": "-90.00210848062339"
    }
  },
  {
    "service_request": "2026-1249999",
    "request_type": "Trash/Recycling",
    "request_reason": "Request a Large Item Pick Up",
    "date_created": "2026-01-06T17:55:47.000",
    "date_modified": "2026-01-06T17:55:50.000",
    "request_status": "Pending",
    "responsible_agency": "Department of Sanitation",
    "final_address": "2229 Burgundy St",
    "address_councildis": "C",
    "status": "Assigned to Contractor",
    "contractor": "IV Waste",
    "rowid": "1249999",
    "final_x": "3685372.02601",
    "final_y": "535646.940294",
    "longitude": "-90.0556985783582",
    "latitude": "29.966725214969042",
    "geocoded_column": {
      "latitude": "29.966725214969042",
      "longitude": "-90.0556985783582"
    }
  },
  {
    "service_request": "2026-1249998",
    "request_type": "Trash/Recycling",
    "request_reason": "MIssed Recycling Pick-Up",
    "date_created": "2026-01-06T17:39:30.000",
    "date_modified": "2026-01-06T17:39:31.000",
    "request_status": "Pending",
    "responsible_agency": "Department of Sanitation",
    "final_address": "734 Hidalgo St",
    "address_councildis": "A",
    "status": "Assigned to Contractor",
    "contractor": "IV Waste",
    "rowid": "1249998",
    "final_x": "3668610.10702",
    "final_y": "544081.395278",
    "longitude": "-90.10834804908575",
    "latitude": "29.99042038002538",
    "geocoded_column": {
      "latitude": "29.99042038002538",
      "longitude": "-90.10834804908575"
    }
  },
  {
    "service_request": "2026-1249997",
    "request_type": "Trash/Recycling",
    "request_reason": "Request a Large Item Pick Up",
    "date_created": "2026-01-06T17:19:55.000",
    "date_modified": "2026-01-06T17:19:57.000",
    "request_status": "Pending",
    "responsible_agency": "Department of Sanitation",
    "final_address": "2122 N Tonti St",
    "address_councildis": "D",
    "status": "Assigned to Contractor",
    "contractor": "IV Waste",
    "rowid": "1249997",
    "final_x": "3683692.84559",
    "final_y": "540598.446795",
    "longitude": "-90.0608277610789",
    "latitude": "29.980391510251515",
    "geocoded_column": {
      "latitude": "29.980391510251515",
      "longitude": "-90.0608277610789"
    }
  },
  {
    "service_request": "2026-1249996",
    "request_type": "Trash/Recycling",
    "request_reason": "Request a Large Item Pick Up",
    "date_created": "2026-01-06T17:14:05.000",
    "date_modified": "2026-01-06T17:14:06.000",
    "request_status": "Pending",
    "responsible_agency": "Department of Sanitation",
    "final_address": "13955 Explorers Ave",
    "address_councildis": "E",
    "status": "Assigned to Contractor",
    "contractor": "Waste Pro",
    "rowid": "1249996",
    "final_x": "3726395.40781",
    "final_y": "570480.789863",
    "longitude": "-89.9247966401097",
    "latitude": "30.061182765805718",
    "geocoded_column": {
      "latitude": "30.061182765805718",
      "longitude": "-89.9247966401097"
    }
  },
  {
    "service_request": "2026-1249995",
    "request_type": "Trash/Recycling",
    "request_reason": "Repair Trash Cart",
    "date_created": "2026-01-06T17:08:07.000",
    "date_modified": "2026-01-06T17:08:09.000",
    "request_status": "Pending",
    "responsible_agency": "Department of Sanitation",
    "final_address": "4201 Franklin Ave",
    "address_councildis": "D",
    "status": "Assigned to Contractor",
    "contractor": "IV Waste",
    "rowid": "1249995",
    "final_x": "3687044.40911",
    "final_y": "548441.431954",
    "longitude": "-90.04996466869727",
    "latitude": "30.00185414285728",
    "geocoded_column": {
      "latitude": "30.00185414285728",
      "longitude": "-90.04996466869727"
    }
  },
  {
    "service_request": "2026-1249994",
    "request_type": "Parks & Parkways",
    "request_reason": "Request Tree Service (Right of Way/Public Property)",
    "date_created": "2026-01-06T16:58:26.000",
    "date_modified": "2026-01-06T16:58:27.000",
    "request_status": "Pending",
    "responsible_agency": "Department of Parks & Parkway",
    "final_address": "5334 Laurel St",
    "address_councildis": "B",
    "status": "Pending",
    "rowid": "1249994",
    "final_x": "3667086.68538",
    "final_y": "517846.67839",
    "longitude": "-90.1140419776082",
    "latitude": "29.91832818147945",
    "geocoded_column": {
      "latitude": "29.91832818147945",
      "longitude": "-90.1140419776082"
    }
  },
  {
    "service_request": "2026-1249993",
    "request_type": "Trash/Recycling",
    "request_reason": "Request a Large Item Pick Up",
    "date_created": "2026-01-06T16:55:57.000",
    "date_modified": "2026-01-06T16:55:58.000",
    "request_status": "Pending",
    "responsible_agency": "Department of Sanitation",
    "final_address": "5031 Madrid St",
    "address_councildis": "D",
    "status": "Assigned to Contractor",
    "contractor": "IV Waste",
    "rowid": "1249993",
    "final_x": "3691341.91209",
    "final_y": "556339.577178",
    "longitude": "-90.03610597055565",
    "latitude": "30.023438065756437",
    "geocoded_column": {
      "latitude": "30.023438065756437",
      "longitude": "-90.03610597055565"
    }
  },
  {
    "service_request": "2026-1249992",
    "request_type": "Parks & Parkways",
    "request_reason": "Request Grass Cutting Service (City Owned Property)",
    "date_created": "2026-01-06T16:54:53.000",
    "date_modified": "2026-01-06T16:54:55.000",
    "request_status": "Pending",
    "responsible_agency": "Department of Parks & Parkway",
    "final_address": "5334 Laurel St",
    "address_councildis": "B",
    "status": "Pending",
    "rowid": "1249992",
    "final_x": "3667086.68538",
    "final_y": "517846.67839",
    "longitude": "-90.1140419776082",
    "latitude": "29.91832818147945",
    "geocoded_column": {
      "latitude": "29.91832818147945",
      "longitude": "-90.1140419776082"
    }
  },
  {
    "service_request": "2026-1249991",
    "request_type": "Trash/Recycling",
    "request_reason": "Request a Large Item Pick Up",
    "date_created": "2026-01-06T16:49:47.000",
    "date_modified": "2026-01-06T16:49:48.000",
    "request_status": "Pending",
    "responsible_agency": "Department of Sanitation",
    "final_address": "3934 S Pin Oak Ave",
    "address_councildis": "C",
    "status": "Assigned to Contractor",
    "contractor": "Richards Disposal",
    "rowid": "1249991",
    "final_x": "3704992.60286",
    "final_y": "513534.983026",
    "longitude": "-89.99455325391556",
    "latitude": "29.905308978723436",
    "geocoded_column": {
      "latitude": "29.905308978723436",
      "longitude": "-89.99455325391556"
    }
  },
  {
    "service_request": "2026-1249990",
    "request_type": "Trash/Recycling",
    "request_reason": "Repair Recycling Cart",
    "date_created": "2026-01-06T16:47:53.000",
    "date_modified": "2026-01-06T16:47:55.000",
    "request_status": "Pending",
    "responsible_agency": "Department of Sanitation",
    "final_address": "2110 State St",
    "address_councildis": "A",
    "status": "Pending",
    "rowid": "1249990",
    "final_x": "3666357.28788",
    "final_y": "524538.958012",
    "longitude": "-90.11611990601128",
    "latitude": "29.93675115534343",
    "geocoded_column": {
      "latitude": "29.93675115534343",
      "longitude": "-90.11611990601128"
    }
  },
  {
    "service_request": "2026-1249989",
    "request_type": "Trash/Recycling",
    "request_reason": "Request a Large Item Pick Up",
    "date_created": "2026-01-06T16:46:01.000",
    "date_modified": "2026-01-06T16:46:03.000",
    "request_status": "Pending",
    "responsible_agency": "Department of Sanitation",
    "final_address": "7103 Freret St Apt 202",
    "address_councildis": "A",
    "status": "Assigned to Contractor",
    "contractor": "IV Waste",
    "rowid": "1249989",
    "final_x": "3664013.20608",
    "final_y": "525815.878653",
    "longitude": "-90.1234777503319",
    "latitude": "29.94033054177785",
    "geocoded_column": {
      "latitude": "29.94033054177785",
      "longitude": "-90.1234777503319"
    }
  },
  {
    "service_request": "2026-1249988",
    "request_type": "Trash/Recycling",
    "request_reason": "Missed Trash Pick-Up",
    "date_created": "2026-01-06T16:42:05.000",
    "date_modified": "2026-01-06T17:37:04.000",
    "case_close_date": "2026-01-06T11:37:04.000",
    "request_status": "Closed",
    "responsible_agency": "Department of Sanitation",
    "final_address": "7000 Beauvoir Ct",
    "address_councildis": "E",
    "status": "Invalid Request",
    "contractor": "Waste Pro",
    "contractor_action": "Invalid",
    "rowid": "1249988",
    "final_x": "3716773.0053",
    "final_y": "567068.267492",
    "longitude": "-89.95534229594888",
    "latitude": "30.052121462938644",
    "geocoded_column": {
      "latitude": "30.052121462938644",
      "longitude": "-89.95534229594888"
    }
  },
  {
    "service_request": "2026-1249987",
    "request_type": "Streetlights",
    "request_reason": "Streetlight Outage/Malfunction",
    "date_created": "2026-01-06T16:41:37.000",
    "date_modified": "2026-01-06T16:41:38.000",
    "request_status": "Pending",
    "responsible_agency": "Department of Public Works",
    "final_address": "FRENCH ST & CATINA ST",
    "address_councildis": "A",
    "status": "Pending",
    "rowid": "1249987",
    "final_x": "3666862.0",
    "final_y": "548952.38",
    "longitude": "-90.11370612403938",
    "latitude": "30.003865184679537",
    "geocoded_column": {
      "latitude": "30.003865184679537",
      "longitude": "-90.11370612403938"
    }
  },
  {
    "service_request": "2026-1249986",
    "request_type": "Trash/Recycling",
    "request_reason": "Repair Trash Cart",
    "date_created": "2026-01-06T16:31:23.000",
    "date_modified": "2026-01-06T16:31:24.000",
    "request_status": "Pending",
    "responsible_agency": "Department of Sanitation",
    "final_address": "2223 Valence St",
    "address_councildis": "B",
    "status": "Assigned to Contractor",
    "contractor": "IV Waste",
    "rowid": "1249986",
    "final_x": "3669601.301",
    "final_y": "523087.807995",
    "longitude": "-90.10592744966031",
    "latitude": "29.932665804781337",
    "geocoded_column": {
      "latitude": "29.932665804781337",
      "longitude": "-90.10592744966031"
    }
  },
  {
    "service_request": "2026-1249985",
    "request_type": "Abandoned Vehicles",
    "request_reason": "Abandoned/Junk Vehicles",
    "date_created": "2026-01-06T16:27:00.000",
    "date_modified": "2026-01-06T16:28:07.000",
    "request_status": "Pending",
    "responsible_agency": "Department of Public Works",
    "final_address": "3805 General Taylor St",
    "address_councildis": "B",
    "status": "Pending",
    "rowid": "1249985",
    "final_x": "3670889.25287",
    "final_y": "528630.826368",
    "longitude": "-90.10167338683667",
    "latitude": "29.94786930787524",
    "geocoded_column": {
      "latitude": "29.94786930787524",
      "longitude": "-90.10167338683667"
    }
  },
  {
    "service_request": "2026-1249984",
    "request_type": "Trash/Recycling",
    "request_reason": "Replace Trash Cart",
    "date_created": "2026-01-06T16:22:48.000",
    "date_modified": "2026-01-06T16:22:49.000",
    "request_status": "Pending",
    "responsible_agency": "Department of Sanitation",
    "final_address": "5524 Patio Way",
    "address_councildis": "E",
    "status": "Assigned to Contractor",
    "contractor": "Waste Pro",
    "rowid": "1249984",
    "final_x": "3725280.79923",
    "final_y": "564045.938849",
    "longitude": "-89.9285692186383",
    "latitude": "30.04352724739063",
    "geocoded_column": {
      "latitude": "30.04352724739063",
      "longitude": "-89.9285692186383"
    }
  },
  {
    "service_request": "2026-1249983",
    "request_type": "Trash/Recycling",
    "request_reason": "Request a Large Item Pick Up",
    "date_created": "2026-01-06T16:19:17.000",
    "date_modified": "2026-01-06T16:19:18.000",
    "request_status": "Pending",
    "responsible_agency": "Department of Sanitation",
    "final_address": "7361 Symmes Ave",
    "address_councildis": "E",
    "status": "Assigned to Contractor",
    "contractor": "Waste Pro",
    "rowid": "1249983",
    "final_x": "3708303.68657",
    "final_y": "563883.998113",
    "longitude": "-89.98222970363396",
    "latitude": "30.043643334321047",
    "geocoded_column": {
      "latitude": "30.043643334321047",
      "longitude": "-89.98222970363396"
    }
  },
  {
    "service_request": "2026-1249982",
    "request_type": "Trash/Recycling",
    "request_reason": "Order Recycling Cart",
    "date_created": "2026-01-06T16:18:54.000",
    "date_modified": "2026-01-06T16:18:56.000",
    "request_status": "Pending",
    "responsible_agency": "Department of Sanitation",
    "final_address": "7720 Breakwater Dr",
    "address_councildis": "A",
    "status": "Pending",
    "rowid": "1249982",
    "final_x": "3664804.64743",
    "final_y": "557124.046106",
    "longitude": "-90.11993230187063",
    "latitude": "30.026394460619322",
    "geocoded_column": {
      "latitude": "30.026394460619322",
      "longitude": "-90.11993230187063"
    }
  },
  {
    "service_request": "2026-1249981",
    "request_type": "Parks & Parkways",
    "request_reason": "Tree Stump (removal, grind)",
    "date_created": "2026-01-06T16:17:16.000",
    "date_modified": "2026-01-06T16:17:18.000",
    "request_status": "Pending",
    "responsible_agency": "Department of Parks & Parkway",
    "final_address": "7900 Sandpiper Dr",
    "address_councildis": "E",
    "status": "Pending",
    "rowid": "1249981",
    "final_x": "3715319.95218",
    "final_y": "570376.098855",
    "longitude": "-89.95980958385081",
    "latitude": "30.061264605113873",
    "geocoded_column": {
      "latitude": "30.061264605113873",
      "longitude": "-89.95980958385081"
    }
  },
  {
    "service_request": "2026-1249980",
    "request_type": "Trash/Recycling",
    "request_reason": "Return Trash Cart",
    "date_created": "2026-01-06T16:16:33.000",
    "date_modified": "2026-01-06T16:16:35.000",
    "request_status": "Pending",
    "responsible_agency": "Department of Sanitation",
    "final_address": "1439 Louisiana Ave",
    "address_councildis": "B",
    "status": "Assigned to Contractor",
    "contractor": "IV Waste",
    "rowid": "1249980",
    "final_x": "3674567.20648",
    "final_y": "520902.567993",
    "longitude": "-90.0903253090172",
    "latitude": "29.926509901896985",
    "geocoded_column": {
      "latitude": "29.926509901896985",
      "longitude": "-90.0903253090172"
    }
  },
  {
    "service_request": "2026-1249979",
    "request_type": "Streetlights",
    "request_reason": "Streetlight Outage/Malfunction",
    "date_created": "2026-01-06T16:11:28.000",
    "date_modified": "2026-01-06T16:11:42.000",
    "request_status": "Pending",
    "responsible_agency": "Department of Public Works",
    "final_address": "1040 Dumaine St",
    "address_councildis": "C",
    "status": "Pending",
    "rowid": "1249979",
    "final_x": "3681886.56642",
    "final_y": "533869.537605",
    "longitude": "-90.0667676784658",
    "latitude": "29.961944368113144",
    "geocoded_column": {
      "latitude": "29.961944368113144",
      "longitude": "-90.0667676784658"
    }
  },
  {
    "service_request": "2026-1249978",
    "request_type": "Streetlights",
    "request_reason": "Streetlight Outage/Malfunction",
    "date_created": "2026-01-06T16:10:55.000",
    "date_modified": "2026-01-06T16:11:07.000",
    "request_status": "Pending",
    "responsible_agency": "Department of Public Works",
    "final_address": "910 St Ann St",
    "address_councildis": "C",
    "status": "Pending",
    "rowid": "1249978",
    "final_x": "3682109.39324",
    "final_y": "533240.235204",
    "longitude": "-90.06608600470646",
    "latitude": "29.96020722717379",
    "geocoded_column": {
      "latitude": "29.96020722717379",
      "longitude": "-90.06608600470646"
    }
  },
  {
    "service_request": "2026-1249977",
    "request_type": "Streetlights",
    "request_reason": "Streetlight Outage/Malfunction",
    "date_created": "2026-01-06T16:10:19.000",
    "date_modified": "2026-01-06T16:10:33.000",
    "request_status": "Pending",
    "responsible_agency": "Department of Public Works",
    "final_address": "913 St Ann St",
    "address_councildis": "C",
    "status": "Pending",
    "rowid": "1249977",
    "final_x": "3682114.44821",
    "final_y": "533281.533636",
    "longitude": "-90.06606859987825",
    "latitude": "29.960320630038584",
    "geocoded_column": {
      "latitude": "29.960320630038584",
      "longitude": "-90.06606859987825"
    }
  },
  {
    "service_request": "2026-1249976",
    "request_type": "Streetlights",
    "request_reason": "Streetlight Outage/Malfunction",
    "date_created": "2026-01-06T16:09:44.000",
    "date_modified": "2026-01-06T16:09:45.000",
    "request_status": "Pending",
    "responsible_agency": "Department of Public Works",
    "final_address": "933 St Ann St",
    "address_councildis": "C",
    "status": "Pending",
    "rowid": "1249976",
    "final_x": "3682023.82786",
    "final_y": "533390.040964",
    "longitude": "-90.06635097121261",
    "latitude": "29.960621743632572",
    "geocoded_column": {
      "latitude": "29.960621743632572",
      "longitude": "-90.06635097121261"
    }
  },
  {
    "service_request": "2026-1249975",
    "request_type": "Property Maintenance",
    "request_reason": "Property Maintenance",
    "date_created": "2026-01-06T16:09:17.000",
    "date_modified": "2026-01-06T16:09:20.000",
    "request_status": "Pending",
    "responsible_agency": "Department of Code Enforcement",
    "final_address": "10101 Dwyer Rd",
    "address_councildis": "E",
    "status": "Pending",
    "rowid": "1249975",
    "final_x": "3712861.84318",
    "final_y": "558035.777435",
    "longitude": "-89.96804434105468",
    "latitude": "30.027414493874833",
    "geocoded_column": {
      "latitude": "30.027414493874833",
      "longitude": "-89.96804434105468"
    }
  },
  {
    "service_request": "2026-1249974",
    "request_type": "Trash/Recycling",
    "request_reason": "Repair Recycling Cart",
    "date_created": "2026-01-06T16:09:00.000",
    "date_modified": "2026-01-06T16:09:01.000",
    "request_status": "Pending",
    "responsible_agency": "Department of Sanitation",
    "final_address": "401 Sharon Dr",
    "address_councildis": "A",
    "status": "Pending",
    "rowid": "1249974",
    "final_x": "3664497.71092",
    "final_y": "547235.575505",
    "longitude": "-90.1212327237176",
    "latitude": "29.999213546412864",
    "geocoded_column": {
      "latitude": "29.999213546412864",
      "longitude": "-90.1212327237176"
    }
  },
  {
    "service_request": "2026-1249973",
    "request_type": "Trash/Recycling",
    "request_reason": "Request a Large Item Pick Up",
    "date_created": "2026-01-06T16:08:30.000",
    "date_modified": "2026-01-06T16:08:32.000",
    "request_status": "Pending",
    "responsible_agency": "Department of Sanitation",
    "final_address": "2908 Conti St",
    "address_councildis": "B",
    "status": "Assigned to Contractor",
    "contractor": "IV Waste",
    "rowid": "1249973",
    "final_x": "3675223.46792",
    "final_y": "536614.339015",
    "longitude": "-90.0877145046881",
    "latitude": "29.969692478101244",
    "geocoded_column": {
      "latitude": "29.969692478101244",
      "longitude": "-90.0877145046881"
    }
  },
  {
    "service_request": "2026-1249972",
    "request_type": "Drainage",
    "request_reason": "Drainage Manhole Cover Missing or Damaged",
    "date_created": "2026-01-06T16:07:14.000",
    "date_modified": "2026-01-06T16:07:15.000",
    "request_status": "Pending",
    "responsible_agency": "Sewerage & Water Board",
    "final_address": "10101 Dwyer Rd",
    "address_councildis": "E",
    "status": "Pending",
    "rowid": "1249972",
    "final_x": "3712861.84318",
    "final_y": "558035.777435",
    "longitude": "-89.96804434105468",
    "latitude": "30.027414493874833",
    "geocoded_column": {
      "latitude": "30.027414493874833",
      "longitude": "-89.96804434105468"
    }
  },
  {
    "service_request": "2026-1249971",
    "request_type": "Trash/Recycling",
    "request_reason": "Request a Large Item Pick Up",
    "date_created": "2026-01-06T16:07:08.000",
    "date_modified": "2026-01-06T16:07:10.000",
    "request_status": "Pending",
    "responsible_agency": "Department of Sanitation",
    "final_address": "4151 Iberville St",
    "address_councildis": "A",
    "status": "Assigned to Contractor",
    "contractor": "IV Waste",
    "rowid": "1249971",
    "final_x": "3671031.78375",
    "final_y": "539048.905098",
    "longitude": "-90.10086955114662",
    "latitude": "29.976511341242883",
    "geocoded_column": {
      "latitude": "29.976511341242883",
      "longitude": "-90.10086955114662"
    }
  },
  {
    "service_request": "2026-1249970",
    "request_type": "Trash/Recycling",
    "request_reason": "Request a Large Item Pick Up",
    "date_created": "2026-01-06T16:07:04.000",
    "date_modified": "2026-01-06T16:07:05.000",
    "request_status": "Pending",
    "responsible_agency": "Department of Sanitation",
    "final_address": "6300 Fontainebleau Dr",
    "address_councildis": "A",
    "status": "Assigned to Contractor",
    "contractor": "IV Waste",
    "rowid": "1249970",
    "final_x": "3667908.98241",
    "final_y": "529973.028865",
    "longitude": "-90.11103811392758",
    "latitude": "29.951647676194696",
    "geocoded_column": {
      "latitude": "29.951647676194696",
      "longitude": "-90.11103811392758"
    }
  },
  {
    "service_request": "2026-1249969",
    "request_type": "Trash/Recycling",
    "request_reason": "Repair Recycling Cart",
    "date_created": "2026-01-06T16:06:58.000",
    "date_modified": "2026-01-06T16:06:59.000",
    "request_status": "Pending",
    "responsible_agency": "Department of Sanitation",
    "final_address": "4101 Clermont Dr",
    "address_councildis": "D",
    "status": "Pending",
    "rowid": "1249969",
    "final_x": "3684892.83785",
    "final_y": "547604.084882",
    "longitude": "-90.05679117169962",
    "latitude": "29.999617825698753",
    "geocoded_column": {
      "latitude": "29.999617825698753",
      "longitude": "-90.05679117169962"
    }
  },
  {
    "service_request": "2026-1249968",
    "request_type": "Trash/Recycling",
    "request_reason": "Repair Trash Cart",
    "date_created": "2026-01-06T16:06:34.000",
    "date_modified": "2026-01-06T16:06:35.000",
    "request_status": "Pending",
    "responsible_agency": "Department of Sanitation",
    "final_address": "4151 Iberville St",
    "address_councildis": "A",
    "status": "Assigned to Contractor",
    "contractor": "IV Waste",
    "rowid": "1249968",
    "final_x": "3671031.78375",
    "final_y": "539048.905098",
    "longitude": "-90.10086955114662",
    "latitude": "29.976511341242883",
    "geocoded_column": {
      "latitude": "29.976511341242883",
      "longitude": "-90.10086955114662"
    }
  },
  {
    "service_request": "2026-1249967",
    "request_type": "Property Maintenance",
    "request_reason": "Property Maintenance",
    "date_created": "2026-01-06T16:06:24.000",
    "date_modified": "2026-01-06T16:06:27.000",
    "request_status": "Pending",
    "responsible_agency": "Department of Code Enforcement",
    "final_address": "10101 Dwyer Rd",
    "address_councildis": "E",
    "status": "Pending",
    "rowid": "1249967",
    "final_x": "3712861.84318",
    "final_y": "558035.777435",
    "longitude": "-89.96804434105468",
    "latitude": "30.027414493874833",
    "geocoded_column": {
      "latitude": "30.027414493874833",
      "longitude": "-89.96804434105468"
    }
  },
  {
    "service_request": "2026-1249966",
    "request_type": "Trash/Recycling",
    "request_reason": "Order Trash Cart",
    "date_created": "2026-01-06T16:04:58.000",
    "date_modified": "2026-01-06T16:04:59.000",
    "request_status": "Pending",
    "responsible_agency": "Department of Sanitation",
    "final_address": "1212 Valence St",
    "address_councildis": "B",
    "status": "Assigned to Contractor",
    "contractor": "IV Waste",
    "rowid": "1249966",
    "final_x": "3669780.72858",
    "final_y": "519844.986168",
    "longitude": "-90.10547071140583",
    "latitude": "29.923743794033516",
    "geocoded_column": {
      "latitude": "29.923743794033516",
      "longitude": "-90.10547071140583"
    }
  },
  {
    "service_request": "2026-1249965",
    "request_type": "Trash/Recycling",
    "request_reason": "Request a Large Item Pick Up",
    "date_created": "2026-01-06T16:03:04.000",
    "date_modified": "2026-01-06T16:03:22.000",
    "request_status": "Pending",
    "responsible_agency": "Department of Sanitation",
    "final_address": "3945 Virgil Blvd",
    "address_councildis": "D",
    "status": "Assigned to Contractor",
    "contractor": "IV Waste",
    "rowid": "1249965",
    "final_x": "3679995.65359",
    "final_y": "547150.379217",
    "longitude": "-90.07227732625931",
    "latitude": "29.998519402083534",
    "geocoded_column": {
      "latitude": "29.998519402083534",
      "longitude": "-90.07227732625931"
    }
  },
  {
    "service_request": "2026-1249964",
    "request_type": "Trash/Recycling",
    "request_reason": "Request a Large Item Pick Up",
    "date_created": "2026-01-06T16:01:37.000",
    "date_modified": "2026-01-06T16:01:38.000",
    "request_status": "Pending",
    "responsible_agency": "Department of Sanitation",
    "final_address": "10901 Zenith St",
    "address_councildis": "E",
    "status": "Assigned to Contractor",
    "contractor": "Waste Pro",
    "rowid": "1249964",
    "final_x": "3710437.30693",
    "final_y": "565378.645602",
    "longitude": "-89.97543062966336",
    "latitude": "30.04768366542681",
    "geocoded_column": {
      "latitude": "30.04768366542681",
      "longitude": "-89.97543062966336"
    }
  },
  {
    "service_request": "2026-1249963",
    "request_type": "Trash/Recycling",
    "request_reason": "Repair Trash Cart",
    "date_created": "2026-01-06T15:56:35.000",
    "date_modified": "2026-01-06T15:56:37.000",
    "request_status": "Pending",
    "responsible_agency": "Department of Sanitation",
    "final_address": "2960 Pittari Pl",
    "address_councildis": "C",
    "status": "Assigned to Contractor",
    "contractor": "Richards Disposal",
    "rowid": "1249963",
    "final_x": "3709835.93432",
    "final_y": "519511.052535",
    "longitude": "-89.97904467343614",
    "latitude": "29.921584600333766",
    "geocoded_column": {
      "latitude": "29.921584600333766",
      "longitude": "-89.97904467343614"
    }
  },
  {
    "service_request": "2026-1249962",
    "request_type": "Trash/Recycling",
    "request_reason": "Repair Trash Cart",
    "date_created": "2026-01-06T15:55:46.000",
    "date_modified": "2026-01-06T15:55:48.000",
    "request_status": "Pending",
    "responsible_agency": "Department of Sanitation",
    "final_address": "1023 Jena St",
    "address_councildis": "B",
    "status": "Assigned to Contractor",
    "contractor": "IV Waste",
    "rowid": "1249962",
    "final_x": "3670639.14747",
    "final_y": "519324.325175",
    "longitude": "-90.1027786393497",
    "latitude": "29.92228682066045",
    "geocoded_column": {
      "latitude": "29.92228682066045",
      "longitude": "-90.1027786393497"
    }
  },
  {
    "service_request": "2026-1249961",
    "request_type": "Streetlights",
    "request_reason": "Streetlight Outage/Malfunction",
    "date_created": "2026-01-06T15:55:15.000",
    "date_modified": "2026-01-06T15:55:17.000",
    "request_status": "Pending",
    "responsible_agency": "Department of Public Works",
    "final_address": "14 Duckhook Dr",
    "address_councildis": "A",
    "status": "Pending",
    "rowid": "1249961",
    "final_x": "3667227.33146",
    "final_y": "539026.549962",
    "longitude": "-90.1128859667886",
    "latitude": "29.976561841307916",
    "geocoded_column": {
      "latitude": "29.976561841307916",
      "longitude": "-90.1128859667886"
    }
  },
  {
    "service_request": "2026-1249960",
    "request_type": "Trash/Recycling",
    "request_reason": "Request a Large Item Pick Up",
    "date_created": "2026-01-06T15:52:42.000",
    "date_modified": "2026-01-06T15:52:44.000",
    "request_status": "Pending",
    "responsible_agency": "Department of Sanitation",
    "final_address": "11026 Vienna St",
    "address_councildis": "E",
    "status": "Assigned to Contractor",
    "contractor": "Waste Pro",
    "rowid": "1249960",
    "final_x": "3715902.57036",
    "final_y": "557810.302939",
    "longitude": "-89.95844455583878",
    "latitude": "30.02669455732732",
    "geocoded_column": {
      "latitude": "30.02669455732732",
      "longitude": "-89.95844455583878"
    }
  },
  {
    "service_request": "2026-1249959",
    "request_type": "Trash/Recycling",
    "request_reason": "Repair Trash Cart",
    "date_created": "2026-01-06T15:51:25.000",
    "date_modified": "2026-01-06T15:51:27.000",
    "request_status": "Pending",
    "responsible_agency": "Department of Sanitation",
    "final_address": "2432 Broadway St",
    "address_councildis": "A",
    "status": "Assigned to Contractor",
    "contractor": "IV Waste",
    "rowid": "1249959",
    "final_x": "3666694.30881",
    "final_y": "530359.17261",
    "longitude": "-90.1148605167177",
    "latitude": "29.95274501786478",
    "geocoded_column": {
      "latitude": "29.95274501786478",
      "longitude": "-90.1148605167177"
    }
  },
  {
    "service_request": "2026-1249958",
    "request_type": "Trash/Recycling",
    "request_reason": "Request a Large Item Pick Up",
    "date_created": "2026-01-06T15:49:42.000",
    "date_modified": "2026-01-06T15:49:43.000",
    "request_status": "Pending",
    "responsible_agency": "Department of Sanitation",
    "final_address": "2432 Broadway St",
    "address_councildis": "A",
    "status": "Assigned to Contractor",
    "contractor": "IV Waste",
    "rowid": "1249958",
    "final_x": "3666694.30881",
    "final_y": "530359.17261",
    "longitude": "-90.1148605167177",
    "latitude": "29.95274501786478",
    "geocoded_column": {
      "latitude": "29.95274501786478",
      "longitude": "-90.1148605167177"
    }
  },
  {
    "service_request": "2026-1249957",
    "request_type": "Trash/Recycling",
    "request_reason": "Start Trash Service",
    "date_created": "2026-01-06T15:48:42.000",
    "date_modified": "2026-01-06T15:48:43.000",
    "request_status": "Pending",
    "responsible_agency": "Department of Sanitation",
    "final_address": "2649 Louisa St",
    "address_councildis": "D",
    "status": "Assigned to Contractor",
    "contractor": "IV Waste",
    "rowid": "1249957",
    "final_x": "3691106.96041",
    "final_y": "541887.92302",
    "longitude": "-90.03736483686069",
    "latitude": "29.98370862768524",
    "geocoded_column": {
      "latitude": "29.98370862768524",
      "longitude": "-90.03736483686069"
    }
  },
  {
    "service_request": "2026-1249956",
    "request_type": "Property Maintenance",
    "request_reason": "Property Maintenance",
    "date_created": "2026-01-06T15:48:29.000",
    "date_modified": "2026-01-06T15:48:30.000",
    "request_status": "Pending",
    "responsible_agency": "Department of Code Enforcement",
    "final_address": "4739 Louisa Dr",
    "address_councildis": "D",
    "status": "Pending",
    "rowid": "1249956",
    "final_x": "3690936.00041",
    "final_y": "551200.000021",
    "longitude": "-90.03757221002688",
    "latitude": "30.009318769821995",
    "geocoded_column": {
      "latitude": "30.009318769821995",
      "longitude": "-90.03757221002688"
    }
  },
  {
    "service_request": "2026-1249955",
    "request_type": "Trash/Recycling",
    "request_reason": "Start Trash Service",
    "date_created": "2026-01-06T15:46:56.000",
    "date_modified": "2026-01-06T15:46:58.000",
    "request_status": "Pending",
    "responsible_agency": "Department of Sanitation",
    "final_address": "2647 Louisa St",
    "address_councildis": "D",
    "status": "Assigned to Contractor",
    "contractor": "IV Waste",
    "rowid": "1249955",
    "final_x": "3691105.29379",
    "final_y": "541878.756364",
    "longitude": "-90.03737042837994",
    "latitude": "29.98368347449646",
    "geocoded_column": {
      "latitude": "29.98368347449646",
      "longitude": "-90.03737042837994"
    }
  },
  {
    "service_request": "2026-1249954",
    "request_type": "Trash/Recycling",
    "request_reason": "Request a Large Item Pick Up",
    "date_created": "2026-01-06T15:46:22.000",
    "date_modified": "2026-01-06T15:46:24.000",
    "request_status": "Pending",
    "responsible_agency": "Department of Sanitation",
    "final_address": "4650 Washington Ave Apt 428",
    "address_councildis": "B",
    "status": "Assigned to Contractor",
    "contractor": "IV Waste",
    "rowid": "1249954",
    "final_x": "3669628.4665",
    "final_y": "532306.129475",
    "longitude": "-90.10552985850478",
    "latitude": "29.95801238840179",
    "geocoded_column": {
      "latitude": "29.95801238840179",
      "longitude": "-90.10552985850478"
    }
  },
  {
    "service_request": "2026-1249953",
    "request_type": "Trash/Recycling",
    "request_reason": "Request a Large Item Pick Up",
    "date_created": "2026-01-06T15:45:36.000",
    "date_modified": "2026-01-06T15:45:38.000",
    "request_status": "Pending",
    "responsible_agency": "Department of Sanitation",
    "final_address": "1300 Perdido Street",
    "address_councildis": "B",
    "status": "Assigned to Contractor",
    "contractor": "IV Waste",
    "rowid": "1249953",
    "final_x": "3681386.82191",
    "final_y": "526445.697534",
    "longitude": "-90.0686045498335",
    "latitude": "29.941546493588717",
    "geocoded_column": {
      "latitude": "29.941546493588717",
      "longitude": "-90.0686045498335"
    }
  },
  {
    "service_request": "2026-1249952",
    "request_type": "Trash/Recycling",
    "request_reason": "Request a Large Item Pick Up",
    "date_created": "2026-01-06T15:44:00.000",
    "date_modified": "2026-01-06T15:44:01.000",
    "request_status": "Pending",
    "responsible_agency": "Department of Sanitation",
    "final_address": "1255 Granada Dr",
    "address_councildis": "D",
    "status": "Assigned to Contractor",
    "contractor": "IV Waste",
    "rowid": "1249952",
    "final_x": "3677143.82286",
    "final_y": "550601.643668",
    "longitude": "-90.0811671278995",
    "latitude": "30.008095146678418",
    "geocoded_column": {
      "latitude": "30.008095146678418",
      "longitude": "-90.0811671278995"
    }
  },
  {
    "service_request": "2026-1249951",
    "request_type": "Trash/Recycling",
    "request_reason": "Repair Recycling Cart",
    "date_created": "2026-01-06T15:41:28.000",
    "date_modified": "2026-01-06T15:42:15.000",
    "request_status": "Pending",
    "responsible_agency": "Department of Sanitation",
    "final_address": "304 Warrington Dr",
    "address_councildis": "D",
    "status": "Pending",
    "rowid": "1249951",
    "final_x": "3682055.20988",
    "final_y": "547543.606802",
    "longitude": "-90.06575744805146",
    "latitude": "29.999538152030002",
    "geocoded_column": {
      "latitude": "29.999538152030002",
      "longitude": "-90.06575744805146"
    }
  },
  {
    "service_request": "2026-1249950",
    "request_type": "Trash/Recycling",
    "request_reason": "Repair Trash Cart",
    "date_created": "2026-01-06T15:41:12.000",
    "date_modified": "2026-01-06T15:41:14.000",
    "request_status": "Pending",
    "responsible_agency": "Department of Sanitation",
    "final_address": "4994 Baccich St",
    "address_councildis": "D",
    "status": "Assigned to Contractor",
    "contractor": "IV Waste",
    "rowid": "1249950",
    "final_x": "3687598.92873",
    "final_y": "551615.374421",
    "longitude": "-90.04810042029438",
    "latitude": "30.010564237960036",
    "geocoded_column": {
      "latitude": "30.010564237960036",
      "longitude": "-90.04810042029438"
    }
  },
  {
    "service_request": "2026-1249949",
    "request_type": "Trash/Recycling",
    "request_reason": "Request a Large Item Pick Up",
    "date_created": "2026-01-06T15:38:02.000",
    "date_modified": "2026-01-06T15:38:04.000",
    "request_status": "Pending",
    "responsible_agency": "Department of Sanitation",
    "final_address": "4843 Hickerson Dr",
    "address_councildis": "E",
    "status": "Assigned to Contractor",
    "contractor": "Waste Pro",
    "rowid": "1249949",
    "final_x": "3710291.89918",
    "final_y": "556546.435738",
    "longitude": "-89.97622081088768",
    "latitude": "30.023403336182415",
    "geocoded_column": {
      "latitude": "30.023403336182415",
      "longitude": "-89.97622081088768"
    }
  },
  {
    "service_request": "2026-1249948",
    "request_type": "Abandoned Vehicles",
    "request_reason": "Abandoned/Junk Vehicles",
    "date_created": "2026-01-06T15:36:45.000",
    "date_modified": "2026-01-06T15:36:46.000",
    "request_status": "Pending",
    "responsible_agency": "Department of Public Works",
    "final_address": "3251 St Ferdinand St A HM",
    "address_councildis": "D",
    "status": "Pending",
    "rowid": "1249948",
    "final_x": "3689829.74582",
    "final_y": "544901.080143",
    "longitude": "-90.04129163323383",
    "latitude": "29.992033386459457",
    "geocoded_column": {
      "latitude": "29.992033386459457",
      "longitude": "-90.04129163323383"
    }
  },
  {
    "service_request": "2026-1249947",
    "request_type": "Streetlights",
    "request_reason": "Streetlight Outage/Malfunction",
    "date_created": "2026-01-06T15:36:31.000",
    "date_modified": "2026-01-06T16:02:27.000",
    "request_status": "Pending",
    "responsible_agency": "Department of Public Works",
    "final_address": "145 Mary Jane Ln",
    "address_councildis": "E",
    "status": "Pending",
    "rowid": "1249947",
    "final_x": "3718341.32575",
    "final_y": "571461.534696",
    "longitude": "-89.95021775555527",
    "latitude": "30.064149171090477",
    "geocoded_column": {
      "latitude": "30.064149171090477",
      "longitude": "-89.95021775555527"
    }
  },
  {
    "service_request": "2026-1249946",
    "request_type": "Roads and Streets",
    "request_reason": "Pothole",
    "date_created": "2026-01-06T15:35:33.000",
    "date_modified": "2026-01-06T15:37:26.000",
    "request_status": "Pending",
    "responsible_agency": "Department of Public Works",
    "final_address": "3600 Macarthur Blvd",
    "address_councildis": "C",
    "status": "Pending",
    "rowid": "1249946",
    "final_x": "3696801.66723",
    "final_y": "520761.729081",
    "longitude": "-90.02014274723126",
    "latitude": "29.92544069879558",
    "geocoded_column": {
      "latitude": "29.92544069879558",
      "longitude": "-90.02014274723126"
    }
  },
  {
    "service_request": "2026-1249945",
    "request_type": "Trash/Recycling",
    "request_reason": "Request a Large Item Pick Up",
    "date_created": "2026-01-06T15:33:42.000",
    "date_modified": "2026-01-06T15:33:43.000",
    "request_status": "Pending",
    "responsible_agency": "Department of Sanitation",
    "final_address": "821 Hillary St",
    "address_councildis": "A",
    "status": "Assigned to Contractor",
    "contractor": "IV Waste",
    "rowid": "1249945",
    "final_x": "3662502.18835",
    "final_y": "526233.932414",
    "longitude": "-90.12823441762981",
    "latitude": "29.941523839381038",
    "geocoded_column": {
      "latitude": "29.941523839381038",
      "longitude": "-90.12823441762981"
    }
  },
  {
    "service_request": "2026-1249944",
    "request_type": "Trash/Recycling",
    "request_reason": "Replace Trash Cart",
    "date_created": "2026-01-06T15:25:38.000",
    "date_modified": "2026-01-06T16:08:34.000",
    "case_close_date": "2026-01-06T10:08:34.000",
    "request_status": "Closed",
    "responsible_agency": "Department of Sanitation",
    "final_address": "4840 Treves St",
    "address_councildis": "E",
    "status": "Assigned to Contractor",
    "contractor": "Waste Pro",
    "contractor_action": "Completed",
    "rowid": "1249944",
    "final_x": "3729999.4192",
    "final_y": "562407.595295",
    "longitude": "-89.91372075465802",
    "latitude": "30.038862581614225",
    "geocoded_column": {
      "latitude": "30.038862581614225",
      "longitude": "-89.91372075465802"
    }
  },
  {
    "service_request": "2026-1249943",
    "request_type": "Abandoned Vehicles",
    "request_reason": "Abandoned/Junk Vehicles",
    "date_created": "2026-01-06T15:24:29.000",
    "date_modified": "2026-01-06T15:24:31.000",
    "request_status": "Pending",
    "responsible_agency": "Department of Public Works",
    "final_address": "3121 College Ct",
    "address_councildis": "B",
    "status": "Pending",
    "rowid": "1249943",
    "final_x": "3668549.71086",
    "final_y": "531836.538755",
    "longitude": "-90.10895212187702",
    "latitude": "29.95675290832068",
    "geocoded_column": {
      "latitude": "29.95675290832068",
      "longitude": "-90.10895212187702"
    }
  },
  {
    "service_request": "2026-1249942",
    "request_type": "Parks & Parkways",
    "request_reason": "Request Tree Service (Right of Way/Public Property)",
    "date_created": "2026-01-06T15:20:28.000",
    "date_modified": "2026-01-06T15:20:31.000",
    "request_status": "Pending",
    "responsible_agency": "Department of Parks & Parkway",
    "final_address": "3911 Washington Ave",
    "address_councildis": "B",
    "status": "Pending",
    "rowid": "1249942",
    "final_x": "3671592.26465",
    "final_y": "529440.619713",
    "longitude": "-90.09942615980562",
    "latitude": "29.9500751766319",
    "geocoded_column": {
      "latitude": "29.9500751766319",
      "longitude": "-90.09942615980562"
    }
  },
  {
    "service_request": "2026-1249941",
    "request_type": "Abandoned Vehicles",
    "request_reason": "Abandoned/Junk Vehicles",
    "date_created": "2026-01-06T15:19:11.000",
    "date_modified": "2026-01-06T15:19:14.000",
    "request_status": "Pending",
    "responsible_agency": "Department of Public Works",
    "final_address": "864 Roosevelt Pl",
    "address_councildis": "A",
    "status": "Pending",
    "rowid": "1249941",
    "final_x": "3673639.15873",
    "final_y": "540116.414603",
    "longitude": "-90.09259814454103",
    "latitude": "29.979369256575872",
    "geocoded_column": {
      "latitude": "29.979369256575872",
      "longitude": "-90.09259814454103"
    }
  },
  {
    "service_request": "2026-1249940",
    "request_type": "Abandoned Vehicles",
    "request_reason": "Abandoned/Junk Vehicles",
    "date_created": "2026-01-06T15:12:20.000",
    "date_modified": "2026-01-06T15:12:22.000",
    "request_status": "Pending",
    "responsible_agency": "Department of Public Works",
    "final_address": "2413 Gladiolus St",
    "address_councildis": "D",
    "status": "Pending",
    "rowid": "1249940",
    "final_x": "3685725.69257",
    "final_y": "547449.638417",
    "longitude": "-90.05416560512346",
    "latitude": "29.999167614557404",
    "geocoded_column": {
      "latitude": "29.999167614557404",
      "longitude": "-90.05416560512346"
    }
  },
  {
    "service_request": "2026-1249939",
    "request_type": "Trash/Recycling",
    "request_reason": "Repair Trash Cart",
    "date_created": "2026-01-06T15:05:23.000",
    "date_modified": "2026-01-06T15:05:24.000",
    "request_status": "Pending",
    "responsible_agency": "Department of Sanitation",
    "final_address": "1525 Hillary St",
    "address_councildis": "A",
    "status": "Assigned to Contractor",
    "contractor": "IV Waste",
    "rowid": "1249939",
    "final_x": "3664205.19796",
    "final_y": "528020.105023",
    "longitude": "-90.12279807832023",
    "latitude": "29.946385882725853",
    "geocoded_column": {
      "latitude": "29.946385882725853",
      "longitude": "-90.12279807832023"
    }
  },
  {
    "service_request": "2026-1249938",
    "request_type": "Parks & Parkways",
    "request_reason": "Request Tree Service (Right of Way/Public Property)",
    "date_created": "2026-01-06T15:03:32.000",
    "date_modified": "2026-01-06T15:03:34.000",
    "request_status": "Pending",
    "responsible_agency": "Department of Parks & Parkway",
    "final_address": "900 Sixth St",
    "address_councildis": "B",
    "status": "Pending",
    "rowid": "1249938",
    "final_x": "3676983.46146",
    "final_y": "519937.558008",
    "longitude": "-90.08273110398058",
    "latitude": "29.923784142835068",
    "geocoded_column": {
      "latitude": "29.923784142835068",
      "longitude": "-90.08273110398058"
    }
  },
  {
    "service_request": "2026-1249937",
    "request_type": "Safety & Permits",
    "request_reason": "Licenses & Permits",
    "date_created": "2026-01-06T14:56:49.000",
    "date_modified": "2026-01-06T14:56:50.000",
    "request_status": "Pending",
    "responsible_agency": "Safety and Permits",
    "final_address": "8912 Bunker Hill Rd",
    "address_councildis": "E",
    "status": "Pending",
    "rowid": "1249937",
    "final_x": "3706565.02897",
    "final_y": "560008.844445",
    "longitude": "-89.98786837254939",
    "latitude": "30.03304444972771",
    "geocoded_column": {
      "latitude": "30.03304444972771",
      "longitude": "-89.98786837254939"
    }
  },
  {
    "service_request": "2026-1249936",
    "request_type": "Trash/Recycling",
    "request_reason": "Dead Animal Pick Up",
    "date_created": "2026-01-06T14:56:34.000",
    "date_modified": "2026-01-06T14:56:35.000",
    "request_status": "Pending",
    "responsible_agency": "Department of Sanitation",
    "final_address": "4942 Bonita Dr",
    "address_councildis": "E",
    "status": "Assigned to Contractor",
    "contractor": "Waste Pro",
    "rowid": "1249936",
    "final_x": "3704340.22782",
    "final_y": "556320.147418",
    "longitude": "-89.99503504636563",
    "latitude": "30.02297361047498",
    "geocoded_column": {
      "latitude": "30.02297361047498",
      "longitude": "-89.99503504636563"
    }
  },
  {
    "service_request": "2026-1249935",
    "request_type": "Trash/Recycling",
    "request_reason": "Repair Recycling Cart",
    "date_created": "2026-01-06T14:54:23.000",
    "date_modified": "2026-01-06T14:56:18.000",
    "request_status": "Pending",
    "responsible_agency": "Department of Sanitation",
    "final_address": "5851 Winchester Park Dr",
    "address_councildis": "E",
    "status": "Pending",
    "rowid": "1249935",
    "final_x": "3714943.82123",
    "final_y": "562556.559776",
    "longitude": "-89.96129448477302",
    "latitude": "30.039776458918844",
    "geocoded_column": {
      "latitude": "30.039776458918844",
      "longitude": "-89.96129448477302"
    }
  },
  {
    "service_request": "2026-1249934",
    "request_type": "Trash/Recycling",
    "request_reason": "Request a Large Item Pick Up",
    "date_created": "2026-01-06T14:54:20.000",
    "date_modified": "2026-01-06T14:54:21.000",
    "request_status": "Pending",
    "responsible_agency": "Department of Sanitation",
    "final_address": "7920 Plum St",
    "address_councildis": "A",
    "status": "Assigned to Contractor",
    "contractor": "IV Waste",
    "rowid": "1249934",
    "final_x": "3662593.48736",
    "final_y": "528222.072256",
    "longitude": "-90.12788013195176",
    "latitude": "29.946987948398",
    "geocoded_column": {
      "latitude": "29.946987948398",
      "longitude": "-90.12788013195176"
    }
  },
  {
    "service_request": "2026-1249933",
    "request_type": "Trash/Recycling",
    "request_reason": "Request a Large Item Pick Up",
    "date_created": "2026-01-06T14:53:40.000",
    "date_modified": "2026-01-06T14:53:42.000",
    "request_status": "Pending",
    "responsible_agency": "Department of Sanitation",
    "final_address": "636 Marigny St",
    "address_councildis": "C",
    "status": "Assigned to Contractor",
    "contractor": "IV Waste",
    "rowid": "1249933",
    "final_x": "3685509.40764",
    "final_y": "534837.962246",
    "longitude": "-90.05529322362929",
    "latitude": "29.964496592816754",
    "geocoded_column": {
      "latitude": "29.964496592816754",
      "longitude": "-90.05529322362929"
    }
  },
  {
    "service_request": "2026-1249932",
    "request_type": "Roads and Streets",
    "request_reason": "Pothole",
    "date_created": "2026-01-06T14:53:26.000",
    "date_modified": "2026-01-06T14:53:27.000",
    "request_status": "Pending",
    "responsible_agency": "Department of Public Works",
    "final_address": "0 BLK Across St",
    "address_councildis": "E",
    "status": "Pending",
    "rowid": "1249932",
    "final_x": "3711887.63918",
    "final_y": "553972.247814",
    "longitude": "-89.97127534652184",
    "latitude": "30.01627326470007",
    "geocoded_column": {
      "latitude": "30.01627326470007",
      "longitude": "-89.97127534652184"
    }
  },
  {
    "service_request": "2026-1249931",
    "request_type": "Trash/Recycling",
    "request_reason": "Illegal Dumping",
    "date_created": "2026-01-06T14:52:46.000",
    "date_modified": "2026-01-06T14:52:48.000",
    "request_status": "Pending",
    "responsible_agency": "Department of Sanitation",
    "final_address": "9400 BLK Morrison Rd",
    "address_councildis": "E",
    "status": "Pending",
    "rowid": "1249931",
    "final_x": "3706961.72252",
    "final_y": "562617.240367",
    "longitude": "-89.98651790897881",
    "latitude": "30.040203694475593",
    "geocoded_column": {
      "latitude": "30.040203694475593",
      "longitude": "-89.98651790897881"
    }
  },
  {
    "service_request": "2026-1249930",
    "request_type": "Trash/Recycling",
    "request_reason": "Order Second Trash Cart",
    "date_created": "2026-01-06T14:52:33.000",
    "date_modified": "2026-01-06T14:52:34.000",
    "request_status": "Pending",
    "responsible_agency": "Department of Sanitation",
    "final_address": "4130 Cleveland Ave",
    "address_councildis": "A",
    "status": "Assigned to Contractor",
    "contractor": "IV Waste",
    "rowid": "1249930",
    "final_x": "3670583.01454",
    "final_y": "538151.271177",
    "longitude": "-90.10231736227888",
    "latitude": "29.97405641603019",
    "geocoded_column": {
      "latitude": "29.97405641603019",
      "longitude": "-90.10231736227888"
    }
  },
  {
    "service_request": "2026-1249929",
    "request_type": "Trash/Recycling",
    "request_reason": "Start Trash Service",
    "date_created": "2026-01-06T14:48:27.000",
    "date_modified": "2026-01-06T16:22:55.000",
    "case_close_date": "2026-01-06T10:22:54.000",
    "request_status": "Closed",
    "responsible_agency": "Department of Sanitation",
    "final_address": "1806 Andry St",
    "address_councildis": "E",
    "status": "Duplicate Request",
    "contractor": "Waste Pro",
    "contractor_action": "Duplicate",
    "rowid": "1249929",
    "final_x": "3697871.70883",
    "final_y": "536662.453639",
    "longitude": "-90.0161880025887",
    "latitude": "29.969128362926728",
    "geocoded_column": {
      "latitude": "29.969128362926728",
      "longitude": "-90.0161880025887"
    }
  },
  {
    "service_request": "2026-1249928",
    "request_type": "Trash/Recycling",
    "request_reason": "Order Trash Cart",
    "date_created": "2026-01-06T14:47:02.000",
    "date_modified": "2026-01-06T14:47:03.000",
    "request_status": "Pending",
    "responsible_agency": "Department of Sanitation",
    "final_address": "1806 Andry St",
    "address_councildis": "E",
    "status": "Assigned to Contractor",
    "contractor": "Waste Pro",
    "rowid": "1249928",
    "final_x": "3697871.70883",
    "final_y": "536662.453639",
    "longitude": "-90.0161880025887",
    "latitude": "29.969128362926728",
    "geocoded_column": {
      "latitude": "29.969128362926728",
      "longitude": "-90.0161880025887"
    }
  },
  {
    "service_request": "2026-1249927",
    "request_type": "Safety & Permits",
    "request_reason": "Zoning Enforcement",
    "date_created": "2026-01-06T14:45:36.000",
    "date_modified": "2026-01-06T14:47:36.000",
    "request_status": "Pending",
    "responsible_agency": "Safety and Permits",
    "final_address": "1739 Broadway St",
    "address_councildis": "A",
    "status": "Pending",
    "rowid": "1249927",
    "final_x": "3665372.84647",
    "final_y": "528189.350144",
    "longitude": "-90.1191057235762",
    "latitude": "29.946817281347176",
    "geocoded_column": {
      "latitude": "29.946817281347176",
      "longitude": "-90.1191057235762"
    }
  },
  {
    "service_request": "2026-1249926",
    "request_type": "Trash/Recycling",
    "request_reason": "Request a Large Item Pick Up",
    "date_created": "2026-01-06T14:44:56.000",
    "date_modified": "2026-01-06T14:44:58.000",
    "request_status": "Pending",
    "responsible_agency": "Department of Sanitation",
    "final_address": "14020 Kingswood Dr",
    "address_councildis": "E",
    "status": "Assigned to Contractor",
    "contractor": "Waste Pro",
    "rowid": "1249926",
    "final_x": "3719407.483",
    "final_y": "568470.909925",
    "longitude": "-89.94696196891613",
    "latitude": "30.055890771471166",
    "geocoded_column": {
      "latitude": "30.055890771471166",
      "longitude": "-89.94696196891613"
    }
  },
  {
    "service_request": "2026-1249925",
    "request_type": "Abandoned Vehicles",
    "request_reason": "Abandoned/Junk Vehicles",
    "date_created": "2026-01-06T14:43:26.000",
    "date_modified": "2026-01-06T14:43:28.000",
    "request_status": "Pending",
    "responsible_agency": "Department of Public Works",
    "final_address": "1940 Mirabeau Ave",
    "address_councildis": "D",
    "status": "Pending",
    "rowid": "1249925",
    "final_x": "3681955.99861",
    "final_y": "550477.978516",
    "longitude": "-90.0659683305305",
    "latitude": "30.00760963860658",
    "geocoded_column": {
      "latitude": "30.00760963860658",
      "longitude": "-90.0659683305305"
    }
  },
  {
    "service_request": "2026-1249924",
    "request_type": "Trash/Recycling",
    "request_reason": "Request a Large Item Pick Up",
    "date_created": "2026-01-06T14:41:22.000",
    "date_modified": "2026-01-06T14:41:24.000",
    "request_status": "Pending",
    "responsible_agency": "Department of Sanitation",
    "final_address": "5784 W Louis Prima Dr",
    "address_councildis": "E",
    "status": "Assigned to Contractor",
    "contractor": "Waste Pro",
    "rowid": "1249924",
    "final_x": "3715586.20044",
    "final_y": "562357.651167",
    "longitude": "-89.95927192956542",
    "latitude": "30.039208375175026",
    "geocoded_column": {
      "latitude": "30.039208375175026",
      "longitude": "-89.95927192956542"
    }
  },
  {
    "service_request": "2026-1249923",
    "request_type": "Safety & Permits",
    "request_reason": "Licenses & Permits",
    "date_created": "2026-01-06T14:39:13.000",
    "date_modified": "2026-01-06T14:41:54.000",
    "request_status": "Pending",
    "responsible_agency": "Safety and Permits",
    "final_address": "525 S Olympia St",
    "address_councildis": "A",
    "status": "Pending",
    "rowid": "1249923",
    "final_x": "3668254.05428",
    "final_y": "538218.559817",
    "longitude": "-90.10967050272356",
    "latitude": "29.974310030392314",
    "geocoded_column": {
      "latitude": "29.974310030392314",
      "longitude": "-90.10967050272356"
    }
  },
  {
    "service_request": "2026-1249922",
    "request_type": "Trash/Recycling",
    "request_reason": "Request a Large Item Pick Up",
    "date_created": "2026-01-06T14:37:52.000",
    "date_modified": "2026-01-06T14:37:54.000",
    "request_status": "Pending",
    "responsible_agency": "Department of Sanitation",
    "final_address": "2229 Burgundy St",
    "address_councildis": "C",
    "status": "Assigned to Contractor",
    "contractor": "IV Waste",
    "rowid": "1249922",
    "final_x": "3685372.02601",
    "final_y": "535646.940294",
    "longitude": "-90.0556985783582",
    "latitude": "29.966725214969042",
    "geocoded_column": {
      "latitude": "29.966725214969042",
      "longitude": "-90.0556985783582"
    }
  },
  {
    "service_request": "2026-1249921",
    "request_type": "Abandoned Vehicles",
    "request_reason": "Abandoned/Junk Vehicles",
    "date_created": "2026-01-06T14:34:46.000",
    "date_modified": "2026-01-06T14:34:48.000",
    "request_status": "Pending",
    "responsible_agency": "Department of Public Works",
    "final_address": "1940 Mirabeau Ave",
    "address_councildis": "D",
    "status": "Pending",
    "rowid": "1249921",
    "final_x": "3681955.99861",
    "final_y": "550477.978516",
    "longitude": "-90.0659683305305",
    "latitude": "30.00760963860658",
    "geocoded_column": {
      "latitude": "30.00760963860658",
      "longitude": "-90.0659683305305"
    }
  },
  {
    "service_request": "2026-1249920",
    "request_type": "Trash/Recycling",
    "request_reason": "Request a Large Item Pick Up",
    "date_created": "2026-01-06T14:33:04.000",
    "date_modified": "2026-01-06T14:33:57.000",
    "request_status": "Pending",
    "responsible_agency": "Department of Sanitation",
    "final_address": "2213 Delachaise St",
    "address_councildis": "B",
    "status": "Assigned to Contractor",
    "contractor": "IV Waste",
    "rowid": "1249920",
    "final_x": "3672960.77332",
    "final_y": "523474.806203",
    "longitude": "-90.09530865202684",
    "latitude": "29.933630547006512",
    "geocoded_column": {
      "latitude": "29.933630547006512",
      "longitude": "-90.09530865202684"
    }
  },
  {
    "service_request": "2026-1249919",
    "request_type": "Abandoned Vehicles",
    "request_reason": "Abandoned/Junk Vehicles",
    "date_created": "2026-01-06T14:32:10.000",
    "date_modified": "2026-01-06T14:32:11.000",
    "request_status": "Pending",
    "responsible_agency": "Department of Public Works",
    "final_address": "601 N Hennessey St",
    "address_councildis": "A",
    "status": "Pending",
    "rowid": "1249919",
    "final_x": "3671367.77518",
    "final_y": "540425.757131",
    "longitude": "-90.09976157057682",
    "latitude": "29.980287275302306",
    "geocoded_column": {
      "latitude": "29.980287275302306",
      "longitude": "-90.09976157057682"
    }
  },
  {
    "service_request": "2026-1249918",
    "request_type": "Streetlights",
    "request_reason": "Streetlight Outage/Malfunction",
    "date_created": "2026-01-06T14:31:05.000",
    "date_modified": "2026-01-06T14:31:07.000",
    "request_status": "Pending",
    "responsible_agency": "Department of Public Works",
    "final_address": "7112 Oleander St",
    "address_councildis": "B",
    "status": "Pending",
    "rowid": "1249918",
    "final_x": "3668226.75341",
    "final_y": "532294.922947",
    "longitude": "-90.10995646763016",
    "latitude": "29.95802279907922",
    "geocoded_column": {
      "latitude": "29.95802279907922",
      "longitude": "-90.10995646763016"
    }
  },
  {
    "service_request": "2026-1249917",
    "request_type": "Health Related Request",
    "request_reason": "Homeless Encampment Complaint",
    "date_created": "2026-01-06T14:29:19.000",
    "date_modified": "2026-01-06T14:29:21.000",
    "request_status": "Pending",
    "responsible_agency": "Office Of Homeless Services And Strategy",
    "final_address": "645 S Broad St",
    "address_councildis": "B",
    "status": "Pending",
    "rowid": "1249917",
    "final_x": "3673720.88635",
    "final_y": "533181.03098",
    "longitude": "-90.09257720768113",
    "latitude": "29.960296863756078",
    "geocoded_column": {
      "latitude": "29.960296863756078",
      "longitude": "-90.09257720768113"
    }
  },
  {
    "service_request": "2026-1249916",
    "request_type": "Trash/Recycling",
    "request_reason": "Request a Large Item Pick Up",
    "date_created": "2026-01-06T14:29:01.000",
    "date_modified": "2026-01-06T17:54:21.000",
    "request_status": "Pending",
    "responsible_agency": "Department of Sanitation",
    "final_address": "5412 Grand Bayou Dr",
    "address_councildis": "E",
    "status": "Assigned to Contractor",
    "contractor": "Waste Pro",
    "rowid": "1249916",
    "final_x": "3725949.59712",
    "final_y": "563998.668193",
    "longitude": "-89.92645739718799",
    "latitude": "30.0433747110004",
    "geocoded_column": {
      "latitude": "30.0433747110004",
      "longitude": "-89.92645739718799"
    }
  },
  {
    "service_request": "2026-1249915",
    "request_type": "Trash/Recycling",
    "request_reason": "Request a Large Item Pick Up",
    "date_created": "2026-01-06T14:27:45.000",
    "date_modified": "2026-01-06T14:27:47.000",
    "request_status": "Pending",
    "responsible_agency": "Department of Sanitation",
    "final_address": "3915 N Rocheblave St",
    "address_councildis": "D",
    "status": "Assigned to Contractor",
    "contractor": "IV Waste",
    "rowid": "1249915",
    "final_x": "3692852.12067",
    "final_y": "540287.793867",
    "longitude": "-90.03191011694295",
    "latitude": "29.97925445860382",
    "geocoded_column": {
      "latitude": "29.97925445860382",
      "longitude": "-90.03191011694295"
    }
  },
  {
    "service_request": "2026-1249914",
    "request_type": "Trash/Recycling",
    "request_reason": "Request a Large Item Pick Up",
    "date_created": "2026-01-06T14:27:40.000",
    "date_modified": "2026-01-06T14:27:41.000",
    "request_status": "Pending",
    "responsible_agency": "Department of Sanitation",
    "final_address": "1302 Soniat St",
    "address_councildis": "B",
    "status": "Assigned to Contractor",
    "contractor": "IV Waste",
    "rowid": "1249914",
    "final_x": "3668342.79079",
    "final_y": "519940.704312",
    "longitude": "-90.11000654586852",
    "latitude": "29.92404927923924",
    "geocoded_column": {
      "latitude": "29.92404927923924",
      "longitude": "-90.11000654586852"
    }
  },
  {
    "service_request": "2026-1249913",
    "request_type": "Roads and Streets",
    "request_reason": "Pothole",
    "date_created": "2026-01-06T14:27:38.000",
    "date_modified": "2026-01-06T14:27:40.000",
    "request_status": "Pending",
    "responsible_agency": "Department of Public Works",
    "final_address": "524 Andrew Higgins Dr",
    "address_councildis": "B",
    "status": "Pending",
    "rowid": "1249913",
    "final_x": "3680712.69819",
    "final_y": "526888.580862",
    "longitude": "-90.07071748360485",
    "latitude": "29.942784717278396",
    "geocoded_column": {
      "latitude": "29.942784717278396",
      "longitude": "-90.07071748360485"
    }
  },
  {
    "service_request": "2026-1249912",
    "request_type": "Trash/Recycling",
    "request_reason": "Request a Large Item Pick Up",
    "date_created": "2026-01-06T14:26:12.000",
    "date_modified": "2026-01-06T14:26:13.000",
    "request_status": "Pending",
    "responsible_agency": "Department of Sanitation",
    "final_address": "210 Bragg St",
    "address_councildis": "A",
    "status": "Assigned to Contractor",
    "contractor": "IV Waste",
    "rowid": "1249912",
    "final_x": "3667058.9353",
    "final_y": "550308.6781",
    "longitude": "-90.11303833747577",
    "latitude": "30.007588767923142",
    "geocoded_column": {
      "latitude": "30.007588767923142",
      "longitude": "-90.11303833747577"
    }
  },
  {
    "service_request": "2026-1249911",
    "request_type": "Trash/Recycling",
    "request_reason": "Request a Large Item Pick Up",
    "date_created": "2026-01-06T14:24:11.000",
    "date_modified": "2026-01-06T14:24:14.000",
    "request_status": "Pending",
    "responsible_agency": "Department of Sanitation",
    "final_address": "6062 Dorothea St",
    "address_councildis": "D",
    "status": "Assigned to Contractor",
    "contractor": "Waste Pro",
    "rowid": "1249911",
    "final_x": "3695903.98544",
    "final_y": "557232.270555",
    "longitude": "-90.02165855648185",
    "latitude": "30.025749831262022",
    "geocoded_column": {
      "latitude": "30.025749831262022",
      "longitude": "-90.02165855648185"
    }
  },
  {
    "service_request": "2026-1249910",
    "request_type": "Mosquito, Termite & Rodent Control",
    "request_reason": "Mosquito Complaint",
    "date_created": "2026-01-06T14:20:59.000",
    "date_modified": "2026-01-06T14:40:24.000",
    "case_close_date": "2026-01-06T08:40:24.000",
    "request_status": "Closed",
    "responsible_agency": "Mosquito, Termite & Rodent Control Board",
    "final_address": "5410 Peoples Ave",
    "address_councildis": "D",
    "status": "Resolved",
    "rowid": "1249910",
    "final_x": "3687951.43017",
    "final_y": "553122.985751",
    "longitude": "-90.04693326205012",
    "latitude": "30.01469873829396",
    "geocoded_column": {
      "latitude": "30.01469873829396",
      "longitude": "-90.04693326205012"
    }
  },
  {
    "service_request": "2026-1249909",
    "request_type": "Roads and Streets",
    "request_reason": "Abandoned Service Cut",
    "date_created": "2026-01-06T14:20:56.000",
    "date_modified": "2026-01-06T14:22:57.000",
    "request_status": "Pending",
    "responsible_agency": "Department of Public Works",
    "final_address": "2600 Dumaine St",
    "address_councildis": "D",
    "status": "Pending",
    "rowid": "1249909",
    "final_x": "3677544.14728",
    "final_y": "537188.65172",
    "longitude": "-90.08036575566297",
    "latitude": "29.971202070477236",
    "geocoded_column": {
      "latitude": "29.971202070477236",
      "longitude": "-90.08036575566297"
    }
  },
  {
    "service_request": "2026-1249908",
    "request_type": "Trash/Recycling",
    "request_reason": "Request a Large Item Pick Up",
    "date_created": "2026-01-06T14:18:26.000",
    "date_modified": "2026-01-06T14:18:29.000",
    "request_status": "Pending",
    "responsible_agency": "Department of Sanitation",
    "final_address": "5810 Winchester Park Dr",
    "address_councildis": "E",
    "status": "Assigned to Contractor",
    "contractor": "Waste Pro",
    "rowid": "1249908",
    "final_x": "3715112.51333",
    "final_y": "562127.235167",
    "longitude": "-89.96077762416469",
    "latitude": "30.03859043433516",
    "geocoded_column": {
      "latitude": "30.03859043433516",
      "longitude": "-89.96077762416469"
    }
  },
  {
    "service_request": "2026-1249907",
    "request_type": "Trash/Recycling",
    "request_reason": "Request a Large Item Pick Up",
    "date_created": "2026-01-06T14:16:10.000",
    "date_modified": "2026-01-06T14:16:12.000",
    "request_status": "Pending",
    "responsible_agency": "Department of Sanitation",
    "final_address": "1619 St Denis St",
    "address_councildis": "D",
    "status": "Assigned to Contractor",
    "contractor": "IV Waste",
    "rowid": "1249907",
    "final_x": "3679878.56066",
    "final_y": "545949.840272",
    "longitude": "-90.0726889477908",
    "latitude": "29.995221888200046",
    "geocoded_column": {
      "latitude": "29.995221888200046",
      "longitude": "-90.0726889477908"
    }
  },
  {
    "service_request": "2026-1249906",
    "request_type": "Street and Traffic Signs",
    "request_reason": "Stop Sign Missing or Damaged",
    "date_created": "2026-01-06T14:13:50.000",
    "date_modified": "2026-01-06T14:13:51.000",
    "request_status": "Pending",
    "responsible_agency": "Department of Public Works",
    "final_address": "CONGRESS DR & CHEF MENTEUR HWY",
    "address_councildis": "D",
    "status": "Pending",
    "rowid": "1249906",
    "final_x": "3692798.69",
    "final_y": "550487.29",
    "longitude": "-90.03171293591761",
    "latitude": "30.007301031080576",
    "geocoded_column": {
      "latitude": "30.007301031080576",
      "longitude": "-90.03171293591761"
    }
  },
  {
    "service_request": "2026-1249905",
    "request_type": "Abandoned Vehicles",
    "request_reason": "Abandoned/Junk Vehicles",
    "date_created": "2026-01-06T14:12:23.000",
    "date_modified": "2026-01-06T14:12:24.000",
    "request_status": "Pending",
    "responsible_agency": "Department of Public Works",
    "final_address": "2131 Perdido St",
    "address_councildis": "B",
    "status": "Pending",
    "rowid": "1249905",
    "final_x": "3675679.31669",
    "final_y": "531997.697539",
    "longitude": "-90.08643354865481",
    "latitude": "29.956984637515063",
    "geocoded_column": {
      "latitude": "29.956984637515063",
      "longitude": "-90.08643354865481"
    }
  },
  {
    "service_request": "2026-1249904",
    "request_type": "Trash/Recycling",
    "request_reason": "Request a Large Item Pick Up",
    "date_created": "2026-01-06T14:12:11.000",
    "date_modified": "2026-01-06T14:12:14.000",
    "request_status": "Pending",
    "responsible_agency": "Department of Sanitation",
    "final_address": "7832 W Laverne St",
    "address_councildis": "D",
    "status": "Assigned to Contractor",
    "contractor": "Waste Pro",
    "rowid": "1249904",
    "final_x": "3694897.74595",
    "final_y": "559253.802652",
    "longitude": "-90.02476517217194",
    "latitude": "30.031339908600625",
    "geocoded_column": {
      "latitude": "30.031339908600625",
      "longitude": "-90.02476517217194"
    }
  },
  {
    "service_request": "2026-1249903",
    "request_type": "Mosquito, Termite & Rodent Control",
    "request_reason": "Rodent Complaint (Mice & Rats)",
    "date_created": "2026-01-06T14:11:37.000",
    "date_modified": "2026-01-06T14:11:39.000",
    "request_status": "Pending",
    "responsible_agency": "Mosquito, Termite & Rodent Control Board",
    "final_address": "1870 N Rocheblave St",
    "address_councildis": "D",
    "status": "Pending",
    "rowid": "1249903",
    "final_x": "3681378.54645",
    "final_y": "540791.048907",
    "longitude": "-90.0681305861847",
    "latitude": "29.98099156551138",
    "geocoded_column": {
      "latitude": "29.98099156551138",
      "longitude": "-90.0681305861847"
    }
  },
  {
    "service_request": "2026-1249902",
    "request_type": "Trash/Recycling",
    "request_reason": "Replace Recycling Cart",
    "date_created": "2026-01-06T14:09:07.000",
    "date_modified": "2026-01-06T14:09:09.000",
    "request_status": "Pending",
    "responsible_agency": "Department of Sanitation",
    "final_address": "430 Abalon Ct",
    "address_councildis": "C",
    "status": "Pending",
    "rowid": "1249902",
    "final_x": "3689368.38985",
    "final_y": "529964.304385",
    "longitude": "-90.04328016258023",
    "latitude": "29.95097680761689",
    "geocoded_column": {
      "latitude": "29.95097680761689",
      "longitude": "-90.04328016258023"
    }
  },
  {
    "service_request": "2026-1249901",
    "request_type": "Safety & Permits",
    "request_reason": "Licenses & Permits",
    "date_created": "2026-01-06T14:07:08.000",
    "date_modified": "2026-01-06T14:32:45.000",
    "request_status": "Pending",
    "responsible_agency": "Safety and Permits",
    "final_address": "2239 Poydras St",
    "address_councildis": "B",
    "status": "Pending",
    "rowid": "1249901",
    "final_x": "3674547.37384",
    "final_y": "532223.711235",
    "longitude": "-90.09000013086212",
    "latitude": "29.957639920847292",
    "geocoded_column": {
      "latitude": "29.957639920847292",
      "longitude": "-90.09000013086212"
    }
  },
  {
    "service_request": "2026-1249900",
    "request_type": "Trash/Recycling",
    "request_reason": "Illegal Dumping",
    "date_created": "2026-01-06T14:03:42.000",
    "date_modified": "2026-01-06T14:03:43.000",
    "request_status": "Pending",
    "responsible_agency": "Department of Sanitation",
    "final_address": "1419 S Dupre St",
    "address_councildis": "B",
    "status": "Pending",
    "rowid": "1249900",
    "final_x": "3671144.57793",
    "final_y": "530791.446274",
    "longitude": "-90.10079384070434",
    "latitude": "29.953802753429414",
    "geocoded_column": {
      "latitude": "29.953802753429414",
      "longitude": "-90.10079384070434"
    }
  },
  {
    "service_request": "2026-1249899",
    "request_type": "Trash/Recycling",
    "request_reason": "Request a Large Item Pick Up",
    "date_created": "2026-01-06T14:02:22.000",
    "date_modified": "2026-01-06T14:02:34.000",
    "request_status": "Pending",
    "responsible_agency": "Department of Sanitation",
    "final_address": "2861 Kent Dr",
    "address_councildis": "C",
    "status": "Assigned to Contractor",
    "contractor": "Richards Disposal",
    "rowid": "1249899",
    "final_x": "3708883.51454",
    "final_y": "519342.049847",
    "longitude": "-89.9820573136814",
    "latitude": "29.92115082025302",
    "geocoded_column": {
      "latitude": "29.92115082025302",
      "longitude": "-89.9820573136814"
    }
  },
  {
    "service_request": "2026-1249898",
    "request_type": "Trash/Recycling",
    "request_reason": "Request a Large Item Pick Up",
    "date_created": "2026-01-06T14:02:10.000",
    "date_modified": "2026-01-06T14:02:11.000",
    "request_status": "Pending",
    "responsible_agency": "Department of Sanitation",
    "final_address": "5710 St Bernard Ave",
    "address_councildis": "D",
    "status": "Assigned to Contractor",
    "contractor": "IV Waste",
    "rowid": "1249898",
    "final_x": "3676761.79445",
    "final_y": "553418.291159",
    "longitude": "-90.0822769154463",
    "latitude": "30.015851392177428",
    "geocoded_column": {
      "latitude": "30.015851392177428",
      "longitude": "-90.0822769154463"
    }
  },
  {
    "service_request": "2026-1249897",
    "request_type": "Trash/Recycling",
    "request_reason": "Order Recycling Cart",
    "date_created": "2026-01-06T13:59:05.000",
    "date_modified": "2026-01-06T13:59:07.000",
    "request_status": "Pending",
    "responsible_agency": "Department of Sanitation",
    "final_address": "1124 Piety St",
    "address_councildis": "C",
    "status": "Pending",
    "rowid": "1249897",
    "final_x": "3689876.98377",
    "final_y": "536078.421255",
    "longitude": "-90.041456626897",
    "latitude": "29.96777274886641",
    "geocoded_column": {
      "latitude": "29.96777274886641",
      "longitude": "-90.041456626897"
    }
  },
  {
    "service_request": "2026-1249896",
    "request_type": "Trash/Recycling",
    "request_reason": "Order Second Trash Cart",
    "date_created": "2026-01-06T13:57:35.000",
    "date_modified": "2026-01-06T13:57:37.000",
    "request_status": "Pending",
    "responsible_agency": "Department of Sanitation",
    "final_address": "5809 Baccich St",
    "address_councildis": "D",
    "status": "Assigned to Contractor",
    "contractor": "IV Waste",
    "rowid": "1249896",
    "final_x": "3687582.89148",
    "final_y": "554658.04252",
    "longitude": "-90.04804325948913",
    "latitude": "30.018930948902202",
    "geocoded_column": {
      "latitude": "30.018930948902202",
      "longitude": "-90.04804325948913"
    }
  },
  {
    "service_request": "2026-1249895",
    "request_type": "Trash/Recycling",
    "request_reason": "Request a Large Item Pick Up",
    "date_created": "2026-01-06T13:55:58.000",
    "date_modified": "2026-01-06T17:56:04.000",
    "case_close_date": "2026-01-06T11:56:04.000",
    "request_status": "Closed",
    "responsible_agency": "Department of Sanitation",
    "final_address": "5930 Beechcraft St",
    "address_councildis": "D",
    "status": "Duplicate Request",
    "contractor": "Waste Pro",
    "contractor_action": "Duplicate",
    "rowid": "1249895",
    "final_x": "3696409.66378",
    "final_y": "553266.699287",
    "longitude": "-90.02020429073559",
    "latitude": "30.014830084566565",
    "geocoded_column": {
      "latitude": "30.014830084566565",
      "longitude": "-90.02020429073559"
    }
  },
  {
    "service_request": "2026-1249894",
    "request_type": "Trash/Recycling",
    "request_reason": "Request a Large Item Pick Up",
    "date_created": "2026-01-06T13:55:51.000",
    "date_modified": "2026-01-06T13:55:52.000",
    "request_status": "Pending",
    "responsible_agency": "Department of Sanitation",
    "final_address": "5809 Baccich St",
    "address_councildis": "D",
    "status": "Assigned to Contractor",
    "contractor": "IV Waste",
    "rowid": "1249894",
    "final_x": "3687582.89148",
    "final_y": "554658.04252",
    "longitude": "-90.04804325948913",
    "latitude": "30.018930948902202",
    "geocoded_column": {
      "latitude": "30.018930948902202",
      "longitude": "-90.04804325948913"
    }
  },
  {
    "service_request": "2026-1249893",
    "request_type": "Alley Ways",
    "request_reason": "Alley Way Issues",
    "date_created": "2026-01-06T13:54:53.000",
    "date_modified": "2026-01-06T13:54:55.000",
    "request_status": "Pending",
    "responsible_agency": "Department of Public Works",
    "final_address": "6373 Canal Blvd",
    "address_councildis": "A",
    "status": "Pending",
    "rowid": "1249893",
    "final_x": "3668851.09748",
    "final_y": "549927.615316",
    "longitude": "-90.10738924209056",
    "latitude": "30.006488376610903",
    "geocoded_column": {
      "latitude": "30.006488376610903",
      "longitude": "-90.10738924209056"
    }
  },
  {
    "service_request": "2026-1249892",
    "request_type": "Trash/Recycling",
    "request_reason": "Request a Large Item Pick Up",
    "date_created": "2026-01-06T13:53:40.000",
    "date_modified": "2026-01-06T13:53:42.000",
    "request_status": "Pending",
    "responsible_agency": "Department of Sanitation",
    "final_address": "8501 Chase St",
    "address_councildis": "E",
    "status": "Assigned to Contractor",
    "contractor": "Waste Pro",
    "rowid": "1249892",
    "final_x": "3703316.9633",
    "final_y": "563325.3736",
    "longitude": "-89.99801035663695",
    "latitude": "30.04226807287689",
    "geocoded_column": {
      "latitude": "30.04226807287689",
      "longitude": "-89.99801035663695"
    }
  },
  {
    "service_request": "2026-1249891",
    "request_type": "Parks & Parkways",
    "request_reason": "Request Tree Service (Right of Way/Public Property)",
    "date_created": "2026-01-06T13:53:20.000",
    "date_modified": "2026-01-06T13:53:22.000",
    "request_status": "Pending",
    "responsible_agency": "Department of Parks & Parkway",
    "final_address": "2700 BLK Martin Luther King, Jr. Blvd",
    "address_councildis": "B",
    "status": "Pending",
    "rowid": "1249891",
    "final_x": "3675745.88666",
    "final_y": "527669.204948",
    "longitude": "-90.0863720836785",
    "latitude": "29.94508073050618",
    "geocoded_column": {
      "latitude": "29.94508073050618",
      "longitude": "-90.0863720836785"
    }
  },
  {
    "service_request": "2026-1249890",
    "request_type": "Trash/Recycling",
    "request_reason": "Request a Large Item Pick Up",
    "date_created": "2026-01-06T13:52:15.000",
    "date_modified": "2026-01-06T13:52:17.000",
    "request_status": "Pending",
    "responsible_agency": "Department of Sanitation",
    "final_address": "7431 Camberley Dr",
    "address_councildis": "E",
    "status": "Assigned to Contractor",
    "contractor": "Waste Pro",
    "rowid": "1249890",
    "final_x": "3712778.44357",
    "final_y": "565618.47997",
    "longitude": "-89.96802237443458",
    "latitude": "30.048266619185373",
    "geocoded_column": {
      "latitude": "30.048266619185373",
      "longitude": "-89.96802237443458"
    }
  },
  {
    "service_request": "2026-1249889",
    "request_type": "Trash/Recycling",
    "request_reason": "Request a Large Item Pick Up",
    "date_created": "2026-01-06T13:50:40.000",
    "date_modified": "2026-01-06T13:50:42.000",
    "request_status": "Pending",
    "responsible_agency": "Department of Sanitation",
    "final_address": "932 Lamanche St",
    "address_councildis": "E",
    "status": "Assigned to Contractor",
    "contractor": "Waste Pro",
    "rowid": "1249889",
    "final_x": "3698176.70563",
    "final_y": "533180.170948",
    "longitude": "-90.015351300745",
    "latitude": "29.95954368418672",
    "geocoded_column": {
      "latitude": "29.95954368418672",
      "longitude": "-90.015351300745"
    }
  },
  {
    "service_request": "2026-1249888",
    "request_type": "Trash/Recycling",
    "request_reason": "Request a Large Item Pick Up",
    "date_created": "2026-01-06T13:50:24.000",
    "date_modified": "2026-01-06T13:50:25.000",
    "request_status": "Pending",
    "responsible_agency": "Department of Sanitation",
    "final_address": "640 Governor Nicholls St",
    "address_councildis": "C",
    "status": "Assigned to Contractor",
    "contractor": "IV Waste",
    "rowid": "1249888",
    "final_x": "3683706.3558",
    "final_y": "533838.545989",
    "longitude": "-90.06102216212089",
    "latitude": "29.961803716347145",
    "geocoded_column": {
      "latitude": "29.961803716347145",
      "longitude": "-90.06102216212089"
    }
  },
  {
    "service_request": "2026-1249887",
    "request_type": "Streetlights",
    "request_reason": "Streetlight Outage/Malfunction",
    "date_created": "2026-01-06T13:49:21.000",
    "date_modified": "2026-01-06T13:50:58.000",
    "request_status": "Pending",
    "responsible_agency": "Department of Public Works",
    "final_address": "1837 Lizardi St",
    "address_councildis": "E",
    "status": "Pending",
    "rowid": "1249887",
    "final_x": "3697409.46512",
    "final_y": "537058.426824",
    "longitude": "-90.01763343411287",
    "latitude": "29.970231749530335",
    "geocoded_column": {
      "latitude": "29.970231749530335",
      "longitude": "-90.01763343411287"
    }
  },
  {
    "service_request": "2026-1249886",
    "request_type": "Drainage",
    "request_reason": "Drainage Manhole Cover Missing or Damaged",
    "date_created": "2026-01-06T13:46:02.000",
    "date_modified": "2026-01-06T13:46:03.000",
    "request_status": "Pending",
    "responsible_agency": "Sewerage & Water Board",
    "final_address": "10101 Dwyer Rd",
    "address_councildis": "E",
    "status": "Pending",
    "rowid": "1249886",
    "final_x": "3712861.84318",
    "final_y": "558035.777435",
    "longitude": "-89.96804434105468",
    "latitude": "30.027414493874833",
    "geocoded_column": {
      "latitude": "30.027414493874833",
      "longitude": "-89.96804434105468"
    }
  },
  {
    "service_request": "2026-1249885",
    "request_type": "Streetlights",
    "request_reason": "Streetlight Outage/Malfunction",
    "date_created": "2026-01-06T13:45:39.000",
    "date_modified": "2026-01-06T13:45:40.000",
    "request_status": "Pending",
    "responsible_agency": "Department of Public Works",
    "final_address": "1111 N Prieur St",
    "address_councildis": "D",
    "status": "Pending",
    "rowid": "1249885",
    "final_x": "3679857.15688",
    "final_y": "536548.475463",
    "longitude": "-90.07308319233553",
    "latitude": "29.969372057002886",
    "geocoded_column": {
      "latitude": "29.969372057002886",
      "longitude": "-90.07308319233553"
    }
  },
  {
    "service_request": "2026-1249884",
    "request_type": "Abandoned Vehicles",
    "request_reason": "Abandoned/Junk Vehicles",
    "date_created": "2026-01-06T13:45:00.000",
    "date_modified": "2026-01-06T13:45:03.000",
    "request_status": "Pending",
    "responsible_agency": "Department of Public Works",
    "final_address": "5131 Bundy Rd",
    "address_councildis": "E",
    "status": "Pending",
    "rowid": "1249884",
    "final_x": "3709532.24446",
    "final_y": "557452.749851",
    "longitude": "-89.97858727878084",
    "latitude": "30.025920061882783",
    "geocoded_column": {
      "latitude": "30.025920061882783",
      "longitude": "-89.97858727878084"
    }
  },