[
  {
    "service_request": "2025-1234468",
    "request_type": "Streetlights",
    "request_reason": "Streetlight Outage/Malfunction",
    "date_created": "2025-10-19T22:50:27.000",
    "date_modified": "2025-10-19T22:50:29.000",
    "request_status": "Pending",
    "responsible_agency": "Department of Public Works",
    "final_address": "5550 Cherlyn Dr",
    "address_councildis": "A",
    "status": "Pending",
    "rowid": "1234468",
    "final_x": "3665094.80455",
    "final_y": "544799.758543",
    "longitude": "-90.11942800179942",
    "latitude": "29.99249850137802",
    "geocoded_column": {
      "latitude": "29.99249850137802",
      "longitude": "-90.11942800179942"
    }
  },
  {
    "service_request": "2025-1234467",
    "request_type": "Trash/Recycling",
    "request_reason": "Replace Trash Cart",
    "date_created": "2025-10-19T22:19:05.000",
    "date_modified": "2025-10-19T22:19:06.000",
    "request_status": "Pending",
    "responsible_agency": "Department of Sanitation",
    "final_address": "4926 S Claiborne Ave",
    "address_councildis": "B",
    "status": "Assigned to Contractor",
    "contractor": "IV Waste",
    "rowid": "1234467",
    "final_x": "3668994.95994",
    "final_y": "525725.221565",
    "longitude": "-90.10775256901998",
    "latitude": "29.939935689220555",
    "geocoded_column": {
      "latitude": "29.939935689220555",
      "longitude": "-90.10775256901998"
    }
  },
  {
    "service_request": "2025-1234466",
    "request_type": "Trash/Recycling",
    "request_reason": "Order Second Trash Cart",
    "date_created": "2025-10-19T22:15:36.000",
    "date_modified": "2025-10-19T22:15:39.000",
    "request_status": "Pending",
    "responsible_agency": "Department of Sanitation",
    "final_address": "2049 Lafreniere St",
    "address_councildis": "D",
    "status": "Assigned to Contractor",
    "contractor": "IV Waste",
    "rowid": "1234466",
    "final_x": "3683315.87336",
    "final_y": "545540.425104",
    "longitude": "-90.06184519441204",
    "latitude": "29.993991711041648",
    "geocoded_column": {
      "latitude": "29.993991711041648",
      "longitude": "-90.06184519441204"
    }
  },
  {
    "service_request": "2025-1234465",
    "request_type": "Traffic Safety",
    "request_reason": "Request for Traffic Calming due to Speeding",
    "date_created": "2025-10-19T21:50:56.000",
    "date_modified": "2025-10-19T21:50:58.000",
    "request_status": "Pending",
    "responsible_agency": "Department of Public Works",
    "final_address": "8534 Palm St",
    "address_councildis": "A",
    "status": "Pending",
    "rowid": "1234465",
    "final_x": "3666414.3385",
    "final_y": "535831.456647",
    "longitude": "-90.1155609034477",
    "latitude": "29.967800184336767",
    "geocoded_column": {
      "latitude": "29.967800184336767",
      "longitude": "-90.1155609034477"
    }
  },
  {
    "service_request": "2025-1234464",
    "request_type": "Trash/Recycling",
    "request_reason": "Request a Large Item Pick Up",
    "date_created": "2025-10-19T21:41:02.000",
    "date_modified": "2025-10-19T21:41:05.000",
    "request_status": "Pending",
    "responsible_agency": "Department of Sanitation",
    "final_address": "8510 S Claiborne Ave",
    "address_councildis": "A",
    "status": "Assigned to Contractor",
    "contractor": "IV Waste",
    "rowid": "1234464",
    "final_x": "3663616.92941",
    "final_y": "532518.902212",
    "longitude": "-90.12450560635534",
    "latitude": "29.958773195935706",
    "geocoded_column": {
      "latitude": "29.958773195935706",
      "longitude": "-90.12450560635534"
    }
  },
  {
    "service_request": "2025-1234463",
    "request_type": "Street and Traffic Signs",
    "request_reason": "Traffic or Parking Sign Damaged or Missing",
    "date_created": "2025-10-19T20:49:08.000",
    "date_modified": "2025-10-19T20:49:10.000",
    "request_status": "Pending",
    "responsible_agency": "Department of Public Works",
    "final_address": "0 BLK Interstate 10",
    "status": "Pending",
    "rowid": "1234463",
    "final_x": "3749078.15502",
    "final_y": "605653.561774",
    "longitude": "-89.85166076471643",
    "latitude": "30.157105189447982",
    "geocoded_column": {
      "latitude": "30.157105189447982",
      "longitude": "-89.85166076471643"
    }
  },
  {
    "service_request": "2025-1234462",
    "request_type": "Property Maintenance",
    "request_reason": "Property Maintenance",
    "date_created": "2025-10-19T20:31:40.000",
    "date_modified": "2025-10-19T20:31:42.000",
    "request_status": "Pending",
    "responsible_agency": "Department of Code Enforcement",
    "final_address": "801 Newton St",
    "address_councildis": "C",
    "status": "Pending",
    "rowid": "1234462",
    "final_x": "3687861.75663",
    "final_y": "527914.722559",
    "longitude": "-90.04810992735483",
    "latitude": "29.945387713152545",
    "geocoded_column": {
      "latitude": "29.945387713152545",
      "longitude": "-90.04810992735483"
    }
  },
  {
    "service_request": "2025-1234461",
    "request_type": "Safety & Permits",
    "request_reason": "Licenses & Permits",
    "date_created": "2025-10-19T20:07:09.000",
    "date_modified": "2025-10-19T20:07:11.000",
    "request_status": "Pending",
    "responsible_agency": "Safety and Permits",
    "final_address": "6871 General Diaz St",
    "address_councildis": "A",
    "status": "Pending",
    "rowid": "1234461",
    "final_x": "3670106.80698",
    "final_y": "553106.839319",
    "longitude": "-90.10331430718954",
    "latitude": "30.015193121918436",
    "geocoded_column": {
      "latitude": "30.015193121918436",
      "longitude": "-90.10331430718954"
    }
  },
  {
    "service_request": "2025-1234460",
    "request_type": "Streetlights",
    "request_reason": "Streetlight Outage/Malfunction",
    "date_created": "2025-10-19T19:53:30.000",
    "date_modified": "2025-10-19T19:53:31.000",
    "request_status": "Pending",
    "responsible_agency": "Department of Public Works",
    "final_address": "1134 Octavia St",
    "address_councildis": "A",
    "status": "Pending",
    "rowid": "1234460",
    "final_x": "3666702.79233",
    "final_y": "520242.848184",
    "longitude": "-90.1151733188378",
    "latitude": "29.92492812185428",
    "geocoded_column": {
      "latitude": "29.92492812185428",
      "longitude": "-90.1151733188378"
    }
  },
  {
    "service_request": "2025-1234459",
    "request_type": "Parks & Parkways",
    "request_reason": "Request Tree Service (Right of Way/Public Property)",
    "date_created": "2025-10-19T19:50:37.000",
    "date_modified": "2025-10-19T19:50:39.000",
    "request_status": "Pending",
    "responsible_agency": "Department of Parks & Parkway",
    "final_address": "2236 Upperline St",
    "address_councildis": "B",
    "status": "Pending",
    "rowid": "1234459",
    "final_x": "3669059.3906",
    "final_y": "523133.145019",
    "longitude": "-90.10763669037766",
    "latitude": "29.932806417415193",
    "geocoded_column": {
      "latitude": "29.932806417415193",
      "longitude": "-90.10763669037766"
    }
  },
  {
    "service_request": "2025-1234458",
    "request_type": "Health Related Request",
    "request_reason": "Noise Ordinance Complaint",
    "date_created": "2025-10-19T19:30:45.000",
    "date_modified": "2025-10-19T19:30:48.000",
    "request_status": "Pending",
    "responsible_agency": "Health Department",
    "final_address": "2432 Ursulines Ave, New Orleans, Louisiana, 70119",
    "address_councildis": "D",
    "status": "Pending",
    "rowid": "1234458",
    "final_x": "3678458.14069",
    "final_y": "537432.516488",
    "longitude": "-90.07747079757495",
    "latitude": "29.971845102039737",
    "geocoded_column": {
      "latitude": "29.971845102039737",
      "longitude": "-90.07747079757495"
    }
  },
  {
    "service_request": "2025-1234457",
    "request_type": "Streetlights",
    "request_reason": "Streetlight Outage/Malfunction",
    "date_created": "2025-10-19T19:22:13.000",
    "date_modified": "2025-10-19T19:22:15.000",
    "request_status": "Pending",
    "responsible_agency": "Department of Public Works",
    "final_address": "1418 Burdette St",
    "address_councildis": "A",
    "status": "Pending",
    "rowid": "1234457",
    "final_x": "3663352.97402",
    "final_y": "528289.47456",
    "longitude": "-90.12547989641136",
    "latitude": "29.94715129139797",
    "geocoded_column": {
      "latitude": "29.94715129139797",
      "longitude": "-90.12547989641136"
    }
  },
  {
    "service_request": "2025-1234456",
    "request_type": "Streetlights",
    "request_reason": "Streetlight Outage/Malfunction",
    "date_created": "2025-10-19T19:18:34.000",
    "date_modified": "2025-10-19T19:18:36.000",
    "request_status": "Pending",
    "responsible_agency": "Department of Public Works",
    "final_address": "4751 Sandalwood St",
    "address_councildis": "E",
    "status": "Pending",
    "rowid": "1234456",
    "final_x": "3712301.65323",
    "final_y": "556219.613914",
    "longitude": "-89.96988276440605",
    "latitude": "30.022439101899312",
    "geocoded_column": {
      "latitude": "30.022439101899312",
      "longitude": "-89.96988276440605"
    }
  },
  {
    "service_request": "2025-1234455",
    "request_type": "Property Maintenance",
    "request_reason": "Property Maintenance",
    "date_created": "2025-10-19T19:13:34.000",
    "date_modified": "2025-10-19T19:13:35.000",
    "request_status": "Pending",
    "responsible_agency": "Department of Code Enforcement",
    "final_address": "8429 S Claiborne Ave",
    "address_councildis": "A",
    "status": "Pending",
    "rowid": "1234455",
    "final_x": "3663926.74752",
    "final_y": "532512.497156",
    "longitude": "-90.12352748930853",
    "latitude": "29.95874659322973",
    "geocoded_column": {
      "latitude": "29.95874659322973",
      "longitude": "-90.12352748930853"
    }
  },
  {
    "service_request": "2025-1234454",
    "request_type": "Streetlights",
    "request_reason": "Streetlight Outage/Malfunction",
    "date_created": "2025-10-19T19:10:30.000",
    "date_modified": "2025-10-19T19:10:32.000",
    "request_status": "Pending",
    "responsible_agency": "Department of Public Works",
    "final_address": "4751 Sandalwood St",
    "address_councildis": "E",
    "status": "Pending",
    "rowid": "1234454",
    "final_x": "3712301.65323",
    "final_y": "556219.613914",
    "longitude": "-89.96988276440605",
    "latitude": "30.022439101899312",
    "geocoded_column": {
      "latitude": "30.022439101899312",
      "longitude": "-89.96988276440605"
    }
  },
  {
    "service_request": "2025-1234453",
    "request_type": "Utility Poles",
    "request_reason": "Utility Pole Leaning",
    "date_created": "2025-10-19T19:06:59.000",
    "date_modified": "2025-10-19T19:07:01.000",
    "request_status": "Pending",
    "responsible_agency": "Utility Company Collective",
    "final_address": "2740 St Louis St",
    "address_councildis": "B",
    "status": "Pending",
    "rowid": "1234453",
    "final_x": "3675791.49045",
    "final_y": "536428.817863",
    "longitude": "-90.08592701529538",
    "latitude": "29.969165367005083",
    "geocoded_column": {
      "latitude": "29.969165367005083",
      "longitude": "-90.08592701529538"
    }
  },
  {
    "service_request": "2025-1234452",
    "request_type": "Mosquito, Termite & Rodent Control",
    "request_reason": "Mosquito Complaint",
    "date_created": "2025-10-19T18:53:45.000",
    "date_modified": "2025-10-19T18:53:47.000",
    "request_status": "Pending",
    "responsible_agency": "Mosquito, Termite & Rodent Control Board",
    "final_address": "1413 Annette St",
    "address_councildis": "C",
    "status": "Pending",
    "rowid": "1234452",
    "final_x": "3683133.31464",
    "final_y": "537407.104776",
    "longitude": "-90.06270677037112",
    "latitude": "29.971633505890363",
    "geocoded_column": {
      "latitude": "29.971633505890363",
      "longitude": "-90.06270677037112"
    }
  },
  {
    "service_request": "2025-1234451",
    "request_type": "Abandoned Vehicles",
    "request_reason": "Abandoned/Junk Vehicles",
    "date_created": "2025-10-19T18:50:28.000",
    "date_modified": "2025-10-19T18:50:29.000",
    "request_status": "Pending",
    "responsible_agency": "Department of Public Works",
    "final_address": "2120 Brainard St",
    "address_councildis": "B",
    "status": "Pending",
    "rowid": "1234451",
    "final_x": "3677389.86338",
    "final_y": "524336.859644",
    "longitude": "-90.08129649957422",
    "latitude": "29.935868585034235",
    "geocoded_column": {
      "latitude": "29.935868585034235",
      "longitude": "-90.08129649957422"
    }
  },
  {
    "service_request": "2025-1234450",
    "request_type": "Street and Traffic Signs",
    "request_reason": "Stop Sign Missing or Damaged",
    "date_created": "2025-10-19T18:50:27.000",
    "date_modified": "2025-10-19T18:50:30.000",
    "request_status": "Pending",
    "responsible_agency": "Department of Public Works",
    "final_address": "1710 Frenchmen St",
    "address_councildis": "D",
    "status": "Pending",
    "rowid": "1234450",
    "final_x": "3684376.76809",
    "final_y": "538578.920009",
    "longitude": "-90.05873859721035",
    "latitude": "29.974817616740168",
    "geocoded_column": {
      "latitude": "29.974817616740168",
      "longitude": "-90.05873859721035"
    }
  },
  {
    "service_request": "2025-1234449",
    "request_type": "Trash/Recycling",
    "request_reason": "Return Recycling Cart",
    "date_created": "2025-10-19T18:32:10.000",
    "date_modified": "2025-10-19T18:32:13.000",
    "request_status": "Pending",
    "responsible_agency": "Department of Sanitation",
    "final_address": "2606 Pauger St",
    "address_councildis": "D",
    "status": "Pending",
    "rowid": "1234449",
    "final_x": "3683588.40092",
    "final_y": "539233.565578",
    "longitude": "-90.06120550154145",
    "latitude": "29.97664175336775",
    "geocoded_column": {
      "latitude": "29.97664175336775",
      "longitude": "-90.06120550154145"
    }
  },
  {
    "service_request": "2025-1234448",
    "request_type": "Trash/Recycling",
    "request_reason": "Damaged Caused By Contractor",
    "date_created": "2025-10-19T18:25:56.000",
    "date_modified": "2025-10-19T18:25:59.000",
    "request_status": "Pending",
    "responsible_agency": "Department of Sanitation",
    "final_address": "4529 Baronne St",
    "address_councildis": "B",
    "status": "Assigned to Contractor",
    "contractor": "IV Waste",
    "rowid": "1234448",
    "final_x": "3670136.84129",
    "final_y": "521580.903161",
    "longitude": "-90.10428781465147",
    "latitude": "29.9285065146358",
    "geocoded_column": {
      "latitude": "29.9285065146358",
      "longitude": "-90.10428781465147"
    }
  },
  {
    "service_request": "2025-1234447",
    "request_type": "Trash/Recycling",
    "request_reason": "Replace Trash Cart",
    "date_created": "2025-10-19T18:10:19.000",
    "date_modified": "2025-10-19T18:10:21.000",
    "request_status": "Pending",
    "responsible_agency": "Department of Sanitation",
    "final_address": "8329 Sycamore St",
    "address_councildis": "A",
    "status": "Assigned to Contractor",
    "contractor": "IV Waste",
    "rowid": "1234447",
    "final_x": "3663597.11642",
    "final_y": "531692.168707",
    "longitude": "-90.12459571016478",
    "latitude": "29.9565005224217",
    "geocoded_column": {
      "latitude": "29.9565005224217",
      "longitude": "-90.12459571016478"
    }
  },
  {
    "service_request": "2025-1234446",
    "request_type": "Trash/Recycling",
    "request_reason": "Request a Large Item Pick Up",
    "date_created": "2025-10-19T18:02:39.000",
    "date_modified": "2025-10-19T18:02:41.000",
    "request_status": "Pending",
    "responsible_agency": "Department of Sanitation",
    "final_address": "5726 Cartier Ave",
    "address_councildis": "D",
    "status": "Assigned to Contractor",
    "contractor": "IV Waste",
    "rowid": "1234446",
    "final_x": "3677427.18517",
    "final_y": "553600.015703",
    "longitude": "-90.08016829907214",
    "latitude": "30.016331076542514",
    "geocoded_column": {
      "latitude": "30.016331076542514",
      "longitude": "-90.08016829907214"
    }
  },
  {
    "service_request": "2025-1234445",
    "request_type": "Trash/Recycling",
    "request_reason": "Request a Large Item Pick Up",
    "date_created": "2025-10-19T18:00:44.000",
    "date_modified": "2025-10-19T18:00:46.000",
    "request_status": "Pending",
    "responsible_agency": "Department of Sanitation",
    "final_address": "109 Rhodes Ave",
    "address_councildis": "C",
    "status": "Assigned to Contractor",
    "contractor": "Richards Disposal",
    "rowid": "1234445",
    "final_x": "3705967.50577",
    "final_y": "519358.418743",
    "longitude": "-89.99126116941251",
    "latitude": "29.921290062941367",
    "geocoded_column": {
      "latitude": "29.921290062941367",
      "longitude": "-89.99126116941251"
    }
  },
  {
    "service_request": "2025-1234444",
    "request_type": "Trash/Recycling",
    "request_reason": "Order Recycling Cart",
    "date_created": "2025-10-19T17:53:22.000",
    "date_modified": "2025-10-19T17:53:23.000",
    "request_status": "Pending",
    "responsible_agency": "Department of Sanitation",
    "final_address": "3710 Nashville Ave",
    "address_councildis": "A",
    "status": "Pending",
    "rowid": "1234444",
    "final_x": "3668310.42682",
    "final_y": "529220.832193",
    "longitude": "-90.10979590305288",
    "latitude": "29.949567599821506",
    "geocoded_column": {
      "latitude": "29.949567599821506",
      "longitude": "-90.10979590305288"
    }
  },
  {
    "service_request": "2025-1234443",
    "request_type": "Utility Poles",
    "request_reason": "Wires Sagging/Hanging Low",
    "date_created": "2025-10-19T17:38:05.000",
    "date_modified": "2025-10-19T17:38:07.000",
    "request_status": "Pending",
    "responsible_agency": "Utility Company Collective",
    "final_address": "2633 Burgundy St",
    "address_councildis": "C",
    "status": "Pending",
    "rowid": "1234443",
    "final_x": "3687185.90697",
    "final_y": "535646.203462",
    "longitude": "-90.04997039092378",
    "latitude": "29.966667452106925",
    "geocoded_column": {
      "latitude": "29.966667452106925",
      "longitude": "-90.04997039092378"
    }
  },
  {
    "service_request": "2025-1234442",
    "request_type": "Trash/Recycling",
    "request_reason": "Repair Recycling Cart",
    "date_created": "2025-10-19T17:31:17.000",
    "date_modified": "2025-10-19T17:31:21.000",
    "request_status": "Pending",
    "responsible_agency": "Department of Sanitation",
    "final_address": "1808 Napoleon Ave",
    "address_councildis": "B",
    "status": "Pending",
    "rowid": "1234442",
    "final_x": "3670680.25179",
    "final_y": "521680.095097",
    "longitude": "-90.10256901617333",
    "latitude": "29.928763222480654",
    "geocoded_column": {
      "latitude": "29.928763222480654",
      "longitude": "-90.10256901617333"
    }
  },
  {
    "service_request": "2025-1234441",
    "request_type": "Streetlights",
    "request_reason": "Streetlight Outage/Malfunction",
    "date_created": "2025-10-19T17:18:32.000",
    "date_modified": "2025-10-19T17:18:35.000",
    "request_status": "Pending",
    "responsible_agency": "Department of Public Works",
    "final_address": "1 Belfort St",
    "address_councildis": "A",
    "status": "Pending",
    "rowid": "1234441",
    "final_x": "3678040.81499",
    "final_y": "542468.573453",
    "longitude": "-90.07861461892563",
    "latitude": "29.985705089698033",
    "geocoded_column": {
      "latitude": "29.985705089698033",
      "longitude": "-90.07861461892563"
    }
  },
  {
    "service_request": "2025-1234440",
    "request_type": "Abandoned Vehicles",
    "request_reason": "Abandoned/Junk Vehicles",
    "date_created": "2025-10-19T17:13:58.000",
    "date_modified": "2025-10-19T17:14:00.000",
    "request_status": "Pending",
    "responsible_agency": "Department of Public Works",
    "final_address": "2427 Arts St",
    "address_councildis": "D",
    "status": "Pending",
    "rowid": "1234440",
    "final_x": "3686840.823",
    "final_y": "541542.822924",
    "longitude": "-90.05085174051123",
    "latitude": "29.982891708012705",
    "geocoded_column": {
      "latitude": "29.982891708012705",
      "longitude": "-90.05085174051123"
    }
  },
  {
    "service_request": "2025-1234439",
    "request_type": "Property Maintenance",
    "request_reason": "Property Maintenance",
    "date_created": "2025-10-19T16:45:06.000",
    "date_modified": "2025-10-19T16:45:08.000",
    "request_status": "Pending",
    "responsible_agency": "Department of Code Enforcement",
    "final_address": "4217 Baudin St",
    "address_councildis": "A",
    "status": "Pending",
    "rowid": "1234439",
    "final_x": "3669540.85742",
    "final_y": "537587.578056",
    "longitude": "-90.10562781550783",
    "latitude": "29.972537194164378",
    "geocoded_column": {
      "latitude": "29.972537194164378",
      "longitude": "-90.10562781550783"
    }
  },
  {
    "service_request": "2025-1234438",
    "request_type": "Health Related Request",
    "request_reason": "Noise Ordinance Complaint",
    "date_created": "2025-10-19T16:44:17.000",
    "date_modified": "2025-10-19T16:44:19.000",
    "request_status": "Pending",
    "responsible_agency": "Health Department",
    "final_address": "2432 Ursulines Ave, New Orleans, Louisiana, 70119",
    "address_councildis": "D",
    "status": "Pending",
    "rowid": "1234438",
    "final_x": "3678458.14069",
    "final_y": "537432.516488",
    "longitude": "-90.07747079757495",
    "latitude": "29.971845102039737",
    "geocoded_column": {
      "latitude": "29.971845102039737",
      "longitude": "-90.07747079757495"
    }
  },
  {
    "service_request": "2025-1234437",
    "request_type": "Property Maintenance",
    "request_reason": "Property Maintenance",
    "date_created": "2025-10-19T16:43:31.000",
    "date_modified": "2025-10-19T16:43:32.000",
    "request_status": "Pending",
    "responsible_agency": "Department of Code Enforcement",
    "final_address": "4217 Baudin St",
    "address_councildis": "A",
    "status": "Pending",
    "rowid": "1234437",
    "final_x": "3669540.85742",
    "final_y": "537587.578056",
    "longitude": "-90.10562781550783",
    "latitude": "29.972537194164378",
    "geocoded_column": {
      "latitude": "29.972537194164378",
      "longitude": "-90.10562781550783"
    }
  },
  {
    "service_request": "2025-1234436",
    "request_type": "Health Related Request",
    "request_reason": "Noise Ordinance Complaint",
    "date_created": "2025-10-19T16:39:23.000",
    "date_modified": "2025-10-19T16:39:26.000",
    "request_status": "Pending",
    "responsible_agency": "Health Department",
    "final_address": "2432 Ursulines Ave, New Orleans, Louisiana, 70119",
    "address_councildis": "D",
    "status": "Pending",
    "rowid": "1234436",
    "final_x": "3678458.14069",
    "final_y": "537432.516488",
    "longitude": "-90.07747079757495",
    "latitude": "29.971845102039737",
    "geocoded_column": {
      "latitude": "29.971845102039737",
      "longitude": "-90.07747079757495"
    }
  },
  {
    "service_request": "2025-1234435",
    "request_type": "Trash/Recycling",
    "request_reason": "Request a Large Item Pick Up",
    "date_created": "2025-10-19T15:43:23.000",
    "date_modified": "2025-10-19T15:43:24.000",
    "request_status": "Pending",
    "responsible_agency": "Department of Sanitation",
    "final_address": "2453 Madrid St",
    "address_councildis": "D",
    "status": "Assigned to Contractor",
    "contractor": "IV Waste",
    "rowid": "1234435",
    "final_x": "3685461.44726",
    "final_y": "555533.309657",
    "longitude": "-90.0547154044085",
    "latitude": "30.021402870972672",
    "geocoded_column": {
      "latitude": "30.021402870972672",
      "longitude": "-90.0547154044085"
    }
  },
  {
    "service_request": "2025-1234434",
    "request_type": "Trash/Recycling",
    "request_reason": "Request a Large Item Pick Up",
    "date_created": "2025-10-19T15:35:49.000",
    "date_modified": "2025-10-19T15:35:51.000",
    "request_status": "Pending",
    "responsible_agency": "Department of Sanitation",
    "final_address": "710 Burdette St",
    "address_councildis": "A",
    "status": "Assigned to Contractor",
    "contractor": "IV Waste",
    "rowid": "1234434",
    "final_x": "3661688.77869",
    "final_y": "526456.236734",
    "longitude": "-90.13079516030061",
    "latitude": "29.94215860334788",
    "geocoded_column": {
      "latitude": "29.94215860334788",
      "longitude": "-90.13079516030061"
    }
  },
  {
    "service_request": "2025-1234433",
    "request_type": "Trash/Recycling",
    "request_reason": "Request a Large Item Pick Up",
    "date_created": "2025-10-19T15:15:04.000",
    "date_modified": "2025-10-19T15:15:07.000",
    "request_status": "Pending",
    "responsible_agency": "Department of Sanitation",
    "final_address": "0 BLK Blanc Pl",
    "address_councildis": "B",
    "status": "Assigned to Contractor",
    "contractor": "IV Waste",
    "rowid": "1234433",
    "final_x": "3667951.08401",
    "final_y": "520874.262829",
    "longitude": "-90.11121159835395",
    "latitude": "29.926627762655404",
    "geocoded_column": {
      "latitude": "29.926627762655404",
      "longitude": "-90.11121159835395"
    }
  },
  {
    "service_request": "2025-1234432",
    "request_type": "Trash/Recycling",
    "request_reason": "Replace Trash Cart",
    "date_created": "2025-10-19T15:07:35.000",
    "date_modified": "2025-10-19T15:07:36.000",
    "request_status": "Pending",
    "responsible_agency": "Department of Sanitation",
    "final_address": "2955 Maurepas St",
    "address_councildis": "A",
    "status": "Assigned to Contractor",
    "contractor": "IV Waste",
    "rowid": "1234432",
    "final_x": "3677325.39803",
    "final_y": "540747.878411",
    "longitude": "-90.08093373756589",
    "latitude": "29.980995296011066",
    "geocoded_column": {
      "latitude": "29.980995296011066",
      "longitude": "-90.08093373756589"
    }
  },
  {
    "service_request": "2025-1234431",
    "request_type": "Roads and Streets",
    "request_reason": "Pothole",
    "date_created": "2025-10-19T15:06:50.000",
    "date_modified": "2025-10-19T15:06:52.000",
    "request_status": "Pending",
    "responsible_agency": "Department of Public Works",
    "final_address": "3281 Elmwood Park Dr",
    "address_councildis": "C",
    "status": "Pending",
    "rowid": "1234431",
    "final_x": "3695196.68445",
    "final_y": "518005.091574",
    "longitude": "-90.02530848919453",
    "latitude": "29.91791135770806",
    "geocoded_column": {
      "latitude": "29.91791135770806",
      "longitude": "-90.02530848919453"
    }
  },
  {
    "service_request": "2025-1234430",
    "request_type": "Abandoned Vehicles",
    "request_reason": "Abandoned/Junk Vehicles",
    "date_created": "2025-10-19T14:42:51.000",
    "date_modified": "2025-10-19T14:42:53.000",
    "request_status": "Pending",
    "responsible_agency": "Department of Public Works",
    "final_address": "1925 Foucher St",
    "address_councildis": "B",
    "status": "Pending",
    "rowid": "1234430",
    "final_x": "3673100.46939",
    "final_y": "522528.139706",
    "longitude": "-90.09489993875411",
    "latitude": "29.93102336941178",
    "geocoded_column": {
      "latitude": "29.93102336941178",
      "longitude": "-90.09489993875411"
    }
  },
  {
    "service_request": "2025-1234429",
    "request_type": "Trash/Recycling",
    "request_reason": "Replace Recycling Cart",
    "date_created": "2025-10-19T14:41:07.000",
    "date_modified": "2025-10-19T14:41:09.000",
    "request_status": "Pending",
    "responsible_agency": "Department of Sanitation",
    "final_address": "2237 Monterrey St",
    "address_councildis": "D",
    "status": "Pending",
    "rowid": "1234429",
    "final_x": "3684575.26172",
    "final_y": "547149.960401",
    "longitude": "-90.05781037425487",
    "latitude": "29.998378870908606",
    "geocoded_column": {
      "latitude": "29.998378870908606",
      "longitude": "-90.05781037425487"
    }
  },
  {
    "service_request": "2025-1234428",
    "request_type": "Trash/Recycling",
    "request_reason": "Illegal Dumping",
    "date_created": "2025-10-19T14:32:36.000",
    "date_modified": "2025-10-19T14:32:37.000",
    "request_status": "Pending",
    "responsible_agency": "Department of Sanitation",
    "final_address": "1 Alice Ct",
    "address_councildis": "E",
    "status": "Pending",
    "rowid": "1234428",
    "final_x": "3696817.55485",
    "final_y": "533879.761093",
    "longitude": "-90.01961783221792",
    "latitude": "29.961510225802815",
    "geocoded_column": {
      "latitude": "29.961510225802815",
      "longitude": "-90.01961783221792"
    }
  },
  {
    "service_request": "2025-1234427",
    "request_type": "Parks & Parkways",
    "request_reason": "Request Tree Service (Right of Way/Public Property)",
    "date_created": "2025-10-19T14:26:10.000",
    "date_modified": "2025-10-19T14:26:13.000",
    "request_status": "Pending",
    "responsible_agency": "Department of Parks & Parkway",
    "final_address": "1430 De Battista Pl",
    "address_councildis": "C",
    "status": "Pending",
    "rowid": "1234427",
    "final_x": "3699832.86333",
    "final_y": "525824.332221",
    "longitude": "-90.01038975372427",
    "latitude": "29.939265236399144",
    "geocoded_column": {
      "latitude": "29.939265236399144",
      "longitude": "-90.01038975372427"
    }
  },
  {
    "service_request": "2025-1234426",
    "request_type": "Abandoned Vehicles",
    "request_reason": "Abandoned/Junk Vehicles",
    "date_created": "2025-10-19T13:54:50.000",
    "date_modified": "2025-10-19T13:54:52.000",
    "request_status": "Pending",
    "responsible_agency": "Department of Public Works",
    "final_address": "2368 Magazine St",
    "address_councildis": "B",
    "status": "Pending",
    "rowid": "1234426",
    "final_x": "3678127.71899",
    "final_y": "521486.103929",
    "longitude": "-90.07906558983451",
    "latitude": "29.928007750806092",
    "geocoded_column": {
      "latitude": "29.928007750806092",
      "longitude": "-90.07906558983451"
    }
  },
  {
    "service_request": "2025-1234425",
    "request_type": "Trash/Recycling",
    "request_reason": "Request a Large Item Pick Up",
    "date_created": "2025-10-19T13:52:58.000",
    "date_modified": "2025-10-19T13:53:07.000",
    "request_status": "Pending",
    "responsible_agency": "Department of Sanitation",
    "final_address": "1507 Dublin St",
    "address_councildis": "A",
    "status": "Assigned to Contractor",
    "contractor": "IV Waste",
    "rowid": "1234425",
    "final_x": "3662500.75501",
    "final_y": "529420.811713",
    "longitude": "-90.1281331143607",
    "latitude": "29.950286779328163",
    "geocoded_column": {
      "latitude": "29.950286779328163",
      "longitude": "-90.1281331143607"
    }
  },
  {
    "service_request": "2025-1234424",
    "request_type": "Abandoned Vehicles",
    "request_reason": "Abandoned/Junk Vehicles",
    "date_created": "2025-10-19T13:46:28.000",
    "date_modified": "2025-10-19T13:46:30.000",
    "request_status": "Pending",
    "responsible_agency": "Department of Public Works",
    "final_address": "801 Harrison Ave",
    "address_councildis": "A",
    "status": "Pending",
    "rowid": "1234424",
    "final_x": "3669481.99642",
    "final_y": "549397.514643",
    "longitude": "-90.10541401304762",
    "latitude": "30.00501220972178",
    "geocoded_column": {
      "latitude": "30.00501220972178",
      "longitude": "-90.10541401304762"
    }
  },
  {
    "service_request": "2025-1234423",
    "request_type": "Trash/Recycling",
    "request_reason": "Request a Large Item Pick Up",
    "date_created": "2025-10-19T13:23:23.000",
    "date_modified": "2025-10-19T13:23:24.000",
    "request_status": "Pending",
    "responsible_agency": "Department of Sanitation",
    "final_address": "318 N Gayoso St",
    "address_councildis": "B",
    "status": "Assigned to Contractor",
    "contractor": "IV Waste",
    "rowid": "1234423",
    "final_x": "3674968.26197",
    "final_y": "536632.399687",
    "longitude": "-90.08851984922362",
    "latitude": "29.96974976470423",
    "geocoded_column": {
      "latitude": "29.96974976470423",
      "longitude": "-90.08851984922362"
    }
  },
  {
    "service_request": "2025-1234422",
    "request_type": "Drainage",
    "request_reason": "Catch Basin Not Draining",
    "date_created": "2025-10-19T13:04:04.000",
    "date_modified": "2025-10-19T13:04:05.000",
    "request_status": "Pending",
    "responsible_agency": "Sewerage & Water Board",
    "final_address": "195 Walnut St",
    "address_councildis": "A",
    "status": "Pending",
    "rowid": "1234422",
    "final_x": "3661171.44717",
    "final_y": "520917.870265",
    "longitude": "-90.13261173103345",
    "latitude": "29.926944757013946",
    "geocoded_column": {
      "latitude": "29.926944757013946",
      "longitude": "-90.13261173103345"
    }
  },
  {
    "service_request": "2025-1234421",
    "request_type": "Trash/Recycling",
    "request_reason": "Request a Large Item Pick Up",
    "date_created": "2025-10-19T12:19:02.000",
    "date_modified": "2025-10-19T12:19:04.000",
    "request_status": "Pending",
    "responsible_agency": "Department of Sanitation",
    "final_address": "4651 Gabriel Dr",
    "address_councildis": "E",
    "status": "Assigned to Contractor",
    "contractor": "Waste Pro",
    "rowid": "1234421",
    "final_x": "3709005.96715",
    "final_y": "555173.864281",
    "longitude": "-89.98033525927221",
    "latitude": "30.0196711151423",
    "geocoded_column": {
      "latitude": "30.0196711151423",
      "longitude": "-89.98033525927221"
    }
  },
  {
    "service_request": "2025-1234420",
    "request_type": "Trash/Recycling",
    "request_reason": "Replace Trash Cart",
    "date_created": "2025-10-19T12:04:33.000",
    "date_modified": "2025-10-19T12:04:34.000",
    "request_status": "Pending",
    "responsible_agency": "Department of Sanitation",
    "final_address": "6145 Argonne Blvd",
    "address_councildis": "A",
    "status": "Assigned to Contractor",
    "contractor": "IV Waste",
    "rowid": "1234420",
    "final_x": "3670302.35514",
    "final_y": "548123.627346",
    "longitude": "-90.10286553985524",
    "latitude": "30.00148526608906",
    "geocoded_column": {
      "latitude": "30.00148526608906",
      "longitude": "-90.10286553985524"
    }
  },
  {
    "service_request": "2025-1234419",
    "request_type": "General Services",
    "request_reason": "General Service Request",
    "date_created": "2025-10-19T12:03:41.000",
    "date_modified": "2025-10-19T12:03:42.000",
    "request_status": "Pending",
    "responsible_agency": "Orleans Parish Communication District",
    "final_address": "157 Mary Jane Ln",
    "address_councildis": "E",
    "status": "Pending",
    "rowid": "1234419",
    "final_x": "3718372.70162",
    "final_y": "571309.883496",
    "longitude": "-89.95012436197203",
    "latitude": "30.06373115227466",
    "geocoded_column": {
      "latitude": "30.06373115227466",
      "longitude": "-89.95012436197203"
    }
  },
  {
    "service_request": "2025-1234418",
    "request_type": "General Services",
    "request_reason": "General Service Request",
    "date_created": "2025-10-19T12:02:51.000",
    "date_modified": "2025-10-19T12:02:52.000",
    "request_status": "Pending",
    "responsible_agency": "Orleans Parish Communication District",
    "final_address": "4838 Banks St",
    "address_councildis": "A",
    "status": "Pending",
    "rowid": "1234418",
    "final_x": "3667802.04001",
    "final_y": "539243.858058",
    "longitude": "-90.11106353375348",
    "latitude": "29.97714252156278",
    "geocoded_column": {
      "latitude": "29.97714252156278",
      "longitude": "-90.11106353375348"
    }
  },
  {
    "service_request": "2025-1234417",
    "request_type": "General Services",
    "request_reason": "General Service Request",
    "date_created": "2025-10-19T11:53:06.000",
    "date_modified": "2025-10-19T11:53:08.000",
    "request_status": "Pending",
    "responsible_agency": "Orleans Parish Communication District",
    "final_address": "Painters and Mendez St",
    "status": "Pending",
    "rowid": "1234417",
    "longitude": "0.0",
    "latitude": "0.0",
    "geocoded_column": {
      "latitude": "0.0",
      "longitude": "0.0"
    }
  },
  {
    "service_request": "2025-1234416",
    "request_type": "General Services",
    "request_reason": "General Service Request",
    "date_created": "2025-10-19T11:50:13.000",
    "date_modified": "2025-10-19T11:50:21.000",
    "request_status": "Pending",
    "responsible_agency": "Orleans Parish Communication District",
    "final_address": "Painters and Mendez St",
    "status": "Pending",
    "rowid": "1234416",
    "longitude": "0.0",
    "latitude": "0.0",
    "geocoded_column": {
      "latitude": "0.0",
      "longitude": "0.0"
    }
  },
  {
    "service_request": "2025-1234415",
    "request_type": "Trash/Recycling",
    "request_reason": "Request a Large Item Pick Up",
    "date_created": "2025-10-19T11:42:21.000",
    "date_modified": "2025-10-19T11:42:23.000",
    "request_status": "Pending",
    "responsible_agency": "Department of Sanitation",
    "final_address": "3302 Grand-Route St John St",
    "address_councildis": "A",
    "status": "Assigned to Contractor",
    "contractor": "IV Waste",
    "rowid": "1234415",
    "final_x": "3675744.43137",
    "final_y": "540292.957515",
    "longitude": "-90.08594278394419",
    "latitude": "29.979791839135352",
    "geocoded_column": {
      "latitude": "29.979791839135352",
      "longitude": "-90.08594278394419"
    }
  },
  {
    "service_request": "2025-1234413",
    "request_type": "Drainage",
    "request_reason": "Catch Basin Not Draining",
    "date_created": "2025-10-19T11:22:18.000",
    "date_modified": "2025-10-19T11:22:19.000",
    "request_status": "Pending",
    "responsible_agency": "Sewerage & Water Board",
    "final_address": "4701 Bienville Ave",
    "address_councildis": "A",
    "status": "Pending",
    "rowid": "1234413",
    "final_x": "3669589.32058",
    "final_y": "540536.406027",
    "longitude": "-90.10537495614565",
    "latitude": "29.98064404789271",
    "geocoded_column": {
      "latitude": "29.98064404789271",
      "longitude": "-90.10537495614565"
    }
  },
  {
    "service_request": "2025-1234412",
    "request_type": "Drainage",
    "request_reason": "Catch Basin Not Draining",
    "date_created": "2025-10-19T11:21:29.000",
    "date_modified": "2025-10-19T11:21:30.000",
    "request_status": "Pending",
    "responsible_agency": "Sewerage & Water Board",
    "final_address": "4701 Bienville Ave",
    "address_councildis": "A",
    "status": "Pending",
    "rowid": "1234412",
    "final_x": "3669589.32058",
    "final_y": "540536.406027",
    "longitude": "-90.10537495614565",
    "latitude": "29.98064404789271",
    "geocoded_column": {
      "latitude": "29.98064404789271",
      "longitude": "-90.10537495614565"
    }
  },
  {
    "service_request": "2025-1234410",
    "request_type": "Health Related Request",
    "request_reason": "Homeless Encampment Complaint",
    "date_created": "2025-10-19T11:21:22.000",
    "date_modified": "2025-10-19T11:21:24.000",
    "request_status": "Pending",
    "responsible_agency": "Office Of Homeless Services And Strategy",
    "final_address": "3900 Dublin St",
    "address_councildis": "A",
    "status": "Pending",
    "rowid": "1234410",
    "final_x": "3667971.22266",
    "final_y": "535895.698247",
    "longitude": "-90.11064203636731",
    "latitude": "29.967931239067607",
    "geocoded_column": {
      "latitude": "29.967931239067607",
      "longitude": "-90.11064203636731"
    }
  },
  {
    "service_request": "2025-1234411",
    "request_type": "Health Related Request",
    "request_reason": "Homeless Encampment Complaint",
    "date_created": "2025-10-19T11:21:22.000",
    "date_modified": "2025-10-19T11:21:25.000",
    "request_status": "Pending",
    "responsible_agency": "Office Of Homeless Services And Strategy",
    "final_address": "3900 Dublin St",
    "address_councildis": "A",
    "status": "Pending",
    "rowid": "1234411",
    "final_x": "3667971.22266",
    "final_y": "535895.698247",
    "longitude": "-90.11064203636731",
    "latitude": "29.967931239067607",
    "geocoded_column": {
      "latitude": "29.967931239067607",
      "longitude": "-90.11064203636731"
    }
  },
  {
    "service_request": "2025-1234409",
    "request_type": "Street and Traffic Signs",
    "request_reason": "One Way Sign Missing or Damaged",
    "date_created": "2025-10-19T11:09:48.000",
    "date_modified": "2025-10-19T11:09:50.000",
    "request_status": "Pending",
    "responsible_agency": "Department of Public Works",
    "final_address": "AUDUBON BLVD & S CLAIBORNE AVE",
    "address_councildis": "A",
    "status": "Pending",
    "rowid": "1234409",
    "final_x": "3666575.0",
    "final_y": "528995.78",
    "longitude": "-90.11528300487443",
    "latitude": "29.948999619383642",
    "geocoded_column": {
      "latitude": "29.948999619383642",
      "longitude": "-90.11528300487443"
    }
  },
  {
    "service_request": "2025-1234408",
    "request_type": "Trash/Recycling",
    "request_reason": "Illegal Dumping",
    "date_created": "2025-10-19T11:09:29.000",
    "date_modified": "2025-10-19T11:09:30.000",
    "request_status": "Pending",
    "responsible_agency": "Department of Sanitation",
    "final_address": "6670 Coveview Ct",
    "address_councildis": "E",
    "status": "Pending",
    "rowid": "1234408",
    "final_x": "3699465.54615",
    "final_y": "555729.482009",
    "longitude": "-90.01045940096917",
    "latitude": "30.021505153892626",
    "geocoded_column": {
      "latitude": "30.021505153892626",
      "longitude": "-90.01045940096917"
    }
  },
  {
    "service_request": "2025-1234407",
    "request_type": "General Services",
    "request_reason": "General Service Request",
    "date_created": "2025-10-19T11:09:06.000",
    "date_modified": "2025-10-19T11:09:07.000",
    "request_status": "Pending",
    "responsible_agency": "Orleans Parish Communication District",
    "final_address": "413 Pelican Ave",
    "address_councildis": "C",
    "status": "Pending",
    "rowid": "1234407",
    "final_x": "3686631.75542",
    "final_y": "530526.838018",
    "longitude": "-90.0519011939635",
    "latitude": "29.95260801774559",
    "geocoded_column": {
      "latitude": "29.95260801774559",
      "longitude": "-90.0519011939635"
    }
  },
  {
    "service_request": "2025-1234406",
    "request_type": "Trash/Recycling",
    "request_reason": "Request a Large Item Pick Up",
    "date_created": "2025-10-19T11:05:55.000",
    "date_modified": "2025-10-19T11:05:57.000",
    "request_status": "Pending",
    "responsible_agency": "Department of Sanitation",
    "final_address": "6631 Coveview Ct",
    "address_councildis": "E",
    "status": "Assigned to Contractor",
    "contractor": "Waste Pro",
    "rowid": "1234406",
    "final_x": "3699176.25661",
    "final_y": "555844.405913",
    "longitude": "-90.01136928268052",
    "latitude": "30.02183033097487",
    "geocoded_column": {
      "latitude": "30.02183033097487",
      "longitude": "-90.01136928268052"
    }
  },
  {
    "service_request": "2025-1234405",
    "request_type": "Drainage",
    "request_reason": "Catch Basin Not Draining",
    "date_created": "2025-10-19T11:04:11.000",
    "date_modified": "2025-10-19T11:04:13.000",
    "request_status": "Pending",
    "responsible_agency": "Sewerage & Water Board",
    "final_address": "4701 Bienville Ave",
    "address_councildis": "A",
    "status": "Pending",
    "rowid": "1234405",
    "final_x": "3669589.32058",
    "final_y": "540536.406027",
    "longitude": "-90.10537495614565",
    "latitude": "29.98064404789271",
    "geocoded_column": {
      "latitude": "29.98064404789271",
      "longitude": "-90.10537495614565"
    }
  },
  {
    "service_request": "2025-1234404",
    "request_type": "Drainage",
    "request_reason": "Catch Basin Not Draining",
    "date_created": "2025-10-19T11:02:25.000",
    "date_modified": "2025-10-19T11:02:26.000",
    "request_status": "Pending",
    "responsible_agency": "Sewerage & Water Board",
    "final_address": "4637 Bienville Ave",
    "address_councildis": "A",
    "status": "Pending",
    "rowid": "1234404",
    "final_x": "3669686.15226",
    "final_y": "540476.648139",
    "longitude": "-90.1050711418082",
    "latitude": "29.980476880264224",
    "geocoded_column": {
      "latitude": "29.980476880264224",
      "longitude": "-90.1050711418082"
    }
  },
  {
    "service_request": "2025-1234403",
    "request_type": "Trash/Recycling",
    "request_reason": "Request a Large Item Pick Up",
    "date_created": "2025-10-19T10:57:30.000",
    "date_modified": "2025-10-19T10:57:31.000",
    "request_status": "Pending",
    "responsible_agency": "Department of Sanitation",
    "final_address": "3233 Calhoun St",
    "address_councildis": "A",
    "status": "Assigned to Contractor",
    "contractor": "IV Waste",
    "rowid": "1234403",
    "final_x": "3667398.45127",
    "final_y": "528643.413248",
    "longitude": "-90.11269485440597",
    "latitude": "29.948006630513845",
    "geocoded_column": {
      "latitude": "29.948006630513845",
      "longitude": "-90.11269485440597"
    }
  },
  {
    "service_request": "2025-1234402",
    "request_type": "Trash/Recycling",
    "request_reason": "Request a Large Item Pick Up",
    "date_created": "2025-10-19T10:49:01.000",
    "date_modified": "2025-10-19T10:49:03.000",
    "request_status": "Pending",
    "responsible_agency": "Department of Sanitation",
    "final_address": "1622 Hollygrove St",
    "address_councildis": "A",
    "status": "Assigned to Contractor",
    "contractor": "IV Waste",
    "rowid": "1234402",
    "final_x": "3660650.0521",
    "final_y": "531713.931267",
    "longitude": "-90.1339009034613",
    "latitude": "29.956645515961117",
    "geocoded_column": {
      "latitude": "29.956645515961117",
      "longitude": "-90.1339009034613"
    }
  },
  {
    "service_request": "2025-1234401",
    "request_type": "Trash/Recycling",
    "request_reason": "Repair Recycling Cart",
    "date_created": "2025-10-19T10:32:00.000",
    "date_modified": "2025-10-19T10:32:02.000",
    "request_status": "Pending",
    "responsible_agency": "Department of Sanitation",
    "final_address": "6885 Catina St",
    "address_councildis": "A",
    "status": "Pending",
    "rowid": "1234401",
    "final_x": "3667145.95917",
    "final_y": "553398.528599",
    "longitude": "-90.11265941022431",
    "latitude": "30.01608222610727",
    "geocoded_column": {
      "latitude": "30.01608222610727",
      "longitude": "-90.11265941022431"
    }
  },
  {
    "service_request": "2025-1234400",
    "request_type": "Property Maintenance",
    "request_reason": "Property Maintenance",
    "date_created": "2025-10-19T09:14:06.000",
    "date_modified": "2025-10-19T09:14:09.000",
    "request_status": "Pending",
    "responsible_agency": "Department of Code Enforcement",
    "final_address": "3101 St Peter St",
    "address_councildis": "A",
    "status": "Pending",
    "rowid": "1234400",
    "final_x": "3675182.81461",
    "final_y": "538013.927689",
    "longitude": "-90.08779484553858",
    "latitude": "29.97354208602482",
    "geocoded_column": {
      "latitude": "29.97354208602482",
      "longitude": "-90.08779484553858"
    }
  },
  {
    "service_request": "2025-1234399",
    "request_type": "Streetlights",
    "request_reason": "Streetlight Outage/Malfunction",
    "date_created": "2025-10-19T09:10:22.000",
    "date_modified": "2025-10-19T09:10:24.000",
    "request_status": "Pending",
    "responsible_agency": "Department of Public Works",
    "final_address": "7540 Weaver Ave",
    "address_councildis": "E",
    "status": "Pending",
    "rowid": "1234399",
    "final_x": "3707470.26987",
    "final_y": "564177.382817",
    "longitude": "-89.98485272466526",
    "latitude": "30.044477019766237",
    "geocoded_column": {
      "latitude": "30.044477019766237",
      "longitude": "-89.98485272466526"
    }
  },
  {
    "service_request": "2025-1234398",
    "request_type": "Trash/Recycling",
    "request_reason": "Replace Recycling Cart",
    "date_created": "2025-10-19T09:01:23.000",
    "date_modified": "2025-10-19T09:01:28.000",
    "request_status": "Pending",
    "responsible_agency": "Department of Sanitation",
    "final_address": "3037 St Ann St",
    "address_councildis": "A",
    "status": "Pending",
    "rowid": "1234398",
    "final_x": "3675666.88014",
    "final_y": "538220.181001",
    "longitude": "-90.08625897340585",
    "latitude": "29.974094735101563",
    "geocoded_column": {
      "latitude": "29.974094735101563",
      "longitude": "-90.08625897340585"
    }
  },
  {
    "service_request": "2025-1234397",
    "request_type": "Abandoned Vehicles",
    "request_reason": "Abandoned/Junk Vehicles",
    "date_created": "2025-10-19T08:54:09.000",
    "date_modified": "2025-10-19T08:54:10.000",
    "request_status": "Pending",
    "responsible_agency": "Department of Public Works",
    "final_address": "2551 N Rocheblave St",
    "address_councildis": "D",
    "status": "Pending",
    "rowid": "1234397",
    "final_x": "3686267.92162",
    "final_y": "541258.53486",
    "longitude": "-90.05267128538476",
    "latitude": "29.982127635265588",
    "geocoded_column": {
      "latitude": "29.982127635265588",
      "longitude": "-90.05267128538476"
    }
  },
  {
    "service_request": "2025-1234396",
    "request_type": "Trash/Recycling",
    "request_reason": "Repair Trash Cart",
    "date_created": "2025-10-19T08:36:22.000",
    "date_modified": "2025-10-19T08:36:24.000",
    "request_status": "Pending",
    "responsible_agency": "Department of Sanitation",
    "final_address": "2858 Fortin St",
    "address_councildis": "A",
    "status": "Assigned to Contractor",
    "contractor": "IV Waste",
    "rowid": "1234396",
    "final_x": "3677901.76968",
    "final_y": "540876.030411",
    "longitude": "-90.07910886709855",
    "latitude": "29.981330335005595",
    "geocoded_column": {
      "latitude": "29.981330335005595",
      "longitude": "-90.07910886709855"
    }
  },
  {
    "service_request": "2025-1234395",
    "request_type": "Trash/Recycling",
    "request_reason": "Request a Large Item Pick Up",
    "date_created": "2025-10-19T08:32:59.000",
    "date_modified": "2025-10-19T08:33:01.000",
    "request_status": "Pending",
    "responsible_agency": "Department of Sanitation",
    "final_address": "2858 Fortin St",
    "address_councildis": "A",
    "status": "Assigned to Contractor",
    "contractor": "IV Waste",
    "rowid": "1234395",
    "final_x": "3677901.76968",
    "final_y": "540876.030411",
    "longitude": "-90.07910886709855",
    "latitude": "29.981330335005595",
    "geocoded_column": {
      "latitude": "29.981330335005595",
      "longitude": "-90.07910886709855"
    }
  },
  {
    "service_request": "2025-1234394",
    "request_type": "Streetlights",
    "request_reason": "Streetlight Outage/Malfunction",
    "date_created": "2025-10-19T08:29:44.000",
    "date_modified": "2025-10-19T08:29:52.000",
    "request_status": "Pending",
    "responsible_agency": "Department of Public Works",
    "final_address": "1400 BLK Red Allen Way",
    "address_councildis": "C",
    "status": "Pending",
    "rowid": "1234394",
    "final_x": "3689981.46055",
    "final_y": "528639.582272",
    "longitude": "-90.04139156144537",
    "latitude": "29.947315284052795",
    "geocoded_column": {
      "latitude": "29.947315284052795",
      "longitude": "-90.04139156144537"
    }
  },
  {
    "service_request": "2025-1234393",
    "request_type": "Property Maintenance",
    "request_reason": "Property Maintenance",
    "date_created": "2025-10-19T08:10:18.000",
    "date_modified": "2025-10-19T08:10:20.000",
    "request_status": "Pending",
    "responsible_agency": "Department of Code Enforcement",
    "final_address": "1311 Red Allen Way",
    "address_councildis": "C",
    "status": "Pending",
    "rowid": "1234393",
    "final_x": "3689648.2054",
    "final_y": "528604.925376",
    "longitude": "-90.0424450043512",
    "latitude": "29.947230317042585",
    "geocoded_column": {
      "latitude": "29.947230317042585",
      "longitude": "-90.0424450043512"
    }
  },
  {
    "service_request": "2025-1234392",
    "request_type": "Trash/Recycling",
    "request_reason": "Request a Large Item Pick Up",
    "date_created": "2025-10-19T08:01:05.000",
    "date_modified": "2025-10-19T08:01:08.000",
    "request_status": "Pending",
    "responsible_agency": "Department of Sanitation",
    "final_address": "2425 N Johnson St",
    "address_councildis": "D",
    "status": "Assigned to Contractor",
    "contractor": "IV Waste",
    "rowid": "1234392",
    "final_x": "3686477.86543",
    "final_y": "539799.525834",
    "longitude": "-90.05205971220393",
    "latitude": "29.978109421804433",
    "geocoded_column": {
      "latitude": "29.978109421804433",
      "longitude": "-90.05205971220393"
    }
  },
  {
    "service_request": "2025-1234391",
    "request_type": "Trash/Recycling",
    "request_reason": "Illegal Dumping",
    "date_created": "2025-10-19T07:51:13.000",
    "date_modified": "2025-10-19T07:51:15.000",
    "request_status": "Pending",
    "responsible_agency": "Department of Sanitation",
    "final_address": "1300 BLK Red Allen Way",
    "address_councildis": "C",
    "status": "Pending",
    "rowid": "1234391",
    "final_x": "3689631.66007",
    "final_y": "528653.786312",
    "longitude": "-90.04249550610899",
    "latitude": "29.947365180384885",
    "geocoded_column": {
      "latitude": "29.947365180384885",
      "longitude": "-90.04249550610899"
    }
  },
  {
    "service_request": "2025-1234390",
    "request_type": "Abandoned Vehicles",
    "request_reason": "Abandoned/Junk Vehicles",
    "date_created": "2025-10-19T07:39:01.000",
    "date_modified": "2025-10-19T07:39:03.000",
    "request_status": "Pending",
    "responsible_agency": "Department of Public Works",
    "final_address": "1300 BLK Red Allen Way",
    "address_councildis": "C",
    "status": "Pending",
    "rowid": "1234390",
    "final_x": "3689631.66007",
    "final_y": "528653.786312",
    "longitude": "-90.04249550610899",
    "latitude": "29.947365180384885",
    "geocoded_column": {
      "latitude": "29.947365180384885",
      "longitude": "-90.04249550610899"
    }
  },
  {
    "service_request": "2025-1234389",
    "request_type": "Abandoned Vehicles",
    "request_reason": "Abandoned/Junk Vehicles",
    "date_created": "2025-10-19T07:36:07.000",
    "date_modified": "2025-10-19T07:36:09.000",
    "request_status": "Pending",
    "responsible_agency": "Department of Public Works",
    "final_address": "1300 BLK Red Allen Way",
    "address_councildis": "C",
    "status": "Pending",
    "rowid": "1234389",
    "final_x": "3689631.66007",
    "final_y": "528653.786312",
    "longitude": "-90.04249550610899",
    "latitude": "29.947365180384885",
    "geocoded_column": {
      "latitude": "29.947365180384885",
      "longitude": "-90.04249550610899"
    }
  },
  {
    "service_request": "2025-1234388",
    "request_type": "Trash/Recycling",
    "request_reason": "Order Trash Cart",
    "date_created": "2025-10-19T07:03:47.000",
    "date_modified": "2025-10-19T07:03:48.000",
    "request_status": "Pending",
    "responsible_agency": "Department of Sanitation",
    "final_address": "2409 Palmer Ave",
    "address_councildis": "A",
    "status": "Assigned to Contractor",
    "contractor": "IV Waste",
    "rowid": "1234388",
    "final_x": "3666409.2018",
    "final_y": "525634.108029",
    "longitude": "-90.11591927661134",
    "latitude": "29.939760950727727",
    "geocoded_column": {
      "latitude": "29.939760950727727",
      "longitude": "-90.11591927661134"
    }
  },
  {
    "service_request": "2025-1234387",
    "request_type": "Streetlights",
    "request_reason": "Streetlight Outage/Malfunction",
    "date_created": "2025-10-19T05:46:31.000",
    "date_modified": "2025-10-19T05:46:33.000",
    "request_status": "Pending",
    "responsible_agency": "Department of Public Works",
    "final_address": "5149 Kim Dr",
    "address_councildis": "E",
    "status": "Pending",
    "rowid": "1234387",
    "final_x": "3728225.33977",
    "final_y": "563945.695905",
    "longitude": "-89.91926726733348",
    "latitude": "30.04315203375436",
    "geocoded_column": {
      "latitude": "30.04315203375436",
      "longitude": "-89.91926726733348"
    }
  },
  {
    "service_request": "2025-1234386",
    "request_type": "Trash/Recycling",
    "request_reason": "Start Trash Service",
    "date_created": "2025-10-19T05:33:09.000",
    "date_modified": "2025-10-19T05:33:13.000",
    "request_status": "Pending",
    "responsible_agency": "Department of Sanitation",
    "final_address": "7517 Benjamin St",
    "address_councildis": "A",
    "status": "Assigned to Contractor",
    "contractor": "IV Waste",
    "rowid": "1234386",
    "final_x": "3661316.65472",
    "final_y": "524746.652284",
    "longitude": "-90.1320266311693",
    "latitude": "29.937468520816015",
    "geocoded_column": {
      "latitude": "29.937468520816015",
      "longitude": "-90.1320266311693"
    }
  },
  {
    "service_request": "2025-1234385",
    "request_type": "Trash/Recycling",
    "request_reason": "Start Trash Service",
    "date_created": "2025-10-19T05:27:42.000",
    "date_modified": "2025-10-19T05:27:44.000",
    "request_status": "Pending",
    "responsible_agency": "Department of Sanitation",
    "final_address": "4400 BLK Saint Anthony Ave",
    "address_councildis": "D",
    "status": "Assigned to Contractor",
    "contractor": "IV Waste",
    "rowid": "1234385",
    "final_x": "3682520.65231",
    "final_y": "548893.249114",
    "longitude": "-90.06423987926942",
    "latitude": "30.00323501876668",
    "geocoded_column": {
      "latitude": "30.00323501876668",
      "longitude": "-90.06423987926942"
    }
  },
  {
    "service_request": "2025-1234384",
    "request_type": "Trash/Recycling",
    "request_reason": "Request a Large Item Pick Up",
    "date_created": "2025-10-19T01:28:27.000",
    "date_modified": "2025-10-19T01:28:29.000",
    "request_status": "Pending",
    "responsible_agency": "Department of Sanitation",
    "final_address": "1227 St Anthony St",
    "address_councildis": "C",
    "status": "Assigned to Contractor",
    "contractor": "IV Waste",
    "rowid": "1234384",
    "final_x": "3683537.05071",
    "final_y": "536408.695943",
    "longitude": "-90.06146671196375",
    "latitude": "29.968875911080815",
    "geocoded_column": {
      "latitude": "29.968875911080815",
      "longitude": "-90.06146671196375"
    }
  },
  {
    "service_request": "2025-1234381",
    "request_type": "Streetlights",
    "request_reason": "Streetlight Outage/Malfunction",
    "date_created": "2025-10-18T23:49:17.000",
    "date_modified": "2025-10-18T23:49:20.000",
    "request_status": "Pending",
    "responsible_agency": "Department of Public Works",
    "final_address": "1923 Opelousas Ave",
    "address_councildis": "C",
    "status": "Pending",
    "rowid": "1234381",
    "final_x": "3691321.42614",
    "final_y": "528885.345216",
    "longitude": "-90.03715201740683",
    "latitude": "29.947949437061087",
    "geocoded_column": {
      "latitude": "29.947949437061087",
      "longitude": "-90.03715201740683"
    }
  },
  {
    "service_request": "2025-1234380",
    "request_type": "Trash/Recycling",
    "request_reason": "Order Second Trash Cart",
    "date_created": "2025-10-18T21:19:11.000",
    "date_modified": "2025-10-18T21:19:13.000",
    "request_status": "Pending",
    "responsible_agency": "Department of Sanitation",
    "final_address": "5411 Debore Dr",
    "address_councildis": "D",
    "status": "Assigned to Contractor",
    "contractor": "IV Waste",
    "rowid": "1234380",
    "final_x": "3692034.41686",
    "final_y": "553908.744983",
    "longitude": "-90.03400490661812",
    "latitude": "30.016732612413787",
    "geocoded_column": {
      "latitude": "30.016732612413787",
      "longitude": "-90.03400490661812"
    }
  },
  {
    "service_request": "2025-1234379",
    "request_type": "Trash/Recycling",
    "request_reason": "Order Recycling Cart",
    "date_created": "2025-10-18T21:12:24.000",
    "date_modified": "2025-10-18T21:12:25.000",
    "request_status": "Pending",
    "responsible_agency": "Department of Sanitation",
    "final_address": "2639 Elder St",
    "address_councildis": "D",
    "status": "Pending",
    "rowid": "1234379",
    "final_x": "3687578.97762",
    "final_y": "545847.0756",
    "longitude": "-90.04836782328536",
    "latitude": "29.994704126673",
    "geocoded_column": {
      "latitude": "29.994704126673",
      "longitude": "-90.04836782328536"
    }
  },
  {
    "service_request": "2025-1234378",
    "request_type": "Trash/Recycling",
    "request_reason": "Order Recycling Cart",
    "date_created": "2025-10-18T21:11:06.000",
    "date_modified": "2025-10-18T21:11:08.000",
    "request_status": "Pending",
    "responsible_agency": "Department of Sanitation",
    "final_address": "3016 Peoples Ave",
    "address_councildis": "D",
    "status": "Pending",
    "rowid": "1234378",
    "final_x": "3688628.14287",
    "final_y": "544176.559758",
    "longitude": "-90.04511297126939",
    "latitude": "29.990078416449702",
    "geocoded_column": {
      "latitude": "29.990078416449702",
      "longitude": "-90.04511297126939"
    }
  },
  {
    "service_request": "2025-1234377",
    "request_type": "Health Related Request",
    "request_reason": "Noise Ordinance Complaint",
    "date_created": "2025-10-18T21:05:55.000",
    "date_modified": "2025-10-18T21:06:02.000",
    "request_status": "Pending",
    "responsible_agency": "Health Department",
    "final_address": "200 Opelousas Ave",
    "address_councildis": "C",
    "status": "Pending",
    "rowid": "1234377",
    "final_x": "3686131.54927",
    "final_y": "529072.969088",
    "longitude": "-90.05353188938304",
    "latitude": "29.94862574619514",
    "geocoded_column": {
      "latitude": "29.94862574619514",
      "longitude": "-90.05353188938304"
    }
  },
  {
    "service_request": "2025-1234376",
    "request_type": "Roads and Streets",
    "request_reason": "Sidewalk Damaged or Missing",
    "date_created": "2025-10-18T20:23:22.000",
    "date_modified": "2025-10-18T20:23:24.000",
    "request_status": "Pending",
    "responsible_agency": "Department of Public Works",
    "final_address": "901 S Peters St",
    "address_councildis": "B",
    "status": "Pending",
    "rowid": "1234376",
    "final_x": "3682230.17749",
    "final_y": "526930.853182",
    "longitude": "-90.06592496881741",
    "latitude": "29.942854886782012",
    "geocoded_column": {
      "latitude": "29.942854886782012",
      "longitude": "-90.06592496881741"
    }
  },
  {
    "service_request": "2025-1234375",
    "request_type": "Streetlights",
    "request_reason": "Streetlight Outage/Malfunction",
    "date_created": "2025-10-18T20:03:10.000",
    "date_modified": "2025-10-18T20:03:11.000",
    "request_status": "Pending",
    "responsible_agency": "Department of Public Works",
    "final_address": "5112 Westlake Dr",
    "address_councildis": "E",
    "status": "Pending",
    "rowid": "1234375",
    "final_x": "3699467.88829",
    "final_y": "556184.36137",
    "longitude": "-90.01043540662361",
    "latitude": "30.02275582407581",
    "geocoded_column": {
      "latitude": "30.02275582407581",
      "longitude": "-90.01043540662361"
    }
  },
  {
    "service_request": "2025-1234374",
    "request_type": "Streetlights",
    "request_reason": "Streetlight Outage/Malfunction",
    "date_created": "2025-10-18T19:39:32.000",
    "date_modified": "2025-10-18T19:39:34.000",
    "request_status": "Pending",
    "responsible_agency": "Department of Public Works",
    "final_address": "5313 Wildair Dr",
    "address_councildis": "D",
    "status": "Pending",
    "rowid": "1234374",
    "final_x": "3681706.99042",
    "final_y": "552508.085462",
    "longitude": "-90.06668411988002",
    "latitude": "30.013199269319504",
    "geocoded_column": {
      "latitude": "30.013199269319504",
      "longitude": "-90.06668411988002"
    }
  },
  {
    "service_request": "2025-1234373",
    "request_type": "Mosquito, Termite & Rodent Control",
    "request_reason": "Mosquito Complaint",
    "date_created": "2025-10-18T18:57:51.000",
    "date_modified": "2025-10-18T18:57:53.000",
    "request_status": "Pending",
    "responsible_agency": "Mosquito, Termite & Rodent Control Board",
    "final_address": "2523 N Claiborne Ave",
    "address_councildis": "D",
    "status": "Pending",
    "rowid": "1234373",
    "final_x": "3687271.91695",
    "final_y": "538379.799561",
    "longitude": "-90.04960205734565",
    "latitude": "29.974181236164835",
    "geocoded_column": {
      "latitude": "29.974181236164835",
      "longitude": "-90.04960205734565"
    }
  },
  {
    "service_request": "2025-1234372",
    "request_type": "Property Maintenance",
    "request_reason": "Property Maintenance",
    "date_created": "2025-10-18T18:04:28.000",
    "date_modified": "2025-10-18T18:04:29.000",
    "request_status": "Pending",
    "responsible_agency": "Department of Code Enforcement",
    "final_address": "3716 Buchanan St",
    "address_councildis": "D",
    "status": "Pending",
    "rowid": "1234372",
    "final_x": "3677353.89262",
    "final_y": "545855.916304",
    "longitude": "-90.0806673631031",
    "latitude": "29.995039763448787",
    "geocoded_column": {
      "latitude": "29.995039763448787",
      "longitude": "-90.0806673631031"
    }
  },
  {
    "service_request": "2025-1234371",
    "request_type": "Abandoned Vehicles",
    "request_reason": "Abandoned/Junk Vehicles",
    "date_created": "2025-10-18T17:16:45.000",
    "date_modified": "2025-10-18T17:16:47.000",
    "request_status": "Pending",
    "responsible_agency": "Department of Public Works",
    "final_address": "823 Felicity St",
    "address_councildis": "B",
    "status": "Pending",
    "rowid": "1234371",
    "final_x": "3680910.68008",
    "final_y": "522225.598074",
    "longitude": "-90.07025469259932",
    "latitude": "29.929957059884163",
    "geocoded_column": {
      "latitude": "29.929957059884163",
      "longitude": "-90.07025469259932"
    }
  },
  {
    "service_request": "2025-1234370",
    "request_type": "Trash/Recycling",
    "request_reason": "Request a Large Item Pick Up",
    "date_created": "2025-10-18T17:13:02.000",
    "date_modified": "2025-10-18T17:13:04.000",
    "request_status": "Pending",
    "responsible_agency": "Department of Sanitation",
    "final_address": "543 Atlantic Ave",
    "address_councildis": "C",
    "status": "Assigned to Contractor",
    "contractor": "Richards Disposal",
    "rowid": "1234370",
    "final_x": "3688753.09206",
    "final_y": "529519.154689",
    "longitude": "-90.04523875833343",
    "latitude": "29.949771832353736",
    "geocoded_column": {
      "latitude": "29.949771832353736",
      "longitude": "-90.04523875833343"
    }
  },
  {
    "service_request": "2025-1234369",
    "request_type": "Property Maintenance",
    "request_reason": "Property Maintenance",
    "date_created": "2025-10-18T16:33:53.000",
    "date_modified": "2025-10-18T16:33:54.000",
    "request_status": "Pending",
    "responsible_agency": "Department of Code Enforcement",
    "final_address": "8407 Apricot St",
    "address_councildis": "A",
    "status": "Pending",
    "rowid": "1234369",
    "final_x": "3665000.7808",
    "final_y": "533428.563268",
    "longitude": "-90.12010532590968",
    "latitude": "29.961234250583015",
    "geocoded_column": {
      "latitude": "29.961234250583015",
      "longitude": "-90.12010532590968"
    }
  },
  {
    "service_request": "2025-1234368",
    "request_type": "Trash/Recycling",
    "request_reason": "Repair Trash Cart",
    "date_created": "2025-10-18T16:22:31.000",
    "date_modified": "2025-10-18T16:22:33.000",
    "request_status": "Pending",
    "responsible_agency": "Department of Sanitation",
    "final_address": "5632 St Bernard Ave",
    "address_councildis": "D",
    "status": "Assigned to Contractor",
    "contractor": "IV Waste",
    "rowid": "1234368",
    "final_x": "3676774.21691",
    "final_y": "552992.737559",
    "longitude": "-90.08225234652944",
    "latitude": "30.014680899844233",
    "geocoded_column": {
      "latitude": "30.014680899844233",
      "longitude": "-90.08225234652944"
    }
  },
  {
    "service_request": "2025-1234367",
    "request_type": "Abandoned Vehicles",
    "request_reason": "Abandoned/Junk Vehicles",
    "date_created": "2025-10-18T16:13:31.000",
    "date_modified": "2025-10-18T16:13:33.000",
    "request_status": "Pending",
    "responsible_agency": "Department of Public Works",
    "final_address": "4206 St Peter St",
    "address_councildis": "A",
    "status": "Pending",
    "rowid": "1234367",
    "final_x": "3671796.02478",
    "final_y": "540457.808203",
    "longitude": "-90.09840788251603",
    "latitude": "29.980362720906115",
    "geocoded_column": {
      "latitude": "29.980362720906115",
      "longitude": "-90.09840788251603"
    }
  },
  {
    "service_request": "2025-1234366",
    "request_type": "Trash/Recycling",
    "request_reason": "Request a Large Item Pick Up",
    "date_created": "2025-10-18T15:54:58.000",
    "date_modified": "2025-10-18T15:54:59.000",
    "request_status": "Pending",
    "responsible_agency": "Department of Sanitation",
    "final_address": "6246 Marshal Foch St",
    "address_councildis": "A",
    "status": "Assigned to Contractor",
    "contractor": "IV Waste",
    "rowid": "1234366",
    "final_x": "3669907.20142",
    "final_y": "548834.748819",
    "longitude": "-90.10408977155201",
    "latitude": "30.003452264237534",
    "geocoded_column": {
      "latitude": "30.003452264237534",
      "longitude": "-90.10408977155201"
    }
  },
  {
    "service_request": "2025-1234365",
    "request_type": "Trash/Recycling",
    "request_reason": "Order Recycling Cart",
    "date_created": "2025-10-18T15:41:01.000",
    "date_modified": "2025-10-18T15:41:03.000",
    "request_status": "Pending",
    "responsible_agency": "Department of Sanitation",
    "final_address": "4005 Clematis St",
    "address_councildis": "D",
    "status": "Pending",
    "rowid": "1234365",
    "final_x": "3685623.3853",
    "final_y": "547443.687249",
    "longitude": "-90.05448900526223",
    "latitude": "29.999154391000783",
    "geocoded_column": {
      "latitude": "29.999154391000783",
      "longitude": "-90.05448900526223"
    }
  },
  {
    "service_request": "2025-1234364",
    "request_type": "Roads and Streets",
    "request_reason": "Pothole",
    "date_created": "2025-10-18T15:33:45.000",
    "date_modified": "2025-10-18T15:33:47.000",
    "request_status": "Pending",
    "responsible_agency": "Department of Public Works",
    "final_address": "6107 Chartres St",
    "address_councildis": "E",
    "status": "Pending",
    "rowid": "1234364",
    "final_x": "3698881.82237",
    "final_y": "531547.981763",
    "longitude": "-90.01318410040936",
    "latitude": "29.955033422890633",
    "geocoded_column": {
      "latitude": "29.955033422890633",
      "longitude": "-90.01318410040936"
    }
  },
  {
    "service_request": "2025-1234363",
    "request_type": "Trash/Recycling",
    "request_reason": "Repair Trash Cart",
    "date_created": "2025-10-18T15:21:52.000",
    "date_modified": "2025-10-18T15:21:54.000",
    "request_status": "Pending",
    "responsible_agency": "Department of Sanitation",
    "final_address": "3401 Frenchmen St, New Orleans, Louisiana, 70122",
    "address_councildis": "D",
    "status": "Assigned to Contractor",
    "contractor": "IV Waste",
    "rowid": "1234363",
    "final_x": "3683926.84066",
    "final_y": "545154.062671",
    "longitude": "-90.05992880133176",
    "latitude": "29.992910696261596",
    "geocoded_column": {
      "latitude": "29.992910696261596",
      "longitude": "-90.05992880133176"
    }
  },
  {
    "service_request": "2025-1234362",
    "request_type": "Roads and Streets",
    "request_reason": "Street Subsidence (Sinking)",
    "date_created": "2025-10-18T15:18:46.000",
    "date_modified": "2025-10-18T15:18:48.000",
    "request_status": "Pending",
    "responsible_agency": "Sewerage & Water Board",
    "final_address": "3340 Bienville Ave",
    "address_councildis": "B",
    "status": "Pending",
    "rowid": "1234362",
    "final_x": "3673768.51758",
    "final_y": "537220.091592",
    "longitude": "-90.09228865541266",
    "latitude": "29.971401502255205",
    "geocoded_column": {
      "latitude": "29.971401502255205",
      "longitude": "-90.09228865541266"
    }
  },
  {
    "service_request": "2025-1234361",
    "request_type": "Road Striping",
    "request_reason": "Bike Lane",
    "date_created": "2025-10-18T15:13:00.000",
    "date_modified": "2025-10-18T15:13:02.000",
    "request_status": "Pending",
    "responsible_agency": "Department of Public Works",
    "final_address": "2913 Paris Ave",
    "address_councildis": "D",
    "status": "Pending",
    "rowid": "1234361",
    "final_x": "3679943.20495",
    "final_y": "543070.127821",
    "longitude": "-90.07258483274997",
    "latitude": "29.98730173695935",
    "geocoded_column": {
      "latitude": "29.98730173695935",
      "longitude": "-90.07258483274997"
    }
  },
  {
    "service_request": "2025-1234360",
    "request_type": "Traffic Signals",
    "request_reason": "Traffic Signal Malfunctioning or Damaged",
    "date_created": "2025-10-18T15:05:48.000",
    "date_modified": "2025-10-18T15:05:51.000",
    "request_status": "Pending",
    "responsible_agency": "Department of Public Works",
    "final_address": "509 Canal St",
    "address_councildis": "C",
    "status": "Pending",
    "rowid": "1234360",
    "final_x": "3681788.10856",
    "final_y": "530334.46349",
    "longitude": "-90.06720194407475",
    "latitude": "29.952227108122596",
    "geocoded_column": {
      "latitude": "29.952227108122596",
      "longitude": "-90.06720194407475"
    }
  },
  {
    "service_request": "2025-1234359",
    "request_type": "Trash/Recycling",
    "request_reason": "Order Recycling Cart",
    "date_created": "2025-10-18T14:59:58.000",
    "date_modified": "2025-10-18T15:00:09.000",
    "request_status": "Pending",
    "responsible_agency": "Department of Sanitation",
    "final_address": "7715 Panola St",
    "address_councildis": "A",
    "status": "Pending",
    "rowid": "1234359",
    "final_x": "3665136.77543",
    "final_y": "529869.627201",
    "longitude": "-90.11979490222309",
    "latitude": "29.95144437657975",
    "geocoded_column": {
      "latitude": "29.95144437657975",
      "longitude": "-90.11979490222309"
    }
  },
  {
    "service_request": "2025-1234358",
    "request_type": "Trash/Recycling",
    "request_reason": "Request a Large Item Pick Up",
    "date_created": "2025-10-18T14:56:45.000",
    "date_modified": "2025-10-18T14:56:47.000",
    "request_status": "Pending",
    "responsible_agency": "Department of Sanitation",
    "final_address": "1327 Josephine St B",
    "address_councildis": "B",
    "status": "Assigned to Contractor",
    "contractor": "IV Waste",
    "rowid": "1234358",
    "final_x": "3678666.74197",
    "final_y": "523102.530171",
    "longitude": "-90.07730808413805",
    "latitude": "29.932436159039295",
    "geocoded_column": {
      "latitude": "29.932436159039295",
      "longitude": "-90.07730808413805"
    }
  },
  {
    "service_request": "2025-1234357",
    "request_type": "Trash/Recycling",
    "request_reason": "Request a Large Item Pick Up",
    "date_created": "2025-10-18T14:53:54.000",
    "date_modified": "2025-10-18T14:53:55.000",
    "request_status": "Pending",
    "responsible_agency": "Department of Sanitation",
    "final_address": "2615 Laharpe St",
    "address_councildis": "D",
    "status": "Assigned to Contractor",
    "contractor": "IV Waste",
    "rowid": "1234357",
    "final_x": "3678744.4948",
    "final_y": "540015.083083",
    "longitude": "-90.07647698244547",
    "latitude": "29.97893763740115",
    "geocoded_column": {
      "latitude": "29.97893763740115",
      "longitude": "-90.07647698244547"
    }
  },
  {
    "service_request": "2025-1234356",
    "request_type": "Trash/Recycling",
    "request_reason": "Request a Large Item Pick Up",
    "date_created": "2025-10-18T14:30:10.000",
    "date_modified": "2025-10-18T14:30:11.000",
    "request_status": "Pending",
    "responsible_agency": "Department of Sanitation",
    "final_address": "6218 Cambridge St",
    "address_councildis": "C",
    "status": "Assigned to Contractor",
    "contractor": "Richards Disposal",
    "rowid": "1234356",
    "final_x": "3707098.50372",
    "final_y": "518465.167158",
    "longitude": "-89.98772425163699",
    "latitude": "29.91879745907295",
    "geocoded_column": {
      "latitude": "29.91879745907295",
      "longitude": "-89.98772425163699"
    }
  },
  {
    "service_request": "2025-1234355",
    "request_type": "Trash/Recycling",
    "request_reason": "Missed Trash Pick-Up",
    "date_created": "2025-10-18T14:03:51.000",
    "date_modified": "2025-10-18T14:15:13.000",
    "case_close_date": "2025-10-18T09:15:11.000",
    "request_status": "Closed",
    "responsible_agency": "Department of Sanitation",
    "final_address": "4708 Lafon Dr",
    "address_councildis": "E",
    "status": "Assigned to Contractor",
    "contractor": "Waste Pro",
    "contractor_action": "Duplicate",
    "rowid": "1234355",
    "final_x": "3701097.90634",
    "final_y": "553967.754456",
    "longitude": "-90.00536613232342",
    "latitude": "30.016609156535495",
    "geocoded_column": {
      "latitude": "30.016609156535495",
      "longitude": "-90.00536613232342"
    }
  },
  {
    "service_request": "2025-1234354",
    "request_type": "Roads and Streets",
    "request_reason": "Street Subsidence (Sinking)",
    "date_created": "2025-10-18T13:36:35.000",
    "date_modified": "2025-10-18T13:36:37.000",
    "request_status": "Pending",
    "responsible_agency": "Sewerage & Water Board",
    "final_address": "2618 Palmyra St",
    "address_councildis": "B",
    "status": "Pending",
    "rowid": "1234354",
    "final_x": "3675166.23822",
    "final_y": "534204.662533",
    "longitude": "-90.08797795034485",
    "latitude": "29.963068392881784",
    "geocoded_column": {
      "latitude": "29.963068392881784",
      "longitude": "-90.08797795034485"
    }
  },
  {
    "service_request": "2025-1234353",
    "request_type": "Abandoned Vehicles",
    "request_reason": "Abandoned/Junk Vehicles",
    "date_created": "2025-10-18T13:29:52.000",
    "date_modified": "2025-10-18T13:29:54.000",
    "request_status": "Pending",
    "responsible_agency": "Department of Public Works",
    "final_address": "1400 Leda St",
    "address_councildis": "A",
    "status": "Pending",
    "rowid": "1234353",
    "final_x": "3675569.94357",
    "final_y": "541136.142796",
    "longitude": "-90.08646490905033",
    "latitude": "29.982115530310722",
    "geocoded_column": {
      "latitude": "29.982115530310722",
      "longitude": "-90.08646490905033"
    }
  },
  {
    "service_request": "2025-1234352",
    "request_type": "Trash/Recycling",
    "request_reason": "Request a Large Item Pick Up",
    "date_created": "2025-10-18T13:08:07.000",
    "date_modified": "2025-10-18T13:08:10.000",
    "request_status": "Pending",
    "responsible_agency": "Department of Sanitation",
    "final_address": "2821 Dumaine St",
    "address_councildis": "A",
    "status": "Assigned to Contractor",
    "contractor": "IV Waste",
    "rowid": "1234352",
    "final_x": "3676575.04277",
    "final_y": "538005.616009",
    "longitude": "-90.08339817808734",
    "latitude": "29.97347754598216",
    "geocoded_column": {
      "latitude": "29.97347754598216",
      "longitude": "-90.08339817808734"
    }
  },
  {
    "service_request": "2025-1234351",
    "request_type": "General Services",
    "request_reason": "General Service Request",
    "date_created": "2025-10-18T13:06:20.000",
    "date_modified": "2025-10-18T13:06:22.000",
    "request_status": "Pending",
    "responsible_agency": "Orleans Parish Communication District",
    "final_address": "7325 Palmetto St",
    "address_councildis": "B",
    "status": "Pending",
    "rowid": "1234351",
    "final_x": "3669131.34682",
    "final_y": "534647.885638",
    "longitude": "-90.10702048833731",
    "latitude": "29.96446607999769",
    "geocoded_column": {
      "latitude": "29.96446607999769",
      "longitude": "-90.10702048833731"
    }
  },
  {
    "service_request": "2025-1234350",
    "request_type": "Roads and Streets",
    "request_reason": "Street Subsidence (Sinking)",
    "date_created": "2025-10-18T12:48:25.000",
    "date_modified": "2025-10-18T12:48:26.000",
    "request_status": "Pending",
    "responsible_agency": "Sewerage & Water Board",
    "final_address": "2363 N Robertson St",
    "address_councildis": "C",
    "status": "Pending",
    "rowid": "1234350",
    "final_x": "3686195.32463",
    "final_y": "537913.790409",
    "longitude": "-90.05301862247461",
    "latitude": "29.972932995165266",
    "geocoded_column": {
      "latitude": "29.972932995165266",
      "longitude": "-90.05301862247461"
    }
  },
  {
    "service_request": "2025-1234349",
    "request_type": "Trash/Recycling",
    "request_reason": "Change Size of Trash Cart",
    "date_created": "2025-10-18T12:46:34.000",
    "date_modified": "2025-10-18T12:46:36.000",
    "request_status": "Pending",
    "responsible_agency": "Department of Sanitation",
    "final_address": "6030 Marshal Foch St",
    "address_councildis": "A",
    "status": "Assigned to Contractor",
    "contractor": "IV Waste",
    "rowid": "1234349",
    "final_x": "3669759.33428",
    "final_y": "547444.382481",
    "longitude": "-90.10460400985929",
    "latitude": "29.999633601498655",
    "geocoded_column": {
      "latitude": "29.999633601498655",
      "longitude": "-90.10460400985929"
    }
  },
  {
    "service_request": "2025-1234348",
    "request_type": "Parks & Parkways",
    "request_reason": "Request Tree Service (Right of Way/Public Property)",
    "date_created": "2025-10-18T12:44:13.000",
    "date_modified": "2025-10-18T12:44:15.000",
    "request_status": "Pending",
    "responsible_agency": "Department of Parks & Parkway",
    "final_address": "4922 Haik Dr",
    "address_councildis": "D",
    "status": "Pending",
    "rowid": "1234348",
    "final_x": "3681917.1981",
    "final_y": "550832.802581",
    "longitude": "-90.0660785147503",
    "latitude": "30.00858645674808",
    "geocoded_column": {
      "latitude": "30.00858645674808",
      "longitude": "-90.0660785147503"
    }
  },
  {
    "service_request": "2025-1234347",
    "request_type": "Trash/Recycling",
    "request_reason": "Request a Large Item Pick Up",
    "date_created": "2025-10-18T12:34:18.000",
    "date_modified": "2025-10-18T12:34:20.000",
    "request_status": "Pending",
    "responsible_agency": "Department of Sanitation",
    "final_address": "5810 Chamberlain Dr",
    "address_councildis": "D",
    "status": "Assigned to Contractor",
    "contractor": "IV Waste",
    "rowid": "1234347",
    "final_x": "3679258.26786",
    "final_y": "553924.250648",
    "longitude": "-90.074371616807",
    "latitude": "30.01716741409558",
    "geocoded_column": {
      "latitude": "30.01716741409558",
      "longitude": "-90.074371616807"
    }
  },
  {
    "service_request": "2025-1234346",
    "request_type": "Roads and Streets",
    "request_reason": "Sidewalk Damaged or Missing",
    "date_created": "2025-10-18T12:33:04.000",
    "date_modified": "2025-10-18T12:33:06.000",
    "request_status": "Pending",
    "responsible_agency": "Department of Public Works",
    "final_address": "4725 Toulouse St",
    "address_councildis": "A",
    "status": "Pending",
    "rowid": "1234346",
    "final_x": "3670084.53703",
    "final_y": "541451.538508",
    "longitude": "-90.10377982693814",
    "latitude": "29.98314574910883",
    "geocoded_column": {
      "latitude": "29.98314574910883",
      "longitude": "-90.10377982693814"
    }
  },
  {
    "service_request": "2025-1234345",
    "request_type": "Property Maintenance",
    "request_reason": "Property Maintenance",
    "date_created": "2025-10-18T12:26:29.000",
    "date_modified": "2025-10-18T12:26:31.000",
    "request_status": "Pending",
    "responsible_agency": "Department of Code Enforcement",
    "final_address": "501 S Bernadotte St",
    "address_councildis": "A",
    "status": "Pending",
    "rowid": "1234345",
    "final_x": "3667796.06183",
    "final_y": "538790.940553",
    "longitude": "-90.11109767319047",
    "latitude": "29.975897325968997",
    "geocoded_column": {
      "latitude": "29.975897325968997",
      "longitude": "-90.11109767319047"
    }
  },
  {
    "service_request": "2025-1234344",
    "request_type": "Trash/Recycling",
    "request_reason": "Order Recycling Cart",
    "date_created": "2025-10-18T12:00:08.000",
    "date_modified": "2025-10-18T12:00:10.000",
    "request_status": "Pending",
    "responsible_agency": "Department of Sanitation",
    "final_address": "222 N Miro St",
    "address_councildis": "B",
    "status": "Pending",
    "rowid": "1234344",
    "final_x": "3677112.98139",
    "final_y": "534569.430533",
    "longitude": "-90.08181778479285",
    "latitude": "29.964013060052213",
    "geocoded_column": {
      "latitude": "29.964013060052213",
      "longitude": "-90.08181778479285"
    }
  },
  {
    "service_request": "2025-1234343",
    "request_type": "Abandoned Vehicles",
    "request_reason": "Abandoned/Junk Vehicles",
    "date_created": "2025-10-18T11:26:59.000",
    "date_modified": "2025-10-18T11:27:00.000",
    "request_status": "Pending",
    "responsible_agency": "Department of Public Works",
    "final_address": "1800 Aubry St",
    "address_councildis": "D",
    "status": "Pending",
    "rowid": "1234343",
    "final_x": "3682209.79874",
    "final_y": "539103.835146",
    "longitude": "-90.06556408269893",
    "latitude": "29.976327052426377",
    "geocoded_column": {
      "latitude": "29.976327052426377",
      "longitude": "-90.06556408269893"
    }
  },
  {
    "service_request": "2025-1234342",
    "request_type": "Trash/Recycling",
    "request_reason": "Return Trash Cart",
    "date_created": "2025-10-18T11:25:58.000",
    "date_modified": "2025-10-18T11:26:00.000",
    "request_status": "Pending",
    "responsible_agency": "Department of Sanitation",
    "final_address": "700 Nashville Ave",
    "address_councildis": "A",
    "status": "Assigned to Contractor",
    "contractor": "IV Waste",
    "rowid": "1234342",
    "final_x": "3665409.43188",
    "final_y": "518715.740087",
    "longitude": "-90.11930712608606",
    "latitude": "29.92076679830916",
    "geocoded_column": {
      "latitude": "29.92076679830916",
      "longitude": "-90.11930712608606"
    }
  },
  {
    "service_request": "2025-1234341",
    "request_type": "Trash/Recycling",
    "request_reason": "Request a Large Item Pick Up",
    "date_created": "2025-10-18T11:16:26.000",
    "date_modified": "2025-10-18T13:22:07.000",
    "case_close_date": "2025-10-18T08:22:06.000",
    "request_status": "Closed",
    "responsible_agency": "Department of Sanitation",
    "final_address": "6701 Manchester St",
    "address_councildis": "E",
    "status": "Assigned to Contractor",
    "contractor": "Waste Pro",
    "contractor_action": "Additional information required from resident",
    "rowid": "1234341",
    "final_x": "3697839.72266",
    "final_y": "559775.333917",
    "longitude": "-90.0154495022379",
    "latitude": "30.032681209190482",
    "geocoded_column": {
      "latitude": "30.032681209190482",
      "longitude": "-90.0154495022379"
    }
  },
  {
    "service_request": "2025-1234340",
    "request_type": "General Services",
    "request_reason": "General Service Request",
    "date_created": "2025-10-18T11:14:24.000",
    "date_modified": "2025-10-18T11:14:25.000",
    "request_status": "Pending",
    "responsible_agency": "Orleans Parish Communication District",
    "final_address": "7300 BLK Fieldston Rd",
    "address_councildis": "E",
    "status": "Pending",
    "rowid": "1234340",
    "final_x": "3700638.15282",
    "final_y": "560225.779927",
    "longitude": "-90.00658980498876",
    "latitude": "30.033830964571404",
    "geocoded_column": {
      "latitude": "30.033830964571404",
      "longitude": "-90.00658980498876"
    }
  },
  {
    "service_request": "2025-1234339",
    "request_type": "Trash/Recycling",
    "request_reason": "Order Recycling Cart",
    "date_created": "2025-10-18T11:04:51.000",
    "date_modified": "2025-10-18T11:04:53.000",
    "request_status": "Pending",
    "responsible_agency": "Department of Sanitation",
    "final_address": "14558 Duane Rd",
    "address_councildis": "E",
    "status": "Pending",
    "rowid": "1234339",
    "final_x": "3720935.95762",
    "final_y": "573395.956266",
    "longitude": "-89.94194176944896",
    "latitude": "30.0693816441965",
    "geocoded_column": {
      "latitude": "30.0693816441965",
      "longitude": "-89.94194176944896"
    }
  },
  {
    "service_request": "2025-1234338",
    "request_type": "Roads and Streets",
    "request_reason": "Sidewalk Damaged or Missing",
    "date_created": "2025-10-18T11:04:25.000",
    "date_modified": "2025-10-18T11:04:27.000",
    "request_status": "Pending",
    "responsible_agency": "Department of Public Works",
    "final_address": "3826 Hamilton St",
    "address_councildis": "A",
    "status": "Pending",
    "rowid": "1234338",
    "final_x": "3665685.93319",
    "final_y": "537754.118088",
    "longitude": "-90.11779682648289",
    "latitude": "29.973108131005105",
    "geocoded_column": {
      "latitude": "29.973108131005105",
      "longitude": "-90.11779682648289"
    }
  },
  {
    "service_request": "2025-1234337",
    "request_type": "Abandoned Vehicles",
    "request_reason": "Abandoned/Junk Vehicles",
    "date_created": "2025-10-18T11:02:05.000",
    "date_modified": "2025-10-18T11:02:07.000",
    "request_status": "Pending",
    "responsible_agency": "Department of Public Works",
    "final_address": "4506 St Claude Ave",
    "address_councildis": "C",
    "status": "Pending",
    "rowid": "1234337",
    "final_x": "3693370.41769",
    "final_y": "534863.163846",
    "longitude": "-90.03046794882333",
    "latitude": "29.964322458050418",
    "geocoded_column": {
      "latitude": "29.964322458050418",
      "longitude": "-90.03046794882333"
    }
  },
  {
    "service_request": "2025-1234336",
    "request_type": "Trash/Recycling",
    "request_reason": "Order Recycling Cart",
    "date_created": "2025-10-18T10:32:53.000",
    "date_modified": "2025-10-18T10:32:55.000",
    "request_status": "Pending",
    "responsible_agency": "Department of Sanitation",
    "final_address": "2520 Eton St",
    "address_councildis": "C",
    "status": "Pending",
    "rowid": "1234336",
    "final_x": "3704188.92132",
    "final_y": "521938.105978",
    "longitude": "-89.99678034845394",
    "latitude": "29.928440467660806",
    "geocoded_column": {
      "latitude": "29.928440467660806",
      "longitude": "-89.99678034845394"
    }
  },
  {
    "service_request": "2025-1234335",
    "request_type": "Streetlights",
    "request_reason": "Streetlight Outage/Malfunction",
    "date_created": "2025-10-18T10:19:23.000",
    "date_modified": "2025-10-18T10:19:24.000",
    "request_status": "Pending",
    "responsible_agency": "Department of Public Works",
    "final_address": "3729 Copernicus St",
    "address_councildis": "C",
    "status": "Pending",
    "rowid": "1234335",
    "final_x": "3697634.70051",
    "final_y": "522989.588475",
    "longitude": "-90.01743237107532",
    "latitude": "29.931540271104087",
    "geocoded_column": {
      "latitude": "29.931540271104087",
      "longitude": "-90.01743237107532"
    }
  },
  {
    "service_request": "2025-1234334",
    "request_type": "Trash/Recycling",
    "request_reason": "Return Trash Cart",
    "date_created": "2025-10-18T10:16:57.000",
    "date_modified": "2025-10-18T10:16:59.000",
    "request_status": "Pending",
    "responsible_agency": "Department of Sanitation",
    "final_address": "5451 Canal Blvd",
    "address_councildis": "A",
    "status": "Assigned to Contractor",
    "contractor": "IV Waste",
    "rowid": "1234334",
    "final_x": "3668276.89421",
    "final_y": "543612.38107",
    "longitude": "-90.10941641139493",
    "latitude": "29.989140542105496",
    "geocoded_column": {
      "latitude": "29.989140542105496",
      "longitude": "-90.10941641139493"
    }
  },
  {
    "service_request": "2025-1234333",
    "request_type": "Streetlights",
    "request_reason": "Streetlight Outage/Malfunction",
    "date_created": "2025-10-18T10:12:22.000",
    "date_modified": "2025-10-18T10:12:23.000",
    "request_status": "Pending",
    "responsible_agency": "Department of Public Works",
    "final_address": "3729 Copernicus St",
    "address_councildis": "C",
    "status": "Pending",
    "rowid": "1234333",
    "final_x": "3697634.70051",
    "final_y": "522989.588475",
    "longitude": "-90.01743237107532",
    "latitude": "29.931540271104087",
    "geocoded_column": {
      "latitude": "29.931540271104087",
      "longitude": "-90.01743237107532"
    }
  },
  {
    "service_request": "2025-1234332",
    "request_type": "Trash/Recycling",
    "request_reason": "Order Trash Cart",
    "date_created": "2025-10-18T10:12:18.000",
    "date_modified": "2025-10-18T10:52:39.000",
    "request_status": "Pending",
    "responsible_agency": "Department of Sanitation",
    "final_address": "14558 Duane Rd",
    "address_councildis": "E",
    "status": "Assigned to Contractor",
    "contractor": "Waste Pro",
    "rowid": "1234332",
    "final_x": "3720935.95762",
    "final_y": "573395.956266",
    "longitude": "-89.94194176944896",
    "latitude": "30.0693816441965",
    "geocoded_column": {
      "latitude": "30.0693816441965",
      "longitude": "-89.94194176944896"
    }
  },
  {
    "service_request": "2025-1234331",
    "request_type": "Trash/Recycling",
    "request_reason": "Order Trash Cart",
    "date_created": "2025-10-18T10:11:46.000",
    "date_modified": "2025-10-18T10:11:48.000",
    "request_status": "Pending",
    "responsible_agency": "Department of Sanitation",
    "final_address": "2518 Freret St",
    "address_councildis": "B",
    "status": "Assigned to Contractor",
    "contractor": "IV Waste",
    "rowid": "1234331",
    "final_x": "3674767.60507",
    "final_y": "525671.273149",
    "longitude": "-90.08952930049259",
    "latitude": "29.93961631158172",
    "geocoded_column": {
      "latitude": "29.93961631158172",
      "longitude": "-90.08952930049259"
    }
  },
  {
    "service_request": "2025-1234330",
    "request_type": "General Services",
    "request_reason": "General Service Request",
    "date_created": "2025-10-18T09:53:08.000",
    "date_modified": "2025-10-18T09:53:10.000",
    "request_status": "Pending",
    "responsible_agency": "Orleans Parish Communication District",
    "final_address": "2735 Palmer Ave",
    "address_councildis": "A",
    "status": "Pending",
    "rowid": "1234330",
    "final_x": "3666885.79047",
    "final_y": "526749.598398",
    "longitude": "-90.11437714804791",
    "latitude": "29.94281425857555",
    "geocoded_column": {
      "latitude": "29.94281425857555",
      "longitude": "-90.11437714804791"
    }
  },
  {
    "service_request": "2025-1234329",
    "request_type": "Trash/Recycling",
    "request_reason": "Repair Recycling Cart",
    "date_created": "2025-10-18T09:50:31.000",
    "date_modified": "2025-10-18T09:50:32.000",
    "request_status": "Pending",
    "responsible_agency": "Department of Sanitation",
    "final_address": "1623 Fourth St",
    "address_councildis": "B",
    "status": "Pending",
    "rowid": "1234329",
    "final_x": "3676086.42875",
    "final_y": "522915.303419",
    "longitude": "-90.08546034644651",
    "latitude": "29.931998867056095",
    "geocoded_column": {
      "latitude": "29.931998867056095",
      "longitude": "-90.08546034644651"
    }
  },
  {
    "service_request": "2025-1234328",
    "request_type": "Street and Traffic Signs",
    "request_reason": "Crosswalk Signage Damaged or Missing",
    "date_created": "2025-10-18T09:50:06.000",
    "date_modified": "2025-10-18T09:50:08.000",
    "request_status": "Pending",
    "responsible_agency": "Department of Public Works",
    "final_address": "4137 Erato St",
    "address_councildis": "B",
    "status": "Pending",
    "rowid": "1234328",
    "final_x": "3671182.80603",
    "final_y": "531347.78637",
    "longitude": "-90.10065423362839",
    "latitude": "29.955331374253532",
    "geocoded_column": {
      "latitude": "29.955331374253532",
      "longitude": "-90.10065423362839"
    }
  },
  {
    "service_request": "2025-1234327",
    "request_type": "Trash/Recycling",
    "request_reason": "Request a Large Item Pick Up",
    "date_created": "2025-10-18T09:46:49.000",
    "date_modified": "2025-10-18T09:46:51.000",
    "request_status": "Pending",
    "responsible_agency": "Department of Sanitation",
    "final_address": "1361 Mithra St",
    "address_councildis": "D",
    "status": "Assigned to Contractor",
    "contractor": "IV Waste",
    "rowid": "1234327",
    "final_x": "3677559.08693",
    "final_y": "552183.53519",
    "longitude": "-90.0798005074813",
    "latitude": "30.012432297627733",
    "geocoded_column": {
      "latitude": "30.012432297627733",
      "longitude": "-90.0798005074813"
    }
  },
  {
    "service_request": "2025-1234326",
    "request_type": "Trash/Recycling",
    "request_reason": "Illegal Dumping",
    "date_created": "2025-10-18T09:11:15.000",
    "date_modified": "2025-10-18T09:11:16.000",
    "request_status": "Pending",
    "responsible_agency": "Department of Sanitation",
    "final_address": "3500 Cleveland Ave",
    "address_councildis": "B",
    "status": "Pending",
    "rowid": "1234326",
    "final_x": "3672542.06695",
    "final_y": "536631.357063",
    "longitude": "-90.09618204471398",
    "latitude": "29.969819149192254",
    "geocoded_column": {
      "latitude": "29.969819149192254",
      "longitude": "-90.09618204471398"
    }
  },
  {
    "service_request": "2025-1234325",
    "request_type": "General Services",
    "request_reason": "General Service Request",
    "date_created": "2025-10-18T08:57:13.000",
    "date_modified": "2025-10-18T08:57:15.000",
    "request_status": "Pending",
    "responsible_agency": "Orleans Parish Communication District",
    "final_address": "7915 Devine Ave",
    "address_councildis": "E",
    "status": "Pending",
    "rowid": "1234325",
    "final_x": "3705272.09009",
    "final_y": "563910.164449",
    "longitude": "-89.9918098102049",
    "latitude": "30.043813222621402",
    "geocoded_column": {
      "latitude": "30.043813222621402",
      "longitude": "-89.9918098102049"
    }
  },