[
  {
    "service_request": "2023-1050891",
    "request_type": "Traffic Signals/Signs/Striping/Streetlights",
    "request_reason": "Street Light Outage/Malfunction",
    "date_created": "2023-11-19T22:25:54.000",
    "date_modified": "2023-11-19T22:25:55.000",
    "request_status": "Pending",
    "responsible_agency": "Department of Public Works",
    "final_address": "ELYSIAN FIELDS AVE & GENTILLY BLVD",
    "address_councildis": "D",
    "status": "Assigned to Contractor",
    "contractor": "Legacy Professional Services",
    "rowid": "1050891",
    "final_x": "3684059.79",
    "final_y": "547584.11",
    "longitude": "-90.05942349799389",
    "latitude": "29.99958839427118",
    "geocoded_column": {
      "latitude": "29.99958839427118",
      "longitude": "-90.05942349799389"
    }
  },
  {
    "service_request": "2023-1050890",
    "request_type": "Traffic Signals/Signs/Striping/Streetlights",
    "request_reason": "Traffic Signal Malfunctioning/Damaged",
    "date_created": "2023-11-19T22:14:18.000",
    "date_modified": "2023-11-19T22:14:18.000",
    "request_status": "Pending",
    "responsible_agency": "Department of Public Works",
    "final_address": "FRERET ST & NAPOLEON AVE",
    "address_councildis": "B",
    "status": "Pending",
    "rowid": "1050890",
    "final_x": "3670575.6",
    "final_y": "524047.98",
    "longitude": "-90.10281910815539",
    "latitude": "29.935277235589393",
    "geocoded_column": {
      "latitude": "29.935277235589393",
      "longitude": "-90.10281910815539"
    }
  },
  {
    "service_request": "2023-1050889",
    "request_type": "Trash/Recycling",
    "request_reason": "Repair Trash Cart",
    "date_created": "2023-11-19T22:05:42.000",
    "date_modified": "2023-11-19T22:05:43.000",
    "request_status": "Pending",
    "responsible_agency": "Department of Sanitation",
    "final_address": "135 S Hennessey St",
    "address_councildis": "A",
    "status": "Assigned to Contractor",
    "contractor": "Richards Disposal",
    "rowid": "1050889",
    "final_x": "3670049.4994",
    "final_y": "538709.329865",
    "longitude": "-90.10398341968752",
    "latitude": "29.975606638774217",
    "geocoded_column": {
      "latitude": "29.975606638774217",
      "longitude": "-90.10398341968752"
    }
  },
  {
    "service_request": "2023-1050888",
    "request_type": "Traffic Signals/Signs/Striping/Streetlights",
    "request_reason": "Street Light Outage/Malfunction",
    "date_created": "2023-11-19T20:42:10.000",
    "date_modified": "2023-11-19T20:42:11.000",
    "request_status": "Pending",
    "responsible_agency": "Department of Public Works",
    "final_address": "N WHITE ST & ESPLANADE AVE",
    "address_councildis": "A",
    "status": "Assigned to Contractor",
    "contractor": "Legacy Professional Services",
    "rowid": "1050888",
    "final_x": "3677494.5",
    "final_y": "539516.38",
    "longitude": "-90.08044216781767",
    "latitude": "29.97760401716835",
    "geocoded_column": {
      "latitude": "29.97760401716835",
      "longitude": "-90.08044216781767"
    }
  },
  {
    "service_request": "2023-1050887",
    "request_type": "Parks & Parkways",
    "request_reason": "Request Tree Service (Right of Way/Public Property)",
    "date_created": "2023-11-19T19:58:13.000",
    "date_modified": "2023-11-19T19:58:27.000",
    "request_status": "Pending",
    "responsible_agency": "Department of Parks & Parkway",
    "final_address": "2800 BLK La Salle St",
    "address_councildis": "B",
    "status": "Pending",
    "rowid": "1050887",
    "final_x": "3674139.06573",
    "final_y": "524761.733729",
    "longitude": "-90.0915448086046",
    "latitude": "29.93713412056465",
    "geocoded_column": {
      "latitude": "29.93713412056465",
      "longitude": "-90.0915448086046"
    }
  },
  {
    "service_request": "2023-1050886",
    "request_type": "Trash/Recycling",
    "request_reason": "Request a Large Item Pick Up",
    "date_created": "2023-11-19T19:43:08.000",
    "date_modified": "2023-11-19T19:43:09.000",
    "request_status": "Pending",
    "responsible_agency": "Department of Sanitation",
    "final_address": "2923 Pine St",
    "address_councildis": "B",
    "status": "Assigned to Contractor",
    "contractor": "Richards Disposal",
    "rowid": "1050886",
    "final_x": "3667428.92922",
    "final_y": "531914.770755",
    "longitude": "-90.1124885716927",
    "latitude": "29.957000903187712",
    "geocoded_column": {
      "latitude": "29.957000903187712",
      "longitude": "-90.1124885716927"
    }
  },
  {
    "service_request": "2023-1050885",
    "request_type": "Trash/Recycling",
    "request_reason": "Request a Large Item Pick Up",
    "date_created": "2023-11-19T19:38:36.000",
    "date_modified": "2023-11-19T19:38:37.000",
    "request_status": "Pending",
    "responsible_agency": "Department of Sanitation",
    "final_address": "7231 Ridgefield Dr",
    "address_councildis": "E",
    "status": "Assigned to Contractor",
    "contractor": "Waste Pro",
    "rowid": "1050885",
    "final_x": "3718839.14834",
    "final_y": "570456.635559",
    "longitude": "-89.94868250354513",
    "latitude": "30.061369586278303",
    "geocoded_column": {
      "latitude": "30.061369586278303",
      "longitude": "-89.94868250354513"
    }
  },
  {
    "service_request": "2023-1050884",
    "request_type": "Trash/Recycling",
    "request_reason": "Replace Trash Cart",
    "date_created": "2023-11-19T19:23:08.000",
    "date_modified": "2023-11-19T19:23:09.000",
    "request_status": "Pending",
    "responsible_agency": "Department of Sanitation",
    "final_address": "6818 Lake Willow Dr",
    "address_councildis": "E",
    "status": "Assigned to Contractor",
    "contractor": "Waste Pro",
    "rowid": "1050884",
    "final_x": "3703657.30865",
    "final_y": "558958.898908",
    "longitude": "-89.99709566884873",
    "latitude": "30.030251068424764",
    "geocoded_column": {
      "latitude": "30.030251068424764",
      "longitude": "-89.99709566884873"
    }
  },
  {
    "service_request": "2023-1050883",
    "request_type": "Traffic Signals/Signs/Striping/Streetlights",
    "request_reason": "Street Light Outage/Malfunction",
    "date_created": "2023-11-19T19:01:38.000",
    "date_modified": "2023-11-19T19:01:39.000",
    "request_status": "Pending",
    "responsible_agency": "Department of Public Works",
    "final_address": "4315 Marais St",
    "address_councildis": "D",
    "status": "Assigned to Contractor",
    "contractor": "Legacy Professional Services",
    "rowid": "1050883",
    "final_x": "3692939.27984",
    "final_y": "535425.239366",
    "longitude": "-90.03180928005219",
    "latitude": "29.96588143992453",
    "geocoded_column": {
      "latitude": "29.96588143992453",
      "longitude": "-90.03180928005219"
    }
  },
  {
    "service_request": "2023-1050882",
    "request_type": "Roads/Drainage",
    "request_reason": "WaterMain Break",
    "date_created": "2023-11-19T18:49:52.000",
    "date_modified": "2023-11-19T18:49:52.000",
    "request_status": "Pending",
    "responsible_agency": "Department of Public Works",
    "final_address": "6032 Memphis St",
    "address_councildis": "A",
    "status": "Pending",
    "rowid": "1050882",
    "final_x": "3669120.79674",
    "final_y": "547491.379602",
    "longitude": "-90.10661959027297",
    "latitude": "29.999781639462505",
    "geocoded_column": {
      "latitude": "29.999781639462505",
      "longitude": "-90.10661959027297"
    }
  },
  {
    "service_request": "2023-1050881",
    "request_type": "Trash/Recycling",
    "request_reason": "Dead Animal Pick Up",
    "date_created": "2023-11-19T18:40:34.000",
    "date_modified": "2023-11-19T18:40:34.000",
    "request_status": "Pending",
    "responsible_agency": "Department of Sanitation",
    "final_address": "1926 Cambronne St",
    "address_councildis": "A",
    "status": "Assigned to Contractor",
    "contractor": "Richards Disposal",
    "rowid": "1050881",
    "final_x": "3662947.72179",
    "final_y": "531118.48301",
    "longitude": "-90.12666537188335",
    "latitude": "29.9549418930006",
    "geocoded_column": {
      "latitude": "29.9549418930006",
      "longitude": "-90.12666537188335"
    }
  },
  {
    "service_request": "2023-1050880",
    "request_type": "Abandoned Vehicles",
    "request_reason": "Abandoned/Junk Vehicles",
    "date_created": "2023-11-19T18:22:44.000",
    "date_modified": "2023-11-19T18:22:44.000",
    "request_status": "Pending",
    "responsible_agency": "Department of Public Works",
    "final_address": "701 Bartholomew St",
    "address_councildis": "C",
    "status": "Pending",
    "rowid": "1050880",
    "final_x": "3691462.76956",
    "final_y": "533829.797573",
    "longitude": "-90.03652905703026",
    "latitude": "29.961540566982702",
    "geocoded_column": {
      "latitude": "29.961540566982702",
      "longitude": "-90.03652905703026"
    }
  },
  {
    "service_request": "2023-1050879",
    "request_type": "Trash/Recycling",
    "request_reason": "Order Recycling Cart",
    "date_created": "2023-11-19T18:10:34.000",
    "date_modified": "2023-11-19T18:10:34.000",
    "request_status": "Pending",
    "responsible_agency": "Department of Sanitation",
    "final_address": "4630 Murano Rd",
    "address_councildis": "E",
    "status": "Pending",
    "rowid": "1050879",
    "final_x": "3761417.73558",
    "final_y": "574209.955562",
    "longitude": "-89.81393822121119",
    "latitude": "30.070205993566983",
    "geocoded_column": {
      "latitude": "30.070205993566983",
      "longitude": "-89.81393822121119"
    }
  },
  {
    "service_request": "2023-1050878",
    "request_type": "Trash/Recycling",
    "request_reason": "Repair Trash Cart",
    "date_created": "2023-11-19T18:08:38.000",
    "date_modified": "2023-11-19T18:08:39.000",
    "request_status": "Pending",
    "responsible_agency": "Department of Sanitation",
    "final_address": "4630 Murano Rd",
    "address_councildis": "E",
    "status": "Assigned to Contractor",
    "contractor": "Waste Pro",
    "rowid": "1050878",
    "final_x": "3761417.73558",
    "final_y": "574209.955562",
    "longitude": "-89.81393822121119",
    "latitude": "30.070205993566983",
    "geocoded_column": {
      "latitude": "30.070205993566983",
      "longitude": "-89.81393822121119"
    }
  },
  {
    "service_request": "2023-1050877",
    "request_type": "Trash/Recycling",
    "request_reason": "Illegal Dumping",
    "date_created": "2023-11-19T18:01:05.000",
    "date_modified": "2023-11-19T18:01:05.000",
    "request_status": "Pending",
    "responsible_agency": "Department of Sanitation",
    "final_address": "10114 Dreux Ave",
    "address_councildis": "E",
    "status": "Pending",
    "rowid": "1050877",
    "final_x": "3712984.67064",
    "final_y": "555835.345497",
    "longitude": "-89.96773908721813",
    "latitude": "30.021360150319857",
    "geocoded_column": {
      "latitude": "30.021360150319857",
      "longitude": "-89.96773908721813"
    }
  },
  {
    "service_request": "2023-1050876",
    "request_type": "Roads/Drainage",
    "request_reason": "Street Flooding / Drainage",
    "date_created": "2023-11-19T17:49:33.000",
    "date_modified": "2023-11-19T17:49:33.000",
    "request_status": "Pending",
    "responsible_agency": "Department of Public Works",
    "final_address": "1715 S Dupre St",
    "address_councildis": "B",
    "status": "Pending",
    "rowid": "1050876",
    "final_x": "3670652.28199",
    "final_y": "530031.409345",
    "longitude": "-90.10237409321797",
    "latitude": "29.951727453530943",
    "geocoded_column": {
      "latitude": "29.951727453530943",
      "longitude": "-90.10237409321797"
    }
  },
  {
    "service_request": "2023-1050875",
    "request_type": "Trash/Recycling",
    "request_reason": "Request a Large Item Pick Up",
    "date_created": "2023-11-19T17:43:56.000",
    "date_modified": "2023-11-19T17:43:57.000",
    "request_status": "Pending",
    "responsible_agency": "Department of Sanitation",
    "final_address": "2817 Chestnut St",
    "address_councildis": "B",
    "status": "Assigned to Contractor",
    "contractor": "Richards Disposal",
    "rowid": "1050875",
    "final_x": "3676474.83349",
    "final_y": "521367.820089",
    "longitude": "-90.08428744440754",
    "latitude": "29.927732154812862",
    "geocoded_column": {
      "latitude": "29.927732154812862",
      "longitude": "-90.08428744440754"
    }
  },
  {
    "service_request": "2023-1050874",
    "request_type": "Trash/Recycling",
    "request_reason": "Return Recycling Cart",
    "date_created": "2023-11-19T17:41:08.000",
    "date_modified": "2023-11-19T17:41:08.000",
    "request_status": "Pending",
    "responsible_agency": "Department of Sanitation",
    "final_address": "1490 Athis St",
    "address_councildis": "D",
    "status": "Pending",
    "rowid": "1050874",
    "final_x": "3678211.27874",
    "final_y": "553679.752087",
    "longitude": "-90.07768814220746",
    "latitude": "30.01652672036657",
    "geocoded_column": {
      "latitude": "30.01652672036657",
      "longitude": "-90.07768814220746"
    }
  },
  {
    "service_request": "2023-1050873",
    "request_type": "Trash/Recycling",
    "request_reason": "Start Trash Service",
    "date_created": "2023-11-19T17:19:41.000",
    "date_modified": "2023-11-19T17:19:42.000",
    "request_status": "Pending",
    "responsible_agency": "Department of Sanitation",
    "final_address": "1804 Marigny St",
    "address_councildis": "D",
    "status": "Assigned to Contractor",
    "contractor": "IV Waste",
    "rowid": "1050873",
    "final_x": "3685176.34095",
    "final_y": "538974.905098",
    "longitude": "-90.0561994105264",
    "latitude": "29.975881957015776",
    "geocoded_column": {
      "latitude": "29.975881957015776",
      "longitude": "-90.0561994105264"
    }
  },
  {
    "service_request": "2023-1050872",
    "request_type": "Trash/Recycling",
    "request_reason": "Order Trash Cart",
    "date_created": "2023-11-19T17:11:15.000",
    "date_modified": "2023-11-19T17:11:16.000",
    "request_status": "Pending",
    "responsible_agency": "Department of Sanitation",
    "final_address": "6747 Memphis St",
    "address_councildis": "A",
    "status": "Assigned to Contractor",
    "contractor": "IV Waste",
    "rowid": "1050872",
    "final_x": "3669739.67143",
    "final_y": "552316.155478",
    "longitude": "-90.10450107756539",
    "latitude": "30.013029852110783",
    "geocoded_column": {
      "latitude": "30.013029852110783",
      "longitude": "-90.10450107756539"
    }
  },
  {
    "service_request": "2023-1050871",
    "request_type": "Traffic Signals/Signs/Striping/Streetlights",
    "request_reason": "Traffic Signal Malfunctioning/Damaged",
    "date_created": "2023-11-19T16:57:10.000",
    "date_modified": "2023-11-19T16:57:10.000",
    "request_status": "Pending",
    "responsible_agency": "Department of Public Works",
    "final_address": "ELYSIAN FIELDS AVE & GENTILLY BLVD",
    "address_councildis": "D",
    "status": "Pending",
    "rowid": "1050871",
    "final_x": "3684059.79",
    "final_y": "547584.11",
    "longitude": "-90.05942349799389",
    "latitude": "29.99958839427118",
    "geocoded_column": {
      "latitude": "29.99958839427118",
      "longitude": "-90.05942349799389"
    }
  },
  {
    "service_request": "2023-1050870",
    "request_type": "Roads/Drainage",
    "request_reason": "Pothole",
    "date_created": "2023-11-19T16:26:23.000",
    "date_modified": "2023-11-19T16:26:23.000",
    "request_status": "Pending",
    "responsible_agency": "Department of Public Works",
    "final_address": "1441 Eleonore St",
    "address_councildis": "A",
    "status": "Pending",
    "rowid": "1050870",
    "final_x": "3665781.33408",
    "final_y": "521342.836601",
    "longitude": "-90.11804524522694",
    "latitude": "29.927979647159326",
    "geocoded_column": {
      "latitude": "29.927979647159326",
      "longitude": "-90.11804524522694"
    }
  },
  {
    "service_request": "2023-1050869",
    "request_type": "Roads/Drainage",
    "request_reason": "Pothole",
    "date_created": "2023-11-19T16:07:44.000",
    "date_modified": "2023-11-19T16:07:44.000",
    "request_status": "Pending",
    "responsible_agency": "Department of Public Works",
    "final_address": "1579 Henry Clay Ave",
    "address_councildis": "A",
    "status": "Pending",
    "rowid": "1050869",
    "final_x": "3665125.97453",
    "final_y": "522693.49369",
    "longitude": "-90.12006892685164",
    "latitude": "29.931712623369517",
    "geocoded_column": {
      "latitude": "29.931712623369517",
      "longitude": "-90.12006892685164"
    }
  },
  {
    "service_request": "2023-1050868",
    "request_type": "Trash/Recycling",
    "request_reason": "Request a Large Item Pick Up",
    "date_created": "2023-11-19T16:01:50.000",
    "date_modified": "2023-11-19T16:01:51.000",
    "request_status": "Pending",
    "responsible_agency": "Department of Sanitation",
    "final_address": "3814 Dumaine St",
    "address_councildis": "A",
    "status": "Assigned to Contractor",
    "contractor": "Richards Disposal",
    "rowid": "1050868",
    "final_x": "3673671.65089",
    "final_y": "540114.235595",
    "longitude": "-90.09249559580684",
    "latitude": "29.97936229759645",
    "geocoded_column": {
      "latitude": "29.97936229759645",
      "longitude": "-90.09249559580684"
    }
  },
  {
    "service_request": "2023-1050867",
    "request_type": "Roads/Drainage",
    "request_reason": "Pothole",
    "date_created": "2023-11-19T15:57:45.000",
    "date_modified": "2023-11-19T15:57:45.000",
    "request_status": "Pending",
    "responsible_agency": "Department of Public Works",
    "final_address": "1325 Henry Clay Ave",
    "address_councildis": "A",
    "status": "Pending",
    "rowid": "1050867",
    "final_x": "3664550.24192",
    "final_y": "521306.716217",
    "longitude": "-90.12193274180115",
    "latitude": "29.927916172790592",
    "geocoded_column": {
      "latitude": "29.927916172790592",
      "longitude": "-90.12193274180115"
    }
  },
  {
    "service_request": "2023-1050866",
    "request_type": "Roads/Drainage",
    "request_reason": "Pothole",
    "date_created": "2023-11-19T15:44:54.000",
    "date_modified": "2023-11-19T15:44:54.000",
    "request_status": "Pending",
    "responsible_agency": "Department of Public Works",
    "final_address": "1301 Constantinople St",
    "address_councildis": "B",
    "status": "Pending",
    "rowid": "1050866",
    "final_x": "3672430.66305",
    "final_y": "520250.7726",
    "longitude": "-90.09709199725775",
    "latitude": "29.924781230435865",
    "geocoded_column": {
      "latitude": "29.924781230435865",
      "longitude": "-90.09709199725775"
    }
  },
  {
    "service_request": "2023-1050865",
    "request_type": "Roads/Drainage",
    "request_reason": "Pothole",
    "date_created": "2023-11-19T15:37:46.000",
    "date_modified": "2023-11-19T15:37:46.000",
    "request_status": "Pending",
    "responsible_agency": "Department of Public Works",
    "final_address": "1312 Milan St",
    "address_councildis": "B",
    "status": "Pending",
    "rowid": "1050865",
    "final_x": "3671625.82823",
    "final_y": "520286.919608",
    "longitude": "-90.09963137110304",
    "latitude": "29.92490447494246",
    "geocoded_column": {
      "latitude": "29.92490447494246",
      "longitude": "-90.09963137110304"
    }
  },
  {
    "service_request": "2023-1050864",
    "request_type": "Traffic Signals/Signs/Striping/Streetlights",
    "request_reason": "Street Light Outage/Malfunction",
    "date_created": "2023-11-19T15:32:19.000",
    "date_modified": "2023-11-19T15:32:20.000",
    "request_status": "Pending",
    "responsible_agency": "Department of Public Works",
    "final_address": "1242 St Roch Ave",
    "address_councildis": "C",
    "status": "Assigned to Contractor",
    "contractor": "Legacy Professional Services",
    "rowid": "1050864",
    "final_x": "3686356.78473",
    "final_y": "537120.051912",
    "longitude": "-90.05253672186006",
    "latitude": "29.970745530140288",
    "geocoded_column": {
      "latitude": "29.970745530140288",
      "longitude": "-90.05253672186006"
    }
  },
  {
    "service_request": "2023-1050863",
    "request_type": "Roads/Drainage",
    "request_reason": "Pothole",
    "date_created": "2023-11-19T15:31:33.000",
    "date_modified": "2023-11-19T15:31:33.000",
    "request_status": "Pending",
    "responsible_agency": "Department of Public Works",
    "final_address": "1234 Henry Clay Ave",
    "address_councildis": "A",
    "status": "Pending",
    "rowid": "1050863",
    "final_x": "3664327.06445",
    "final_y": "521120.367609",
    "longitude": "-90.12264347982506",
    "latitude": "29.92741025864685",
    "geocoded_column": {
      "latitude": "29.92741025864685",
      "longitude": "-90.12264347982506"
    }
  },
  {
    "service_request": "2023-1050862",
    "request_type": "Trash/Recycling",
    "request_reason": "Request a Large Item Pick Up",
    "date_created": "2023-11-19T15:29:53.000",
    "date_modified": "2023-11-19T15:29:54.000",
    "request_status": "Pending",
    "responsible_agency": "Department of Sanitation",
    "final_address": "804 Greenwood St",
    "address_councildis": "A",
    "status": "Assigned to Contractor",
    "contractor": "IV Waste",
    "rowid": "1050862",
    "final_x": "3668542.50599",
    "final_y": "542823.012941",
    "longitude": "-90.10860406999011",
    "latitude": "29.986962245463204",
    "geocoded_column": {
      "latitude": "29.986962245463204",
      "longitude": "-90.10860406999011"
    }
  },
  {
    "service_request": "2023-1050861",
    "request_type": "Trash/Recycling",
    "request_reason": "Request a Large Item Pick Up",
    "date_created": "2023-11-19T15:29:14.000",
    "date_modified": "2023-11-19T15:29:14.000",
    "request_status": "Pending",
    "responsible_agency": "Department of Sanitation",
    "final_address": "804 Greenwood St",
    "address_councildis": "A",
    "status": "Assigned to Contractor",
    "contractor": "IV Waste",
    "rowid": "1050861",
    "final_x": "3668542.50599",
    "final_y": "542823.012941",
    "longitude": "-90.10860406999011",
    "latitude": "29.986962245463204",
    "geocoded_column": {
      "latitude": "29.986962245463204",
      "longitude": "-90.10860406999011"
    }
  },
  {
    "service_request": "2023-1050860",
    "request_type": "Trash/Recycling",
    "request_reason": "Request a Large Item Pick Up",
    "date_created": "2023-11-19T15:28:17.000",
    "date_modified": "2023-11-19T15:28:18.000",
    "request_status": "Pending",
    "responsible_agency": "Department of Sanitation",
    "final_address": "804 Greenwood St",
    "address_councildis": "A",
    "status": "Assigned to Contractor",
    "contractor": "IV Waste",
    "rowid": "1050860",
    "final_x": "3668542.50599",
    "final_y": "542823.012941",
    "longitude": "-90.10860406999011",
    "latitude": "29.986962245463204",
    "geocoded_column": {
      "latitude": "29.986962245463204",
      "longitude": "-90.10860406999011"
    }
  },
  {
    "service_request": "2023-1050859",
    "request_type": "Roads/Drainage",
    "request_reason": "Pothole",
    "date_created": "2023-11-19T15:15:23.000",
    "date_modified": "2023-11-19T15:15:23.000",
    "request_status": "Pending",
    "responsible_agency": "Department of Public Works",
    "final_address": "4216 Chestnut St",
    "address_councildis": "B",
    "status": "Pending",
    "rowid": "1050859",
    "final_x": "3671574.31393",
    "final_y": "519539.203703",
    "longitude": "-90.09981939416457",
    "latitude": "29.922850019854593",
    "geocoded_column": {
      "latitude": "29.922850019854593",
      "longitude": "-90.09981939416457"
    }
  },
  {
    "service_request": "2023-1050858",
    "request_type": "Roads/Drainage",
    "request_reason": "Pothole",
    "date_created": "2023-11-19T14:51:10.000",
    "date_modified": "2023-11-19T14:51:10.000",
    "request_status": "Pending",
    "responsible_agency": "Department of Public Works",
    "final_address": "5822 Chestnut St",
    "address_councildis": "A",
    "status": "Pending",
    "rowid": "1050858",
    "final_x": "3665470.50669",
    "final_y": "519673.469368",
    "longitude": "-90.11908230406746",
    "latitude": "29.923398474042003",
    "geocoded_column": {
      "latitude": "29.923398474042003",
      "longitude": "-90.11908230406746"
    }
  },
  {
    "service_request": "2023-1050857",
    "request_type": "Roads/Drainage",
    "request_reason": "Pothole",
    "date_created": "2023-11-19T14:45:44.000",
    "date_modified": "2023-11-19T14:45:44.000",
    "request_status": "Pending",
    "responsible_agency": "Department of Public Works",
    "final_address": "6050 Chestnut St",
    "address_councildis": "A",
    "status": "Pending",
    "rowid": "1050857",
    "final_x": "3664529.75725",
    "final_y": "519895.110968",
    "longitude": "-90.1220445138364",
    "latitude": "29.924035297418104",
    "geocoded_column": {
      "latitude": "29.924035297418104",
      "longitude": "-90.1220445138364"
    }
  },
  {
    "service_request": "2023-1050856",
    "request_type": "Roads/Drainage",
    "request_reason": "Pothole",
    "date_created": "2023-11-19T14:41:36.000",
    "date_modified": "2023-11-19T14:41:36.000",
    "request_status": "Pending",
    "responsible_agency": "Department of Public Works",
    "final_address": "6045 Chestnut St",
    "address_councildis": "A",
    "status": "Pending",
    "rowid": "1050856",
    "final_x": "3664553.41741",
    "final_y": "520093.265144",
    "longitude": "-90.12196321403881",
    "latitude": "29.924579471488517",
    "geocoded_column": {
      "latitude": "29.924579471488517",
      "longitude": "-90.12196321403881"
    }
  },
  {
    "service_request": "2023-1050855",
    "request_type": "Roads/Drainage",
    "request_reason": "Pothole",
    "date_created": "2023-11-19T14:40:55.000",
    "date_modified": "2023-11-19T14:40:55.000",
    "request_status": "Pending",
    "responsible_agency": "Department of Public Works",
    "final_address": "4901 Dryades St",
    "address_councildis": "B",
    "status": "Pending",
    "rowid": "1050855",
    "final_x": "3669061.19386",
    "final_y": "521866.93529",
    "longitude": "-90.1076737554389",
    "latitude": "29.929324692464",
    "geocoded_column": {
      "latitude": "29.929324692464",
      "longitude": "-90.1076737554389"
    }
  },
  {
    "service_request": "2023-1050854",
    "request_type": "Abandoned Vehicles",
    "request_reason": "Vehicle Blocking Your Driveway",
    "date_created": "2023-11-19T14:12:35.000",
    "date_modified": "2023-11-19T14:12:35.000",
    "request_status": "Pending",
    "responsible_agency": "Department of Public Works",
    "final_address": "MIRABEAU AVE & DEMONTLUZIN ST",
    "address_councildis": "D",
    "status": "Pending",
    "rowid": "1050854",
    "final_x": "3687114.7",
    "final_y": "550968.18",
    "longitude": "-90.04965318782286",
    "latitude": "30.008799615435663",
    "geocoded_column": {
      "latitude": "30.008799615435663",
      "longitude": "-90.04965318782286"
    }
  },
  {
    "service_request": "2023-1050853",
    "request_type": "Trash/Recycling",
    "request_reason": "Replace Trash Cart",
    "date_created": "2023-11-19T14:08:04.000",
    "date_modified": "2023-11-19T14:08:05.000",
    "request_status": "Pending",
    "responsible_agency": "Department of Sanitation",
    "final_address": "5515 Danneel St",
    "address_councildis": "A",
    "status": "Assigned to Contractor",
    "contractor": "Richards Disposal",
    "rowid": "1050853",
    "final_x": "3667076.40205",
    "final_y": "522452.748218",
    "longitude": "-90.11391971229378",
    "latitude": "29.930993719674174",
    "geocoded_column": {
      "latitude": "29.930993719674174",
      "longitude": "-90.11391971229378"
    }
  },
  {
    "service_request": "2023-1050852",
    "request_type": "Trash/Recycling",
    "request_reason": "Order Recycling Cart",
    "date_created": "2023-11-19T13:56:50.000",
    "date_modified": "2023-11-19T13:56:50.000",
    "request_status": "Pending",
    "responsible_agency": "Department of Sanitation",
    "final_address": "150 Millaudon St",
    "address_councildis": "A",
    "status": "Pending",
    "rowid": "1050852",
    "final_x": "3660905.72749",
    "final_y": "523584.392827",
    "longitude": "-90.1333623908907",
    "latitude": "29.934284513073916",
    "geocoded_column": {
      "latitude": "29.934284513073916",
      "longitude": "-90.1333623908907"
    }
  },
  {
    "service_request": "2023-1050851",
    "request_type": "Trash/Recycling",
    "request_reason": "Request a Large Item Pick Up",
    "date_created": "2023-11-19T13:46:34.000",
    "date_modified": "2023-11-19T13:46:35.000",
    "request_status": "Pending",
    "responsible_agency": "Department of Sanitation",
    "final_address": "2508 Audubon St",
    "address_councildis": "A",
    "status": "Assigned to Contractor",
    "contractor": "Richards Disposal",
    "rowid": "1050851",
    "final_x": "3667065.84839",
    "final_y": "530329.102978",
    "longitude": "-90.11368836722885",
    "latitude": "29.95265146727542",
    "geocoded_column": {
      "latitude": "29.95265146727542",
      "longitude": "-90.11368836722885"
    }
  },
  {
    "service_request": "2023-1050850",
    "request_type": "Trash/Recycling",
    "request_reason": "Request a Large Item Pick Up",
    "date_created": "2023-11-19T13:39:18.000",
    "date_modified": "2023-11-19T13:39:19.000",
    "request_status": "Pending",
    "responsible_agency": "Department of Sanitation",
    "final_address": "5601 Canal Blvd",
    "address_councildis": "A",
    "status": "Assigned to Contractor",
    "contractor": "IV Waste",
    "rowid": "1050850",
    "final_x": "3668398.38798",
    "final_y": "544624.446799",
    "longitude": "-90.1089984890539",
    "latitude": "29.99191980765331",
    "geocoded_column": {
      "latitude": "29.99191980765331",
      "longitude": "-90.1089984890539"
    }
  },
  {
    "service_request": "2023-1050849",
    "request_type": "Trash/Recycling",
    "request_reason": "Replace Trash Cart",
    "date_created": "2023-11-19T13:26:52.000",
    "date_modified": "2023-11-19T13:26:53.000",
    "request_status": "Pending",
    "responsible_agency": "Department of Sanitation",
    "final_address": "8818 Forshey St",
    "address_councildis": "A",
    "status": "Assigned to Contractor",
    "contractor": "Richards Disposal",
    "rowid": "1050849",
    "final_x": "3665037.65652",
    "final_y": "535668.274566",
    "longitude": "-90.119913981037",
    "latitude": "29.967391646146712",
    "geocoded_column": {
      "latitude": "29.967391646146712",
      "longitude": "-90.119913981037"
    }
  },
  {
    "service_request": "2023-1050847",
    "request_type": "Trash/Recycling",
    "request_reason": "Request a Large Item Pick Up",
    "date_created": "2023-11-19T12:33:23.000",
    "date_modified": "2023-11-19T12:33:24.000",
    "request_status": "Pending",
    "responsible_agency": "Department of Sanitation",
    "final_address": "7801 Scottwood Dr",
    "address_councildis": "E",
    "status": "Assigned to Contractor",
    "contractor": "Waste Pro",
    "rowid": "1050847",
    "final_x": "3716761.26002",
    "final_y": "571573.324136",
    "longitude": "-89.95520816258562",
    "latitude": "30.064508892853556",
    "geocoded_column": {
      "latitude": "30.064508892853556",
      "longitude": "-89.95520816258562"
    }
  },
  {
    "service_request": "2023-1050846",
    "request_type": "Trash/Recycling",
    "request_reason": "Request a Large Item Pick Up",
    "date_created": "2023-11-19T12:16:37.000",
    "date_modified": "2023-11-19T12:16:38.000",
    "request_status": "Pending",
    "responsible_agency": "Department of Sanitation",
    "final_address": "800 BLK Ida St",
    "address_councildis": "A",
    "status": "Assigned to Contractor",
    "contractor": "Richards Disposal",
    "rowid": "1050846",
    "final_x": "3673101.61833",
    "final_y": "540188.430566",
    "longitude": "-90.09429345326198",
    "latitude": "29.979583269506143",
    "geocoded_column": {
      "latitude": "29.979583269506143",
      "longitude": "-90.09429345326198"
    }
  },
  {
    "service_request": "2023-1050845",
    "request_type": "Trash/Recycling",
    "request_reason": "Request a Large Item Pick Up",
    "date_created": "2023-11-19T11:50:48.000",
    "date_modified": "2023-11-19T11:50:50.000",
    "request_status": "Pending",
    "responsible_agency": "Department of Sanitation",
    "final_address": "Apple Street & Dublin Street",
    "address_councildis": "A",
    "status": "Assigned to Contractor",
    "contractor": "Richards Disposal",
    "rowid": "1050845",
    "final_x": "3665095.38279",
    "final_y": "532336.669507",
    "longitude": "-90.11984310424863",
    "latitude": "29.95822914552217",
    "geocoded_column": {
      "latitude": "29.95822914552217",
      "longitude": "-90.11984310424863"
    }
  },
  {
    "service_request": "2023-1050844",
    "request_type": "Trash/Recycling",
    "request_reason": "Repair Trash Cart",
    "date_created": "2023-11-19T11:44:13.000",
    "date_modified": "2023-11-19T11:44:14.000",
    "request_status": "Pending",
    "responsible_agency": "Department of Sanitation",
    "final_address": "1320 Leonidas St",
    "address_councildis": "A",
    "status": "Assigned to Contractor",
    "contractor": "Richards Disposal",
    "rowid": "1050844",
    "final_x": "3660963.21875",
    "final_y": "529982.752385",
    "longitude": "-90.13296928552323",
    "latitude": "29.951876313736843",
    "geocoded_column": {
      "latitude": "29.951876313736843",
      "longitude": "-90.13296928552323"
    }
  },
  {
    "service_request": "2023-1050843",
    "request_type": "Trash/Recycling",
    "request_reason": "Order Trash Cart",
    "date_created": "2023-11-19T11:34:49.000",
    "date_modified": "2023-11-19T11:34:49.000",
    "request_status": "Pending",
    "responsible_agency": "Department of Sanitation",
    "final_address": "1834 First St",
    "address_councildis": "B",
    "status": "Assigned to Contractor",
    "contractor": "Richards Disposal",
    "rowid": "1050843",
    "final_x": "3676363.25441",
    "final_y": "524027.386236",
    "longitude": "-90.08454817428493",
    "latitude": "29.935048439101866",
    "geocoded_column": {
      "latitude": "29.935048439101866",
      "longitude": "-90.08454817428493"
    }
  },
  {
    "service_request": "2023-1050842",
    "request_type": "Trash/Recycling",
    "request_reason": "Order Trash Cart",
    "date_created": "2023-11-19T11:33:25.000",
    "date_modified": "2023-11-19T11:33:26.000",
    "request_status": "Pending",
    "responsible_agency": "Department of Sanitation",
    "final_address": "1832 First St",
    "address_councildis": "B",
    "status": "Assigned to Contractor",
    "contractor": "Richards Disposal",
    "rowid": "1050842",
    "final_x": "3676371.2116",
    "final_y": "524018.100988",
    "longitude": "-90.08452337294676",
    "latitude": "29.935022669251456",
    "geocoded_column": {
      "latitude": "29.935022669251456",
      "longitude": "-90.08452337294676"
    }
  },
  {
    "service_request": "2023-1050841",
    "request_type": "Trash/Recycling",
    "request_reason": "Missed Trash Pick-Up",
    "date_created": "2023-11-19T11:14:22.000",
    "date_modified": "2023-11-19T11:14:22.000",
    "request_status": "Pending",
    "responsible_agency": "Department of Sanitation",
    "final_address": "3435 Lancaster St",
    "address_councildis": "C",
    "status": "Assigned to Contractor",
    "contractor": "Richards Disposal",
    "rowid": "1050841",
    "final_x": "3709831.68069",
    "final_y": "517982.817014",
    "longitude": "-89.9791151124595",
    "latitude": "29.917382626311966",
    "geocoded_column": {
      "latitude": "29.917382626311966",
      "longitude": "-89.9791151124595"
    }
  },
  {
    "service_request": "2023-1050840",
    "request_type": "Abandoned Vehicles",
    "request_reason": "Abandoned/Junk Vehicles",
    "date_created": "2023-11-19T11:12:01.000",
    "date_modified": "2023-11-19T11:12:01.000",
    "request_status": "Pending",
    "responsible_agency": "Department of Public Works",
    "final_address": "2650 Bruxelles St",
    "address_councildis": "D",
    "status": "Pending",
    "rowid": "1050840",
    "final_x": "3680333.28975",
    "final_y": "542064.538956",
    "longitude": "-90.07138767460039",
    "latitude": "29.984524912324737",
    "geocoded_column": {
      "latitude": "29.984524912324737",
      "longitude": "-90.07138767460039"
    }
  },
  {
    "service_request": "2023-1050839",
    "request_type": "Trash/Recycling",
    "request_reason": "Order Recycling Cart",
    "date_created": "2023-11-19T11:09:04.000",
    "date_modified": "2023-11-19T11:09:04.000",
    "request_status": "Pending",
    "responsible_agency": "Department of Sanitation",
    "final_address": "19 Rail St",
    "address_councildis": "D",
    "status": "Pending",
    "rowid": "1050839",
    "final_x": "3674219.57345",
    "final_y": "557260.047323",
    "longitude": "-90.09017751256054",
    "latitude": "30.026490914028876",
    "geocoded_column": {
      "latitude": "30.026490914028876",
      "longitude": "-90.09017751256054"
    }
  },
  {
    "service_request": "2023-1050838",
    "request_type": "Trash/Recycling",
    "request_reason": "Request a Large Item Pick Up",
    "date_created": "2023-11-19T10:49:59.000",
    "date_modified": "2023-11-19T10:50:00.000",
    "request_status": "Pending",
    "responsible_agency": "Department of Sanitation",
    "final_address": "6821 Coventry St",
    "address_councildis": "E",
    "status": "Assigned to Contractor",
    "contractor": "Waste Pro",
    "rowid": "1050838",
    "final_x": "3698574.20733",
    "final_y": "559769.355805",
    "longitude": "-90.01312870056826",
    "latitude": "30.032641523371392",
    "geocoded_column": {
      "latitude": "30.032641523371392",
      "longitude": "-90.01312870056826"
    }
  },
  {
    "service_request": "2023-1050837",
    "request_type": "Trash/Recycling",
    "request_reason": "Request a Large Item Pick Up",
    "date_created": "2023-11-19T10:41:52.000",
    "date_modified": "2023-11-19T10:41:53.000",
    "request_status": "Pending",
    "responsible_agency": "Department of Sanitation",
    "final_address": "6331 Catina St",
    "address_councildis": "A",
    "status": "Assigned to Contractor",
    "contractor": "IV Waste",
    "rowid": "1050837",
    "final_x": "3666979.45498",
    "final_y": "549739.108052",
    "longitude": "-90.11330859908006",
    "latitude": "30.006024975643577",
    "geocoded_column": {
      "latitude": "30.006024975643577",
      "longitude": "-90.11330859908006"
    }
  },
  {
    "service_request": "2023-1050836",
    "request_type": "Roads/Drainage",
    "request_reason": "Catch Basin - Broken/Damage",
    "date_created": "2023-11-19T10:22:46.000",
    "date_modified": "2023-11-19T10:22:46.000",
    "request_status": "Pending",
    "responsible_agency": "Department of Public Works",
    "final_address": "1446 N Dorgenois St",
    "address_councildis": "D",
    "status": "Pending",
    "rowid": "1050836",
    "final_x": "3679019.92667",
    "final_y": "539027.260682",
    "longitude": "-90.07564130811039",
    "latitude": "29.976213157209873",
    "geocoded_column": {
      "latitude": "29.976213157209873",
      "longitude": "-90.07564130811039"
    }
  },
  {
    "service_request": "2023-1050835",
    "request_type": "Roads/Drainage",
    "request_reason": "Catch Basin - Clogged",
    "date_created": "2023-11-19T09:29:52.000",
    "date_modified": "2023-11-19T09:29:52.000",
    "request_status": "Pending",
    "responsible_agency": "Department of Public Works",
    "final_address": "1200 BLK Prytania St",
    "address_councildis": "B",
    "status": "Pending",
    "rowid": "1050835",
    "final_x": "3680069.27139",
    "final_y": "525924.735012",
    "longitude": "-90.07278241182047",
    "latitude": "29.940153941221347",
    "geocoded_column": {
      "latitude": "29.940153941221347",
      "longitude": "-90.07278241182047"
    }
  },
  {
    "service_request": "2023-1050834",
    "request_type": "Roads/Drainage",
    "request_reason": "Catch Basin - Clogged",
    "date_created": "2023-11-19T09:28:37.000",
    "date_modified": "2023-11-19T09:28:37.000",
    "request_status": "Pending",
    "responsible_agency": "Department of Public Works",
    "final_address": "1525 Clio St",
    "address_councildis": "B",
    "status": "Pending",
    "rowid": "1050834",
    "final_x": "3680003.84296",
    "final_y": "526221.26835",
    "longitude": "-90.07297868179003",
    "latitude": "29.94097128839909",
    "geocoded_column": {
      "latitude": "29.94097128839909",
      "longitude": "-90.07297868179003"
    }
  },
  {
    "service_request": "2023-1050833",
    "request_type": "Abandoned Vehicles",
    "request_reason": "Abandoned/Junk Vehicles",
    "date_created": "2023-11-19T09:28:14.000",
    "date_modified": "2023-11-19T09:28:14.000",
    "request_status": "Pending",
    "responsible_agency": "Department of Public Works",
    "final_address": "2615 Valence St",
    "address_councildis": "B",
    "status": "Pending",
    "rowid": "1050833",
    "final_x": "3669422.05268",
    "final_y": "524428.90566",
    "longitude": "-90.10644799160872",
    "latitude": "29.936358670871954",
    "geocoded_column": {
      "latitude": "29.936358670871954",
      "longitude": "-90.10644799160872"
    }
  },
  {
    "service_request": "2023-1050832",
    "request_type": "Trash/Recycling",
    "request_reason": "Request a Large Item Pick Up",
    "date_created": "2023-11-19T09:21:24.000",
    "date_modified": "2023-11-19T09:21:24.000",
    "request_status": "Pending",
    "responsible_agency": "Department of Sanitation",
    "final_address": "628 General Taylor St",
    "address_councildis": "B",
    "status": "Assigned to Contractor",
    "contractor": "Richards Disposal",
    "rowid": "1050832",
    "final_x": "3673260.12878",
    "final_y": "518215.02527",
    "longitude": "-90.09454311904182",
    "latitude": "29.91915894339869",
    "geocoded_column": {
      "latitude": "29.91915894339869",
      "longitude": "-90.09454311904182"
    }
  },
  {
    "service_request": "2023-1050831",
    "request_type": "Abandoned Vehicles",
    "request_reason": "Abandoned/Junk Vehicles",
    "date_created": "2023-11-19T08:59:57.000",
    "date_modified": "2023-11-19T08:59:57.000",
    "request_status": "Pending",
    "responsible_agency": "Department of Public Works",
    "final_address": "11120 Hayne Blvd",
    "address_councildis": "E",
    "status": "Pending",
    "rowid": "1050831",
    "final_x": "3710125.29477",
    "final_y": "567319.099556",
    "longitude": "-89.97634412270897",
    "latitude": "30.053029292891104",
    "geocoded_column": {
      "latitude": "30.053029292891104",
      "longitude": "-89.97634412270897"
    }
  },
  {
    "service_request": "2023-1050830",
    "request_type": "Abandoned Vehicles",
    "request_reason": "Abandoned/Junk Vehicles",
    "date_created": "2023-11-19T08:54:30.000",
    "date_modified": "2023-11-19T08:54:30.000",
    "request_status": "Pending",
    "responsible_agency": "Department of Public Works",
    "final_address": "4413 Cleveland Ave",
    "address_councildis": "A",
    "status": "Pending",
    "rowid": "1050830",
    "final_x": "3669642.32007",
    "final_y": "538970.100746",
    "longitude": "-90.10526058128998",
    "latitude": "29.976335676459165",
    "geocoded_column": {
      "latitude": "29.976335676459165",
      "longitude": "-90.10526058128998"
    }
  },
  {
    "service_request": "2023-1050829",
    "request_type": "Parks & Parkways",
    "request_reason": "Request Tree Service (Right of Way/Public Property)",
    "date_created": "2023-11-19T08:22:25.000",
    "date_modified": "2023-11-19T09:06:58.000",
    "request_status": "Pending",
    "responsible_agency": "Department of Parks & Parkway",
    "final_address": "3800 Magellan St",
    "address_councildis": "C",
    "status": "Pending",
    "rowid": "1050829",
    "final_x": "3698212.95479",
    "final_y": "524288.330172",
    "longitude": "-90.01555974958391",
    "latitude": "29.935093090087246",
    "geocoded_column": {
      "latitude": "29.935093090087246",
      "longitude": "-90.01555974958391"
    }
  },
  {
    "service_request": "2023-1050828",
    "request_type": "Traffic Signals/Signs/Striping/Streetlights",
    "request_reason": "Street Light Outage/Malfunction",
    "date_created": "2023-11-19T07:53:50.000",
    "date_modified": "2023-11-19T07:53:51.000",
    "request_status": "Pending",
    "responsible_agency": "Department of Public Works",
    "final_address": "1010 Vallette St",
    "address_councildis": "C",
    "status": "Assigned to Contractor",
    "contractor": "Legacy Professional Services",
    "rowid": "1050828",
    "final_x": "3687489.11177",
    "final_y": "527874.288383",
    "longitude": "-90.0492879141009",
    "latitude": "29.945288020557605",
    "geocoded_column": {
      "latitude": "29.945288020557605",
      "longitude": "-90.0492879141009"
    }
  },
  {
    "service_request": "2023-1050827",
    "request_type": "Traffic Signals/Signs/Striping/Streetlights",
    "request_reason": "Street Light Outage/Malfunction",
    "date_created": "2023-11-19T07:36:37.000",
    "date_modified": "2023-11-19T07:36:38.000",
    "request_status": "Pending",
    "responsible_agency": "Department of Public Works",
    "final_address": "623 Newton St",
    "address_councildis": "C",
    "status": "Assigned to Contractor",
    "contractor": "Legacy Professional Services",
    "rowid": "1050827",
    "final_x": "3687404.01724",
    "final_y": "527930.433663",
    "longitude": "-90.04955459774817",
    "latitude": "29.94544502273103",
    "geocoded_column": {
      "latitude": "29.94544502273103",
      "longitude": "-90.04955459774817"
    }
  },
  {
    "service_request": "2023-1050826",
    "request_type": "Abandoned Vehicles",
    "request_reason": "Abandoned/Junk Vehicles",
    "date_created": "2023-11-19T07:13:42.000",
    "date_modified": "2023-11-19T07:13:42.000",
    "request_status": "Pending",
    "responsible_agency": "Department of Public Works",
    "final_address": "623 Newton St",
    "address_councildis": "C",
    "status": "Pending",
    "rowid": "1050826",
    "final_x": "3687404.01724",
    "final_y": "527930.433663",
    "longitude": "-90.04955459774817",
    "latitude": "29.94544502273103",
    "geocoded_column": {
      "latitude": "29.94544502273103",
      "longitude": "-90.04955459774817"
    }
  },
  {
    "service_request": "2023-1050825",
    "request_type": "Roads/Drainage",
    "request_reason": "Pothole",
    "date_created": "2023-11-19T01:00:54.000",
    "date_modified": "2023-11-19T01:00:54.000",
    "request_status": "Pending",
    "responsible_agency": "Department of Public Works",
    "final_address": "1441 Eleonore St",
    "address_councildis": "A",
    "status": "Pending",
    "rowid": "1050825",
    "final_x": "3665781.33408",
    "final_y": "521342.836601",
    "longitude": "-90.11804524522694",
    "latitude": "29.927979647159326",
    "geocoded_column": {
      "latitude": "29.927979647159326",
      "longitude": "-90.11804524522694"
    }
  },
  {
    "service_request": "2023-1050824",
    "request_type": "Roads/Drainage",
    "request_reason": "Pothole",
    "date_created": "2023-11-19T01:00:11.000",
    "date_modified": "2023-11-19T01:00:11.000",
    "request_status": "Pending",
    "responsible_agency": "Department of Public Works",
    "final_address": "4200 BLK Perrier St",
    "address_councildis": "B",
    "status": "Pending",
    "rowid": "1050824",
    "final_x": "3671500.64253",
    "final_y": "520125.882108",
    "longitude": "-90.1000320136845",
    "latitude": "29.924465378806524",
    "geocoded_column": {
      "latitude": "29.924465378806524",
      "longitude": "-90.1000320136845"
    }
  },
  {
    "service_request": "2023-1050823",
    "request_type": "Roads/Drainage",
    "request_reason": "Pothole",
    "date_created": "2023-11-19T00:27:06.000",
    "date_modified": "2023-11-19T00:27:06.000",
    "request_status": "Pending",
    "responsible_agency": "Department of Public Works",
    "final_address": "1502 Eleonore St",
    "address_councildis": "A",
    "status": "Pending",
    "rowid": "1050823",
    "final_x": "3665786.09434",
    "final_y": "521795.186042",
    "longitude": "-90.11801507263215",
    "latitude": "29.92922332626592",
    "geocoded_column": {
      "latitude": "29.92922332626592",
      "longitude": "-90.11801507263215"
    }
  },
  {
    "service_request": "2023-1050822",
    "request_type": "Roads/Drainage",
    "request_reason": "Pothole",
    "date_created": "2023-11-18T23:58:42.000",
    "date_modified": "2023-11-18T23:58:42.000",
    "request_status": "Pending",
    "responsible_agency": "Department of Public Works",
    "final_address": "1579 Henry Clay Ave",
    "address_councildis": "A",
    "status": "Pending",
    "rowid": "1050822",
    "final_x": "3665125.97453",
    "final_y": "522693.49369",
    "longitude": "-90.12006892685164",
    "latitude": "29.931712623369517",
    "geocoded_column": {
      "latitude": "29.931712623369517",
      "longitude": "-90.12006892685164"
    }
  },
  {
    "service_request": "2023-1050821",
    "request_type": "Trash/Recycling",
    "request_reason": "Order Recycling Cart",
    "date_created": "2023-11-18T23:57:26.000",
    "date_modified": "2023-11-18T23:57:26.000",
    "request_status": "Pending",
    "responsible_agency": "Department of Sanitation",
    "final_address": "2009 Elysian Fields Ave",
    "address_councildis": "D",
    "status": "Pending",
    "rowid": "1050821",
    "final_x": "3684833.35791",
    "final_y": "539731.11713",
    "longitude": "-90.05725604897385",
    "latitude": "29.977971782206442",
    "geocoded_column": {
      "latitude": "29.977971782206442",
      "longitude": "-90.05725604897385"
    }
  },
  {
    "service_request": "2023-1050820",
    "request_type": "Abandoned Vehicles",
    "request_reason": "Vehicle Blocking Your Driveway",
    "date_created": "2023-11-18T23:55:22.000",
    "date_modified": "2023-11-18T23:55:22.000",
    "request_status": "Pending",
    "responsible_agency": "Department of Public Works",
    "final_address": "2107 Annunciation St",
    "address_councildis": "B",
    "status": "Pending",
    "rowid": "1050820",
    "final_x": "3679758.14146",
    "final_y": "521431.067449",
    "longitude": "-90.073920630889",
    "latitude": "29.927807244285876",
    "geocoded_column": {
      "latitude": "29.927807244285876",
      "longitude": "-90.073920630889"
    }
  },
  {
    "service_request": "2023-1050819",
    "request_type": "Roads/Drainage",
    "request_reason": "Pothole",
    "date_created": "2023-11-18T23:51:44.000",
    "date_modified": "2023-11-18T23:51:44.000",
    "request_status": "Pending",
    "responsible_agency": "Department of Public Works",
    "final_address": "1325 Henry Clay Ave",
    "address_councildis": "A",
    "status": "Pending",
    "rowid": "1050819",
    "final_x": "3664550.24192",
    "final_y": "521306.716217",
    "longitude": "-90.12193274180115",
    "latitude": "29.927916172790592",
    "geocoded_column": {
      "latitude": "29.927916172790592",
      "longitude": "-90.12193274180115"
    }
  },
  {
    "service_request": "2023-1050818",
    "request_type": "Health Related Request",
    "request_reason": "Noise Ordinance Complaint",
    "date_created": "2023-11-18T23:51:14.000",
    "date_modified": "2023-11-18T23:51:14.000",
    "request_status": "Pending",
    "responsible_agency": "Health Department",
    "final_address": "2100 BLK S Saratoga St",
    "address_councildis": "B",
    "status": "Pending",
    "rowid": "1050818",
    "final_x": "3676610.43808",
    "final_y": "525324.788377",
    "longitude": "-90.08372314831698",
    "latitude": "29.93860845974572",
    "geocoded_column": {
      "latitude": "29.93860845974572",
      "longitude": "-90.08372314831698"
    }
  },
  {
    "service_request": "2023-1050817",
    "request_type": "Roads/Drainage",
    "request_reason": "Pothole",
    "date_created": "2023-11-18T23:41:27.000",
    "date_modified": "2023-11-18T23:41:27.000",
    "request_status": "Pending",
    "responsible_agency": "Department of Public Works",
    "final_address": "1234 Henry Clay Ave",
    "address_councildis": "A",
    "status": "Pending",
    "rowid": "1050817",
    "final_x": "3664327.06445",
    "final_y": "521120.367609",
    "longitude": "-90.12264347982506",
    "latitude": "29.92741025864685",
    "geocoded_column": {
      "latitude": "29.92741025864685",
      "longitude": "-90.12264347982506"
    }
  },
  {
    "service_request": "2023-1050816",
    "request_type": "Abandoned Vehicles",
    "request_reason": "Abandoned/Junk Vehicles",
    "date_created": "2023-11-18T23:33:14.000",
    "date_modified": "2023-11-18T23:33:14.000",
    "request_status": "Pending",
    "responsible_agency": "Department of Public Works",
    "final_address": "126 S Dupre St",
    "address_councildis": "B",
    "status": "Pending",
    "rowid": "1050816",
    "final_x": "3674506.78337",
    "final_y": "535421.034694",
    "longitude": "-90.09001875307685",
    "latitude": "29.96643269767573",
    "geocoded_column": {
      "latitude": "29.96643269767573",
      "longitude": "-90.09001875307685"
    }
  },
  {
    "service_request": "2023-1050815",
    "request_type": "Traffic Signals/Signs/Striping/Streetlights",
    "request_reason": "Street Name Sign Damaged or Missing",
    "date_created": "2023-11-18T23:09:20.000",
    "date_modified": "2023-11-18T23:09:20.000",
    "request_status": "Pending",
    "responsible_agency": "Department of Public Works",
    "final_address": "1131 General Pershing St",
    "address_councildis": "B",
    "status": "Pending",
    "rowid": "1050815",
    "final_x": "3671416.3778",
    "final_y": "519794.4046",
    "longitude": "-90.10030926903697",
    "latitude": "29.923556415029356",
    "geocoded_column": {
      "latitude": "29.923556415029356",
      "longitude": "-90.10030926903697"
    }
  },
  {
    "service_request": "2023-1050814",
    "request_type": "Roads/Drainage",
    "request_reason": "Pothole",
    "date_created": "2023-11-18T22:40:01.000",
    "date_modified": "2023-11-18T22:40:01.000",
    "request_status": "Pending",
    "responsible_agency": "Department of Public Works",
    "final_address": "5212 Danneel St",
    "address_councildis": "B",
    "status": "Pending",
    "rowid": "1050814",
    "final_x": "3668061.71629",
    "final_y": "522115.860666",
    "longitude": "-90.11082054481848",
    "latitude": "29.930038516955683",
    "geocoded_column": {
      "latitude": "29.930038516955683",
      "longitude": "-90.11082054481848"
    }
  },
  {
    "service_request": "2023-1050812",
    "request_type": "Trash/Recycling",
    "request_reason": "Replace Trash Cart",
    "date_created": "2023-11-18T18:59:43.000",
    "date_modified": "2023-11-18T18:59:44.000",
    "request_status": "Pending",
    "responsible_agency": "Department of Sanitation",
    "final_address": "2231 Franklin Ave",
    "address_councildis": "D",
    "status": "Assigned to Contractor",
    "contractor": "IV Waste",
    "rowid": "1050812",
    "final_x": "3687654.03862",
    "final_y": "540852.866891",
    "longitude": "-90.04830763933131",
    "latitude": "29.980969521508282",
    "geocoded_column": {
      "latitude": "29.980969521508282",
      "longitude": "-90.04830763933131"
    }
  },
  {
    "service_request": "2023-1050811",
    "request_type": "Trash/Recycling",
    "request_reason": "Order Trash Cart",
    "date_created": "2023-11-18T18:28:54.000",
    "date_modified": "2023-11-18T18:28:55.000",
    "request_status": "Pending",
    "responsible_agency": "Department of Sanitation",
    "final_address": "2730 Mexico St",
    "address_councildis": "D",
    "status": "Assigned to Contractor",
    "contractor": "IV Waste",
    "rowid": "1050811",
    "final_x": "3687349.71855",
    "final_y": "556414.91337",
    "longitude": "-90.04871776817535",
    "latitude": "30.023768881407925",
    "geocoded_column": {
      "latitude": "30.023768881407925",
      "longitude": "-90.04871776817535"
    }
  },
  {
    "service_request": "2023-1050810",
    "request_type": "Trash/Recycling",
    "request_reason": "Replace Trash Cart",
    "date_created": "2023-11-18T18:23:38.000",
    "date_modified": "2023-11-18T18:23:39.000",
    "request_status": "Pending",
    "responsible_agency": "Department of Sanitation",
    "final_address": "1025 N Rocheblave St",
    "address_councildis": "D",
    "status": "Assigned to Contractor",
    "contractor": "Richards Disposal",
    "rowid": "1050810",
    "final_x": "3678282.66242",
    "final_y": "537386.350408",
    "longitude": "-90.07802658299444",
    "latitude": "29.97172344832138",
    "geocoded_column": {
      "latitude": "29.97172344832138",
      "longitude": "-90.07802658299444"
    }
  },
  {
    "service_request": "2023-1050809",
    "request_type": "Trash/Recycling",
    "request_reason": "Order Trash Cart",
    "date_created": "2023-11-18T17:40:18.000",
    "date_modified": "2023-11-18T17:40:19.000",
    "request_status": "Pending",
    "responsible_agency": "Department of Sanitation",
    "final_address": "116 30Th St",
    "address_councildis": "A",
    "status": "Assigned to Contractor",
    "contractor": "IV Waste",
    "rowid": "1050809",
    "final_x": "3666075.15904",
    "final_y": "550433.744404",
    "longitude": "-90.11614218594875",
    "latitude": "30.00796142813759",
    "geocoded_column": {
      "latitude": "30.00796142813759",
      "longitude": "-90.11614218594875"
    }
  },
  {
    "service_request": "2023-1050808",
    "request_type": "Traffic Signals/Signs/Striping/Streetlights",
    "request_reason": "Street Light Outage/Malfunction",
    "date_created": "2023-11-18T17:32:57.000",
    "date_modified": "2023-11-18T17:32:58.000",
    "request_status": "Pending",
    "responsible_agency": "Department of Public Works",
    "final_address": "2536 Eton St",
    "address_councildis": "C",
    "status": "Assigned to Contractor",
    "contractor": "Legacy Professional Services",
    "rowid": "1050808",
    "final_x": "3704132.47543",
    "final_y": "521816.021306",
    "longitude": "-89.99696302932628",
    "latitude": "29.92810658762805",
    "geocoded_column": {
      "latitude": "29.92810658762805",
      "longitude": "-89.99696302932628"
    }
  },
  {
    "service_request": "2023-1050807",
    "request_type": "Property Maintenance",
    "request_reason": "Property Maintenance",
    "date_created": "2023-11-18T17:26:34.000",
    "date_modified": "2023-11-18T17:26:34.000",
    "request_status": "Pending",
    "responsible_agency": "Department of Code Enforcement",
    "final_address": "2517 Lapeyrouse St",
    "address_councildis": "D",
    "status": "Pending",
    "rowid": "1050807",
    "final_x": "3679460.1485",
    "final_y": "539915.20641",
    "longitude": "-90.07422014131848",
    "latitude": "29.97864140723129",
    "geocoded_column": {
      "latitude": "29.97864140723129",
      "longitude": "-90.07422014131848"
    }
  },
  {
    "service_request": "2023-1050806",
    "request_type": "Property Maintenance",
    "request_reason": "Property Maintenance",
    "date_created": "2023-11-18T17:21:37.000",
    "date_modified": "2023-11-18T17:21:37.000",
    "request_status": "Pending",
    "responsible_agency": "Department of Code Enforcement",
    "final_address": "2515 Lapeyrouse St",
    "address_councildis": "D",
    "status": "Pending",
    "rowid": "1050806",
    "final_x": "3679470.25909",
    "final_y": "539908.287818",
    "longitude": "-90.07418844843471",
    "latitude": "29.978622078007863",
    "geocoded_column": {
      "latitude": "29.978622078007863",
      "longitude": "-90.07418844843471"
    }
  },
  {
    "service_request": "2023-1050805",
    "request_type": "Abandoned Vehicles",
    "request_reason": "Abandoned/Junk Vehicles",
    "date_created": "2023-11-18T15:17:57.000",
    "date_modified": "2023-11-18T15:17:57.000",
    "request_status": "Pending",
    "responsible_agency": "Department of Public Works",
    "final_address": "2225 St Philip St",
    "address_councildis": "D",
    "status": "Pending",
    "rowid": "1050805",
    "final_x": "3678899.54427",
    "final_y": "536749.298631",
    "longitude": "-90.07610045020826",
    "latitude": "29.96995317736456",
    "geocoded_column": {
      "latitude": "29.96995317736456",
      "longitude": "-90.07610045020826"
    }
  },
  {
    "service_request": "2023-1050804",
    "request_type": "Trash/Recycling",
    "request_reason": "Request a Large Item Pick Up",
    "date_created": "2023-11-18T14:29:25.000",
    "date_modified": "2023-11-18T14:29:26.000",
    "request_status": "Pending",
    "responsible_agency": "Department of Sanitation",
    "final_address": "4256 Vendome Pl",
    "address_councildis": "B",
    "status": "Assigned to Contractor",
    "contractor": "Richards Disposal",
    "rowid": "1050804",
    "final_x": "3669057.08378",
    "final_y": "531486.060611",
    "longitude": "-90.1073618367837",
    "latitude": "29.955774291700784",
    "geocoded_column": {
      "latitude": "29.955774291700784",
      "longitude": "-90.1073618367837"
    }
  },
  {
    "service_request": "2023-1050803",
    "request_type": "Roads/Drainage",
    "request_reason": "Pothole",
    "date_created": "2023-11-18T14:20:24.000",
    "date_modified": "2023-11-18T14:20:24.000",
    "request_status": "Pending",
    "responsible_agency": "Department of Public Works",
    "final_address": "6034 Coliseum St",
    "address_councildis": "A",
    "status": "Pending",
    "rowid": "1050803",
    "final_x": "3664706.81639",
    "final_y": "520252.26892",
    "longitude": "-90.12147367481832",
    "latitude": "29.925012221859177",
    "geocoded_column": {
      "latitude": "29.925012221859177",
      "longitude": "-90.12147367481832"
    }
  },
  {
    "service_request": "2023-1050802",
    "request_type": "Roads/Drainage",
    "request_reason": "Pothole",
    "date_created": "2023-11-18T14:16:03.000",
    "date_modified": "2023-11-18T14:16:03.000",
    "request_status": "Pending",
    "responsible_agency": "Department of Public Works",
    "final_address": "1400 Webster St",
    "address_councildis": "A",
    "status": "Pending",
    "rowid": "1050802",
    "final_x": "3664802.90554",
    "final_y": "521402.551097",
    "longitude": "-90.12113193758984",
    "latitude": "29.92817234114914",
    "geocoded_column": {
      "latitude": "29.92817234114914",
      "longitude": "-90.12113193758984"
    }
  },
  {
    "service_request": "2023-1050801",
    "request_type": "Roads/Drainage",
    "request_reason": "Street Flooding / Drainage",
    "date_created": "2023-11-18T14:06:12.000",
    "date_modified": "2023-11-18T14:06:12.000",
    "request_status": "Pending",
    "responsible_agency": "Department of Public Works",
    "final_address": "1401 Annette St",
    "address_councildis": "C",
    "status": "Pending",
    "rowid": "1050801",
    "final_x": "3683113.41269",
    "final_y": "537301.79124",
    "longitude": "-90.0627733116262",
    "latitude": "29.971344536991484",
    "geocoded_column": {
      "latitude": "29.971344536991484",
      "longitude": "-90.0627733116262"
    }
  },
  {
    "service_request": "2023-1050800",
    "request_type": "Trash/Recycling",
    "request_reason": "Order Recycling Cart",
    "date_created": "2023-11-18T14:04:35.000",
    "date_modified": "2023-11-18T14:04:35.000",
    "request_status": "Pending",
    "responsible_agency": "Department of Sanitation",
    "final_address": "13426 Dwyer Blvd",
    "address_councildis": "E",
    "status": "Pending",
    "rowid": "1050800",
    "final_x": "3725624.29798",
    "final_y": "561755.156895",
    "longitude": "-89.9275724526196",
    "latitude": "30.037216961022494",
    "geocoded_column": {
      "latitude": "30.037216961022494",
      "longitude": "-89.9275724526196"
    }
  },
  {
    "service_request": "2023-1050799",
    "request_type": "Roads/Drainage",
    "request_reason": "Pothole",
    "date_created": "2023-11-18T14:01:14.000",
    "date_modified": "2023-11-18T14:01:14.000",
    "request_status": "Pending",
    "responsible_agency": "Department of Public Works",
    "final_address": "6216 Camp St",
    "address_councildis": "A",
    "status": "Pending",
    "rowid": "1050799",
    "final_x": "3663748.11187",
    "final_y": "519930.497272",
    "longitude": "-90.12451072353035",
    "latitude": "29.92415529590064",
    "geocoded_column": {
      "latitude": "29.92415529590064",
      "longitude": "-90.12451072353035"
    }
  },
  {
    "service_request": "2023-1050798",
    "request_type": "Trash/Recycling",
    "request_reason": "Change Size of Trash Cart",
    "date_created": "2023-11-18T13:40:22.000",
    "date_modified": "2023-11-18T13:40:23.000",
    "request_status": "Pending",
    "responsible_agency": "Department of Sanitation",
    "final_address": "1616 Eagle St",
    "address_councildis": "A",
    "status": "Assigned to Contractor",
    "contractor": "Richards Disposal",
    "rowid": "1050798",
    "final_x": "3661137.21606",
    "final_y": "531213.124802",
    "longitude": "-90.1323791636624",
    "latitude": "29.955254428871672",
    "geocoded_column": {
      "latitude": "29.955254428871672",
      "longitude": "-90.1323791636624"
    }
  },
  {
    "service_request": "2023-1050797",
    "request_type": "Trash/Recycling",
    "request_reason": "Order Recycling Cart",
    "date_created": "2023-11-18T13:38:12.000",
    "date_modified": "2023-11-18T13:38:12.000",
    "request_status": "Pending",
    "responsible_agency": "Department of Sanitation",
    "final_address": "4325 State Street Dr",
    "address_councildis": "B",
    "status": "Pending",
    "rowid": "1050797",
    "final_x": "3668613.61799",
    "final_y": "531400.599619",
    "longitude": "-90.10876503436698",
    "latitude": "29.955552341165",
    "geocoded_column": {
      "latitude": "29.955552341165",
      "longitude": "-90.10876503436698"
    }
  },
  {
    "service_request": "2023-1050796",
    "request_type": "Property Maintenance",
    "request_reason": "Property Maintenance",
    "date_created": "2023-11-18T13:22:47.000",
    "date_modified": "2023-11-18T13:22:47.000",
    "request_status": "Pending",
    "responsible_agency": "Department of Code Enforcement",
    "final_address": "509 Royal St",
    "address_councildis": "C",
    "status": "Pending",
    "rowid": "1050796",
    "final_x": "3682138.50946",
    "final_y": "531962.274307",
    "longitude": "-90.0660386946939",
    "latitude": "29.956692384718895",
    "geocoded_column": {
      "latitude": "29.956692384718895",
      "longitude": "-90.0660386946939"
    }
  },
  {
    "service_request": "2023-1050795",
    "request_type": "Trash/Recycling",
    "request_reason": "Request a Large Item Pick Up",
    "date_created": "2023-11-18T12:51:06.000",
    "date_modified": "2023-11-18T12:51:08.000",
    "request_status": "Pending",
    "responsible_agency": "Department of Sanitation",
    "final_address": "5616 N Dorgenois St",
    "address_councildis": "E",
    "status": "Assigned to Contractor",
    "contractor": "Waste Pro",
    "rowid": "1050795",
    "final_x": "3699599.06621",
    "final_y": "538901.431242",
    "longitude": "-90.01065129834431",
    "latitude": "29.97523003274961",
    "geocoded_column": {
      "latitude": "29.97523003274961",
      "longitude": "-90.01065129834431"
    }
  },
  {
    "service_request": "2023-1050794",
    "request_type": "Traffic Signals/Signs/Striping/Streetlights",
    "request_reason": "Additional signage",
    "date_created": "2023-11-18T12:44:31.000",
    "date_modified": "2023-11-18T12:44:31.000",
    "request_status": "Pending",
    "responsible_agency": "Department of Public Works",
    "final_address": "2300 BLK Fats Domino Ave",
    "address_councildis": "E",
    "status": "Pending",
    "rowid": "1050794",
    "final_x": "3699270.48758",
    "final_y": "538446.75918",
    "longitude": "-90.01170559277736",
    "latitude": "29.97399027410025",
    "geocoded_column": {
      "latitude": "29.97399027410025",
      "longitude": "-90.01170559277736"
    }
  },
  {
    "service_request": "2023-1050793",
    "request_type": "Abandoned Vehicles",
    "request_reason": "Vehicle Blocking Your Driveway",
    "date_created": "2023-11-18T12:34:19.000",
    "date_modified": "2023-11-18T12:34:19.000",
    "request_status": "Pending",
    "responsible_agency": "Department of Public Works",
    "final_address": "4205 Iberville St",
    "address_councildis": "A",
    "status": "Pending",
    "rowid": "1050793",
    "final_x": "3670847.1979",
    "final_y": "539196.267466",
    "longitude": "-90.1014475273644",
    "latitude": "29.976921995739847",
    "geocoded_column": {
      "latitude": "29.976921995739847",
      "longitude": "-90.1014475273644"
    }
  },
  {
    "service_request": "2023-1050792",
    "request_type": "Trash/Recycling",
    "request_reason": "Illegal Dumping",
    "date_created": "2023-11-18T12:34:09.000",
    "date_modified": "2023-11-18T12:34:09.000",
    "request_status": "Pending",
    "responsible_agency": "Department of Sanitation",
    "final_address": "4558 St Claude Ave",
    "address_councildis": "C",
    "status": "Pending",
    "rowid": "1050792",
    "final_x": "3693716.26365",
    "final_y": "534766.926726",
    "longitude": "-90.0293792585509",
    "latitude": "29.964047022637896",
    "geocoded_column": {
      "latitude": "29.964047022637896",
      "longitude": "-90.0293792585509"
    }
  },
  {
    "service_request": "2023-1050791",
    "request_type": "Abandoned Vehicles",
    "request_reason": "Abandoned/Junk Vehicles",
    "date_created": "2023-11-18T12:01:46.000",
    "date_modified": "2023-11-18T12:01:46.000",
    "request_status": "Pending",
    "responsible_agency": "Department of Public Works",
    "final_address": "6211 S Rocheblave St",
    "address_councildis": "A",
    "status": "Pending",
    "rowid": "1050791",
    "final_x": "3667572.11911",
    "final_y": "528762.19808",
    "longitude": "-90.11214251599904",
    "latitude": "29.94832816206141",
    "geocoded_column": {
      "latitude": "29.94832816206141",
      "longitude": "-90.11214251599904"
    }
  },
  {
    "service_request": "2023-1050790",
    "request_type": "Trash/Recycling",
    "request_reason": "Order Trash Cart",
    "date_created": "2023-11-18T11:58:34.000",
    "date_modified": "2023-11-18T11:58:35.000",
    "request_status": "Pending",
    "responsible_agency": "Department of Sanitation",
    "final_address": "2200 BLK Saint Philip St",
    "address_councildis": "D",
    "status": "Assigned to Contractor",
    "contractor": "Richards Disposal",
    "rowid": "1050790",
    "final_x": "3678899.04144",
    "final_y": "536687.523197",
    "longitude": "-90.07610417877537",
    "latitude": "29.969783331249708",
    "geocoded_column": {
      "latitude": "29.969783331249708",
      "longitude": "-90.07610417877537"
    }
  },
  {
    "service_request": "2023-1050789",
    "request_type": "Safety & Permits",
    "request_reason": "Healthy Homes",
    "date_created": "2023-11-18T11:41:29.000",
    "date_modified": "2023-11-18T11:41:29.000",
    "request_status": "Pending",
    "responsible_agency": "Safety and Permits",
    "final_address": "3306 Delachaise St",
    "address_councildis": "B",
    "status": "Pending",
    "rowid": "1050789",
    "final_x": "3671504.92091",
    "final_y": "527134.490367",
    "longitude": "-90.09978033482088",
    "latitude": "29.943736662295535",
    "geocoded_column": {
      "latitude": "29.943736662295535",
      "longitude": "-90.09978033482088"
    }
  },
  {
    "service_request": "2023-1050788",
    "request_type": "Roads/Drainage",
    "request_reason": "Pothole",
    "date_created": "2023-11-18T11:41:15.000",
    "date_modified": "2023-11-18T11:41:15.000",
    "request_status": "Pending",
    "responsible_agency": "Department of Public Works",
    "final_address": "MILAN ST & PERRIER ST",
    "address_councildis": "B",
    "status": "Pending",
    "rowid": "1050788",
    "final_x": "3671675.3",
    "final_y": "520146.68",
    "longitude": "-90.09947997152898",
    "latitude": "29.924517396123196",
    "geocoded_column": {
      "latitude": "29.924517396123196",
      "longitude": "-90.09947997152898"
    }
  },
  {
    "service_request": "2023-1050787",
    "request_type": "Property Maintenance",
    "request_reason": "Property Maintenance",
    "date_created": "2023-11-18T11:39:50.000",
    "date_modified": "2023-11-18T11:39:50.000",
    "request_status": "Pending",
    "responsible_agency": "Department of Code Enforcement",
    "final_address": "11040 Morrison Rd",
    "address_councildis": "E",
    "status": "Pending",
    "rowid": "1050787",
    "final_x": "3711375.19538",
    "final_y": "564974.300898",
    "longitude": "-89.97248158496139",
    "latitude": "30.04654128636643",
    "geocoded_column": {
      "latitude": "30.04654128636643",
      "longitude": "-89.97248158496139"
    }
  },
  {
    "service_request": "2023-1050786",
    "request_type": "Trash/Recycling",
    "request_reason": "Illegal Dumping",
    "date_created": "2023-11-18T11:37:34.000",
    "date_modified": "2023-11-18T11:37:34.000",
    "request_status": "Pending",
    "responsible_agency": "Department of Sanitation",
    "final_address": "11040 Morrison Rd",
    "address_councildis": "E",
    "status": "Pending",
    "rowid": "1050786",
    "final_x": "3711375.19538",
    "final_y": "564974.300898",
    "longitude": "-89.97248158496139",
    "latitude": "30.04654128636643",
    "geocoded_column": {
      "latitude": "30.04654128636643",
      "longitude": "-89.97248158496139"
    }
  },
  {
    "service_request": "2023-1050785",
    "request_type": "Trash/Recycling",
    "request_reason": "Dead Animal Pick Up",
    "date_created": "2023-11-18T11:34:18.000",
    "date_modified": "2023-11-18T11:34:19.000",
    "request_status": "Pending",
    "responsible_agency": "Department of Sanitation",
    "final_address": "12330 S Interstate 10 Service Rd",
    "address_councildis": "E",
    "status": "Assigned to Contractor",
    "contractor": "Waste Pro",
    "rowid": "1050785",
    "final_x": "3717035.68165",
    "final_y": "566171.364003",
    "longitude": "-89.9545461761855",
    "latitude": "30.04964665808399",
    "geocoded_column": {
      "latitude": "30.04964665808399",
      "longitude": "-89.9545461761855"
    }
  },
  {
    "service_request": "2023-1050783",
    "request_type": "Traffic Signals/Signs/Striping/Streetlights",
    "request_reason": "Street Light Outage/Malfunction",
    "date_created": "2023-11-18T11:23:42.000",
    "date_modified": "2023-11-18T11:23:43.000",
    "request_status": "Pending",
    "responsible_agency": "Department of Public Works",
    "final_address": "1646 Filmore Ave",
    "address_councildis": "D",
    "status": "Assigned to Contractor",
    "contractor": "Legacy Professional Services",
    "rowid": "1050783",
    "final_x": "3679636.43227",
    "final_y": "551793.935382",
    "longitude": "-90.07325079165015",
    "latitude": "30.01129838707775",
    "geocoded_column": {
      "latitude": "30.01129838707775",
      "longitude": "-90.07325079165015"
    }
  },
  {
    "service_request": "2023-1050782",
    "request_type": "Abandoned Vehicles",
    "request_reason": "Abandoned/Junk Vehicles",
    "date_created": "2023-11-18T11:22:37.000",
    "date_modified": "2023-11-18T11:22:37.000",
    "request_status": "Pending",
    "responsible_agency": "Department of Public Works",
    "final_address": "2014 Royal St",
    "address_councildis": "C",
    "status": "Pending",
    "rowid": "1050782",
    "final_x": "3684344.93948",
    "final_y": "534768.690118",
    "longitude": "-90.058972953591",
    "latitude": "29.9643417800013",
    "geocoded_column": {
      "latitude": "29.9643417800013",
      "longitude": "-90.058972953591"
    }
  },
  {
    "service_request": "2023-1050781",
    "request_type": "Traffic Signals/Signs/Striping/Streetlights",
    "request_reason": "Street Light Outage/Malfunction",
    "date_created": "2023-11-18T11:17:19.000",
    "date_modified": "2023-11-18T11:17:20.000",
    "request_status": "Pending",
    "responsible_agency": "Department of Public Works",
    "final_address": "1748 Filmore Ave",
    "address_councildis": "D",
    "status": "Assigned to Contractor",
    "contractor": "Legacy Professional Services",
    "rowid": "1050781",
    "final_x": "3680228.72603",
    "final_y": "551841.126102",
    "longitude": "-90.07137785340946",
    "latitude": "30.01141022155532",
    "geocoded_column": {
      "latitude": "30.01141022155532",
      "longitude": "-90.07137785340946"
    }
  },
  {
    "service_request": "2023-1050780",
    "request_type": "Traffic Signals/Signs/Striping/Streetlights",
    "request_reason": "Traffic Sign Missing/Damaged",
    "date_created": "2023-11-18T11:11:26.000",
    "date_modified": "2023-11-18T11:11:26.000",
    "request_status": "Pending",
    "responsible_agency": "Department of Public Works",
    "final_address": "1800 BLK Audubon St",
    "address_councildis": "A",
    "status": "Pending",
    "rowid": "1050780",
    "final_x": "3665701.16823",
    "final_y": "528239.344556",
    "longitude": "-90.11806741352197",
    "latitude": "29.946945179187693",
    "geocoded_column": {
      "latitude": "29.946945179187693",
      "longitude": "-90.11806741352197"
    }
  },
  {
    "service_request": "2023-1050779",
    "request_type": "Traffic Signals/Signs/Striping/Streetlights",
    "request_reason": "Street Light Outage/Malfunction",
    "date_created": "2023-11-18T11:08:54.000",
    "date_modified": "2023-11-18T11:08:55.000",
    "request_status": "Pending",
    "responsible_agency": "Department of Public Works",
    "final_address": "FILMORE AVE & WISNER BLVD",
    "address_councildis": "A",
    "status": "Assigned to Contractor",
    "contractor": "Legacy Professional Services",
    "rowid": "1050779",
    "final_x": "3675505.3",
    "final_y": "551657.28",
    "longitude": "-90.08630743138559",
    "latitude": "30.01104690311035",
    "geocoded_column": {
      "latitude": "30.01104690311035",
      "longitude": "-90.08630743138559"
    }
  },
  {
    "service_request": "2023-1050778",
    "request_type": "Trash/Recycling",
    "request_reason": "MIssed Recycling Pick-Up",
    "date_created": "2023-11-18T11:05:31.000",
    "date_modified": "2023-11-18T11:05:31.000",
    "request_status": "Pending",
    "responsible_agency": "Department of Sanitation",
    "final_address": "1831 Audubon St",
    "address_councildis": "A",
    "status": "Assigned to Contractor",
    "contractor": "Richards Disposal",
    "rowid": "1050778",
    "final_x": "3665785.82298",
    "final_y": "528303.803392",
    "longitude": "-90.11779796714376",
    "latitude": "29.94711995113553",
    "geocoded_column": {
      "latitude": "29.94711995113553",
      "longitude": "-90.11779796714376"
    }
  },
  {
    "service_request": "2023-1050777",
    "request_type": "Trash/Recycling",
    "request_reason": "MIssed Recycling Pick-Up",
    "date_created": "2023-11-18T10:58:11.000",
    "date_modified": "2023-11-18T10:58:12.000",
    "request_status": "Pending",
    "responsible_agency": "Department of Sanitation",
    "final_address": "7300 BLK Morrison Rd",
    "address_councildis": "E",
    "status": "Assigned to Contractor",
    "contractor": "Waste Pro",
    "rowid": "1050777",
    "final_x": "3700457.48422",
    "final_y": "559435.294631",
    "longitude": "-90.00718964674573",
    "latitude": "30.031663187053994",
    "geocoded_column": {
      "latitude": "30.031663187053994",
      "longitude": "-90.00718964674573"
    }
  },
  {
    "service_request": "2023-1050776",
    "request_type": "Trash/Recycling",
    "request_reason": "MIssed Recycling Pick-Up",
    "date_created": "2023-11-18T10:37:29.000",
    "date_modified": "2023-11-18T10:37:30.000",
    "request_status": "Pending",
    "responsible_agency": "Department of Sanitation",
    "final_address": "232 Audubon Blvd",
    "address_councildis": "A",
    "status": "Assigned to Contractor",
    "contractor": "Richards Disposal",
    "rowid": "1050776",
    "final_x": "3666331.88884",
    "final_y": "528719.518848",
    "longitude": "-90.11605988191246",
    "latitude": "29.94824709450906",
    "geocoded_column": {
      "latitude": "29.94824709450906",
      "longitude": "-90.11605988191246"
    }
  },
  {
    "service_request": "2023-1050775",
    "request_type": "Trash/Recycling",
    "request_reason": "Replace Trash Cart",
    "date_created": "2023-11-18T10:31:08.000",
    "date_modified": "2023-11-18T10:31:08.000",
    "request_status": "Pending",
    "responsible_agency": "Department of Sanitation",
    "final_address": "1632 Martin Luther King, Jr. Blvd",
    "address_councildis": "B",
    "status": "Assigned to Contractor",
    "contractor": "Richards Disposal",
    "rowid": "1050775",
    "final_x": "3678918.52117",
    "final_y": "525660.311933",
    "longitude": "-90.07642466588266",
    "latitude": "29.939461624610498",
    "geocoded_column": {
      "latitude": "29.939461624610498",
      "longitude": "-90.07642466588266"
    }
  },
  {
    "service_request": "2023-1050774",
    "request_type": "Safety & Permits",
    "request_reason": "Construction permit",
    "date_created": "2023-11-18T10:30:50.000",
    "date_modified": "2023-11-18T10:30:50.000",
    "request_status": "Pending",
    "responsible_agency": "Department of Code Enforcement",
    "final_address": "4655 Franklin Ave",
    "address_councildis": "D",
    "status": "Pending",
    "rowid": "1050774",
    "final_x": "3686935.29871",
    "final_y": "550159.400724",
    "longitude": "-90.05024858637704",
    "latitude": "30.006581292555584",
    "geocoded_column": {
      "latitude": "30.006581292555584",
      "longitude": "-90.05024858637704"
    }
  },
  {
    "service_request": "2023-1050773",
    "request_type": "Trash/Recycling",
    "request_reason": "Request a Large Item Pick Up",
    "date_created": "2023-11-18T10:26:54.000",
    "date_modified": "2023-11-18T10:26:55.000",
    "request_status": "Pending",
    "responsible_agency": "Department of Sanitation",
    "final_address": "1021 N Gayoso St",
    "address_councildis": "A",
    "status": "Assigned to Contractor",
    "contractor": "Richards Disposal",
    "rowid": "1050773",
    "final_x": "3676416.60801",
    "final_y": "538895.832905",
    "longitude": "-90.0838678910745",
    "latitude": "29.97593008888385",
    "geocoded_column": {
      "latitude": "29.97593008888385",
      "longitude": "-90.0838678910745"
    }
  },
  {
    "service_request": "2023-1050772",
    "request_type": "Trash/Recycling",
    "request_reason": "Missed Trash Pick-Up",
    "date_created": "2023-11-18T10:24:00.000",
    "date_modified": "2023-11-18T10:24:01.000",
    "request_status": "Pending",
    "responsible_agency": "Department of Sanitation",
    "final_address": "15000 Hayne Blvd",
    "address_councildis": "E",
    "status": "Assigned to Contractor",
    "contractor": "Waste Pro",
    "rowid": "1050772",
    "final_x": "3720403.46527",
    "final_y": "575286.385963",
    "longitude": "-89.94355260391771",
    "latitude": "30.07459729325785",
    "geocoded_column": {
      "latitude": "30.07459729325785",
      "longitude": "-89.94355260391771"
    }
  },
  {
    "service_request": "2023-1050771",
    "request_type": "Trash/Recycling",
    "request_reason": "Request a Large Item Pick Up",
    "date_created": "2023-11-18T09:32:33.000",
    "date_modified": "2023-11-18T09:32:33.000",
    "request_status": "Pending",
    "responsible_agency": "Department of Sanitation",
    "final_address": "718 Jena St",
    "address_councildis": "B",
    "status": "Assigned to Contractor",
    "contractor": "Richards Disposal",
    "rowid": "1050771",
    "final_x": "3670675.21716",
    "final_y": "518172.034806",
    "longitude": "-90.10270384647013",
    "latitude": "29.919117322623563",
    "geocoded_column": {
      "latitude": "29.919117322623563",
      "longitude": "-90.10270384647013"
    }
  },
  {
    "service_request": "2023-1050770",
    "request_type": "Abandoned Vehicles",
    "request_reason": "Abandoned/Junk Vehicles",
    "date_created": "2023-11-18T09:32:20.000",
    "date_modified": "2023-11-18T09:32:20.000",
    "request_status": "Pending",
    "responsible_agency": "Department of Public Works",
    "final_address": "2305 Decatur St",
    "address_councildis": "C",
    "status": "Pending",
    "rowid": "1050770",
    "final_x": "3685642.68156",
    "final_y": "534222.718469",
    "longitude": "-90.05489403272219",
    "latitude": "29.962800797086427",
    "geocoded_column": {
      "latitude": "29.962800797086427",
      "longitude": "-90.05489403272219"
    }
  },
  {
    "service_request": "2023-1050769",
    "request_type": "Trash/Recycling",
    "request_reason": "Replace Trash Cart",
    "date_created": "2023-11-18T09:31:36.000",
    "date_modified": "2023-11-18T09:31:36.000",
    "request_status": "Pending",
    "responsible_agency": "Department of Sanitation",
    "final_address": "3630 Rue Delphine",
    "address_councildis": "C",
    "status": "Assigned to Contractor",
    "contractor": "Richards Disposal",
    "rowid": "1050769",
    "final_x": "3703083.9059",
    "final_y": "517197.924789",
    "longitude": "-90.0004426817114",
    "latitude": "29.9154420010076",
    "geocoded_column": {
      "latitude": "29.9154420010076",
      "longitude": "-90.0004426817114"
    }
  },
  {
    "service_request": "2023-1050768",
    "request_type": "Traffic Signals/Signs/Striping/Streetlights",
    "request_reason": "Traffic Signal Malfunctioning/Damaged",
    "date_created": "2023-11-18T09:24:14.000",
    "date_modified": "2023-11-18T09:24:14.000",
    "request_status": "Pending",
    "responsible_agency": "Department of Public Works",
    "final_address": "805 Elysian Fields Ave",
    "address_councildis": "C",
    "status": "Pending",
    "rowid": "1050768",
    "final_x": "3685172.92649",
    "final_y": "535283.388294",
    "longitude": "-90.05634012761033",
    "latitude": "29.965731675612112",
    "geocoded_column": {
      "latitude": "29.965731675612112",
      "longitude": "-90.05634012761033"
    }
  },
  {
    "service_request": "2023-1050767",
    "request_type": "Roads/Drainage",
    "request_reason": "Pothole",
    "date_created": "2023-11-18T08:54:17.000",
    "date_modified": "2023-11-18T08:54:17.000",
    "request_status": "Pending",
    "responsible_agency": "Department of Public Works",
    "final_address": "3903 Martin Luther King, Jr. Blvd",
    "address_councildis": "B",
    "status": "Pending",
    "rowid": "1050767",
    "final_x": "3672374.56238",
    "final_y": "529932.085697",
    "longitude": "-90.09693933014425",
    "latitude": "29.951403359022738",
    "geocoded_column": {
      "latitude": "29.951403359022738",
      "longitude": "-90.09693933014425"
    }
  },
  {
    "service_request": "2023-1050766",
    "request_type": "Abandoned Vehicles",
    "request_reason": "Abandoned/Junk Vehicles",
    "date_created": "2023-11-18T08:53:26.000",
    "date_modified": "2023-11-18T08:53:26.000",
    "request_status": "Pending",
    "responsible_agency": "Department of Public Works",
    "final_address": "2603 Almonaster Ave",
    "address_councildis": "D",
    "status": "Pending",
    "rowid": "1050766",
    "final_x": "3688621.11113",
    "final_y": "542162.972941",
    "longitude": "-90.04520668448997",
    "latitude": "29.984541990367422",
    "geocoded_column": {
      "latitude": "29.984541990367422",
      "longitude": "-90.04520668448997"
    }
  },
  {
    "service_request": "2023-1050765",
    "request_type": "Trash/Recycling",
    "request_reason": "Order Trash Cart",
    "date_created": "2023-11-18T08:46:45.000",
    "date_modified": "2023-11-18T08:46:46.000",
    "request_status": "Pending",
    "responsible_agency": "Department of Sanitation",
    "final_address": "2516 Acacia St Apt 1A",
    "address_councildis": "D",
    "status": "Assigned to Contractor",
    "contractor": "IV Waste",
    "rowid": "1050765",
    "final_x": "3686562.80898",
    "final_y": "546255.337616",
    "longitude": "-90.0515633454675",
    "latitude": "29.99585799496419",
    "geocoded_column": {
      "latitude": "29.99585799496419",
      "longitude": "-90.0515633454675"
    }
  },
  {
    "service_request": "2023-1050764",
    "request_type": "Trash/Recycling",
    "request_reason": "Order Trash Cart",
    "date_created": "2023-11-18T08:44:31.000",
    "date_modified": "2023-11-18T08:44:32.000",
    "request_status": "Pending",
    "responsible_agency": "Department of Sanitation",
    "final_address": "2516 Acacia St Apt 2A",
    "address_councildis": "D",
    "status": "Assigned to Contractor",
    "contractor": "IV Waste",
    "rowid": "1050764",
    "final_x": "3686574.67042",
    "final_y": "546256.035344",
    "longitude": "-90.05152585158513",
    "latitude": "29.995859548622125",
    "geocoded_column": {
      "latitude": "29.995859548622125",
      "longitude": "-90.05152585158513"
    }
  },
  {
    "service_request": "2023-1050763",
    "request_type": "Trash/Recycling",
    "request_reason": "Request a Large Item Pick Up",
    "date_created": "2023-11-18T08:27:11.000",
    "date_modified": "2023-11-18T08:27:11.000",
    "request_status": "Pending",
    "responsible_agency": "Department of Sanitation",
    "final_address": "7 Monplaiser Pl",
    "address_councildis": "C",
    "status": "Assigned to Contractor",
    "contractor": "Richards Disposal",
    "rowid": "1050763",
    "final_x": "3689224.88508",
    "final_y": "530455.910082",
    "longitude": "-90.04371580692744",
    "latitude": "29.952332995837704",
    "geocoded_column": {
      "latitude": "29.952332995837704",
      "longitude": "-90.04371580692744"
    }
  },
  {
    "service_request": "2023-1050762",
    "request_type": "Trash/Recycling",
    "request_reason": "Replace Recycling Cart",
    "date_created": "2023-11-18T07:37:34.000",
    "date_modified": "2023-11-18T07:37:34.000",
    "request_status": "Pending",
    "responsible_agency": "Department of Sanitation",
    "final_address": "725 Navarre St",
    "address_councildis": "A",
    "status": "Pending",
    "rowid": "1050762",
    "final_x": "3668510.28084",
    "final_y": "543895.58043",
    "longitude": "-90.10866964876128",
    "latitude": "29.989912386861462",
    "geocoded_column": {
      "latitude": "29.989912386861462",
      "longitude": "-90.10866964876128"
    }
  },
  {
    "service_request": "2023-1050761",
    "request_type": "Abandoned Vehicles",
    "request_reason": "Vehicle Blocking Your Driveway",
    "date_created": "2023-11-18T06:52:48.000",
    "date_modified": "2023-11-18T06:52:48.000",
    "request_status": "Pending",
    "responsible_agency": "Department of Public Works",
    "final_address": "4804 Bienville Ave",
    "address_councildis": "A",
    "status": "Pending",
    "rowid": "1050761",
    "final_x": "3669227.44026",
    "final_y": "540691.061835",
    "longitude": "-90.10651270539435",
    "latitude": "29.981079957553476",
    "geocoded_column": {
      "latitude": "29.981079957553476",
      "longitude": "-90.10651270539435"
    }
  },
  {
    "service_request": "2023-1050760",
    "request_type": "Roads/Drainage",
    "request_reason": "Pothole",
    "date_created": "2023-11-18T06:33:39.000",
    "date_modified": "2023-11-18T06:33:39.000",
    "request_status": "Pending",
    "responsible_agency": "Department of Public Works",
    "final_address": "1829 Bordeaux St",
    "address_councildis": "B",
    "status": "Pending",
    "rowid": "1050760",
    "final_x": "3669329.725",
    "final_y": "521672.549241",
    "longitude": "-90.1068326189762",
    "latitude": "29.92878229206484",
    "geocoded_column": {
      "latitude": "29.92878229206484",
      "longitude": "-90.1068326189762"
    }
  },
  {
    "service_request": "2023-1050759",
    "request_type": "Trash/Recycling",
    "request_reason": "Request a Large Item Pick Up",
    "date_created": "2023-11-18T06:08:51.000",
    "date_modified": "2023-11-18T06:08:52.000",
    "request_status": "Pending",
    "responsible_agency": "Department of Sanitation",
    "final_address": "13312 Granville St",
    "address_councildis": "E",
    "status": "Assigned to Contractor",
    "contractor": "Waste Pro",
    "rowid": "1050759",
    "final_x": "3725232.65222",
    "final_y": "562006.080415",
    "longitude": "-89.92880040418825",
    "latitude": "30.03792010301529",
    "geocoded_column": {
      "latitude": "30.03792010301529",
      "longitude": "-89.92880040418825"
    }
  },
  {
    "service_request": "2023-1050758",
    "request_type": "Safety & Permits",
    "request_reason": "Safety & Permits Request (Cyber Incident Back Up)",
    "date_created": "2023-11-18T02:25:24.000",
    "date_modified": "2023-11-18T02:25:24.000",
    "request_status": "Pending",
    "responsible_agency": "Safety and Permits",
    "final_address": "1613 Pauger St",
    "address_councildis": "C",
    "status": "Pending",
    "rowid": "1050758",
    "final_x": "3683962.23893",
    "final_y": "535615.851398",
    "longitude": "-90.06015176371747",
    "latitude": "29.966682878907957",
    "geocoded_column": {
      "latitude": "29.966682878907957",
      "longitude": "-90.06015176371747"
    }
  },
  {
    "service_request": "2023-1050757",
    "request_type": "Property Maintenance",
    "request_reason": "Property Maintenance",
    "date_created": "2023-11-18T00:52:37.000",
    "date_modified": "2023-11-18T00:52:37.000",
    "request_status": "Pending",
    "responsible_agency": "Department of Code Enforcement",
    "final_address": "3504 Paris Ave",
    "address_councildis": "D",
    "status": "Pending",
    "rowid": "1050757",
    "final_x": "3679625.12437",
    "final_y": "545199.715663",
    "longitude": "-90.07351557961053",
    "latitude": "29.993166974668735",
    "geocoded_column": {
      "latitude": "29.993166974668735",
      "longitude": "-90.07351557961053"
    }
  },
  {
    "service_request": "2023-1050756",
    "request_type": "Utility Poles",
    "request_reason": "Utility Pole Leaning",
    "date_created": "2023-11-17T23:04:33.000",
    "date_modified": "2023-11-17T23:04:38.000",
    "request_status": "Pending",
    "responsible_agency": "Utility Company Collective",
    "final_address": "LOUISIANA AVE & MAGNOLIA ST",
    "address_councildis": "B",
    "status": "Pending",
    "rowid": "1050756",
    "final_x": "3672615.5",
    "final_y": "525147.98",
    "longitude": "-90.09634164098944",
    "latitude": "29.938241485335965",
    "geocoded_column": {
      "latitude": "29.938241485335965",
      "longitude": "-90.09634164098944"
    }
  },
  {
    "service_request": "2023-1050755",
    "request_type": "Trash/Recycling",
    "request_reason": "Dead Animal Pick Up",
    "date_created": "2023-11-17T22:12:48.000",
    "date_modified": "2023-11-17T22:12:49.000",
    "request_status": "Pending",
    "responsible_agency": "Department of Sanitation",
    "final_address": "12330 S Interstate 10 Service Rd",
    "address_councildis": "E",
    "status": "Assigned to Contractor",
    "contractor": "Waste Pro",
    "rowid": "1050755",
    "final_x": "3717035.68165",
    "final_y": "566171.364003",
    "longitude": "-89.9545461761855",
    "latitude": "30.04964665808399",
    "geocoded_column": {
      "latitude": "30.04964665808399",
      "longitude": "-89.9545461761855"
    }
  },
  {
    "service_request": "2023-1050754",
    "request_type": "Traffic Signals/Signs/Striping/Streetlights",
    "request_reason": "Additional signage",
    "date_created": "2023-11-17T22:10:54.000",
    "date_modified": "2023-11-17T22:10:54.000",
    "request_status": "Pending",
    "responsible_agency": "Department of Public Works",
    "final_address": "BULLARD AVE & I 10 W SERVICE RD",
    "address_councildis": "E",
    "status": "Pending",
    "rowid": "1050754",
    "final_x": "3714625.0",
    "final_y": "565279.48",
    "longitude": "-89.96219907514876",
    "latitude": "30.047273879818846",
    "geocoded_column": {
      "latitude": "30.047273879818846",
      "longitude": "-89.96219907514876"
    }
  },
  {
    "service_request": "2023-1050753",
    "request_type": "Traffic Signals/Signs/Striping/Streetlights",
    "request_reason": "Street Light Outage/Malfunction",
    "date_created": "2023-11-17T21:36:34.000",
    "date_modified": "2023-11-17T21:36:35.000",
    "request_status": "Pending",
    "responsible_agency": "Department of Public Works",
    "final_address": "330 Newton St",
    "address_councildis": "C",
    "status": "Assigned to Contractor",
    "contractor": "Legacy Professional Services",
    "rowid": "1050753",
    "final_x": "3686453.95266",
    "final_y": "527970.608319",
    "longitude": "-90.05255283301311",
    "latitude": "29.94558472359371",
    "geocoded_column": {
      "latitude": "29.94558472359371",
      "longitude": "-90.05255283301311"
    }
  },
  {
    "service_request": "2023-1050752",
    "request_type": "Abandoned Vehicles",
    "request_reason": "Vehicle Blocking Your Driveway",
    "date_created": "2023-11-17T21:01:34.000",
    "date_modified": "2023-11-17T21:01:34.000",
    "request_status": "Pending",
    "responsible_agency": "Department of Public Works",
    "final_address": "717 Teche St",
    "address_councildis": "C",
    "status": "Pending",
    "rowid": "1050752",
    "final_x": "3686447.78671",
    "final_y": "528879.829056",
    "longitude": "-90.05254021283753",
    "latitude": "29.948084961030464",
    "geocoded_column": {
      "latitude": "29.948084961030464",
      "longitude": "-90.05254021283753"
    }
  },
  {
    "service_request": "2023-1050751",
    "request_type": "Roads/Drainage",
    "request_reason": "Pothole",
    "date_created": "2023-11-17T20:51:57.000",
    "date_modified": "2023-11-17T20:51:57.000",
    "request_status": "Pending",
    "responsible_agency": "Department of Public Works",
    "final_address": "6045 Magazine St",
    "address_councildis": "A",
    "status": "Pending",
    "rowid": "1050751",
    "final_x": "3664384.76826",
    "final_y": "519428.355063",
    "longitude": "-90.12251776392044",
    "latitude": "29.922756078520152",
    "geocoded_column": {
      "latitude": "29.922756078520152",
      "longitude": "-90.12251776392044"
    }
  },
  {
    "service_request": "2023-1050750",
    "request_type": "Roads/Drainage",
    "request_reason": "Pothole",
    "date_created": "2023-11-17T20:48:15.000",
    "date_modified": "2023-11-17T20:48:15.000",
    "request_status": "Pending",
    "responsible_agency": "Department of Public Works",
    "final_address": "6047 Magazine St",
    "address_councildis": "A",
    "status": "Pending",
    "rowid": "1050750",
    "final_x": "3664375.36372",
    "final_y": "519431.121591",
    "longitude": "-90.12254735818453",
    "latitude": "29.922763958861278",
    "geocoded_column": {
      "latitude": "29.922763958861278",
      "longitude": "-90.12254735818453"
    }
  },