[
  {
    "service_request": "2024-1127740",
    "request_type": "Trash/Recycling",
    "request_reason": "Missed Trash Pick-Up",
    "date_created": "2024-09-04T23:14:14.000",
    "date_modified": "2024-09-04T23:14:15.000",
    "request_status": "Pending",
    "responsible_agency": "Department of Sanitation",
    "final_address": "7430 Burke Rd",
    "status": "Assigned to Contractor",
    "rowid": "1127740",
    "longitude": "0.0",
    "latitude": "0.0",
    "geocoded_column": {
      "latitude": "0.0",
      "longitude": "0.0"
    }
  },
  {
    "service_request": "2024-1127739",
    "request_type": "Trash/Recycling",
    "request_reason": "Request a Large Item Pick Up",
    "date_created": "2024-09-04T22:17:30.000",
    "date_modified": "2024-09-04T22:17:31.000",
    "request_status": "Pending",
    "responsible_agency": "Department of Sanitation",
    "final_address": "806 Opelousas Ave",
    "address_councildis": "C",
    "status": "Assigned to Contractor",
    "contractor": "Richards Disposal",
    "rowid": "1127739",
    "final_x": "3687901.85539",
    "final_y": "529190.67392",
    "longitude": "-90.0479381307274",
    "latitude": "29.94889490713998",
    "geocoded_column": {
      "latitude": "29.94889490713998",
      "longitude": "-90.0479381307274"
    }
  },
  {
    "service_request": "2024-1127738",
    "request_type": "Trash/Recycling",
    "request_reason": "Replace Trash Cart",
    "date_created": "2024-09-04T22:11:09.000",
    "date_modified": "2024-09-04T22:11:10.000",
    "request_status": "Pending",
    "responsible_agency": "Department of Sanitation",
    "final_address": "25 Lakewood Estates Dr",
    "address_councildis": "C",
    "status": "Assigned to Contractor",
    "contractor": "Richards Disposal",
    "rowid": "1127738",
    "final_x": "3701065.04714",
    "final_y": "512980.049777",
    "longitude": "-90.00696901602446",
    "latitude": "29.903908694871525",
    "geocoded_column": {
      "latitude": "29.903908694871525",
      "longitude": "-90.00696901602446"
    }
  },
  {
    "service_request": "2024-1127737",
    "request_type": "Drainage",
    "request_reason": "Catch Basin Clogged",
    "date_created": "2024-09-04T22:09:33.000",
    "date_modified": "2024-09-04T22:09:33.000",
    "request_status": "Pending",
    "responsible_agency": "Department of Public Works",
    "final_address": "403 S Lopez St",
    "address_councildis": "B",
    "status": "Pending",
    "rowid": "1127737",
    "final_x": "3673029.18792",
    "final_y": "535202.07911",
    "longitude": "-90.09469246207483",
    "latitude": "29.96587464576639",
    "geocoded_column": {
      "latitude": "29.96587464576639",
      "longitude": "-90.09469246207483"
    }
  },
  {
    "service_request": "2024-1127736",
    "request_type": "Trash/Recycling",
    "request_reason": "Replace Trash Cart",
    "date_created": "2024-09-04T22:05:02.000",
    "date_modified": "2024-09-04T22:05:03.000",
    "request_status": "Pending",
    "responsible_agency": "Department of Sanitation",
    "final_address": "1134 Flanders St",
    "address_councildis": "C",
    "status": "Assigned to Contractor",
    "contractor": "Richards Disposal",
    "rowid": "1127736",
    "final_x": "3696801.50211",
    "final_y": "527088.365567",
    "longitude": "-90.01991434882889",
    "latitude": "29.9428367770748",
    "geocoded_column": {
      "latitude": "29.9428367770748",
      "longitude": "-90.01991434882889"
    }
  },
  {
    "service_request": "2024-1127735",
    "request_type": "Streetlights",
    "request_reason": "Streetlight Outage/Malfunction",
    "date_created": "2024-09-04T21:58:59.000",
    "date_modified": "2024-09-04T21:58:59.000",
    "request_status": "Pending",
    "responsible_agency": "Department of Public Works",
    "final_address": "7901 Parry St",
    "address_councildis": "E",
    "status": "Pending",
    "contractor": "Legacy Professional Services",
    "rowid": "1127735",
    "final_x": "3713876.31749",
    "final_y": "569295.759014",
    "longitude": "-89.96441364651923",
    "latitude": "30.05834161820311",
    "geocoded_column": {
      "latitude": "30.05834161820311",
      "longitude": "-89.96441364651923"
    }
  },
  {
    "service_request": "2024-1127734",
    "request_type": "Trash/Recycling",
    "request_reason": "Request a Large Item Pick Up",
    "date_created": "2024-09-04T21:25:08.000",
    "date_modified": "2024-09-04T21:25:09.000",
    "request_status": "Pending",
    "responsible_agency": "Department of Sanitation",
    "final_address": "1311 Flanders St",
    "address_councildis": "C",
    "status": "Assigned to Contractor",
    "contractor": "Richards Disposal",
    "rowid": "1127734",
    "final_x": "3696684.48791",
    "final_y": "526505.941374",
    "longitude": "-90.0203048602097",
    "latitude": "29.941239000146606",
    "geocoded_column": {
      "latitude": "29.941239000146606",
      "longitude": "-90.0203048602097"
    }
  },
  {
    "service_request": "2024-1127733",
    "request_type": "Trash/Recycling",
    "request_reason": "Order Recycling Cart",
    "date_created": "2024-09-04T21:22:53.000",
    "date_modified": "2024-09-04T21:22:53.000",
    "request_status": "Pending",
    "responsible_agency": "Department of Sanitation",
    "final_address": "2415 Allen St",
    "address_councildis": "D",
    "status": "Pending",
    "rowid": "1127733",
    "final_x": "3682414.56885",
    "final_y": "541114.696204",
    "longitude": "-90.06484705135023",
    "latitude": "29.981849987100922",
    "geocoded_column": {
      "latitude": "29.981849987100922",
      "longitude": "-90.06484705135023"
    }
  },
  {
    "service_request": "2024-1127732",
    "request_type": "Trash/Recycling",
    "request_reason": "Order Trash Cart",
    "date_created": "2024-09-04T21:20:53.000",
    "date_modified": "2024-09-04T21:20:54.000",
    "request_status": "Pending",
    "responsible_agency": "Department of Sanitation",
    "final_address": "2415 Allen St",
    "address_councildis": "D",
    "status": "Assigned to Contractor",
    "contractor": "IV Waste",
    "rowid": "1127732",
    "final_x": "3682414.56885",
    "final_y": "541114.696204",
    "longitude": "-90.06484705135023",
    "latitude": "29.981849987100922",
    "geocoded_column": {
      "latitude": "29.981849987100922",
      "longitude": "-90.06484705135023"
    }
  },
  {
    "service_request": "2024-1127731",
    "request_type": "Roads and Streets",
    "request_reason": "Debris in Driving Lanes",
    "date_created": "2024-09-04T21:13:18.000",
    "date_modified": "2024-09-04T21:13:18.000",
    "request_status": "Pending",
    "responsible_agency": "Department of Public Works",
    "final_address": "12300 BLK Six Flags Pkwy",
    "address_councildis": "E",
    "status": "Pending",
    "rowid": "1127731",
    "final_x": "3723264.4199",
    "final_y": "564986.218568",
    "longitude": "-89.93490548264998",
    "latitude": "30.046180444506202",
    "geocoded_column": {
      "latitude": "30.046180444506202",
      "longitude": "-89.93490548264998"
    }
  },
  {
    "service_request": "2024-1127730",
    "request_type": "Streetlights",
    "request_reason": "Streetlight Outage/Malfunction",
    "date_created": "2024-09-04T21:02:48.000",
    "date_modified": "2024-09-04T21:02:49.000",
    "request_status": "Pending",
    "responsible_agency": "Department of Public Works",
    "final_address": "7513 Hampson St",
    "address_councildis": "A",
    "status": "Pending",
    "contractor": "Legacy Professional Services",
    "rowid": "1127730",
    "final_x": "3662311.69869",
    "final_y": "525770.650301",
    "longitude": "-90.12885120951258",
    "latitude": "29.94025546819944",
    "geocoded_column": {
      "latitude": "29.94025546819944",
      "longitude": "-90.12885120951258"
    }
  },
  {
    "service_request": "2024-1127729",
    "request_type": "Streetlights",
    "request_reason": "Streetlight Outage/Malfunction",
    "date_created": "2024-09-04T21:00:35.000",
    "date_modified": "2024-09-04T21:00:36.000",
    "request_status": "Pending",
    "responsible_agency": "Department of Public Works",
    "final_address": "7513 Hampson St",
    "address_councildis": "A",
    "status": "Pending",
    "contractor": "Legacy Professional Services",
    "rowid": "1127729",
    "final_x": "3662311.69869",
    "final_y": "525770.650301",
    "longitude": "-90.12885120951258",
    "latitude": "29.94025546819944",
    "geocoded_column": {
      "latitude": "29.94025546819944",
      "longitude": "-90.12885120951258"
    }
  },
  {
    "service_request": "2024-1127728",
    "request_type": "Abandoned Vehicles",
    "request_reason": "Abandoned/Junk Vehicles",
    "date_created": "2024-09-04T20:16:47.000",
    "date_modified": "2024-09-04T20:16:47.000",
    "request_status": "Pending",
    "responsible_agency": "Department of Public Works",
    "final_address": "8620 Nelson St",
    "address_councildis": "A",
    "status": "Pending",
    "rowid": "1127728",
    "final_x": "3663664.24557",
    "final_y": "533116.857412",
    "longitude": "-90.12433627070737",
    "latitude": "29.960416005123566",
    "geocoded_column": {
      "latitude": "29.960416005123566",
      "longitude": "-90.12433627070737"
    }
  },
  {
    "service_request": "2024-1127727",
    "request_type": "Roads and Streets",
    "request_reason": "Ditch and Culvert Maintenance",
    "date_created": "2024-09-04T20:15:35.000",
    "date_modified": "2024-09-04T20:15:35.000",
    "request_status": "Pending",
    "responsible_agency": "Department of Public Works",
    "final_address": "CROWDER BLVD & EDGELAKE CT",
    "address_councildis": "E",
    "status": "Pending",
    "rowid": "1127727",
    "final_x": "3703139.8",
    "final_y": "562437.18",
    "longitude": "-89.99860295483828",
    "latitude": "30.039831565726644",
    "geocoded_column": {
      "latitude": "30.039831565726644",
      "longitude": "-89.99860295483828"
    }
  },
  {
    "service_request": "2024-1127726",
    "request_type": "Trash/Recycling",
    "request_reason": "Replace Trash Cart",
    "date_created": "2024-09-04T20:15:25.000",
    "date_modified": "2024-09-04T20:15:26.000",
    "request_status": "Pending",
    "responsible_agency": "Department of Sanitation",
    "final_address": "3605 Iberville St",
    "address_councildis": "B",
    "status": "Assigned to Contractor",
    "contractor": "IV Waste",
    "rowid": "1127726",
    "final_x": "3672830.83028",
    "final_y": "537614.691912",
    "longitude": "-90.09523654648098",
    "latitude": "29.972514411751387",
    "geocoded_column": {
      "latitude": "29.972514411751387",
      "longitude": "-90.09523654648098"
    }
  },
  {
    "service_request": "2024-1127725",
    "request_type": "Trash/Recycling",
    "request_reason": "Replace Trash Cart",
    "date_created": "2024-09-04T20:11:24.000",
    "date_modified": "2024-09-04T20:11:25.000",
    "request_status": "Pending",
    "responsible_agency": "Department of Sanitation",
    "final_address": "3605 Iberville St",
    "address_councildis": "B",
    "status": "Assigned to Contractor",
    "contractor": "IV Waste",
    "rowid": "1127725",
    "final_x": "3672830.83028",
    "final_y": "537614.691912",
    "longitude": "-90.09523654648098",
    "latitude": "29.972514411751387",
    "geocoded_column": {
      "latitude": "29.972514411751387",
      "longitude": "-90.09523654648098"
    }
  },
  {
    "service_request": "2024-1127724",
    "request_type": "Streetlights",
    "request_reason": "Streetlight Outage/Malfunction",
    "date_created": "2024-09-04T20:01:09.000",
    "date_modified": "2024-09-04T20:01:10.000",
    "request_status": "Pending",
    "responsible_agency": "Department of Public Works",
    "final_address": "5657 Hempstead Rd",
    "address_councildis": "E",
    "status": "Pending",
    "contractor": "Legacy Professional Services",
    "rowid": "1127724",
    "final_x": "3708038.02532",
    "final_y": "558025.373083",
    "longitude": "-89.98328745522707",
    "latitude": "30.02754304291878",
    "geocoded_column": {
      "latitude": "30.02754304291878",
      "longitude": "-89.98328745522707"
    }
  },
  {
    "service_request": "2024-1127723",
    "request_type": "Street and Traffic Signs",
    "request_reason": "Streetlight Outage/Malfunction",
    "date_created": "2024-09-04T19:57:49.000",
    "date_modified": "2024-09-04T19:57:50.000",
    "request_status": "Pending",
    "responsible_agency": "Department of Public Works",
    "final_address": "4010 Royal St, New Orleans, Louisiana, 70117",
    "address_councildis": "C",
    "status": "Pending",
    "contractor": "Legacy Professional Services",
    "rowid": "1127723",
    "final_x": "3691531.04169",
    "final_y": "533744.778373",
    "longitude": "-90.03631650495889",
    "latitude": "29.961304669175572",
    "geocoded_column": {
      "latitude": "29.961304669175572",
      "longitude": "-90.03631650495889"
    }
  },
  {
    "service_request": "2024-1127721",
    "request_type": "Property Maintenance",
    "request_reason": "Property Maintenance",
    "date_created": "2024-09-04T19:42:12.000",
    "date_modified": "2024-09-04T19:42:12.000",
    "request_status": "Pending",
    "responsible_agency": "Department of Code Enforcement",
    "final_address": "3601 Behrman Pl",
    "address_councildis": "C",
    "status": "Pending",
    "rowid": "1127721",
    "final_x": "3697574.77226",
    "final_y": "518475.388854",
    "longitude": "-90.01778517058449",
    "latitude": "29.919129656557388",
    "geocoded_column": {
      "latitude": "29.919129656557388",
      "longitude": "-90.01778517058449"
    }
  },
  {
    "service_request": "2024-1127720",
    "request_type": "Trash/Recycling",
    "request_reason": "Request a Large Item Pick Up",
    "date_created": "2024-09-04T19:40:28.000",
    "date_modified": "2024-09-04T19:40:29.000",
    "request_status": "Pending",
    "responsible_agency": "Department of Sanitation",
    "final_address": "5500 Pauline Dr",
    "address_councildis": "D",
    "status": "Assigned to Contractor",
    "contractor": "IV Waste",
    "rowid": "1127720",
    "final_x": "3692024.4136",
    "final_y": "554228.135768",
    "longitude": "-90.03402506960289",
    "latitude": "30.017611129752442",
    "geocoded_column": {
      "latitude": "30.017611129752442",
      "longitude": "-90.03402506960289"
    }
  },
  {
    "service_request": "2024-1127719",
    "request_type": "Abandoned Vehicles",
    "request_reason": "Vehicle Blocking Your Driveway",
    "date_created": "2024-09-04T19:37:11.000",
    "date_modified": "2024-09-04T19:37:11.000",
    "request_status": "Pending",
    "responsible_agency": "Department of Public Works",
    "final_address": "3901 Behrman Pl",
    "address_councildis": "C",
    "status": "Pending",
    "rowid": "1127719",
    "final_x": "3697455.07088",
    "final_y": "518885.254135",
    "longitude": "-90.0181481552705",
    "latitude": "29.920260425259542",
    "geocoded_column": {
      "latitude": "29.920260425259542",
      "longitude": "-90.0181481552705"
    }
  },
  {
    "service_request": "2024-1127718",
    "request_type": "Trash/Recycling",
    "request_reason": "Return Recycling Cart",
    "date_created": "2024-09-04T19:28:45.000",
    "date_modified": "2024-09-04T19:28:45.000",
    "request_status": "Pending",
    "responsible_agency": "Department of Sanitation",
    "final_address": "1432 Touro St",
    "address_councildis": "C",
    "status": "Pending",
    "rowid": "1127718",
    "final_x": "3684097.95157",
    "final_y": "537611.196104",
    "longitude": "-90.05965314158549",
    "latitude": "29.972165238059002",
    "geocoded_column": {
      "latitude": "29.972165238059002",
      "longitude": "-90.05965314158549"
    }
  },
  {
    "service_request": "2024-1127717",
    "request_type": "Abandoned Vehicles",
    "request_reason": "Abandoned/Junk Vehicles",
    "date_created": "2024-09-04T18:57:13.000",
    "date_modified": "2024-09-04T18:57:13.000",
    "request_status": "Pending",
    "responsible_agency": "Department of Public Works",
    "final_address": "1433 Shirley Dr",
    "address_councildis": "C",
    "status": "Pending",
    "rowid": "1127717",
    "final_x": "3692997.72733",
    "final_y": "525714.617085",
    "longitude": "-90.03197298479904",
    "latitude": "29.939178779754",
    "geocoded_column": {
      "latitude": "29.939178779754",
      "longitude": "-90.03197298479904"
    }
  },
  {
    "service_request": "2024-1127715",
    "request_type": "Drainage",
    "request_reason": "Catch Basin Clogged",
    "date_created": "2024-09-04T18:49:23.000",
    "date_modified": "2024-09-04T18:49:23.000",
    "request_status": "Pending",
    "responsible_agency": "Department of Public Works",
    "final_address": "5800 General Meyer Ave",
    "address_councildis": "C",
    "status": "Pending",
    "rowid": "1127715",
    "final_x": "3705493.28523",
    "final_y": "521706.814521",
    "longitude": "-89.99267132980522",
    "latitude": "29.927762597476818",
    "geocoded_column": {
      "latitude": "29.927762597476818",
      "longitude": "-89.99267132980522"
    }
  },
  {
    "service_request": "2024-1127714",
    "request_type": "Trash/Recycling",
    "request_reason": "Repair Trash Cart",
    "date_created": "2024-09-04T18:44:07.000",
    "date_modified": "2024-09-04T18:44:07.000",
    "request_status": "Pending",
    "responsible_agency": "Department of Sanitation",
    "final_address": "6807 Vicksburg St",
    "address_councildis": "A",
    "status": "Assigned to Contractor",
    "contractor": "IV Waste",
    "rowid": "1127714",
    "final_x": "3669461.14753",
    "final_y": "552743.052182",
    "longitude": "-90.1053666112864",
    "latitude": "30.014211877576447",
    "geocoded_column": {
      "latitude": "30.014211877576447",
      "longitude": "-90.1053666112864"
    }
  },
  {
    "service_request": "2024-1127713",
    "request_type": "Roads and Streets",
    "request_reason": "Pothole",
    "date_created": "2024-09-04T18:44:02.000",
    "date_modified": "2024-09-04T18:44:02.000",
    "request_status": "Pending",
    "responsible_agency": "Department of Public Works",
    "final_address": "6123 Spain St",
    "address_councildis": "D",
    "status": "Pending",
    "rowid": "1127713",
    "final_x": "3684672.50569",
    "final_y": "555608.573465",
    "longitude": "-90.05720559143373",
    "latitude": "30.02163400182863",
    "geocoded_column": {
      "latitude": "30.02163400182863",
      "longitude": "-90.05720559143373"
    }
  },
  {
    "service_request": "2024-1127712",
    "request_type": "Trash/Recycling",
    "request_reason": "Illegal Dumping",
    "date_created": "2024-09-04T18:42:38.000",
    "date_modified": "2024-09-04T18:42:38.000",
    "request_status": "Pending",
    "responsible_agency": "Department of Sanitation",
    "final_address": "1028 Thalia St",
    "address_councildis": "B",
    "status": "Pending",
    "rowid": "1127712",
    "final_x": "3680645.59279",
    "final_y": "525153.865085",
    "longitude": "-90.07098968894988",
    "latitude": "29.938016859046737",
    "geocoded_column": {
      "latitude": "29.938016859046737",
      "longitude": "-90.07098968894988"
    }
  },
  {
    "service_request": "2024-1127711",
    "request_type": "Trash/Recycling",
    "request_reason": "Request a Large Item Pick Up",
    "date_created": "2024-09-04T18:36:53.000",
    "date_modified": "2024-09-04T18:36:54.000",
    "request_status": "Pending",
    "responsible_agency": "Department of Sanitation",
    "final_address": "10311 Brookfield Dr",
    "address_councildis": "E",
    "status": "Assigned to Contractor",
    "contractor": "Waste Pro",
    "rowid": "1127711",
    "final_x": "3710438.59787",
    "final_y": "563194.590688",
    "longitude": "-89.9755083481934",
    "latitude": "30.04167834977917",
    "geocoded_column": {
      "latitude": "30.04167834977917",
      "longitude": "-89.9755083481934"
    }
  },
  {
    "service_request": "2024-1127710",
    "request_type": "Drainage",
    "request_reason": "Catch Basin Clogged",
    "date_created": "2024-09-04T18:33:36.000",
    "date_modified": "2024-09-04T18:33:36.000",
    "request_status": "Pending",
    "responsible_agency": "Department of Public Works",
    "final_address": "N MURAT ST & ST PETER ST",
    "address_councildis": "A",
    "status": "Pending",
    "rowid": "1127710",
    "final_x": "3670999.9",
    "final_y": "541109.38",
    "longitude": "-90.1009002559789",
    "latitude": "29.982177890033103",
    "geocoded_column": {
      "latitude": "29.982177890033103",
      "longitude": "-90.1009002559789"
    }
  },
  {
    "service_request": "2024-1127709",
    "request_type": "Abandoned Vehicles",
    "request_reason": "Abandoned/Junk Vehicles",
    "date_created": "2024-09-04T18:03:33.000",
    "date_modified": "2024-09-04T18:03:33.000",
    "request_status": "Pending",
    "responsible_agency": "Department of Public Works",
    "final_address": "1100 Canal St",
    "address_councildis": "B",
    "status": "Pending",
    "rowid": "1127709",
    "final_x": "3679911.79426",
    "final_y": "531539.116611",
    "longitude": "-90.07308463838378",
    "latitude": "29.95559637318677",
    "geocoded_column": {
      "latitude": "29.95559637318677",
      "longitude": "-90.07308463838378"
    }
  },
  {
    "service_request": "2024-1127708",
    "request_type": "Trash/Recycling",
    "request_reason": "Repair Trash Cart",
    "date_created": "2024-09-04T17:44:38.000",
    "date_modified": "2024-09-04T17:44:39.000",
    "request_status": "Pending",
    "responsible_agency": "Department of Sanitation",
    "final_address": "628 General Taylor St",
    "address_councildis": "B",
    "status": "Assigned to Contractor",
    "contractor": "IV Waste",
    "rowid": "1127708",
    "final_x": "3673260.12878",
    "final_y": "518215.02527",
    "longitude": "-90.09454311904182",
    "latitude": "29.91915894339869",
    "geocoded_column": {
      "latitude": "29.91915894339869",
      "longitude": "-90.09454311904182"
    }
  },
  {
    "service_request": "2024-1127707",
    "request_type": "Street and Traffic Signs",
    "request_reason": "Traffic or Parking Sign Damaged or Missing",
    "date_created": "2024-09-04T17:28:30.000",
    "date_modified": "2024-09-04T17:28:30.000",
    "request_status": "Pending",
    "responsible_agency": "Department of Public Works",
    "final_address": "881 Convention Center Blvd",
    "address_councildis": "B",
    "status": "Pending",
    "rowid": "1127707",
    "final_x": "3682594.03631",
    "final_y": "526801.392702",
    "longitude": "-90.06478070549309",
    "latitude": "29.942487842460675",
    "geocoded_column": {
      "latitude": "29.942487842460675",
      "longitude": "-90.06478070549309"
    }
  },
  {
    "service_request": "2024-1127706",
    "request_type": "Drainage",
    "request_reason": "Street Flooding",
    "date_created": "2024-09-04T17:27:10.000",
    "date_modified": "2024-09-04T17:27:10.000",
    "request_status": "Pending",
    "responsible_agency": "Department of Public Works",
    "final_address": "1618 Lesseps St",
    "address_councildis": "D",
    "status": "Pending",
    "rowid": "1127706",
    "final_x": "3693172.60022",
    "final_y": "537146.87636",
    "longitude": "-90.03101067124436",
    "latitude": "29.9706080430566",
    "geocoded_column": {
      "latitude": "29.9706080430566",
      "longitude": "-90.03101067124436"
    }
  },
  {
    "service_request": "2024-1127705",
    "request_type": "Abandoned Vehicles",
    "request_reason": "Abandoned/Junk Vehicles",
    "date_created": "2024-09-04T17:11:11.000",
    "date_modified": "2024-09-04T17:11:11.000",
    "request_status": "Pending",
    "responsible_agency": "Department of Public Works",
    "final_address": "1636 Lesseps St",
    "address_councildis": "D",
    "status": "Pending",
    "rowid": "1127705",
    "final_x": "3693193.39504",
    "final_y": "537220.605768",
    "longitude": "-90.03094235244467",
    "latitude": "29.970810122871228",
    "geocoded_column": {
      "latitude": "29.970810122871228",
      "longitude": "-90.03094235244467"
    }
  },
  {
    "service_request": "2024-1127704",
    "request_type": "Trash/Recycling",
    "request_reason": "Repair Recycling Cart",
    "date_created": "2024-09-04T16:58:52.000",
    "date_modified": "2024-09-04T16:58:53.000",
    "request_status": "Pending",
    "responsible_agency": "Department of Sanitation",
    "final_address": "5901 Pratt Dr",
    "address_councildis": "D",
    "status": "Pending",
    "rowid": "1127704",
    "final_x": "3680333.30959",
    "final_y": "554250.036952",
    "longitude": "-90.07096358386228",
    "latitude": "30.01803068619812",
    "geocoded_column": {
      "latitude": "30.01803068619812",
      "longitude": "-90.07096358386228"
    }
  },
  {
    "service_request": "2024-1127703",
    "request_type": "Trash/Recycling",
    "request_reason": "Request a Large Item Pick Up",
    "date_created": "2024-09-04T16:58:37.000",
    "date_modified": "2024-09-04T16:58:37.000",
    "request_status": "Pending",
    "responsible_agency": "Department of Sanitation",
    "final_address": "800 Sumner St",
    "address_councildis": "C",
    "status": "Assigned to Contractor",
    "contractor": "Richards Disposal",
    "rowid": "1127703",
    "final_x": "3691209.52099",
    "final_y": "528535.161792",
    "longitude": "-90.03751784940565",
    "latitude": "29.94699003345866",
    "geocoded_column": {
      "latitude": "29.94699003345866",
      "longitude": "-90.03751784940565"
    }
  },
  {
    "service_request": "2024-1127702",
    "request_type": "Trash/Recycling",
    "request_reason": "Replace Recycling Cart",
    "date_created": "2024-09-04T16:58:03.000",
    "date_modified": "2024-09-04T16:58:03.000",
    "request_status": "Pending",
    "responsible_agency": "Department of Sanitation",
    "final_address": "5904 Argonne Blvd",
    "address_councildis": "A",
    "status": "Pending",
    "rowid": "1127702",
    "final_x": "3670035.43111",
    "final_y": "546536.262865",
    "longitude": "-90.1037625915121",
    "latitude": "29.997128443759088",
    "geocoded_column": {
      "latitude": "29.997128443759088",
      "longitude": "-90.1037625915121"
    }
  },
  {
    "service_request": "2024-1127701",
    "request_type": "Street and Traffic Signs",
    "request_reason": "Street Name Sign Damaged or Missing",
    "date_created": "2024-09-04T16:56:07.000",
    "date_modified": "2024-09-04T16:56:08.000",
    "request_status": "Pending",
    "responsible_agency": "Department of Public Works",
    "final_address": "PONTCHARTRAIN BLVD & FILMORE AVE",
    "address_councildis": "A",
    "status": "Pending",
    "rowid": "1127701",
    "final_x": "3666344.5",
    "final_y": "552293.18",
    "longitude": "-90.11522880347272",
    "latitude": "30.013066357280845",
    "geocoded_column": {
      "latitude": "30.013066357280845",
      "longitude": "-90.11522880347272"
    }
  },
  {
    "service_request": "2024-1127700",
    "request_type": "Drainage",
    "request_reason": "Catch Basin Clogged",
    "date_created": "2024-09-04T16:55:33.000",
    "date_modified": "2024-09-04T16:55:34.000",
    "request_status": "Pending",
    "responsible_agency": "Department of Public Works",
    "final_address": "6624 Center St",
    "address_councildis": "A",
    "status": "Pending",
    "rowid": "1127700",
    "final_x": "3664890.512",
    "final_y": "552138.97039",
    "longitude": "-90.11982780360692",
    "latitude": "30.012684755351284",
    "geocoded_column": {
      "latitude": "30.012684755351284",
      "longitude": "-90.11982780360692"
    }
  },
  {
    "service_request": "2024-1127699",
    "request_type": "Trash/Recycling",
    "request_reason": "Request a Large Item Pick Up",
    "date_created": "2024-09-04T16:55:12.000",
    "date_modified": "2024-09-04T16:55:53.000",
    "request_status": "Pending",
    "responsible_agency": "Department of Sanitation",
    "final_address": "5909 Louisville St",
    "address_councildis": "A",
    "status": "Assigned to Contractor",
    "contractor": "IV Waste",
    "rowid": "1127699",
    "final_x": "3667750.01857",
    "final_y": "546782.436497",
    "longitude": "-90.11097384203207",
    "latitude": "29.99787257124865",
    "geocoded_column": {
      "latitude": "29.99787257124865",
      "longitude": "-90.11097384203207"
    }
  },
  {
    "service_request": "2024-1127698",
    "request_type": "Drainage",
    "request_reason": "Street Flooding",
    "date_created": "2024-09-04T16:51:01.000",
    "date_modified": "2024-09-04T16:51:01.000",
    "request_status": "Pending",
    "responsible_agency": "Department of Public Works",
    "final_address": "262 Hillary St",
    "address_councildis": "A",
    "status": "Pending",
    "rowid": "1127698",
    "final_x": "3661106.89709",
    "final_y": "524807.891132",
    "longitude": "-90.13268682832036",
    "latitude": "29.937642953491448",
    "geocoded_column": {
      "latitude": "29.937642953491448",
      "longitude": "-90.13268682832036"
    }
  },
  {
    "service_request": "2024-1127697",
    "request_type": "Parks & Parkways",
    "request_reason": "Request Tree Service (Right of Way/Public Property)",
    "date_created": "2024-09-04T16:48:12.000",
    "date_modified": "2024-09-04T16:48:13.000",
    "request_status": "Pending",
    "responsible_agency": "Department of Parks & Parkway",
    "final_address": "317 City Park Ave",
    "address_councildis": "A",
    "status": "Pending",
    "rowid": "1127697",
    "final_x": "3668688.41274",
    "final_y": "541429.783628",
    "longitude": "-90.10819025502758",
    "latitude": "29.98312704990362",
    "geocoded_column": {
      "latitude": "29.98312704990362",
      "longitude": "-90.10819025502758"
    }
  },
  {
    "service_request": "2024-1127696",
    "request_type": "Trash/Recycling",
    "request_reason": "Repair Trash Cart",
    "date_created": "2024-09-04T16:47:06.000",
    "date_modified": "2024-09-04T16:47:06.000",
    "request_status": "Pending",
    "responsible_agency": "Department of Sanitation",
    "final_address": "3211 Blair St",
    "address_councildis": "C",
    "status": "Assigned to Contractor",
    "contractor": "Richards Disposal",
    "rowid": "1127696",
    "final_x": "3709407.51896",
    "final_y": "518883.618167",
    "longitude": "-89.9804203670082",
    "latitude": "29.91987329171259",
    "geocoded_column": {
      "latitude": "29.91987329171259",
      "longitude": "-89.9804203670082"
    }
  },
  {
    "service_request": "2024-1127695",
    "request_type": "Drainage",
    "request_reason": "Catch Basin Damaged",
    "date_created": "2024-09-04T16:42:43.000",
    "date_modified": "2024-09-04T16:42:43.000",
    "request_status": "Pending",
    "responsible_agency": "Department of Public Works",
    "final_address": "1007 Music St",
    "address_councildis": "C",
    "status": "Pending",
    "rowid": "1127695",
    "final_x": "3686933.96649",
    "final_y": "536149.756935",
    "longitude": "-90.05074821548432",
    "latitude": "29.968059805308027",
    "geocoded_column": {
      "latitude": "29.968059805308027",
      "longitude": "-90.05074821548432"
    }
  },
  {
    "service_request": "2024-1127694",
    "request_type": "Health Related Request",
    "request_reason": "Noise Ordinance Complaint",
    "date_created": "2024-09-04T16:38:42.000",
    "date_modified": "2024-09-04T16:38:42.000",
    "request_status": "Pending",
    "responsible_agency": "Health Department",
    "final_address": "212 N Salcedo St",
    "address_councildis": "B",
    "status": "Pending",
    "rowid": "1127694",
    "final_x": "3674459.2292",
    "final_y": "536509.552839",
    "longitude": "-90.09013163258514",
    "latitude": "29.969427173303036",
    "geocoded_column": {
      "latitude": "29.969427173303036",
      "longitude": "-90.09013163258514"
    }
  },
  {
    "service_request": "2024-1127693",
    "request_type": "Trash/Recycling",
    "request_reason": "Order Trash Cart",
    "date_created": "2024-09-04T16:37:13.000",
    "date_modified": "2024-09-04T16:37:14.000",
    "request_status": "Pending",
    "responsible_agency": "Department of Sanitation",
    "final_address": "4525 St Anthony Ave",
    "address_councildis": "D",
    "status": "Assigned to Contractor",
    "contractor": "IV Waste",
    "rowid": "1127693",
    "final_x": "3682566.55394",
    "final_y": "549366.601043",
    "longitude": "-90.06407830469881",
    "latitude": "30.00453516842613",
    "geocoded_column": {
      "latitude": "30.00453516842613",
      "longitude": "-90.06407830469881"
    }
  },
  {
    "service_request": "2024-1127692",
    "request_type": "Trash/Recycling",
    "request_reason": "MIssed Recycling Pick-Up",
    "date_created": "2024-09-04T16:35:46.000",
    "date_modified": "2024-09-04T16:35:47.000",
    "request_status": "Pending",
    "responsible_agency": "Department of Sanitation",
    "final_address": "2000 S Carrollton Ave",
    "address_councildis": "A",
    "status": "Assigned to Contractor",
    "contractor": "IV Waste",
    "rowid": "1127692",
    "final_x": "3663869.15655",
    "final_y": "530500.026242",
    "longitude": "-90.12377643009548",
    "latitude": "29.953214623781495",
    "geocoded_column": {
      "latitude": "29.953214623781495",
      "longitude": "-90.12377643009548"
    }
  },
  {
    "service_request": "2024-1127691",
    "request_type": "Roads and Streets",
    "request_reason": "Push-up/Pavement Expansion",
    "date_created": "2024-09-04T16:32:39.000",
    "date_modified": "2024-09-04T16:32:39.000",
    "request_status": "Pending",
    "responsible_agency": "Department of Public Works",
    "final_address": "1109 Monroe St",
    "address_councildis": "A",
    "status": "Pending",
    "rowid": "1127691",
    "final_x": "3660245.15258",
    "final_y": "529603.137025",
    "longitude": "-90.1352491433701",
    "latitude": "29.950853157476548",
    "geocoded_column": {
      "latitude": "29.950853157476548",
      "longitude": "-90.1352491433701"
    }
  },
  {
    "service_request": "2024-1127690",
    "request_type": "Trash/Recycling",
    "request_reason": "Missed Trash Pick-Up",
    "date_created": "2024-09-04T16:25:47.000",
    "date_modified": "2024-09-04T16:25:48.000",
    "request_status": "Pending",
    "responsible_agency": "Department of Sanitation",
    "final_address": "4791 Knight Dr",
    "address_councildis": "E",
    "status": "Assigned to Contractor",
    "contractor": "Waste Pro",
    "rowid": "1127690",
    "final_x": "3708170.47793",
    "final_y": "555917.716505",
    "longitude": "-89.98294740817497",
    "latitude": "30.02174351909754",
    "geocoded_column": {
      "latitude": "30.02174351909754",
      "longitude": "-89.98294740817497"
    }
  },
  {
    "service_request": "2024-1127689",
    "request_type": "Trash/Recycling",
    "request_reason": "Replace Trash Cart",
    "date_created": "2024-09-04T16:23:33.000",
    "date_modified": "2024-09-04T16:23:34.000",
    "request_status": "Pending",
    "responsible_agency": "Department of Sanitation",
    "final_address": "1839 N Rampart St",
    "address_councildis": "C",
    "status": "Assigned to Contractor",
    "contractor": "IV Waste",
    "rowid": "1127689",
    "final_x": "3683858.67804",
    "final_y": "535873.885959",
    "longitude": "-90.06046975587024",
    "latitude": "29.96739554841201",
    "geocoded_column": {
      "latitude": "29.96739554841201",
      "longitude": "-90.06046975587024"
    }
  },
  {
    "service_request": "2024-1127688",
    "request_type": "Trash/Recycling",
    "request_reason": "Replace Trash Cart",
    "date_created": "2024-09-04T16:22:32.000",
    "date_modified": "2024-09-04T16:22:32.000",
    "request_status": "Pending",
    "responsible_agency": "Department of Sanitation",
    "final_address": "8021 Green St",
    "address_councildis": "A",
    "status": "Assigned to Contractor",
    "contractor": "IV Waste",
    "rowid": "1127688",
    "final_x": "3663346.08109",
    "final_y": "529533.056769",
    "longitude": "-90.12546026978166",
    "latitude": "29.95057094218469",
    "geocoded_column": {
      "latitude": "29.95057094218469",
      "longitude": "-90.12546026978166"
    }
  },
  {
    "service_request": "2024-1127687",
    "request_type": "Trash/Recycling",
    "request_reason": "Replace Trash Cart",
    "date_created": "2024-09-04T16:21:14.000",
    "date_modified": "2024-09-04T16:21:14.000",
    "request_status": "Pending",
    "responsible_agency": "Department of Sanitation",
    "final_address": "1841 N Rampart St",
    "address_councildis": "C",
    "status": "Assigned to Contractor",
    "contractor": "IV Waste",
    "rowid": "1127687",
    "final_x": "3683875.34473",
    "final_y": "535875.274887",
    "longitude": "-90.06041707353656",
    "latitude": "29.96739885839388",
    "geocoded_column": {
      "latitude": "29.96739885839388",
      "longitude": "-90.06041707353656"
    }
  },
  {
    "service_request": "2024-1127686",
    "request_type": "Abandoned Vehicles",
    "request_reason": "Abandoned/Junk Vehicles",
    "date_created": "2024-09-04T16:14:24.000",
    "date_modified": "2024-09-04T16:14:24.000",
    "request_status": "Pending",
    "responsible_agency": "Department of Public Works",
    "final_address": "4801 Coliseum St",
    "address_councildis": "B",
    "status": "Pending",
    "rowid": "1127686",
    "final_x": "3669454.4635",
    "final_y": "519710.223928",
    "longitude": "-90.10650516898384",
    "latitude": "29.92338285002891",
    "geocoded_column": {
      "latitude": "29.92338285002891",
      "longitude": "-90.10650516898384"
    }
  },
  {
    "service_request": "2024-1127685",
    "request_type": "Trash/Recycling",
    "request_reason": "Repair Trash Cart",
    "date_created": "2024-09-04T16:07:04.000",
    "date_modified": "2024-09-04T16:07:05.000",
    "request_status": "Pending",
    "responsible_agency": "Department of Sanitation",
    "final_address": "1741 St Andrew St Apt B",
    "address_councildis": "B",
    "status": "Assigned to Contractor",
    "contractor": "IV Waste",
    "rowid": "1127685",
    "final_x": "3677678.38734",
    "final_y": "524811.10886",
    "longitude": "-90.08036925165982",
    "latitude": "29.93716394257248",
    "geocoded_column": {
      "latitude": "29.93716394257248",
      "longitude": "-90.08036925165982"
    }
  },
  {
    "service_request": "2024-1127684",
    "request_type": "Drainage",
    "request_reason": "Catch Basin Clogged",
    "date_created": "2024-09-04T16:05:16.000",
    "date_modified": "2024-09-04T16:05:17.000",
    "request_status": "Pending",
    "responsible_agency": "Department of Public Works",
    "final_address": "1432 N Miro St",
    "address_councildis": "D",
    "status": "Pending",
    "rowid": "1127684",
    "final_x": "3679827.35752",
    "final_y": "538112.173897",
    "longitude": "-90.07312298916887",
    "latitude": "29.973672591045514",
    "geocoded_column": {
      "latitude": "29.973672591045514",
      "longitude": "-90.07312298916887"
    }
  },
  {
    "service_request": "2024-1127683",
    "request_type": "Property Maintenance",
    "request_reason": "Property Maintenance",
    "date_created": "2024-09-04T16:03:13.000",
    "date_modified": "2024-09-04T16:03:13.000",
    "request_status": "Pending",
    "responsible_agency": "Department of Code Enforcement",
    "final_address": "1347 Esplanade Ave",
    "address_councildis": "C",
    "status": "Pending",
    "rowid": "1127683",
    "final_x": "3681888.79016",
    "final_y": "536173.434951",
    "longitude": "-90.06668023196293",
    "latitude": "29.968279227684988",
    "geocoded_column": {
      "latitude": "29.968279227684988",
      "longitude": "-90.06668023196293"
    }
  },
  {
    "service_request": "2024-1127682",
    "request_type": "Mosquito, Termite & Rodent Control",
    "request_reason": "Mosquito Complaint",
    "date_created": "2024-09-04T15:59:44.000",
    "date_modified": "2024-09-04T16:03:40.000",
    "request_status": "Pending",
    "responsible_agency": "Mosquito, Termite & Rodent Control Board",
    "final_address": "VINCENT RD & CURRAN BLVD",
    "address_councildis": "E",
    "status": "Pending",
    "rowid": "1127682",
    "final_x": "3718173.1",
    "final_y": "571914.18",
    "longitude": "-89.95073225935994",
    "latitude": "30.065399338708197",
    "geocoded_column": {
      "latitude": "30.065399338708197",
      "longitude": "-89.95073225935994"
    }
  },
  {
    "service_request": "2024-1127681",
    "request_type": "Trash/Recycling",
    "request_reason": "Repair Recycling Cart",
    "date_created": "2024-09-04T15:58:15.000",
    "date_modified": "2024-09-04T15:58:16.000",
    "request_status": "Pending",
    "responsible_agency": "Department of Sanitation",
    "final_address": "3822 Octavia St",
    "address_councildis": "A",
    "status": "Pending",
    "rowid": "1127681",
    "final_x": "3668748.93102",
    "final_y": "529530.563009",
    "longitude": "-90.10840088796502",
    "latitude": "29.950406376162874",
    "geocoded_column": {
      "latitude": "29.950406376162874",
      "longitude": "-90.10840088796502"
    }
  },
  {
    "service_request": "2024-1127680",
    "request_type": "Trash/Recycling",
    "request_reason": "Replace Recycling Cart",
    "date_created": "2024-09-04T15:55:41.000",
    "date_modified": "2024-09-04T15:55:41.000",
    "request_status": "Pending",
    "responsible_agency": "Department of Sanitation",
    "final_address": "0 BLK Drexel Dr",
    "address_councildis": "B",
    "status": "Pending",
    "rowid": "1127680",
    "final_x": "3670940.24535",
    "final_y": "533178.923587",
    "longitude": "-90.10135798638503",
    "latitude": "29.96037356784114",
    "geocoded_column": {
      "latitude": "29.96037356784114",
      "longitude": "-90.10135798638503"
    }
  },
  {
    "service_request": "2024-1127679",
    "request_type": "Streetlights",
    "request_reason": "Streetlight Outage/Malfunction",
    "date_created": "2024-09-04T15:42:12.000",
    "date_modified": "2024-09-04T15:42:29.000",
    "request_status": "Pending",
    "responsible_agency": "Department of Public Works",
    "final_address": "102 Pinewood Ct",
    "address_councildis": "C",
    "contractor": "Legacy Professional Services",
    "rowid": "1127679",
    "final_x": "3695926.78646",
    "final_y": "523245.864635",
    "longitude": "-90.02281477349199",
    "latitude": "29.932298764088095",
    "geocoded_column": {
      "latitude": "29.932298764088095",
      "longitude": "-90.02281477349199"
    }
  },
  {
    "service_request": "2024-1127678",
    "request_type": "Safety & Permits",
    "request_reason": "Construction permit",
    "date_created": "2024-09-04T15:31:37.000",
    "date_modified": "2024-09-04T15:31:37.000",
    "request_status": "Pending",
    "responsible_agency": "Safety and Permits",
    "final_address": "1034 Tricou St",
    "address_councildis": "E",
    "status": "Pending",
    "rowid": "1127678",
    "final_x": "3700036.54199",
    "final_y": "532901.775428",
    "longitude": "-90.00948856374288",
    "latitude": "29.958719242847327",
    "geocoded_column": {
      "latitude": "29.958719242847327",
      "longitude": "-90.00948856374288"
    }
  },
  {
    "service_request": "2024-1127677",
    "request_type": "Trash/Recycling",
    "request_reason": "Return Trash Cart",
    "date_created": "2024-09-04T15:22:27.000",
    "date_modified": "2024-09-04T15:22:28.000",
    "request_status": "Pending",
    "responsible_agency": "Department of Sanitation",
    "final_address": "2336 Napoleon Ave",
    "address_councildis": "B",
    "status": "Assigned to Contractor",
    "contractor": "IV Waste",
    "rowid": "1127677",
    "final_x": "3670467.84948",
    "final_y": "523645.267131",
    "longitude": "-90.10317292669666",
    "latitude": "29.93417308624174",
    "geocoded_column": {
      "latitude": "29.93417308624174",
      "longitude": "-90.10317292669666"
    }
  },
  {
    "service_request": "2024-1127675",
    "request_type": "Abandoned Vehicles",
    "request_reason": "Abandoned/Junk Vehicles",
    "date_created": "2024-09-04T15:21:12.000",
    "date_modified": "2024-09-04T15:21:12.000",
    "request_status": "Pending",
    "responsible_agency": "Department of Public Works",
    "final_address": "13123 N Interstate 10 Service Rd",
    "address_councildis": "E",
    "status": "Pending",
    "rowid": "1127675",
    "final_x": "3718298.12172",
    "final_y": "567913.663269",
    "longitude": "-89.9504896729805",
    "latitude": "30.054395433243684",
    "geocoded_column": {
      "latitude": "30.054395433243684",
      "longitude": "-89.9504896729805"
    }
  },
  {
    "service_request": "2024-1127674",
    "request_type": "Drainage",
    "request_reason": "Catch Basin Clogged",
    "date_created": "2024-09-04T15:20:50.000",
    "date_modified": "2024-09-04T15:20:51.000",
    "request_status": "Pending",
    "responsible_agency": "Department of Public Works",
    "final_address": "2301 Constance St",
    "address_councildis": "B",
    "status": "Pending",
    "rowid": "1127674",
    "final_x": "3678646.74344",
    "final_y": "521498.347705",
    "longitude": "-90.07742672490593",
    "latitude": "29.928025785048142",
    "geocoded_column": {
      "latitude": "29.928025785048142",
      "longitude": "-90.07742672490593"
    }
  },
  {
    "service_request": "2024-1127673",
    "request_type": "Abandoned Vehicles",
    "request_reason": "Abandoned/Junk Vehicles",
    "date_created": "2024-09-04T15:20:08.000",
    "date_modified": "2024-09-04T15:20:08.000",
    "request_status": "Pending",
    "responsible_agency": "Department of Public Works",
    "final_address": "13123 N Interstate 10 Service Rd",
    "address_councildis": "E",
    "status": "Pending",
    "rowid": "1127673",
    "final_x": "3718298.12172",
    "final_y": "567913.663269",
    "longitude": "-89.9504896729805",
    "latitude": "30.054395433243684",
    "geocoded_column": {
      "latitude": "30.054395433243684",
      "longitude": "-89.9504896729805"
    }
  },
  {
    "service_request": "2024-1127672",
    "request_type": "Trash/Recycling",
    "request_reason": "Request a Large Item Pick Up",
    "date_created": "2024-09-04T15:19:43.000",
    "date_modified": "2024-09-04T15:19:44.000",
    "request_status": "Pending",
    "responsible_agency": "Department of Sanitation",
    "final_address": "6130 Orleans Ave",
    "address_councildis": "A",
    "status": "Assigned to Contractor",
    "contractor": "IV Waste",
    "rowid": "1127672",
    "final_x": "3670929.90996",
    "final_y": "547983.050194",
    "longitude": "-90.1008878058082",
    "latitude": "30.001080183054587",
    "geocoded_column": {
      "latitude": "30.001080183054587",
      "longitude": "-90.1008878058082"
    }
  },
  {
    "service_request": "2024-1127671",
    "request_type": "Streetlights",
    "request_reason": "Streetlight Outage/Malfunction",
    "date_created": "2024-09-04T15:19:34.000",
    "date_modified": "2024-09-04T15:19:35.000",
    "request_status": "Pending",
    "responsible_agency": "Department of Public Works",
    "final_address": "4701 W Adams Ct",
    "address_councildis": "E",
    "status": "Pending",
    "contractor": "Legacy Professional Services",
    "rowid": "1127671",
    "final_x": "3718631.79557",
    "final_y": "556719.973786",
    "longitude": "-89.94986219882499",
    "latitude": "30.023606262050237",
    "geocoded_column": {
      "latitude": "30.023606262050237",
      "longitude": "-89.94986219882499"
    }
  },
  {
    "service_request": "2024-1127670",
    "request_type": "Drainage",
    "request_reason": "Catch Basin Clogged",
    "date_created": "2024-09-04T15:18:01.000",
    "date_modified": "2024-09-04T15:18:02.000",
    "request_status": "Pending",
    "responsible_agency": "Department of Public Works",
    "final_address": "1840 Elysian Fields Ave",
    "address_councildis": "D",
    "status": "Pending",
    "rowid": "1127670",
    "final_x": "3684664.54345",
    "final_y": "539210.558858",
    "longitude": "-90.05780752528034",
    "latitude": "29.9765455976222",
    "geocoded_column": {
      "latitude": "29.9765455976222",
      "longitude": "-90.05780752528034"
    }
  },
  {
    "service_request": "2024-1127669",
    "request_type": "Drainage",
    "request_reason": "Street Flooding",
    "date_created": "2024-09-04T15:14:08.000",
    "date_modified": "2024-09-04T15:14:23.000",
    "request_status": "Pending",
    "responsible_agency": "Department of Public Works",
    "final_address": "3132 Napoleon Ave",
    "address_councildis": "B",
    "status": "Pending",
    "rowid": "1127669",
    "final_x": "3670154.6747",
    "final_y": "526502.741758",
    "longitude": "-90.10406483362624",
    "latitude": "29.94203945920607",
    "geocoded_column": {
      "latitude": "29.94203945920607",
      "longitude": "-90.10406483362624"
    }
  },
  {
    "service_request": "2024-1127668",
    "request_type": "Trash/Recycling",
    "request_reason": "Request a Large Item Pick Up",
    "date_created": "2024-09-04T15:03:18.000",
    "date_modified": "2024-09-04T15:03:19.000",
    "request_status": "Pending",
    "responsible_agency": "Department of Sanitation",
    "final_address": "910 Tricou St",
    "address_councildis": "E",
    "status": "Assigned to Contractor",
    "contractor": "Waste Pro",
    "rowid": "1127668",
    "final_x": "3699840.74212",
    "final_y": "532411.464323",
    "longitude": "-90.01012472458167",
    "latitude": "29.957377280480095",
    "geocoded_column": {
      "latitude": "29.957377280480095",
      "longitude": "-90.01012472458167"
    }
  },
  {
    "service_request": "2024-1127667",
    "request_type": "Tax and Revenue",
    "request_reason": "Sales Tax Question",
    "date_created": "2024-09-04T15:01:20.000",
    "date_modified": "2024-09-04T15:01:21.000",
    "request_status": "Pending",
    "responsible_agency": "Bureau of Revenue",
    "final_address": " & ECONOMICS ST",
    "address_councildis": "D",
    "status": "Pending",
    "rowid": "1127667",
    "final_x": "3688215.13",
    "final_y": "559340.33",
    "longitude": "-90.04587938571166",
    "latitude": "30.031785975160673",
    "geocoded_column": {
      "latitude": "30.031785975160673",
      "longitude": "-90.04587938571166"
    }
  },
  {
    "service_request": "2024-1127666",
    "request_type": "Trash/Recycling",
    "request_reason": "Repair Trash Cart",
    "date_created": "2024-09-04T14:56:12.000",
    "date_modified": "2024-09-04T14:56:12.000",
    "request_status": "Pending",
    "responsible_agency": "Department of Sanitation",
    "final_address": "234 Moqueur Ln",
    "address_councildis": "A",
    "status": "Assigned to Contractor",
    "contractor": "IV Waste",
    "rowid": "1127666",
    "final_x": "3661506.74125",
    "final_y": "521278.193465",
    "longitude": "-90.1315413604505",
    "latitude": "29.92792586792205",
    "geocoded_column": {
      "latitude": "29.92792586792205",
      "longitude": "-90.1315413604505"
    }
  },
  {
    "service_request": "2024-1127665",
    "request_type": "Trash/Recycling",
    "request_reason": "Repair Recycling Cart",
    "date_created": "2024-09-04T14:55:35.000",
    "date_modified": "2024-09-04T14:55:36.000",
    "request_status": "Pending",
    "responsible_agency": "Department of Sanitation",
    "final_address": "2929 Castiglione St",
    "address_councildis": "D",
    "status": "Pending",
    "rowid": "1127665",
    "final_x": "3679183.96642",
    "final_y": "542531.663053",
    "longitude": "-90.07500167692811",
    "latitude": "29.985844095124357",
    "geocoded_column": {
      "latitude": "29.985844095124357",
      "longitude": "-90.07500167692811"
    }
  },
  {
    "service_request": "2024-1127664",
    "request_type": "Street and Traffic Signs",
    "request_reason": "One Way Sign Missing or Damaged",
    "date_created": "2024-09-04T14:55:18.000",
    "date_modified": "2024-09-04T14:56:07.000",
    "request_status": "Pending",
    "responsible_agency": "Department of Public Works",
    "final_address": "URSULINES AVE & TREME ST",
    "address_councildis": "C",
    "status": "Pending",
    "rowid": "1127664",
    "final_x": "3681706.9",
    "final_y": "534978.08",
    "longitude": "-90.06729635845483",
    "latitude": "29.964997939692445",
    "geocoded_column": {
      "latitude": "29.964997939692445",
      "longitude": "-90.06729635845483"
    }
  },
  {
    "service_request": "2024-1127663",
    "request_type": "Trash/Recycling",
    "request_reason": "Request a Large Item Pick Up",
    "date_created": "2024-09-04T14:53:39.000",
    "date_modified": "2024-09-04T14:53:40.000",
    "request_status": "Pending",
    "responsible_agency": "Department of Sanitation",
    "final_address": "3313 Upperline St",
    "address_councildis": "B",
    "status": "Assigned to Contractor",
    "contractor": "IV Waste",
    "rowid": "1127663",
    "final_x": "3669306.89326",
    "final_y": "527211.314111",
    "longitude": "-90.10671752091596",
    "latitude": "29.944012784611893",
    "geocoded_column": {
      "latitude": "29.944012784611893",
      "longitude": "-90.10671752091596"
    }
  },
  {
    "service_request": "2024-1127662",
    "request_type": "Abandoned Vehicles",
    "request_reason": "Abandoned/Junk Vehicles",
    "date_created": "2024-09-04T14:50:32.000",
    "date_modified": "2024-09-04T14:50:32.000",
    "request_status": "Pending",
    "responsible_agency": "Department of Public Works",
    "final_address": "5000 BLK Willow St",
    "address_councildis": "B",
    "status": "Pending",
    "rowid": "1127662",
    "final_x": "3668710.25441",
    "final_y": "525317.926514",
    "longitude": "-90.10866517277418",
    "latitude": "29.93882412936591",
    "geocoded_column": {
      "latitude": "29.93882412936591",
      "longitude": "-90.10866517277418"
    }
  },
  {
    "service_request": "2024-1127661",
    "request_type": "Trash/Recycling",
    "request_reason": "Request a Large Item Pick Up",
    "date_created": "2024-09-04T14:47:59.000",
    "date_modified": "2024-09-04T14:48:00.000",
    "request_status": "Pending",
    "responsible_agency": "Department of Sanitation",
    "final_address": "7130 Salem Dr",
    "address_councildis": "E",
    "status": "Assigned to Contractor",
    "contractor": "Waste Pro",
    "rowid": "1127661",
    "final_x": "3706401.24254",
    "final_y": "561236.681758",
    "longitude": "-89.98834040443197",
    "latitude": "30.036425806125873",
    "geocoded_column": {
      "latitude": "30.036425806125873",
      "longitude": "-89.98834040443197"
    }
  },
  {
    "service_request": "2024-1127660",
    "request_type": "Trash/Recycling",
    "request_reason": "Request a Large Item Pick Up",
    "date_created": "2024-09-04T14:47:26.000",
    "date_modified": "2024-09-04T14:47:27.000",
    "request_status": "Pending",
    "responsible_agency": "Department of Sanitation",
    "final_address": "9100 Morrison Rd",
    "address_councildis": "E",
    "status": "Assigned to Contractor",
    "contractor": "Waste Pro",
    "rowid": "1127660",
    "final_x": "3706214.87294",
    "final_y": "562019.668447",
    "longitude": "-89.98890033274857",
    "latitude": "30.038584724275047",
    "geocoded_column": {
      "latitude": "30.038584724275047",
      "longitude": "-89.98890033274857"
    }
  },
  {
    "service_request": "2024-1127659",
    "request_type": "Street and Traffic Signs",
    "request_reason": "One Way Sign Missing or Damaged",
    "date_created": "2024-09-04T14:44:41.000",
    "date_modified": "2024-09-04T14:44:42.000",
    "request_status": "Pending",
    "responsible_agency": "Department of Public Works",
    "final_address": "URSULINES AVE & TREME ST",
    "address_councildis": "C",
    "status": "Pending",
    "rowid": "1127659",
    "final_x": "3681706.9",
    "final_y": "534978.08",
    "longitude": "-90.06729635845483",
    "latitude": "29.964997939692445",
    "geocoded_column": {
      "latitude": "29.964997939692445",
      "longitude": "-90.06729635845483"
    }
  },
  {
    "service_request": "2024-1127658",
    "request_type": "Trash/Recycling",
    "request_reason": "Request a Large Item Pick Up",
    "date_created": "2024-09-04T14:43:30.000",
    "date_modified": "2024-09-04T14:43:31.000",
    "request_status": "Pending",
    "responsible_agency": "Department of Sanitation",
    "final_address": "2515 Mendez St",
    "address_councildis": "D",
    "status": "Assigned to Contractor",
    "contractor": "IV Waste",
    "rowid": "1127658",
    "final_x": "3685984.72418",
    "final_y": "553639.898711",
    "longitude": "-90.05312883776584",
    "latitude": "30.01618062330877",
    "geocoded_column": {
      "latitude": "30.01618062330877",
      "longitude": "-90.05312883776584"
    }
  },
  {
    "service_request": "2024-1127657",
    "request_type": "Drainage",
    "request_reason": "Catch Basin Clogged",
    "date_created": "2024-09-04T14:42:00.000",
    "date_modified": "2024-09-04T14:42:00.000",
    "request_status": "Pending",
    "responsible_agency": "Department of Public Works",
    "final_address": "2300 BLK Felicity St",
    "address_councildis": "B",
    "status": "Pending",
    "rowid": "1127657",
    "final_x": "3676259.37743",
    "final_y": "526803.870393",
    "longitude": "-90.08478060285502",
    "latitude": "29.942685971015496",
    "geocoded_column": {
      "latitude": "29.942685971015496",
      "longitude": "-90.08478060285502"
    }
  },
  {
    "service_request": "2024-1127656",
    "request_type": "Property Maintenance",
    "request_reason": "Property Maintenance",
    "date_created": "2024-09-04T14:41:27.000",
    "date_modified": "2024-09-04T14:41:28.000",
    "request_status": "Pending",
    "responsible_agency": "Department of Code Enforcement",
    "final_address": "4800 Sherwood Dr",
    "address_councildis": "E",
    "status": "Pending",
    "rowid": "1127656",
    "final_x": "3717902.9806",
    "final_y": "557224.959259",
    "longitude": "-89.95214584369951",
    "latitude": "30.025018945905458",
    "geocoded_column": {
      "latitude": "30.025018945905458",
      "longitude": "-89.95214584369951"
    }
  },
  {
    "service_request": "2024-1127655",
    "request_type": "Trash/Recycling",
    "request_reason": "Request a Large Item Pick Up",
    "date_created": "2024-09-04T14:37:35.000",
    "date_modified": "2024-09-04T14:37:36.000",
    "request_status": "Pending",
    "responsible_agency": "Department of Sanitation",
    "final_address": "11259 Winrock Dr",
    "address_councildis": "E",
    "status": "Assigned to Contractor",
    "contractor": "Waste Pro",
    "rowid": "1127655",
    "final_x": "3716428.80338",
    "final_y": "561528.077919",
    "longitude": "-89.95664058932091",
    "latitude": "30.036899574205986",
    "geocoded_column": {
      "latitude": "30.036899574205986",
      "longitude": "-89.95664058932091"
    }
  },
  {
    "service_request": "2024-1127654",
    "request_type": "Drainage",
    "request_reason": "Catch Basin Clogged",
    "date_created": "2024-09-04T14:35:36.000",
    "date_modified": "2024-09-04T14:35:36.000",
    "request_status": "Pending",
    "responsible_agency": "Department of Public Works",
    "final_address": "4711 Gawain Dr",
    "address_councildis": "E",
    "status": "Pending",
    "rowid": "1127654",
    "final_x": "3707067.90385",
    "final_y": "555214.793881",
    "longitude": "-89.98645732959478",
    "latitude": "30.01984643708927",
    "geocoded_column": {
      "latitude": "30.01984643708927",
      "longitude": "-89.98645732959478"
    }
  },
  {
    "service_request": "2024-1127653",
    "request_type": "Trash/Recycling",
    "request_reason": "Repair Recycling Cart",
    "date_created": "2024-09-04T14:33:39.000",
    "date_modified": "2024-09-04T14:33:40.000",
    "request_status": "Pending",
    "responsible_agency": "Department of Sanitation",
    "final_address": "2736 Acacia St",
    "address_councildis": "D",
    "status": "Pending",
    "rowid": "1127653",
    "final_x": "3688174.7286",
    "final_y": "546393.430608",
    "longitude": "-90.0464665391789",
    "latitude": "29.996188022445246",
    "geocoded_column": {
      "latitude": "29.996188022445246",
      "longitude": "-90.0464665391789"
    }
  },
  {
    "service_request": "2024-1127652",
    "request_type": "Traffic Signals",
    "request_reason": "Traffic Signal Malfunctioning or Damaged",
    "date_created": "2024-09-04T14:20:25.000",
    "date_modified": "2024-09-04T14:20:25.000",
    "request_status": "Pending",
    "responsible_agency": "Department of Public Works",
    "final_address": "4600 BLK Canal St",
    "address_councildis": "A",
    "status": "Pending",
    "rowid": "1127652",
    "final_x": "3669295.21157",
    "final_y": "539772.204036",
    "longitude": "-90.10632972986953",
    "latitude": "29.978551414371392",
    "geocoded_column": {
      "latitude": "29.978551414371392",
      "longitude": "-90.10632972986953"
    }
  },
  {
    "service_request": "2024-1127651",
    "request_type": "Drainage",
    "request_reason": "Street Flooding",
    "date_created": "2024-09-04T14:16:38.000",
    "date_modified": "2024-09-04T14:21:52.000",
    "request_status": "Pending",
    "responsible_agency": "Department of Public Works",
    "final_address": "4700 Arthur Dr",
    "address_councildis": "E",
    "status": "Pending",
    "rowid": "1127651",
    "final_x": "3707645.00446",
    "final_y": "555212.532185",
    "longitude": "-89.98463397825216",
    "latitude": "30.019821553522423",
    "geocoded_column": {
      "latitude": "30.019821553522423",
      "longitude": "-89.98463397825216"
    }
  },
  {
    "service_request": "2024-1127650",
    "request_type": "Abandoned Vehicles",
    "request_reason": "Abandoned/Junk Vehicles",
    "date_created": "2024-09-04T14:14:20.000",
    "date_modified": "2024-09-04T14:14:21.000",
    "request_status": "Pending",
    "responsible_agency": "Department of Public Works",
    "final_address": "1800 Camp St",
    "address_councildis": "B",
    "status": "Pending",
    "rowid": "1127650",
    "final_x": "3679608.84373",
    "final_y": "523264.242619",
    "longitude": "-90.07432834431492",
    "latitude": "29.93285238573915",
    "geocoded_column": {
      "latitude": "29.93285238573915",
      "longitude": "-90.07432834431492"
    }
  },
  {
    "service_request": "2024-1127649",
    "request_type": "Parks & Parkways",
    "request_reason": "Request Tree Service (Right of Way/Public Property)",
    "date_created": "2024-09-04T14:09:41.000",
    "date_modified": "2024-09-04T14:09:41.000",
    "request_status": "Pending",
    "responsible_agency": "Department of Parks & Parkway",
    "final_address": "2928 Dumaine St",
    "address_councildis": "A",
    "status": "Pending",
    "rowid": "1127649",
    "final_x": "3676200.546",
    "final_y": "538195.097033",
    "longitude": "-90.08457439651139",
    "latitude": "29.97400978156463",
    "geocoded_column": {
      "latitude": "29.97400978156463",
      "longitude": "-90.08457439651139"
    }
  },
  {
    "service_request": "2024-1127648",
    "request_type": "Parks & Parkways",
    "request_reason": "Request Tree Service (Right of Way/Public Property)",
    "date_created": "2024-09-04T14:07:18.000",
    "date_modified": "2024-09-04T14:07:18.000",
    "request_status": "Pending",
    "responsible_agency": "Department of Parks & Parkway",
    "final_address": "4866 Camelia St",
    "address_councildis": "E",
    "status": "Pending",
    "rowid": "1127648",
    "final_x": "3701403.01565",
    "final_y": "554948.692056",
    "longitude": "-90.00436617659649",
    "latitude": "30.019296634096033",
    "geocoded_column": {
      "latitude": "30.019296634096033",
      "longitude": "-90.00436617659649"
    }
  },
  {
    "service_request": "2024-1127647",
    "request_type": "Trash/Recycling",
    "request_reason": "Request a Large Item Pick Up",
    "date_created": "2024-09-04T14:05:16.000",
    "date_modified": "2024-09-04T14:05:17.000",
    "request_status": "Pending",
    "responsible_agency": "Department of Sanitation",
    "final_address": "1214 Desire St",
    "address_councildis": "C",
    "status": "Assigned to Contractor",
    "contractor": "IV Waste",
    "rowid": "1127647",
    "final_x": "3690266.45532",
    "final_y": "536189.913927",
    "longitude": "-90.04022269535092",
    "latitude": "29.96806723480544",
    "geocoded_column": {
      "latitude": "29.96806723480544",
      "longitude": "-90.04022269535092"
    }
  },
  {
    "service_request": "2024-1127646",
    "request_type": "Drainage",
    "request_reason": "Catch Basin Clogged",
    "date_created": "2024-09-04T14:04:49.000",
    "date_modified": "2024-09-04T14:04:50.000",
    "request_status": "Pending",
    "responsible_agency": "Department of Public Works",
    "final_address": "CROWDER BLVD & I 10 E",
    "address_councildis": "E",
    "status": "Pending",
    "rowid": "1127646",
    "final_x": "3704733.8",
    "final_y": "558801.28",
    "longitude": "-89.99369979890794",
    "latitude": "30.0297831161292",
    "geocoded_column": {
      "latitude": "30.0297831161292",
      "longitude": "-89.99369979890794"
    }
  },
  {
    "service_request": "2024-1127645",
    "request_type": "Trash/Recycling",
    "request_reason": "Request a Large Item Pick Up",
    "date_created": "2024-09-04T14:02:27.000",
    "date_modified": "2024-09-04T14:02:28.000",
    "request_status": "Pending",
    "responsible_agency": "Department of Sanitation",
    "final_address": "2876 Kent Dr",
    "address_councildis": "C",
    "status": "Assigned to Contractor",
    "contractor": "Richards Disposal",
    "rowid": "1127645",
    "final_x": "3708981.23416",
    "final_y": "519186.663863",
    "longitude": "-89.98175464484595",
    "latitude": "29.92072039413232",
    "geocoded_column": {
      "latitude": "29.92072039413232",
      "longitude": "-89.98175464484595"
    }
  },
  {
    "service_request": "2024-1127644",
    "request_type": "Parks & Parkways",
    "request_reason": "Request Tree Service (Right of Way/Public Property)",
    "date_created": "2024-09-04T14:02:13.000",
    "date_modified": "2024-09-04T14:02:35.000",
    "request_status": "Pending",
    "responsible_agency": "Department of Parks & Parkway",
    "final_address": "1600 BLK Filmore Ave",
    "address_councildis": "D",
    "status": "Pending",
    "rowid": "1127644",
    "final_x": "3679354.16914",
    "final_y": "551940.650828",
    "longitude": "-90.07413748169202",
    "latitude": "30.01171033373158",
    "geocoded_column": {
      "latitude": "30.01171033373158",
      "longitude": "-90.07413748169202"
    }
  },
  {
    "service_request": "2024-1127643",
    "request_type": "Roads and Streets",
    "request_reason": "Abandoned Service Cut",
    "date_created": "2024-09-04T14:00:26.000",
    "date_modified": "2024-09-04T14:00:26.000",
    "request_status": "Pending",
    "responsible_agency": "Department of Public Works",
    "final_address": "1114 Constance St",
    "address_councildis": "B",
    "status": "Pending",
    "rowid": "1127643",
    "final_x": "3681171.21019",
    "final_y": "526080.95539",
    "longitude": "-90.06929798193129",
    "latitude": "29.940550116257892",
    "geocoded_column": {
      "latitude": "29.940550116257892",
      "longitude": "-90.06929798193129"
    }
  },
  {
    "service_request": "2024-1127642",
    "request_type": "Roads and Streets",
    "request_reason": "Sidewalk Damaged or Missing",
    "date_created": "2024-09-04T14:00:20.000",
    "date_modified": "2024-09-04T14:27:26.000",
    "request_status": "Pending",
    "responsible_agency": "Department of Public Works",
    "final_address": "4612 Bienville Ave",
    "address_councildis": "A",
    "rowid": "1127642",
    "final_x": "3669775.04026",
    "final_y": "540259.153995",
    "longitude": "-90.10479775961475",
    "latitude": "29.97987622490413",
    "geocoded_column": {
      "latitude": "29.97987622490413",
      "longitude": "-90.10479775961475"
    }
  },
  {
    "service_request": "2024-1127641",
    "request_type": "Abandoned Vehicles",
    "request_reason": "Abandoned/Junk Vehicles",
    "date_created": "2024-09-04T13:59:50.000",
    "date_modified": "2024-09-04T14:01:13.000",
    "request_status": "Pending",
    "responsible_agency": "Department of Public Works",
    "final_address": "700 BLK Delachaise St",
    "address_councildis": "B",
    "status": "Pending",
    "rowid": "1127641",
    "final_x": "3675229.86473",
    "final_y": "518178.24624",
    "longitude": "-90.08832692001418",
    "latitude": "29.918999110991518",
    "geocoded_column": {
      "latitude": "29.918999110991518",
      "longitude": "-90.08832692001418"
    }
  },
  {
    "service_request": "2024-1127640",
    "request_type": "Traffic Safety",
    "request_reason": "Request for Traffic Calming due to Speeding",
    "date_created": "2024-09-04T13:58:04.000",
    "date_modified": "2024-09-04T13:58:04.000",
    "request_status": "Pending",
    "responsible_agency": "Department of Public Works",
    "final_address": "1936 Dumaine St",
    "address_councildis": "D",
    "status": "Pending",
    "rowid": "1127640",
    "final_x": "3679374.90971",
    "final_y": "535776.586759",
    "longitude": "-90.07463294479568",
    "latitude": "29.967264202608497",
    "geocoded_column": {
      "latitude": "29.967264202608497",
      "longitude": "-90.07463294479568"
    }
  },
  {
    "service_request": "2024-1127639",
    "request_type": "Trash/Recycling",
    "request_reason": "Request a Large Item Pick Up",
    "date_created": "2024-09-04T13:57:34.000",
    "date_modified": "2024-09-04T13:57:34.000",
    "request_status": "Pending",
    "responsible_agency": "Department of Sanitation",
    "final_address": "2523 Burgundy St",
    "address_councildis": "C",
    "status": "Assigned to Contractor",
    "contractor": "IV Waste",
    "rowid": "1127639",
    "final_x": "3686751.94543",
    "final_y": "535754.261127",
    "longitude": "-90.05133701751512",
    "latitude": "29.9669779305266",
    "geocoded_column": {
      "latitude": "29.9669779305266",
      "longitude": "-90.05133701751512"
    }
  },
  {
    "service_request": "2024-1127638",
    "request_type": "Property Maintenance",
    "request_reason": "Property Maintenance",
    "date_created": "2024-09-04T13:56:24.000",
    "date_modified": "2024-09-04T13:56:24.000",
    "request_status": "Pending",
    "responsible_agency": "Department of Code Enforcement",
    "final_address": "2013 Dumaine St",
    "address_councildis": "D",
    "status": "Pending",
    "rowid": "1127638",
    "final_x": "3679275.46517",
    "final_y": "535941.554887",
    "longitude": "-90.0749412704264",
    "latitude": "29.967720811895013",
    "geocoded_column": {
      "latitude": "29.967720811895013",
      "longitude": "-90.0749412704264"
    }
  },
  {
    "service_request": "2024-1127637",
    "request_type": "Trash/Recycling",
    "request_reason": "Request a Large Item Pick Up",
    "date_created": "2024-09-04T13:56:19.000",
    "date_modified": "2024-09-04T13:56:20.000",
    "request_status": "Pending",
    "responsible_agency": "Department of Sanitation",
    "final_address": "2523 Burgundy St",
    "address_councildis": "C",
    "status": "Assigned to Contractor",
    "contractor": "IV Waste",
    "rowid": "1127637",
    "final_x": "3686751.94543",
    "final_y": "535754.261127",
    "longitude": "-90.05133701751512",
    "latitude": "29.9669779305266",
    "geocoded_column": {
      "latitude": "29.9669779305266",
      "longitude": "-90.05133701751512"
    }
  },
  {
    "service_request": "2024-1127636",
    "request_type": "Property Maintenance",
    "request_reason": "Property Maintenance",
    "date_created": "2024-09-04T13:55:31.000",
    "date_modified": "2024-09-04T13:55:31.000",
    "request_status": "Pending",
    "responsible_agency": "Department of Code Enforcement",
    "final_address": "2025 Dumaine St",
    "address_councildis": "D",
    "status": "Pending",
    "rowid": "1127636",
    "final_x": "3679200.72162",
    "final_y": "536009.613703",
    "longitude": "-90.07517495256164",
    "latitude": "29.967910207220616",
    "geocoded_column": {
      "latitude": "29.967910207220616",
      "longitude": "-90.07517495256164"
    }
  },
  {
    "service_request": "2024-1127635",
    "request_type": "Trash/Recycling",
    "request_reason": "Request a Large Item Pick Up",
    "date_created": "2024-09-04T13:55:25.000",
    "date_modified": "2024-09-04T13:56:30.000",
    "request_status": "Pending",
    "responsible_agency": "Department of Sanitation",
    "final_address": "2523 Burgundy St",
    "address_councildis": "C",
    "status": "Assigned to Contractor",
    "contractor": "IV Waste",
    "rowid": "1127635",
    "final_x": "3686751.94543",
    "final_y": "535754.261127",
    "longitude": "-90.05133701751512",
    "latitude": "29.9669779305266",
    "geocoded_column": {
      "latitude": "29.9669779305266",
      "longitude": "-90.05133701751512"
    }
  },
  {
    "service_request": "2024-1127634",
    "request_type": "Trash/Recycling",
    "request_reason": "MIssed Recycling Pick-Up",
    "date_created": "2024-09-04T13:55:09.000",
    "date_modified": "2024-09-04T13:55:35.000",
    "request_status": "Pending",
    "responsible_agency": "Department of Sanitation",
    "final_address": "4619 Cerise Ave",
    "address_councildis": "E",
    "status": "Assigned to Contractor",
    "contractor": "Waste Pro",
    "rowid": "1127634",
    "final_x": "3708758.92286",
    "final_y": "554893.2726",
    "longitude": "-89.9811262933771",
    "latitude": "30.018907615692598",
    "geocoded_column": {
      "latitude": "30.018907615692598",
      "longitude": "-89.9811262933771"
    }
  },
  {
    "service_request": "2024-1127633",
    "request_type": "Trash/Recycling",
    "request_reason": "Request a Large Item Pick Up",
    "date_created": "2024-09-04T13:53:25.000",
    "date_modified": "2024-09-04T13:53:26.000",
    "request_status": "Pending",
    "responsible_agency": "Department of Sanitation",
    "final_address": "4737 Virgilian St",
    "address_councildis": "D",
    "status": "Assigned to Contractor",
    "contractor": "Waste Pro",
    "rowid": "1127633",
    "final_x": "3697559.25283",
    "final_y": "553762.707735",
    "longitude": "-90.01655415426141",
    "latitude": "30.016157646194056",
    "geocoded_column": {
      "latitude": "30.016157646194056",
      "longitude": "-90.01655415426141"
    }
  },
  {
    "service_request": "2024-1127632",
    "request_type": "Trash/Recycling",
    "request_reason": "Repair Recycling Cart",
    "date_created": "2024-09-04T13:51:41.000",
    "date_modified": "2024-09-04T13:51:41.000",
    "request_status": "Pending",
    "responsible_agency": "Department of Sanitation",
    "final_address": "5610 Charlotte Dr",
    "address_councildis": "D",
    "status": "Pending",
    "rowid": "1127632",
    "final_x": "3679927.21211",
    "final_y": "553128.900311",
    "longitude": "-90.07228568252066",
    "latitude": "30.01496026261799",
    "geocoded_column": {
      "latitude": "30.01496026261799",
      "longitude": "-90.07228568252066"
    }
  },
  {
    "service_request": "2024-1127631",
    "request_type": "Abandoned Vehicles",
    "request_reason": "Abandoned/Junk Vehicles",
    "date_created": "2024-09-04T13:51:29.000",
    "date_modified": "2024-09-04T13:51:29.000",
    "request_status": "Pending",
    "responsible_agency": "Department of Public Works",
    "final_address": "1900 BLK Odeon St",
    "address_councildis": "C",
    "status": "Inspected",
    "rowid": "1127631",
    "final_x": "3695898.72824",
    "final_y": "524145.298938",
    "longitude": "-90.0228708765751",
    "latitude": "29.934772782157335",
    "geocoded_column": {
      "latitude": "29.934772782157335",
      "longitude": "-90.0228708765751"
    }
  },
  {
    "service_request": "2024-1127630",
    "request_type": "Street and Traffic Signs",
    "request_reason": "Stop Sign Missing or Damaged",
    "date_created": "2024-09-04T13:49:27.000",
    "date_modified": "2024-09-04T13:51:46.000",
    "request_status": "Pending",
    "responsible_agency": "Department of Public Works",
    "final_address": "PAULINA DR & MIRABEAU AVE",
    "address_councildis": "D",
    "rowid": "1127630",
    "final_x": "3692695.9",
    "final_y": "552243.48",
    "longitude": "-90.03197466370125",
    "latitude": "30.0121331129222",
    "geocoded_column": {
      "latitude": "30.0121331129222",
      "longitude": "-90.03197466370125"
    }
  },
  {
    "service_request": "2024-1127629",
    "request_type": "Property Maintenance",
    "request_reason": "Property Maintenance",
    "date_created": "2024-09-04T13:49:12.000",
    "date_modified": "2024-09-04T13:49:13.000",
    "request_status": "Pending",
    "responsible_agency": "Department of Code Enforcement",
    "final_address": "1014 N Carrollton Ave",
    "address_councildis": "A",
    "status": "Pending",
    "rowid": "1127629",
    "final_x": "3673787.24987",
    "final_y": "541106.512972",
    "longitude": "-90.09209653868531",
    "latitude": "29.982087277803604",
    "geocoded_column": {
      "latitude": "29.982087277803604",
      "longitude": "-90.09209653868531"
    }
  },
  {
    "service_request": "2024-1127628",
    "request_type": "Trash/Recycling",
    "request_reason": "Request a Large Item Pick Up",
    "date_created": "2024-09-04T13:48:07.000",
    "date_modified": "2024-09-04T13:48:08.000",
    "request_status": "Pending",
    "responsible_agency": "Department of Sanitation",
    "final_address": "6501 Memphis St",
    "address_councildis": "A",
    "status": "Assigned to Contractor",
    "contractor": "IV Waste",
    "rowid": "1127628",
    "final_x": "3669591.56679",
    "final_y": "550687.182356",
    "longitude": "-90.10502418081875",
    "latitude": "30.00855511546219",
    "geocoded_column": {
      "latitude": "30.00855511546219",
      "longitude": "-90.10502418081875"
    }
  },
  {
    "service_request": "2024-1127627",
    "request_type": "Property Maintenance",
    "request_reason": "Property Maintenance",
    "date_created": "2024-09-04T13:45:03.000",
    "date_modified": "2024-09-04T13:45:03.000",
    "request_status": "Pending",
    "responsible_agency": "Department of Code Enforcement",
    "final_address": "2525 Memorial Park Dr",
    "address_councildis": "C",
    "status": "Pending",
    "rowid": "1127627",
    "final_x": "3692766.18371",
    "final_y": "521079.566969",
    "longitude": "-90.03287007438414",
    "latitude": "29.92644119738659",
    "geocoded_column": {
      "latitude": "29.92644119738659",
      "longitude": "-90.03287007438414"
    }
  },
  {
    "service_request": "2024-1127626",
    "request_type": "Trash/Recycling",
    "request_reason": "Request a Large Item Pick Up",
    "date_created": "2024-09-04T13:43:15.000",
    "date_modified": "2024-09-04T13:43:16.000",
    "request_status": "Pending",
    "responsible_agency": "Department of Sanitation",
    "final_address": "7819 Mercier St",
    "address_councildis": "E",
    "status": "Assigned to Contractor",
    "contractor": "Waste Pro",
    "rowid": "1127626",
    "final_x": "3711086.40037",
    "final_y": "567095.634276",
    "longitude": "-89.97331474221654",
    "latitude": "30.05238352263999",
    "geocoded_column": {
      "latitude": "30.05238352263999",
      "longitude": "-89.97331474221654"
    }
  },
  {
    "service_request": "2024-1127625",
    "request_type": "Trash/Recycling",
    "request_reason": "Request a Large Item Pick Up",
    "date_created": "2024-09-04T13:41:42.000",
    "date_modified": "2024-09-04T13:41:43.000",
    "request_status": "Pending",
    "responsible_agency": "Department of Sanitation",
    "final_address": "2968 Seine St",
    "address_councildis": "C",
    "status": "Assigned to Contractor",
    "contractor": "Richards Disposal",
    "rowid": "1127625",
    "final_x": "3694433.6177",
    "final_y": "520541.389624",
    "longitude": "-90.02762583441282",
    "latitude": "29.924909250926802",
    "geocoded_column": {
      "latitude": "29.924909250926802",
      "longitude": "-90.02762583441282"
    }
  },
  {
    "service_request": "2024-1127624",
    "request_type": "Trash/Recycling",
    "request_reason": "Request a Large Item Pick Up",
    "date_created": "2024-09-04T13:37:53.000",
    "date_modified": "2024-09-04T13:37:53.000",
    "request_status": "Pending",
    "responsible_agency": "Department of Sanitation",
    "final_address": "4522 Louisa Dr",
    "address_councildis": "D",
    "status": "Assigned to Contractor",
    "contractor": "IV Waste",
    "rowid": "1127624",
    "final_x": "3690901.27401",
    "final_y": "550538.389204",
    "longitude": "-90.03770555724253",
    "latitude": "30.007500663619137",
    "geocoded_column": {
      "latitude": "30.007500663619137",
      "longitude": "-90.03770555724253"
    }
  },
  {
    "service_request": "2024-1127623",
    "request_type": "Roads and Streets",
    "request_reason": "Sidewalk Damaged or Missing",
    "date_created": "2024-09-04T13:35:38.000",
    "date_modified": "2024-09-04T13:37:52.000",
    "request_status": "Pending",
    "responsible_agency": "Department of Public Works",
    "final_address": "8316 Apple St",
    "address_councildis": "A",
    "status": "Pending",
    "rowid": "1127623",
    "final_x": "3664674.9936",
    "final_y": "532672.557124",
    "longitude": "-90.12115936357755",
    "latitude": "29.95916496184692",
    "geocoded_column": {
      "latitude": "29.95916496184692",
      "longitude": "-90.12115936357755"
    }
  },
  {
    "service_request": "2024-1127622",
    "request_type": "Property Maintenance",
    "request_reason": "Property Maintenance",
    "date_created": "2024-09-04T13:31:29.000",
    "date_modified": "2024-09-04T13:31:30.000",
    "request_status": "Pending",
    "responsible_agency": "Department of Code Enforcement",
    "final_address": "2217 Montreal St",
    "address_councildis": "D",
    "status": "Pending",
    "rowid": "1127622",
    "final_x": "3684644.85397",
    "final_y": "546522.340113",
    "longitude": "-90.0576126067034",
    "latitude": "29.996651009872423",
    "geocoded_column": {
      "latitude": "29.996651009872423",
      "longitude": "-90.0576126067034"
    }
  },
  {
    "service_request": "2024-1127621",
    "request_type": "Trash/Recycling",
    "request_reason": "Replace Trash Cart",
    "date_created": "2024-09-04T13:30:25.000",
    "date_modified": "2024-09-04T13:31:59.000",
    "request_status": "Pending",
    "responsible_agency": "Department of Sanitation",
    "final_address": "14748 Emory Rd",
    "address_councildis": "E",
    "status": "Assigned to Contractor",
    "contractor": "Waste Pro",
    "rowid": "1127621",
    "final_x": "3720554.94092",
    "final_y": "573686.240298",
    "longitude": "-89.94313510814372",
    "latitude": "30.07019251858571",
    "geocoded_column": {
      "latitude": "30.07019251858571",
      "longitude": "-89.94313510814372"
    }
  },
  {
    "service_request": "2024-1127620",
    "request_type": "Trash/Recycling",
    "request_reason": "Missed Trash Pick-Up",
    "date_created": "2024-09-04T13:27:18.000",
    "date_modified": "2024-09-04T13:27:18.000",
    "request_status": "Pending",
    "responsible_agency": "Department of Sanitation",
    "final_address": "14907 Emory Rd",
    "address_councildis": "E",
    "status": "Assigned to Contractor",
    "contractor": "Waste Pro",
    "rowid": "1127620",
    "final_x": "3720747.4631",
    "final_y": "574041.90193",
    "longitude": "-89.94251285377878",
    "latitude": "30.07116401361857",
    "geocoded_column": {
      "latitude": "30.07116401361857",
      "longitude": "-89.94251285377878"
    }
  },
  {
    "service_request": "2024-1127619",
    "request_type": "Trash/Recycling",
    "request_reason": "Request a Large Item Pick Up",
    "date_created": "2024-09-04T13:21:21.000",
    "date_modified": "2024-09-04T13:21:21.000",
    "request_status": "Pending",
    "responsible_agency": "Department of Sanitation",
    "final_address": "4836 Shalimar Dr",
    "address_councildis": "D",
    "status": "Assigned to Contractor",
    "contractor": "Waste Pro",
    "rowid": "1127619",
    "final_x": "3697066.28976",
    "final_y": "554750.117592",
    "longitude": "-90.01807588181234",
    "latitude": "30.01888821786228",
    "geocoded_column": {
      "latitude": "30.01888821786228",
      "longitude": "-90.01807588181234"
    }
  },
  {
    "service_request": "2024-1127618",
    "request_type": "Roads and Streets",
    "request_reason": "Abandoned Service Cut",
    "date_created": "2024-09-04T13:15:05.000",
    "date_modified": "2024-09-04T13:15:05.000",
    "request_status": "Pending",
    "responsible_agency": "Department of Public Works",
    "final_address": "4000 BLK Chestnut St",
    "address_councildis": "B",
    "status": "Pending",
    "rowid": "1127618",
    "final_x": "3672267.74664",
    "final_y": "519649.966393",
    "longitude": "-90.09762672430429",
    "latitude": "29.923134037585122",
    "geocoded_column": {
      "latitude": "29.923134037585122",
      "longitude": "-90.09762672430429"
    }
  },
  {
    "service_request": "2024-1127617",
    "request_type": "Parks & Parkways",
    "request_reason": "Request Tree Service (Right of Way/Public Property)",
    "date_created": "2024-09-04T13:13:42.000",
    "date_modified": "2024-09-04T13:13:43.000",
    "request_status": "Pending",
    "responsible_agency": "Department of Parks & Parkway",
    "final_address": "5641 St Bernard Ave",
    "address_councildis": "D",
    "status": "Pending",
    "rowid": "1127617",
    "final_x": "3677009.2189",
    "final_y": "553020.966231",
    "longitude": "-90.08150887964452",
    "latitude": "30.01475146126274",
    "geocoded_column": {
      "latitude": "30.01475146126274",
      "longitude": "-90.08150887964452"
    }
  },
  {
    "service_request": "2024-1127616",
    "request_type": "Trash/Recycling",
    "request_reason": "Request a Large Item Pick Up",
    "date_created": "2024-09-04T13:10:51.000",
    "date_modified": "2024-09-04T13:10:53.000",
    "request_status": "Pending",
    "responsible_agency": "Department of Sanitation",
    "final_address": "5130 Mckendall Pl",
    "address_councildis": "E",
    "status": "Assigned to Contractor",
    "contractor": "Waste Pro",
    "rowid": "1127616",
    "final_x": "3717985.54642",
    "final_y": "558728.380636",
    "longitude": "-89.95182767602584",
    "latitude": "30.029150015562198",
    "geocoded_column": {
      "latitude": "30.029150015562198",
      "longitude": "-89.95182767602584"
    }
  },
  {
    "service_request": "2024-1127615",
    "request_type": "Property Maintenance",
    "request_reason": "Property Maintenance",
    "date_created": "2024-09-04T13:08:53.000",
    "date_modified": "2024-09-04T14:36:15.000",
    "request_status": "Pending",
    "responsible_agency": "Department of Code Enforcement",
    "final_address": "321 Opelousas Ave",
    "address_councildis": "C",
    "status": "Pending",
    "rowid": "1127615",
    "final_x": "3686291.61826",
    "final_y": "528983.730496",
    "longitude": "-90.05302963332274",
    "latitude": "29.94837545355371",
    "geocoded_column": {
      "latitude": "29.94837545355371",
      "longitude": "-90.05302963332274"
    }
  },
  {
    "service_request": "2024-1127614",
    "request_type": "Parks & Parkways",
    "request_reason": "Request Tree Service (Right of Way/Public Property)",
    "date_created": "2024-09-04T13:07:09.000",
    "date_modified": "2024-09-04T13:08:42.000",
    "request_status": "Pending",
    "responsible_agency": "Department of Parks & Parkway",
    "final_address": "1100 BLK Fats Domino Ave",
    "address_councildis": "E",
    "status": "Pending",
    "rowid": "1127614",
    "final_x": "3698093.01716",
    "final_y": "533962.48206",
    "longitude": "-90.0155871582808",
    "latitude": "29.961697408428297",
    "geocoded_column": {
      "latitude": "29.961697408428297",
      "longitude": "-90.0155871582808"
    }
  },
  {
    "service_request": "2024-1127613",
    "request_type": "Trash/Recycling",
    "request_reason": "Replace Trash Cart",
    "date_created": "2024-09-04T13:06:56.000",
    "date_modified": "2024-09-04T13:06:57.000",
    "request_status": "Pending",
    "responsible_agency": "Department of Sanitation",
    "final_address": "1017 Fern St",
    "address_councildis": "A",
    "status": "Assigned to Contractor",
    "contractor": "IV Waste",
    "rowid": "1127613",
    "final_x": "3662215.48941",
    "final_y": "527443.024063",
    "longitude": "-90.12909946861903",
    "latitude": "29.944856743956176",
    "geocoded_column": {
      "latitude": "29.944856743956176",
      "longitude": "-90.12909946861903"
    }
  },
  {
    "service_request": "2024-1127612",
    "request_type": "Drainage",
    "request_reason": "Catch Basin Damaged",
    "date_created": "2024-09-04T13:06:49.000",
    "date_modified": "2024-09-04T13:06:49.000",
    "request_status": "Pending",
    "responsible_agency": "Department of Public Works",
    "final_address": "BURGUNDY ST & GORDON ST",
    "address_councildis": "E",
    "status": "Pending",
    "rowid": "1127612",
    "final_x": "3698854.8",
    "final_y": "532693.18",
    "longitude": "-90.01322776586883",
    "latitude": "29.958183168272104",
    "geocoded_column": {
      "latitude": "29.958183168272104",
      "longitude": "-90.01322776586883"
    }
  },
  {
    "service_request": "2024-1127611",
    "request_type": "Abandoned Vehicles",
    "request_reason": "Abandoned/Junk Vehicles",
    "date_created": "2024-09-04T13:06:10.000",
    "date_modified": "2024-09-04T13:06:10.000",
    "request_status": "Pending",
    "responsible_agency": "Department of Public Works",
    "final_address": "3400 BLK Wall Blvd",
    "address_councildis": "C",
    "status": "Inspected",
    "rowid": "1127611",
    "final_x": "3696752.8955",
    "final_y": "523856.70962",
    "longitude": "-90.0201847395212",
    "latitude": "29.93395237215305",
    "geocoded_column": {
      "latitude": "29.93395237215305",
      "longitude": "-90.0201847395212"
    }
  },
  {
    "service_request": "2024-1127610",
    "request_type": "Trash/Recycling",
    "request_reason": "Replace Trash Cart",
    "date_created": "2024-09-04T13:05:36.000",
    "date_modified": "2024-09-04T13:05:37.000",
    "request_status": "Pending",
    "responsible_agency": "Department of Sanitation",
    "final_address": "1525 Hillary St",
    "address_councildis": "A",
    "status": "Assigned to Contractor",
    "contractor": "IV Waste",
    "rowid": "1127610",
    "final_x": "3664205.19796",
    "final_y": "528020.105023",
    "longitude": "-90.12279807832023",
    "latitude": "29.946385882725853",
    "geocoded_column": {
      "latitude": "29.946385882725853",
      "longitude": "-90.12279807832023"
    }
  },
  {
    "service_request": "2024-1127608",
    "request_type": "Streetlights",
    "request_reason": "Streetlight Outage/Malfunction",
    "date_created": "2024-09-04T13:00:01.000",
    "date_modified": "2024-09-04T13:01:27.000",
    "request_status": "Pending",
    "responsible_agency": "Department of Public Works",
    "final_address": "CANAL BLVD & LANE ST",
    "address_councildis": "A",
    "status": "Pending",
    "contractor": "Legacy Professional Services",
    "rowid": "1127608",
    "final_x": "3668733.1",
    "final_y": "550708.78",
    "longitude": "-90.10773563048193",
    "latitude": "30.008639777156557",
    "geocoded_column": {
      "latitude": "30.008639777156557",
      "longitude": "-90.10773563048193"
    }
  },
  {
    "service_request": "2024-1127607",
    "request_type": "Trash/Recycling",
    "request_reason": "Order Recycling Cart",
    "date_created": "2024-09-04T12:58:55.000",
    "date_modified": "2024-09-04T12:58:55.000",
    "request_status": "Pending",
    "responsible_agency": "Department of Sanitation",
    "final_address": "2600 Gravier St Apt 302",
    "address_councildis": "B",
    "status": "Pending",
    "rowid": "1127607",
    "final_x": "3674412.86504",
    "final_y": "532971.849156",
    "longitude": "-90.09039924513449",
    "latitude": "29.95970106247436",
    "geocoded_column": {
      "latitude": "29.95970106247436",
      "longitude": "-90.09039924513449"
    }
  },
  {
    "service_request": "2024-1127606",
    "request_type": "Roads and Streets",
    "request_reason": "Pothole",
    "date_created": "2024-09-04T12:56:21.000",
    "date_modified": "2024-09-04T12:56:21.000",
    "request_status": "Pending",
    "responsible_agency": "Department of Public Works",
    "final_address": "4000 BLK Chestnut St",
    "address_councildis": "B",
    "status": "Pending",
    "rowid": "1127606",
    "final_x": "3672267.74664",
    "final_y": "519649.966393",
    "longitude": "-90.09762672430429",
    "latitude": "29.923134037585122",
    "geocoded_column": {
      "latitude": "29.923134037585122",
      "longitude": "-90.09762672430429"
    }
  },
  {
    "service_request": "2024-1127605",
    "request_type": "Abandoned Vehicles",
    "request_reason": "Abandoned/Junk Vehicles",
    "date_created": "2024-09-04T12:54:25.000",
    "date_modified": "2024-09-04T12:54:25.000",
    "request_status": "Pending",
    "responsible_agency": "Department of Public Works",
    "final_address": "PAULA ST & PARIS AVE",
    "address_councildis": "D",
    "status": "Pending",
    "rowid": "1127605",
    "final_x": "3679340.4",
    "final_y": "549314.68",
    "longitude": "-90.07427214745245",
    "latitude": "30.004490271686795",
    "geocoded_column": {
      "latitude": "30.004490271686795",
      "longitude": "-90.07427214745245"
    }
  },
  {
    "service_request": "2024-1127604",
    "request_type": "Street and Traffic Signs",
    "request_reason": "Stop Sign Missing or Damaged",
    "date_created": "2024-09-04T12:52:51.000",
    "date_modified": "2024-09-04T12:52:52.000",
    "request_status": "Pending",
    "responsible_agency": "Department of Public Works",
    "final_address": "VINCENNES PL & S TONTI ST",
    "address_councildis": "A",
    "status": "Pending",
    "rowid": "1127604",
    "final_x": "3667852.4",
    "final_y": "528192.18",
    "longitude": "-90.11127674542037",
    "latitude": "29.94675258093264",
    "geocoded_column": {
      "latitude": "29.94675258093264",
      "longitude": "-90.11127674542037"
    }
  },
  {
    "service_request": "2024-1127603",
    "request_type": "Trash/Recycling",
    "request_reason": "Replace Trash Cart",
    "date_created": "2024-09-04T12:51:18.000",
    "date_modified": "2024-09-04T12:51:19.000",
    "request_status": "Pending",
    "responsible_agency": "Department of Sanitation",
    "final_address": "910 N Dorgenois St",
    "address_councildis": "D",
    "status": "Assigned to Contractor",
    "contractor": "IV Waste",
    "rowid": "1127603",
    "final_x": "3677672.50261",
    "final_y": "537229.082312",
    "longitude": "-90.07995899508245",
    "latitude": "29.971309380855804",
    "geocoded_column": {
      "latitude": "29.971309380855804",
      "longitude": "-90.07995899508245"
    }
  },
  {
    "service_request": "2024-1127602",
    "request_type": "Trash/Recycling",
    "request_reason": "Replace Trash Cart",
    "date_created": "2024-09-04T12:50:22.000",
    "date_modified": "2024-09-04T12:50:23.000",
    "request_status": "Pending",
    "responsible_agency": "Department of Sanitation",
    "final_address": "3939 Prytania St",
    "address_councildis": "B",
    "status": "Assigned to Contractor",
    "contractor": "IV Waste",
    "rowid": "1127602",
    "final_x": "3672394.21947",
    "final_y": "520522.936248",
    "longitude": "-90.09719776946251",
    "latitude": "29.925530674379313",
    "geocoded_column": {
      "latitude": "29.925530674379313",
      "longitude": "-90.09719776946251"
    }
  },
  {
    "service_request": "2024-1127601",
    "request_type": "Streetlights",
    "request_reason": "Streetlight Outage/Malfunction",
    "date_created": "2024-09-04T12:48:14.000",
    "date_modified": "2024-09-04T12:48:15.000",
    "request_status": "Pending",
    "responsible_agency": "Department of Public Works",
    "final_address": "3235 Columbus St",
    "address_councildis": "C",
    "status": "Pending",
    "contractor": "Legacy Professional Services",
    "rowid": "1127601",
    "final_x": "3696106.8815",
    "final_y": "524292.612412",
    "longitude": "-90.0222084219235",
    "latitude": "29.935171296106088",
    "geocoded_column": {
      "latitude": "29.935171296106088",
      "longitude": "-90.0222084219235"
    }
  },
  {
    "service_request": "2024-1127600",
    "request_type": "Trash/Recycling",
    "request_reason": "Request a Large Item Pick Up",
    "date_created": "2024-09-04T12:48:09.000",
    "date_modified": "2024-09-04T12:48:10.000",
    "request_status": "Pending",
    "responsible_agency": "Department of Sanitation",
    "final_address": "220 Pacific Ave",
    "address_councildis": "C",
    "status": "Assigned to Contractor",
    "contractor": "Richards Disposal",
    "rowid": "1127600",
    "final_x": "3688588.87708",
    "final_y": "530967.98093",
    "longitude": "-90.04570585218373",
    "latitude": "29.95376068154674",
    "geocoded_column": {
      "latitude": "29.95376068154674",
      "longitude": "-90.04570585218373"
    }
  },
  {
    "service_request": "2024-1127599",
    "request_type": "Trash/Recycling",
    "request_reason": "Request a Large Item Pick Up",
    "date_created": "2024-09-04T12:47:35.000",
    "date_modified": "2024-09-04T12:47:36.000",
    "request_status": "Pending",
    "responsible_agency": "Department of Sanitation",
    "final_address": "1931 Eagle St",
    "address_councildis": "A",
    "status": "Assigned to Contractor",
    "contractor": "IV Waste",
    "rowid": "1127599",
    "final_x": "3662003.11987",
    "final_y": "532039.863619",
    "longitude": "-90.12961751995729",
    "latitude": "29.957502710075374",
    "geocoded_column": {
      "latitude": "29.957502710075374",
      "longitude": "-90.12961751995729"
    }
  },
  {
    "service_request": "2024-1127598",
    "request_type": "Trash/Recycling",
    "request_reason": "Start Trash Service",
    "date_created": "2024-09-04T12:46:31.000",
    "date_modified": "2024-09-04T12:46:32.000",
    "request_status": "Pending",
    "responsible_agency": "Department of Sanitation",
    "final_address": "511 Lowerline St Apt 1B",
    "address_councildis": "A",
    "status": "Assigned to Contractor",
    "contractor": "IV Waste",
    "rowid": "1127598",
    "final_x": "3662240.11802",
    "final_y": "524551.723836",
    "longitude": "-90.12911764616572",
    "latitude": "29.93690587558637",
    "geocoded_column": {
      "latitude": "29.93690587558637",
      "longitude": "-90.12911764616572"
    }
  },
  {
    "service_request": "2024-1127597",
    "request_type": "Abandoned Vehicles",
    "request_reason": "Abandoned/Junk Vehicles",
    "date_created": "2024-09-04T12:44:55.000",
    "date_modified": "2024-09-04T12:44:56.000",
    "request_status": "Pending",
    "responsible_agency": "Department of Public Works",
    "final_address": "3432 Dryades St",
    "address_councildis": "B",
    "status": "Pending",
    "rowid": "1127597",
    "final_x": "3673529.66382",
    "final_y": "522359.521658",
    "longitude": "-90.0935507867034",
    "latitude": "29.93054696221563",
    "geocoded_column": {
      "latitude": "29.93054696221563",
      "longitude": "-90.0935507867034"
    }
  },