[
  {
    "service_request": "2025-1209418",
    "request_type": "Drainage",
    "request_reason": "Catch Basin Damaged",
    "date_created": "2025-07-14T23:19:13.000",
    "date_modified": "2025-07-14T23:19:15.000",
    "request_status": "Pending",
    "responsible_agency": "Sewerage & Water Board",
    "final_address": "1331 Mithra St",
    "address_councildis": "D",
    "status": "Pending",
    "rowid": "1209418",
    "final_x": "3677294.70882",
    "final_y": "552162.334038",
    "longitude": "-90.08063652769856",
    "latitude": "30.01238195208545",
    "geocoded_column": {
      "latitude": "30.01238195208545",
      "longitude": "-90.08063652769856"
    }
  },
  {
    "service_request": "2025-1209417",
    "request_type": "Trash/Recycling",
    "request_reason": "Replace Trash Cart",
    "date_created": "2025-07-14T22:45:25.000",
    "date_modified": "2025-07-14T22:45:27.000",
    "request_status": "Pending",
    "responsible_agency": "Department of Sanitation",
    "final_address": "11423 Curran Rd",
    "address_councildis": "E",
    "status": "Assigned to Contractor",
    "contractor": "Waste Pro",
    "rowid": "1209417",
    "final_x": "3711471.94654",
    "final_y": "566829.880292",
    "longitude": "-89.97210613413756",
    "latitude": "30.0516402189097",
    "geocoded_column": {
      "latitude": "30.0516402189097",
      "longitude": "-89.97210613413756"
    }
  },
  {
    "service_request": "2025-1209416",
    "request_type": "Parks & Parkways",
    "request_reason": "Request Tree Service (Right of Way/Public Property)",
    "date_created": "2025-07-14T22:13:44.000",
    "date_modified": "2025-07-14T22:13:46.000",
    "request_status": "Pending",
    "responsible_agency": "Department of Parks & Parkway",
    "final_address": "5827 Rhodes Ave",
    "address_councildis": "C",
    "status": "Pending",
    "rowid": "1209416",
    "final_x": "3704889.921",
    "final_y": "519527.786423",
    "longitude": "-89.99465635504075",
    "latitude": "29.921790425673365",
    "geocoded_column": {
      "latitude": "29.921790425673365",
      "longitude": "-89.99465635504075"
    }
  },
  {
    "service_request": "2025-1209415",
    "request_type": "Drainage",
    "request_reason": "Catch Basin Clogged",
    "date_created": "2025-07-14T22:05:16.000",
    "date_modified": "2025-07-14T22:05:18.000",
    "request_status": "Pending",
    "responsible_agency": "Sewerage & Water Board",
    "final_address": "1939 Burgundy St",
    "address_councildis": "C",
    "status": "Pending",
    "rowid": "1209415",
    "final_x": "3684242.07349",
    "final_y": "535556.959622",
    "longitude": "-90.05927011714908",
    "latitude": "29.96651239430946",
    "geocoded_column": {
      "latitude": "29.96651239430946",
      "longitude": "-90.05927011714908"
    }
  },
  {
    "service_request": "2025-1209414",
    "request_type": "Trash/Recycling",
    "request_reason": "Request a Large Item Pick Up",
    "date_created": "2025-07-14T21:35:04.000",
    "date_modified": "2025-07-14T21:35:06.000",
    "request_status": "Pending",
    "responsible_agency": "Department of Sanitation",
    "final_address": "4030 Carondelet St",
    "address_councildis": "B",
    "status": "Assigned to Contractor",
    "contractor": "IV Waste",
    "rowid": "1209414",
    "final_x": "3672003.39022",
    "final_y": "521310.256185",
    "longitude": "-90.09840471410737",
    "latitude": "29.927707139460313",
    "geocoded_column": {
      "latitude": "29.927707139460313",
      "longitude": "-90.09840471410737"
    }
  },
  {
    "service_request": "2025-1209413",
    "request_type": "Streetlights",
    "request_reason": "Streetlight Outage/Malfunction",
    "date_created": "2025-07-14T21:18:06.000",
    "date_modified": "2025-07-14T21:18:08.000",
    "request_status": "Pending",
    "responsible_agency": "Department of Public Works",
    "final_address": "5030 Warren Dr",
    "address_councildis": "E",
    "status": "Pending",
    "contractor": "Legacy Professional Services",
    "rowid": "1209413",
    "final_x": "3713250.76875",
    "final_y": "557644.020507",
    "longitude": "-89.96683014478842",
    "latitude": "30.02632456974141",
    "geocoded_column": {
      "latitude": "30.02632456974141",
      "longitude": "-89.96683014478842"
    }
  },
  {
    "service_request": "2025-1209412",
    "request_type": "Abandoned Vehicles",
    "request_reason": "Abandoned/Junk Vehicles",
    "date_created": "2025-07-14T21:09:50.000",
    "date_modified": "2025-07-14T21:09:52.000",
    "request_status": "Pending",
    "responsible_agency": "Department of Public Works",
    "final_address": "1800 BLK Conti St",
    "address_councildis": "B",
    "status": "Pending",
    "rowid": "1209412",
    "final_x": "3678661.81784",
    "final_y": "534050.490414",
    "longitude": "-90.07694466746327",
    "latitude": "29.962539544734497",
    "geocoded_column": {
      "latitude": "29.962539544734497",
      "longitude": "-90.07694466746327"
    }
  },
  {
    "service_request": "2025-1209411",
    "request_type": "Abandoned Vehicles",
    "request_reason": "Abandoned/Junk Vehicles",
    "date_created": "2025-07-14T20:55:31.000",
    "date_modified": "2025-07-14T20:55:32.000",
    "request_status": "Pending",
    "responsible_agency": "Department of Public Works",
    "final_address": "1837 Conti St",
    "address_councildis": "B",
    "status": "Pending",
    "rowid": "1209411",
    "final_x": "3678584.80891",
    "final_y": "534164.800517",
    "longitude": "-90.0771838938793",
    "latitude": "29.96285618026665",
    "geocoded_column": {
      "latitude": "29.96285618026665",
      "longitude": "-90.0771838938793"
    }
  },
  {
    "service_request": "2025-1209410",
    "request_type": "Drainage",
    "request_reason": "Catch Basin Clogged",
    "date_created": "2025-07-14T20:54:44.000",
    "date_modified": "2025-07-14T20:54:46.000",
    "request_status": "Pending",
    "responsible_agency": "Sewerage & Water Board",
    "final_address": "4156 Davey St",
    "address_councildis": "D",
    "status": "Pending",
    "rowid": "1209410",
    "final_x": "3676115.86273",
    "final_y": "547365.245521",
    "longitude": "-90.08452620646996",
    "latitude": "29.999227045589997",
    "geocoded_column": {
      "latitude": "29.999227045589997",
      "longitude": "-90.08452620646996"
    }
  },
  {
    "service_request": "2025-1209409",
    "request_type": "General Services",
    "request_reason": "General Service Request",
    "date_created": "2025-07-14T20:52:56.000",
    "date_modified": "2025-07-14T20:52:58.000",
    "request_status": "Pending",
    "responsible_agency": "Orleans Parish Communication District",
    "final_address": "Seabrook Pl, New Orleans, Louisiana, 70126",
    "address_councildis": "D",
    "status": "Pending",
    "rowid": "1209409",
    "final_x": "3694186.4",
    "final_y": "558453.88",
    "longitude": "-90.02704186201488",
    "latitude": "30.029162743906813",
    "geocoded_column": {
      "latitude": "30.029162743906813",
      "longitude": "-90.02704186201488"
    }
  },
  {
    "service_request": "2025-1209408",
    "request_type": "Parks & Parkways",
    "request_reason": "Request Tree Service (Right of Way/Public Property)",
    "date_created": "2025-07-14T20:45:07.000",
    "date_modified": "2025-07-14T21:49:46.000",
    "request_status": "Pending",
    "responsible_agency": "Department of Parks & Parkway",
    "final_address": "419 39Th St",
    "address_councildis": "A",
    "status": "Pending",
    "rowid": "1209408",
    "final_x": "3664861.95796",
    "final_y": "553100.025495",
    "longitude": "-90.11988586341606",
    "latitude": "30.015328152664033",
    "geocoded_column": {
      "latitude": "30.015328152664033",
      "longitude": "-90.11988586341606"
    }
  },
  {
    "service_request": "2025-1209407",
    "request_type": "Property Maintenance",
    "request_reason": "Property Maintenance",
    "date_created": "2025-07-14T20:38:57.000",
    "date_modified": "2025-07-14T20:38:59.000",
    "request_status": "Pending",
    "responsible_agency": "Department of Code Enforcement",
    "final_address": "3036 Fern St",
    "address_councildis": "B",
    "status": "Pending",
    "rowid": "1209407",
    "final_x": "3667057.37933",
    "final_y": "532861.239108",
    "longitude": "-90.11363000130208",
    "latitude": "29.959614260327633",
    "geocoded_column": {
      "latitude": "29.959614260327633",
      "longitude": "-90.11363000130208"
    }
  },
  {
    "service_request": "2025-1209406",
    "request_type": "Abandoned Vehicles",
    "request_reason": "Abandoned/Junk Vehicles",
    "date_created": "2025-07-14T20:25:17.000",
    "date_modified": "2025-07-14T20:25:18.000",
    "request_status": "Pending",
    "responsible_agency": "Department of Public Works",
    "final_address": "4618 Sandalwood St",
    "address_councildis": "E",
    "status": "Pending",
    "rowid": "1209406",
    "final_x": "3712233.1363",
    "final_y": "555358.366873",
    "longitude": "-89.97013163465314",
    "latitude": "30.02007325244057",
    "geocoded_column": {
      "latitude": "30.02007325244057",
      "longitude": "-89.97013163465314"
    }
  },
  {
    "service_request": "2025-1209405",
    "request_type": "Trash/Recycling",
    "request_reason": "Request a Large Item Pick Up",
    "date_created": "2025-07-14T20:23:20.000",
    "date_modified": "2025-07-14T20:23:22.000",
    "request_status": "Pending",
    "responsible_agency": "Department of Sanitation",
    "final_address": "10920 Guildford Rd",
    "address_councildis": "E",
    "status": "Assigned to Contractor",
    "contractor": "Waste Pro",
    "rowid": "1209405",
    "final_x": "3711517.40606",
    "final_y": "563941.332385",
    "longitude": "-89.97207091423772",
    "latitude": "30.043696394401042",
    "geocoded_column": {
      "latitude": "30.043696394401042",
      "longitude": "-89.97207091423772"
    }
  },
  {
    "service_request": "2025-1209404",
    "request_type": "Roads and Streets",
    "request_reason": "Sidewalk Damaged or Missing",
    "date_created": "2025-07-14T20:20:16.000",
    "date_modified": "2025-07-14T20:20:18.000",
    "request_status": "Pending",
    "responsible_agency": "Department of Public Works",
    "final_address": "210 Baronne St",
    "address_councildis": "B",
    "status": "Pending",
    "rowid": "1209404",
    "final_x": "3680240.2836",
    "final_y": "530605.158914",
    "longitude": "-90.0720798481",
    "latitude": "29.953018366512932",
    "geocoded_column": {
      "latitude": "29.953018366512932",
      "longitude": "-90.0720798481"
    }
  },
  {
    "service_request": "2025-1209403",
    "request_type": "Drainage",
    "request_reason": "Street Flooding",
    "date_created": "2025-07-14T20:12:48.000",
    "date_modified": "2025-07-14T20:12:50.000",
    "request_status": "Pending",
    "responsible_agency": "Sewerage & Water Board",
    "final_address": "1426 Esplanade Ave",
    "address_councildis": "C",
    "status": "Pending",
    "rowid": "1209403",
    "final_x": "3681582.55221",
    "final_y": "536227.812295",
    "longitude": "-90.06764544744539",
    "latitude": "29.968438051428883",
    "geocoded_column": {
      "latitude": "29.968438051428883",
      "longitude": "-90.06764544744539"
    }
  },
  {
    "service_request": "2025-1209402",
    "request_type": "Abandoned Vehicles",
    "request_reason": "Abandoned/Junk Vehicles",
    "date_created": "2025-07-14T20:11:22.000",
    "date_modified": "2025-07-14T20:11:23.000",
    "request_status": "Pending",
    "responsible_agency": "Department of Public Works",
    "final_address": "4601 Sandalwood St",
    "address_councildis": "E",
    "status": "Pending",
    "rowid": "1209402",
    "final_x": "3712398.05355",
    "final_y": "555250.966745",
    "longitude": "-89.96961459238287",
    "latitude": "30.019772548396013",
    "geocoded_column": {
      "latitude": "30.019772548396013",
      "longitude": "-89.96961459238287"
    }
  },
  {
    "service_request": "2025-1209401",
    "request_type": "Abandoned Vehicles",
    "request_reason": "Abandoned/Junk Vehicles",
    "date_created": "2025-07-14T20:11:21.000",
    "date_modified": "2025-07-14T20:11:22.000",
    "request_status": "Pending",
    "responsible_agency": "Department of Public Works",
    "final_address": "4601 Sandalwood St",
    "address_councildis": "E",
    "status": "Pending",
    "rowid": "1209401",
    "final_x": "3712398.05355",
    "final_y": "555250.966745",
    "longitude": "-89.96961459238287",
    "latitude": "30.019772548396013",
    "geocoded_column": {
      "latitude": "30.019772548396013",
      "longitude": "-89.96961459238287"
    }
  },
  {
    "service_request": "2025-1209400",
    "request_type": "Trash/Recycling",
    "request_reason": "Replace Trash Cart",
    "date_created": "2025-07-14T20:05:52.000",
    "date_modified": "2025-07-14T20:05:54.000",
    "request_status": "Pending",
    "responsible_agency": "Department of Sanitation",
    "final_address": "1208 Short St",
    "address_councildis": "A",
    "status": "Assigned to Contractor",
    "contractor": "IV Waste",
    "rowid": "1209400",
    "final_x": "3662354.93754",
    "final_y": "528187.49312",
    "longitude": "-90.12863447380495",
    "latitude": "29.946899765276235",
    "geocoded_column": {
      "latitude": "29.946899765276235",
      "longitude": "-90.12863447380495"
    }
  },
  {
    "service_request": "2025-1209399",
    "request_type": "Trash/Recycling",
    "request_reason": "Request a Large Item Pick Up",
    "date_created": "2025-07-14T20:02:15.000",
    "date_modified": "2025-07-14T20:02:17.000",
    "request_status": "Pending",
    "responsible_agency": "Department of Sanitation",
    "final_address": "509 Adams St",
    "address_councildis": "A",
    "status": "Assigned to Contractor",
    "contractor": "IV Waste",
    "rowid": "1209399",
    "final_x": "3661504.39258",
    "final_y": "525609.784189",
    "longitude": "-90.13140534301303",
    "latitude": "29.93983644703024",
    "geocoded_column": {
      "latitude": "29.93983644703024",
      "longitude": "-90.13140534301303"
    }
  },
  {
    "service_request": "2025-1209398",
    "request_type": "Trash/Recycling",
    "request_reason": "Replace Trash Cart",
    "date_created": "2025-07-14T20:00:22.000",
    "date_modified": "2025-07-14T20:00:25.000",
    "request_status": "Pending",
    "responsible_agency": "Department of Sanitation",
    "final_address": "4216 Orleans Ave",
    "address_councildis": "A",
    "status": "Assigned to Contractor",
    "contractor": "IV Waste",
    "rowid": "1209398",
    "final_x": "3671824.46343",
    "final_y": "540625.945931",
    "longitude": "-90.09831233709225",
    "latitude": "29.98082419953909",
    "geocoded_column": {
      "latitude": "29.98082419953909",
      "longitude": "-90.09831233709225"
    }
  },
  {
    "service_request": "2025-1209396",
    "request_type": "Roads and Streets",
    "request_reason": "Pothole",
    "date_created": "2025-07-14T19:54:15.000",
    "date_modified": "2025-07-14T19:54:17.000",
    "request_status": "Pending",
    "responsible_agency": "Department of Public Works",
    "final_address": "5520 S Miro St",
    "address_councildis": "A",
    "status": "Pending",
    "rowid": "1209396",
    "final_x": "3668214.77441",
    "final_y": "527669.046463",
    "longitude": "-90.11015022614468",
    "latitude": "29.945303501654397",
    "geocoded_column": {
      "latitude": "29.945303501654397",
      "longitude": "-90.11015022614468"
    }
  },
  {
    "service_request": "2025-1209395",
    "request_type": "Trash/Recycling",
    "request_reason": "Illegal Dumping",
    "date_created": "2025-07-14T19:51:56.000",
    "date_modified": "2025-07-14T19:51:58.000",
    "request_status": "Pending",
    "responsible_agency": "Department of Sanitation",
    "final_address": "7200 Downman Rd",
    "address_councildis": "D",
    "status": "Pending",
    "rowid": "1209395",
    "final_x": "3694978.47222",
    "final_y": "557048.165786",
    "longitude": "-90.02458968301826",
    "latitude": "30.025272711762245",
    "geocoded_column": {
      "latitude": "30.025272711762245",
      "longitude": "-90.02458968301826"
    }
  },
  {
    "service_request": "2025-1209394",
    "request_type": "Roads and Streets",
    "request_reason": "Pothole",
    "date_created": "2025-07-14T19:37:30.000",
    "date_modified": "2025-07-14T19:37:32.000",
    "request_status": "Pending",
    "responsible_agency": "Department of Public Works",
    "final_address": "7500 Wave Dr",
    "address_councildis": "E",
    "status": "Pending",
    "rowid": "1209394",
    "final_x": "3715330.50744",
    "final_y": "568152.767077",
    "longitude": "-89.95986045981286",
    "latitude": "30.055151011837058",
    "geocoded_column": {
      "latitude": "30.055151011837058",
      "longitude": "-89.95986045981286"
    }
  },
  {
    "service_request": "2025-1209393",
    "request_type": "Safety & Permits",
    "request_reason": "Construction permit",
    "date_created": "2025-07-14T19:27:05.000",
    "date_modified": "2025-07-14T19:27:07.000",
    "request_status": "Pending",
    "responsible_agency": "Safety and Permits",
    "final_address": "2921 Amelia St",
    "address_councildis": "B",
    "status": "Pending",
    "rowid": "1209393",
    "final_x": "3671980.59169",
    "final_y": "525787.638589",
    "longitude": "-90.09832434440602",
    "latitude": "29.9400191699202",
    "geocoded_column": {
      "latitude": "29.9400191699202",
      "longitude": "-90.09832434440602"
    }
  },
  {
    "service_request": "2025-1209392",
    "request_type": "Trash/Recycling",
    "request_reason": "Damaged Caused By Contractor",
    "date_created": "2025-07-14T19:25:00.000",
    "date_modified": "2025-07-14T19:25:03.000",
    "request_status": "Pending",
    "responsible_agency": "Department of Sanitation",
    "final_address": "11229 Winrock Dr",
    "address_councildis": "E",
    "status": "Assigned to Contractor",
    "contractor": "Waste Pro",
    "rowid": "1209392",
    "final_x": "3716221.24856",
    "final_y": "561375.134238",
    "longitude": "-89.95730230435754",
    "latitude": "30.036485895884223",
    "geocoded_column": {
      "latitude": "30.036485895884223",
      "longitude": "-89.95730230435754"
    }
  },
  {
    "service_request": "2025-1209390",
    "request_type": "Trash/Recycling",
    "request_reason": "Order Recycling Cart",
    "date_created": "2025-07-14T19:20:26.000",
    "date_modified": "2025-07-14T19:20:28.000",
    "request_status": "Pending",
    "responsible_agency": "Department of Sanitation",
    "final_address": "1343 Granada Dr",
    "address_councildis": "D",
    "status": "Pending",
    "rowid": "1209390",
    "final_x": "3677568.88558",
    "final_y": "550635.827092",
    "longitude": "-90.07982304298203",
    "latitude": "30.008176359798867",
    "geocoded_column": {
      "latitude": "30.008176359798867",
      "longitude": "-90.07982304298203"
    }
  },
  {
    "service_request": "2025-1209389",
    "request_type": "Property Maintenance",
    "request_reason": "Property Maintenance",
    "date_created": "2025-07-14T19:18:11.000",
    "date_modified": "2025-07-14T19:18:15.000",
    "request_status": "Pending",
    "responsible_agency": "Department of Code Enforcement",
    "final_address": "4928 Cartier Ave",
    "address_councildis": "D",
    "status": "Pending",
    "rowid": "1209389",
    "final_x": "3677673.11438",
    "final_y": "550467.417812",
    "longitude": "-90.07949957400453",
    "latitude": "30.007710158796847",
    "geocoded_column": {
      "latitude": "30.007710158796847",
      "longitude": "-90.07949957400453"
    }
  },
  {
    "service_request": "2025-1209388",
    "request_type": "Abandoned Vehicles",
    "request_reason": "Abandoned/Junk Vehicles",
    "date_created": "2025-07-14T19:12:47.000",
    "date_modified": "2025-07-14T19:12:49.000",
    "request_status": "Pending",
    "responsible_agency": "Department of Public Works",
    "final_address": "703 Henry Clay Ave",
    "address_councildis": "A",
    "status": "Pending",
    "rowid": "1209388",
    "final_x": "3663745.3145",
    "final_y": "519267.768823",
    "longitude": "-90.12454162324882",
    "latitude": "29.92233308100814",
    "geocoded_column": {
      "latitude": "29.92233308100814",
      "longitude": "-90.12454162324882"
    }
  },
  {
    "service_request": "2025-1209387",
    "request_type": "Trash/Recycling",
    "request_reason": "Request a Large Item Pick Up",
    "date_created": "2025-07-14T19:06:24.000",
    "date_modified": "2025-07-14T19:06:26.000",
    "request_status": "Pending",
    "responsible_agency": "Department of Sanitation",
    "final_address": "4979 Marigny St",
    "address_councildis": "D",
    "status": "Assigned to Contractor",
    "contractor": "IV Waste",
    "rowid": "1209387",
    "final_x": "3684388.95388",
    "final_y": "551349.782421",
    "longitude": "-90.0582512827344",
    "latitude": "30.009932565922508",
    "geocoded_column": {
      "latitude": "30.009932565922508",
      "longitude": "-90.0582512827344"
    }
  },
  {
    "service_request": "2025-1209386",
    "request_type": "Parks & Parkways",
    "request_reason": "Request Tree Service (Right of Way/Public Property)",
    "date_created": "2025-07-14T18:57:31.000",
    "date_modified": "2025-07-14T18:57:33.000",
    "request_status": "Pending",
    "responsible_agency": "Department of Parks & Parkway",
    "final_address": "414 39Th St",
    "address_councildis": "A",
    "status": "Pending",
    "rowid": "1209386",
    "final_x": "3664916.17216",
    "final_y": "552981.765655",
    "longitude": "-90.11971852853875",
    "latitude": "30.015001400713867",
    "geocoded_column": {
      "latitude": "30.015001400713867",
      "longitude": "-90.11971852853875"
    }
  },
  {
    "service_request": "2025-1209385",
    "request_type": "Parks & Parkways",
    "request_reason": "Request Tree Service (Right of Way/Public Property)",
    "date_created": "2025-07-14T18:55:19.000",
    "date_modified": "2025-07-14T18:55:21.000",
    "request_status": "Pending",
    "responsible_agency": "Department of Parks & Parkway",
    "final_address": "212 S Alexander St",
    "address_councildis": "A",
    "status": "Pending",
    "rowid": "1209385",
    "final_x": "3669670.461",
    "final_y": "538686.390665",
    "longitude": "-90.10518130764832",
    "latitude": "29.97555474010241",
    "geocoded_column": {
      "latitude": "29.97555474010241",
      "longitude": "-90.10518130764832"
    }
  },
  {
    "service_request": "2025-1209384",
    "request_type": "General Services",
    "request_reason": "General Service Request",
    "date_created": "2025-07-14T18:47:27.000",
    "date_modified": "2025-07-14T18:47:30.000",
    "request_status": "Pending",
    "responsible_agency": "Orleans Parish Communication District",
    "final_address": "7273 Canal Blvd",
    "address_councildis": "D",
    "status": "Pending",
    "rowid": "1209384",
    "final_x": "3669370.15649",
    "final_y": "555353.780249",
    "longitude": "-90.10556571449084",
    "latitude": "30.021393134964946",
    "geocoded_column": {
      "latitude": "30.021393134964946",
      "longitude": "-90.10556571449084"
    }
  },
  {
    "service_request": "2025-1209383",
    "request_type": "Drainage",
    "request_reason": "Catch Basin Clogged",
    "date_created": "2025-07-14T18:38:36.000",
    "date_modified": "2025-07-14T18:38:38.000",
    "request_status": "Pending",
    "responsible_agency": "Sewerage & Water Board",
    "final_address": "4013 Royal St",
    "address_councildis": "C",
    "status": "Pending",
    "rowid": "1209383",
    "final_x": "3691553.03888",
    "final_y": "533807.592901",
    "longitude": "-90.03624479657847",
    "latitude": "29.96147670248431",
    "geocoded_column": {
      "latitude": "29.96147670248431",
      "longitude": "-90.03624479657847"
    }
  },
  {
    "service_request": "2025-1209382",
    "request_type": "Trash/Recycling",
    "request_reason": "Replace Trash Cart",
    "date_created": "2025-07-14T18:31:36.000",
    "date_modified": "2025-07-14T18:31:38.000",
    "request_status": "Pending",
    "responsible_agency": "Department of Sanitation",
    "final_address": "4035 Banks St",
    "address_councildis": "A",
    "status": "Assigned to Contractor",
    "contractor": "IV Waste",
    "rowid": "1209382",
    "final_x": "3670563.79796",
    "final_y": "537317.602952",
    "longitude": "-90.10240633704508",
    "latitude": "29.971764676889716",
    "geocoded_column": {
      "latitude": "29.971764676889716",
      "longitude": "-90.10240633704508"
    }
  },
  {
    "service_request": "2025-1209381",
    "request_type": "Property Maintenance",
    "request_reason": "Property Maintenance",
    "date_created": "2025-07-14T18:25:25.000",
    "date_modified": "2025-07-14T18:25:26.000",
    "request_status": "Pending",
    "responsible_agency": "Department of Code Enforcement",
    "final_address": "4638 Willow St",
    "address_councildis": "B",
    "status": "Pending",
    "rowid": "1209381",
    "final_x": "3669281.421",
    "final_y": "525259.220989",
    "longitude": "-90.10686391407584",
    "latitude": "29.938645910117852",
    "geocoded_column": {
      "latitude": "29.938645910117852",
      "longitude": "-90.10686391407584"
    }
  },
  {
    "service_request": "2025-1209380",
    "request_type": "Abandoned Vehicles",
    "request_reason": "Abandoned/Junk Vehicles",
    "date_created": "2025-07-14T18:24:02.000",
    "date_modified": "2025-07-14T18:24:04.000",
    "request_status": "Pending",
    "responsible_agency": "Department of Public Works",
    "final_address": "1623 Forstall St",
    "address_councildis": "E",
    "status": "Pending",
    "rowid": "1209380",
    "final_x": "3696908.22557",
    "final_y": "536225.805063",
    "longitude": "-90.01924654918653",
    "latitude": "29.967958153284147",
    "geocoded_column": {
      "latitude": "29.967958153284147",
      "longitude": "-90.01924654918653"
    }
  },
  {
    "service_request": "2025-1209379",
    "request_type": "Property Maintenance",
    "request_reason": "Property Maintenance",
    "date_created": "2025-07-14T18:22:24.000",
    "date_modified": "2025-07-14T18:22:25.000",
    "request_status": "Pending",
    "responsible_agency": "Department of Code Enforcement",
    "final_address": "240 Thayer St",
    "address_councildis": "C",
    "status": "Pending",
    "rowid": "1209379",
    "final_x": "3689605.08355",
    "final_y": "530739.37421",
    "longitude": "-90.04250523591917",
    "latitude": "29.95310065302421",
    "geocoded_column": {
      "latitude": "29.95310065302421",
      "longitude": "-90.04250523591917"
    }
  },
  {
    "service_request": "2025-1209378",
    "request_type": "Abandoned Vehicles",
    "request_reason": "Abandoned/Junk Vehicles",
    "date_created": "2025-07-14T18:22:15.000",
    "date_modified": "2025-07-14T18:22:17.000",
    "request_status": "Pending",
    "responsible_agency": "Department of Public Works",
    "final_address": "1623 Forstall St",
    "address_councildis": "E",
    "status": "Pending",
    "rowid": "1209378",
    "final_x": "3696908.22557",
    "final_y": "536225.805063",
    "longitude": "-90.01924654918653",
    "latitude": "29.967958153284147",
    "geocoded_column": {
      "latitude": "29.967958153284147",
      "longitude": "-90.01924654918653"
    }
  },
  {
    "service_request": "2025-1209377",
    "request_type": "Abandoned Vehicles",
    "request_reason": "Abandoned/Junk Vehicles",
    "date_created": "2025-07-14T18:16:58.000",
    "date_modified": "2025-07-14T18:17:00.000",
    "request_status": "Pending",
    "responsible_agency": "Department of Public Works",
    "final_address": "1619 Forstall St",
    "address_councildis": "E",
    "status": "Pending",
    "rowid": "1209377",
    "final_x": "3696900.32535",
    "final_y": "536196.131975",
    "longitude": "-90.01927257287304",
    "latitude": "29.967876812009177",
    "geocoded_column": {
      "latitude": "29.967876812009177",
      "longitude": "-90.01927257287304"
    }
  },
  {
    "service_request": "2025-1209376",
    "request_type": "Trash/Recycling",
    "request_reason": "Request a Large Item Pick Up",
    "date_created": "2025-07-14T17:52:23.000",
    "date_modified": "2025-07-14T17:52:24.000",
    "request_status": "Pending",
    "responsible_agency": "Department of Sanitation",
    "final_address": "2566 Clover St",
    "address_councildis": "D",
    "status": "Assigned to Contractor",
    "contractor": "IV Waste",
    "rowid": "1209376",
    "final_x": "3686938.05538",
    "final_y": "546576.492881",
    "longitude": "-90.05036661673208",
    "latitude": "29.996729509043828",
    "geocoded_column": {
      "latitude": "29.996729509043828",
      "longitude": "-90.05036661673208"
    }
  },
  {
    "service_request": "2025-1209375",
    "request_type": "Property Maintenance",
    "request_reason": "Property Maintenance",
    "date_created": "2025-07-14T17:51:54.000",
    "date_modified": "2025-07-14T17:51:57.000",
    "request_status": "Pending",
    "responsible_agency": "Department of Code Enforcement",
    "final_address": "7818 Panola St",
    "address_councildis": "A",
    "status": "Pending",
    "rowid": "1209375",
    "final_x": "3664760.45895",
    "final_y": "530053.272705",
    "longitude": "-90.12097699577012",
    "latitude": "29.951960295661586",
    "geocoded_column": {
      "latitude": "29.951960295661586",
      "longitude": "-90.12097699577012"
    }
  },
  {
    "service_request": "2025-1209374",
    "request_type": "Parks & Parkways",
    "request_reason": "Request Tree Service (Right of Way/Public Property)",
    "date_created": "2025-07-14T17:47:16.000",
    "date_modified": "2025-07-14T17:47:17.000",
    "request_status": "Pending",
    "responsible_agency": "Department of Parks & Parkway",
    "final_address": "10 Franklin Ave",
    "address_councildis": "C",
    "status": "Pending",
    "rowid": "1209374",
    "final_x": "3686970.2205",
    "final_y": "536647.926151",
    "longitude": "-90.05061611256095",
    "latitude": "29.969428480993933",
    "geocoded_column": {
      "latitude": "29.969428480993933",
      "longitude": "-90.05061611256095"
    }
  },
  {
    "service_request": "2025-1209373",
    "request_type": "Trash/Recycling",
    "request_reason": "Order Trash Cart",
    "date_created": "2025-07-14T17:43:29.000",
    "date_modified": "2025-07-14T17:43:31.000",
    "request_status": "Pending",
    "responsible_agency": "Department of Sanitation",
    "final_address": "7121 Thornley Dr",
    "address_councildis": "E",
    "status": "Assigned to Contractor",
    "contractor": "Waste Pro",
    "rowid": "1209373",
    "final_x": "3703375.79793",
    "final_y": "560227.269917",
    "longitude": "-89.99793852702344",
    "latitude": "30.03374761808902",
    "geocoded_column": {
      "latitude": "30.03374761808902",
      "longitude": "-89.99793852702344"
    }
  },
  {
    "service_request": "2025-1209372",
    "request_type": "Roads and Streets",
    "request_reason": "Debris in Driving Lanes",
    "date_created": "2025-07-14T17:41:34.000",
    "date_modified": "2025-07-14T17:41:35.000",
    "request_status": "Pending",
    "responsible_agency": "Department of Public Works",
    "final_address": "50 Chatham Dr",
    "address_councildis": "D",
    "status": "Pending",
    "rowid": "1209372",
    "final_x": "3679737.48648",
    "final_y": "551677.156181",
    "longitude": "-90.07293557876446",
    "latitude": "30.010974230295187",
    "geocoded_column": {
      "latitude": "30.010974230295187",
      "longitude": "-90.07293557876446"
    }
  },
  {
    "service_request": "2025-1209371",
    "request_type": "Streetlights",
    "request_reason": "Streetlight Outage/Malfunction",
    "date_created": "2025-07-14T17:40:18.000",
    "date_modified": "2025-07-14T17:40:20.000",
    "request_status": "Pending",
    "responsible_agency": "Department of Public Works",
    "final_address": "1 Pauline St Wharf",
    "address_councildis": "C",
    "status": "Pending",
    "contractor": "Legacy Professional Services",
    "rowid": "1209371",
    "final_x": "3690837.35209",
    "final_y": "533142.532676",
    "longitude": "-90.03852853684738",
    "latitude": "29.959670276032693",
    "geocoded_column": {
      "latitude": "29.959670276032693",
      "longitude": "-90.03852853684738"
    }
  },
  {
    "service_request": "2025-1209370",
    "request_type": "Trash/Recycling",
    "request_reason": "Request a Large Item Pick Up",
    "date_created": "2025-07-14T17:39:09.000",
    "date_modified": "2025-07-14T17:39:10.000",
    "request_status": "Pending",
    "responsible_agency": "Department of Sanitation",
    "final_address": "1833 Marais St",
    "address_councildis": "C",
    "status": "Assigned to Contractor",
    "contractor": "IV Waste",
    "rowid": "1209370",
    "final_x": "3683770.81436",
    "final_y": "536599.882311",
    "longitude": "-90.06072176680117",
    "latitude": "29.969394470663534",
    "geocoded_column": {
      "latitude": "29.969394470663534",
      "longitude": "-90.06072176680117"
    }
  },
  {
    "service_request": "2025-1209369",
    "request_type": "General Services",
    "request_reason": "General Service Request",
    "date_created": "2025-07-14T17:27:10.000",
    "date_modified": "2025-07-14T17:27:12.000",
    "request_status": "Pending",
    "responsible_agency": "Orleans Parish Communication District",
    "final_address": "7273 Canal Blvd",
    "address_councildis": "D",
    "status": "Pending",
    "rowid": "1209369",
    "final_x": "3669370.15649",
    "final_y": "555353.780249",
    "longitude": "-90.10556571449084",
    "latitude": "30.021393134964946",
    "geocoded_column": {
      "latitude": "30.021393134964946",
      "longitude": "-90.10556571449084"
    }
  },
  {
    "service_request": "2025-1209368",
    "request_type": "Roads and Streets",
    "request_reason": "Sidewalk Damaged or Missing",
    "date_created": "2025-07-14T17:21:24.000",
    "date_modified": "2025-07-14T17:21:26.000",
    "request_status": "Pending",
    "responsible_agency": "Department of Public Works",
    "final_address": "1723 Burdette St",
    "address_councildis": "A",
    "status": "Pending",
    "rowid": "1209368",
    "final_x": "3664140.14029",
    "final_y": "529024.563712",
    "longitude": "-90.1229699889906",
    "latitude": "29.949149710460983",
    "geocoded_column": {
      "latitude": "29.949149710460983",
      "longitude": "-90.1229699889906"
    }
  },
  {
    "service_request": "2025-1209367",
    "request_type": "Mosquito, Termite & Rodent Control",
    "request_reason": "Mosquito Complaint",
    "date_created": "2025-07-14T17:21:13.000",
    "date_modified": "2025-07-14T17:21:15.000",
    "request_status": "Pending",
    "responsible_agency": "Mosquito, Termite & Rodent Control Board",
    "final_address": "14211 Chef Menteur Hwy",
    "address_councildis": "E",
    "status": "Pending",
    "rowid": "1209367",
    "final_x": "3729815.82195",
    "final_y": "561325.235294",
    "longitude": "-89.91434332333519",
    "latitude": "30.035892795204653",
    "geocoded_column": {
      "latitude": "30.035892795204653",
      "longitude": "-89.91434332333519"
    }
  },
  {
    "service_request": "2025-1209366",
    "request_type": "Trash/Recycling",
    "request_reason": "Replace Trash Cart",
    "date_created": "2025-07-14T17:16:03.000",
    "date_modified": "2025-07-14T17:16:06.000",
    "request_status": "Pending",
    "responsible_agency": "Department of Sanitation",
    "final_address": "1523 Piety St",
    "address_councildis": "D",
    "status": "Assigned to Contractor",
    "contractor": "IV Waste",
    "rowid": "1209366",
    "final_x": "3690286.32348",
    "final_y": "537454.574664",
    "longitude": "-90.0401148758685",
    "latitude": "29.97154399002651",
    "geocoded_column": {
      "latitude": "29.97154399002651",
      "longitude": "-90.0401148758685"
    }
  },
  {
    "service_request": "2025-1209365",
    "request_type": "Trash/Recycling",
    "request_reason": "Missed Trash Pick-Up",
    "date_created": "2025-07-14T17:15:58.000",
    "date_modified": "2025-07-14T17:16:01.000",
    "request_status": "Pending",
    "responsible_agency": "Department of Sanitation",
    "final_address": "13237 St Helena Pl",
    "address_councildis": "E",
    "status": "Assigned to Contractor",
    "contractor": "Waste Pro",
    "rowid": "1209365",
    "final_x": "3726934.04313",
    "final_y": "564221.260065",
    "longitude": "-89.92333752255193",
    "latitude": "30.04395347426982",
    "geocoded_column": {
      "latitude": "30.04395347426982",
      "longitude": "-89.92333752255193"
    }
  },
  {
    "service_request": "2025-1209364",
    "request_type": "Parks & Parkways",
    "request_reason": "Park Maintenance/Clean Up",
    "date_created": "2025-07-14T17:15:34.000",
    "date_modified": "2025-07-14T17:15:36.000",
    "request_status": "Pending",
    "responsible_agency": "Department of Parks & Parkway",
    "final_address": "14211 Chef Menteur Hwy",
    "address_councildis": "E",
    "status": "Pending",
    "rowid": "1209364",
    "final_x": "3729815.82195",
    "final_y": "561325.235294",
    "longitude": "-89.91434332333519",
    "latitude": "30.035892795204653",
    "geocoded_column": {
      "latitude": "30.035892795204653",
      "longitude": "-89.91434332333519"
    }
  },
  {
    "service_request": "2025-1209363",
    "request_type": "Streetlights",
    "request_reason": "Streetlight Outage/Malfunction",
    "date_created": "2025-07-14T17:12:08.000",
    "date_modified": "2025-07-14T17:12:09.000",
    "request_status": "Pending",
    "responsible_agency": "Department of Public Works",
    "final_address": "14211 Chef Menteur Hwy",
    "address_councildis": "E",
    "status": "Pending",
    "contractor": "Legacy Professional Services",
    "rowid": "1209363",
    "final_x": "3729815.82195",
    "final_y": "561325.235294",
    "longitude": "-89.91434332333519",
    "latitude": "30.035892795204653",
    "geocoded_column": {
      "latitude": "30.035892795204653",
      "longitude": "-89.91434332333519"
    }
  },
  {
    "service_request": "2025-1209362",
    "request_type": "Trash/Recycling",
    "request_reason": "Replace Trash Cart",
    "date_created": "2025-07-14T17:08:28.000",
    "date_modified": "2025-07-14T17:08:30.000",
    "request_status": "Pending",
    "responsible_agency": "Department of Sanitation",
    "final_address": "6050 Louis XIV Street",
    "address_councildis": "A",
    "status": "Assigned to Contractor",
    "contractor": "IV Waste",
    "rowid": "1209362",
    "final_x": "3668021.42394",
    "final_y": "547724.26261",
    "longitude": "-90.11008471260114",
    "latitude": "30.00045430379594",
    "geocoded_column": {
      "latitude": "30.00045430379594",
      "longitude": "-90.11008471260114"
    }
  },
  {
    "service_request": "2025-1209361",
    "request_type": "Trash/Recycling",
    "request_reason": "Replace Trash Cart",
    "date_created": "2025-07-14T17:06:42.000",
    "date_modified": "2025-07-14T17:06:44.000",
    "request_status": "Pending",
    "responsible_agency": "Department of Sanitation",
    "final_address": "2216 N Rampart St",
    "address_councildis": "C",
    "status": "Assigned to Contractor",
    "contractor": "IV Waste",
    "rowid": "1209361",
    "final_x": "3685231.64361",
    "final_y": "535917.220423",
    "longitude": "-90.05613239055656",
    "latitude": "29.967472694878946",
    "geocoded_column": {
      "latitude": "29.967472694878946",
      "longitude": "-90.05613239055656"
    }
  },
  {
    "service_request": "2025-1209360",
    "request_type": "Trash/Recycling",
    "request_reason": "Request a Large Item Pick Up",
    "date_created": "2025-07-14T17:00:02.000",
    "date_modified": "2025-07-14T17:00:06.000",
    "request_status": "Pending",
    "responsible_agency": "Department of Sanitation",
    "final_address": "10220 Brookfield Dr",
    "address_councildis": "E",
    "status": "Assigned to Contractor",
    "contractor": "Waste Pro",
    "rowid": "1209360",
    "final_x": "3710276.59096",
    "final_y": "562967.53456",
    "longitude": "-89.97602884490662",
    "latitude": "30.041059313955582",
    "geocoded_column": {
      "latitude": "30.041059313955582",
      "longitude": "-89.97602884490662"
    }
  },
  {
    "service_request": "2025-1209359",
    "request_type": "Trash/Recycling",
    "request_reason": "Repair Recycling Cart",
    "date_created": "2025-07-14T16:59:56.000",
    "date_modified": "2025-07-14T16:59:57.000",
    "request_status": "Pending",
    "responsible_agency": "Department of Sanitation",
    "final_address": "811 Jewel St",
    "address_councildis": "D",
    "status": "Pending",
    "rowid": "1209359",
    "final_x": "3670495.59553",
    "final_y": "556050.141209",
    "longitude": "-90.10198598074199",
    "latitude": "30.02327467255748",
    "geocoded_column": {
      "latitude": "30.02327467255748",
      "longitude": "-90.10198598074199"
    }
  },
  {
    "service_request": "2025-1209358",
    "request_type": "Trash/Recycling",
    "request_reason": "Request a Large Item Pick Up",
    "date_created": "2025-07-14T16:58:03.000",
    "date_modified": "2025-07-14T16:58:05.000",
    "request_status": "Pending",
    "responsible_agency": "Department of Sanitation",
    "final_address": "7432 Briarheath Dr",
    "address_councildis": "E",
    "status": "Assigned to Contractor",
    "contractor": "Waste Pro",
    "rowid": "1209358",
    "final_x": "3714300.75506",
    "final_y": "566868.280036",
    "longitude": "-89.96316380955287",
    "latitude": "30.051653097031366",
    "geocoded_column": {
      "latitude": "30.051653097031366",
      "longitude": "-89.96316380955287"
    }
  },
  {
    "service_request": "2025-1209357",
    "request_type": "Trash/Recycling",
    "request_reason": "Repair Recycling Cart",
    "date_created": "2025-07-14T16:55:18.000",
    "date_modified": "2025-07-14T16:55:21.000",
    "request_status": "Pending",
    "responsible_agency": "Department of Sanitation",
    "final_address": "6250 Rhodes Ave",
    "address_councildis": "C",
    "status": "Pending",
    "rowid": "1209357",
    "final_x": "3707330.72075",
    "final_y": "519451.013303",
    "longitude": "-89.98695470586652",
    "latitude": "29.92150069209591",
    "geocoded_column": {
      "latitude": "29.92150069209591",
      "longitude": "-89.98695470586652"
    }
  },
  {
    "service_request": "2025-1209356",
    "request_type": "Trash/Recycling",
    "request_reason": "Request a Large Item Pick Up",
    "date_created": "2025-07-14T16:53:16.000",
    "date_modified": "2025-07-14T16:53:18.000",
    "request_status": "Pending",
    "responsible_agency": "Department of Sanitation",
    "final_address": "441 Bouny St",
    "address_councildis": "C",
    "status": "Assigned to Contractor",
    "contractor": "Richards Disposal",
    "rowid": "1209356",
    "final_x": "3686068.28706",
    "final_y": "529745.202049",
    "longitude": "-90.0537079310785",
    "latitude": "29.950476100545547",
    "geocoded_column": {
      "latitude": "29.950476100545547",
      "longitude": "-90.0537079310785"
    }
  },
  {
    "service_request": "2025-1209355",
    "request_type": "Abandoned Vehicles",
    "request_reason": "Abandoned/Junk Vehicles",
    "date_created": "2025-07-14T16:53:15.000",
    "date_modified": "2025-07-14T16:53:16.000",
    "request_status": "Pending",
    "responsible_agency": "Department of Public Works",
    "final_address": "2633 Iberville St",
    "address_councildis": "B",
    "status": "Pending",
    "rowid": "1209355",
    "final_x": "3675907.41582",
    "final_y": "535339.781958",
    "longitude": "-90.08559836514091",
    "latitude": "29.966167417021545",
    "geocoded_column": {
      "latitude": "29.966167417021545",
      "longitude": "-90.08559836514091"
    }
  },
  {
    "service_request": "2025-1209354",
    "request_type": "Abandoned Vehicles",
    "request_reason": "Abandoned/Junk Vehicles",
    "date_created": "2025-07-14T16:50:38.000",
    "date_modified": "2025-07-14T16:50:39.000",
    "request_status": "Pending",
    "responsible_agency": "Department of Public Works",
    "final_address": "2633 Iberville St",
    "address_councildis": "B",
    "status": "Pending",
    "rowid": "1209354",
    "final_x": "3675907.41582",
    "final_y": "535339.781958",
    "longitude": "-90.08559836514091",
    "latitude": "29.966167417021545",
    "geocoded_column": {
      "latitude": "29.966167417021545",
      "longitude": "-90.08559836514091"
    }
  },
  {
    "service_request": "2025-1209353",
    "request_type": "Roads and Streets",
    "request_reason": "Pothole",
    "date_created": "2025-07-14T16:50:26.000",
    "date_modified": "2025-07-14T16:50:27.000",
    "request_status": "Pending",
    "responsible_agency": "Department of Public Works",
    "final_address": "1124 St Andrew St",
    "address_councildis": "B",
    "status": "Pending",
    "rowid": "1209353",
    "final_x": "3679346.59035",
    "final_y": "522738.437434",
    "longitude": "-90.07517448453947",
    "latitude": "29.931414514917936",
    "geocoded_column": {
      "latitude": "29.931414514917936",
      "longitude": "-90.07517448453947"
    }
  },
  {
    "service_request": "2025-1209352",
    "request_type": "Healthy Homes",
    "request_reason": "Healthy Homes",
    "date_created": "2025-07-14T16:48:04.000",
    "date_modified": "2025-07-14T16:48:05.000",
    "request_status": "Pending",
    "responsible_agency": "Department of Code Enforcement",
    "final_address": "200 Carondelet St",
    "address_councildis": "B",
    "status": "Pending",
    "rowid": "1209352",
    "final_x": "3680618.51733",
    "final_y": "530414.539586",
    "longitude": "-90.07089218374696",
    "latitude": "29.952482774541487",
    "geocoded_column": {
      "latitude": "29.952482774541487",
      "longitude": "-90.07089218374696"
    }
  },
  {
    "service_request": "2025-1209351",
    "request_type": "Trash/Recycling",
    "request_reason": "Request a Large Item Pick Up",
    "date_created": "2025-07-14T16:47:37.000",
    "date_modified": "2025-07-14T16:47:39.000",
    "request_status": "Pending",
    "responsible_agency": "Department of Sanitation",
    "final_address": "6319 Brunswick Ct",
    "address_councildis": "C",
    "status": "Assigned to Contractor",
    "contractor": "Richards Disposal",
    "rowid": "1209351",
    "final_x": "3707390.49668",
    "final_y": "516982.792757",
    "longitude": "-89.98685757376693",
    "latitude": "29.91471201233464",
    "geocoded_column": {
      "latitude": "29.91471201233464",
      "longitude": "-89.98685757376693"
    }
  },
  {
    "service_request": "2025-1209350",
    "request_type": "Property Maintenance",
    "request_reason": "Property Maintenance",
    "date_created": "2025-07-14T16:45:26.000",
    "date_modified": "2025-07-14T16:45:27.000",
    "request_status": "Pending",
    "responsible_agency": "Department of Code Enforcement",
    "final_address": "3023 Chippewa St",
    "address_councildis": "B",
    "status": "Pending",
    "rowid": "1209350",
    "final_x": "3677016.74677",
    "final_y": "519049.500407",
    "longitude": "-90.08265663183168",
    "latitude": "29.921341272484067",
    "geocoded_column": {
      "latitude": "29.921341272484067",
      "longitude": "-90.08265663183168"
    }
  },
  {
    "service_request": "2025-1209349",
    "request_type": "Abandoned Vehicles",
    "request_reason": "Abandoned/Junk Vehicles",
    "date_created": "2025-07-14T16:43:16.000",
    "date_modified": "2025-07-14T16:43:20.000",
    "request_status": "Pending",
    "responsible_agency": "Department of Public Works",
    "final_address": "1670 Abundance St",
    "address_councildis": "D",
    "status": "Pending",
    "rowid": "1209349",
    "final_x": "3680522.26197",
    "final_y": "543316.606542",
    "longitude": "-90.07074721837556",
    "latitude": "29.987961935470338",
    "geocoded_column": {
      "latitude": "29.987961935470338",
      "longitude": "-90.07074721837556"
    }
  },
  {
    "service_request": "2025-1209348",
    "request_type": "Drainage",
    "request_reason": "Catch Basin Clogged",
    "date_created": "2025-07-14T16:41:29.000",
    "date_modified": "2025-07-14T16:41:32.000",
    "request_status": "Pending",
    "responsible_agency": "Sewerage & Water Board",
    "final_address": "400 BLK Gaiennie St",
    "address_councildis": "B",
    "status": "Pending",
    "rowid": "1209348",
    "final_x": "3682105.83687",
    "final_y": "525916.328204",
    "longitude": "-90.06635295898977",
    "latitude": "29.940069063342833",
    "geocoded_column": {
      "latitude": "29.940069063342833",
      "longitude": "-90.06635295898977"
    }
  },
  {
    "service_request": "2025-1209347",
    "request_type": "Trash/Recycling",
    "request_reason": "Request a Large Item Pick Up",
    "date_created": "2025-07-14T16:39:53.000",
    "date_modified": "2025-07-14T16:39:55.000",
    "request_status": "Pending",
    "responsible_agency": "Department of Sanitation",
    "final_address": "7755 Scottwood Dr",
    "address_councildis": "E",
    "status": "Assigned to Contractor",
    "contractor": "Waste Pro",
    "rowid": "1209347",
    "final_x": "3716849.93029",
    "final_y": "571449.054824",
    "longitude": "-89.9549325964996",
    "latitude": "30.06416427140382",
    "geocoded_column": {
      "latitude": "30.06416427140382",
      "longitude": "-89.9549325964996"
    }
  },
  {
    "service_request": "2025-1209346",
    "request_type": "Trash/Recycling",
    "request_reason": "Request a Large Item Pick Up",
    "date_created": "2025-07-14T16:39:23.000",
    "date_modified": "2025-07-14T16:39:25.000",
    "request_status": "Pending",
    "responsible_agency": "Department of Sanitation",
    "final_address": "7400 Camberley Dr",
    "address_councildis": "E",
    "status": "Assigned to Contractor",
    "contractor": "Waste Pro",
    "rowid": "1209346",
    "final_x": "3712809.55864",
    "final_y": "565396.878498",
    "longitude": "-89.96793237978194",
    "latitude": "30.047656285523033",
    "geocoded_column": {
      "latitude": "30.047656285523033",
      "longitude": "-89.96793237978194"
    }
  },
  {
    "service_request": "2025-1209345",
    "request_type": "Streetlights",
    "request_reason": "Streetlight Outage/Malfunction",
    "date_created": "2025-07-14T16:39:20.000",
    "date_modified": "2025-07-14T16:39:22.000",
    "request_status": "Pending",
    "responsible_agency": "Department of Public Works",
    "final_address": "0 BLK Green Parade Ln",
    "address_councildis": "D",
    "status": "Pending",
    "contractor": "Legacy Professional Services",
    "rowid": "1209345",
    "final_x": "3682244.59578",
    "final_y": "546846.074731",
    "longitude": "-90.0651835594502",
    "latitude": "29.99761442580809",
    "geocoded_column": {
      "latitude": "29.99761442580809",
      "longitude": "-90.0651835594502"
    }
  },
  {
    "service_request": "2025-1209344",
    "request_type": "Trash/Recycling",
    "request_reason": "Request a Large Item Pick Up",
    "date_created": "2025-07-14T16:38:11.000",
    "date_modified": "2025-07-14T16:38:13.000",
    "request_status": "Pending",
    "responsible_agency": "Department of Sanitation",
    "final_address": "11140 Woodvine Ln",
    "address_councildis": "E",
    "status": "Assigned to Contractor",
    "contractor": "Waste Pro",
    "rowid": "1209344",
    "final_x": "3716218.03666",
    "final_y": "559596.455645",
    "longitude": "-89.9573799524483",
    "latitude": "30.03159535108372",
    "geocoded_column": {
      "latitude": "30.03159535108372",
      "longitude": "-89.9573799524483"
    }
  },
  {
    "service_request": "2025-1209343",
    "request_type": "Trash/Recycling",
    "request_reason": "Request a Large Item Pick Up",
    "date_created": "2025-07-14T16:37:49.000",
    "date_modified": "2025-07-14T16:38:17.000",
    "request_status": "Pending",
    "responsible_agency": "Department of Sanitation",
    "final_address": "7200 W Renaissance Ct",
    "address_councildis": "E",
    "status": "Assigned to Contractor",
    "contractor": "Waste Pro",
    "rowid": "1209343",
    "final_x": "3716517.9877",
    "final_y": "567782.15018",
    "longitude": "-89.95612120087223",
    "latitude": "30.05409277699756",
    "geocoded_column": {
      "latitude": "30.05409277699756",
      "longitude": "-89.95612120087223"
    }
  },
  {
    "service_request": "2025-1209342",
    "request_type": "Trash/Recycling",
    "request_reason": "Request a Large Item Pick Up",
    "date_created": "2025-07-14T16:33:23.000",
    "date_modified": "2025-07-14T16:33:25.000",
    "request_status": "Pending",
    "responsible_agency": "Department of Sanitation",
    "final_address": "7357 Trapier Ave",
    "address_councildis": "E",
    "status": "Assigned to Contractor",
    "contractor": "Waste Pro",
    "rowid": "1209342",
    "final_x": "3706934.25745",
    "final_y": "563077.887968",
    "longitude": "-89.98658759629048",
    "latitude": "30.041471180182942",
    "geocoded_column": {
      "latitude": "30.041471180182942",
      "longitude": "-89.98658759629048"
    }
  },
  {
    "service_request": "2025-1209341",
    "request_type": "Trash/Recycling",
    "request_reason": "Request a Large Item Pick Up",
    "date_created": "2025-07-14T16:33:17.000",
    "date_modified": "2025-07-14T16:33:18.000",
    "request_status": "Pending",
    "responsible_agency": "Department of Sanitation",
    "final_address": "7661 Wave Dr",
    "address_councildis": "E",
    "status": "Assigned to Contractor",
    "contractor": "Waste Pro",
    "rowid": "1209341",
    "final_x": "3714906.95352",
    "final_y": "568974.38167",
    "longitude": "-89.9611681134045",
    "latitude": "30.057424067034063",
    "geocoded_column": {
      "latitude": "30.057424067034063",
      "longitude": "-89.9611681134045"
    }
  },
  {
    "service_request": "2025-1209340",
    "request_type": "Trash/Recycling",
    "request_reason": "Return Trash Cart",
    "date_created": "2025-07-14T16:30:55.000",
    "date_modified": "2025-07-14T16:30:57.000",
    "request_status": "Pending",
    "responsible_agency": "Department of Sanitation",
    "final_address": "859 Roosevelt Pl",
    "address_councildis": "A",
    "status": "Assigned to Contractor",
    "contractor": "IV Waste",
    "rowid": "1209340",
    "final_x": "3673550.1563",
    "final_y": "540102.383563",
    "longitude": "-90.09287972963837",
    "latitude": "29.979333325646333",
    "geocoded_column": {
      "latitude": "29.979333325646333",
      "longitude": "-90.09287972963837"
    }
  },
  {
    "service_request": "2025-1209339",
    "request_type": "Drainage",
    "request_reason": "Catch Basin Clogged",
    "date_created": "2025-07-14T16:30:17.000",
    "date_modified": "2025-07-14T16:30:19.000",
    "request_status": "Pending",
    "responsible_agency": "Sewerage & Water Board",
    "final_address": "3722 Downman Rd",
    "address_councildis": "E",
    "status": "Pending",
    "rowid": "1209339",
    "final_x": "3696218.59197",
    "final_y": "550725.513173",
    "longitude": "-90.02089994475105",
    "latitude": "30.007848793481532",
    "geocoded_column": {
      "latitude": "30.007848793481532",
      "longitude": "-90.02089994475105"
    }
  },
  {
    "service_request": "2025-1209338",
    "request_type": "Trash/Recycling",
    "request_reason": "Order Second Trash Cart",
    "date_created": "2025-07-14T16:29:42.000",
    "date_modified": "2025-07-14T16:29:45.000",
    "request_status": "Pending",
    "responsible_agency": "Department of Sanitation",
    "final_address": "7725 Belfast St",
    "address_councildis": "A",
    "status": "Assigned to Contractor",
    "contractor": "IV Waste",
    "rowid": "1209338",
    "final_x": "3666602.76852",
    "final_y": "531508.435267",
    "longitude": "-90.11511098016048",
    "latitude": "29.95590779133752",
    "geocoded_column": {
      "latitude": "29.95590779133752",
      "longitude": "-90.11511098016048"
    }
  },
  {
    "service_request": "2025-1209337",
    "request_type": "Trash/Recycling",
    "request_reason": "Order Trash Cart",
    "date_created": "2025-07-14T16:29:18.000",
    "date_modified": "2025-07-14T16:29:20.000",
    "request_status": "Pending",
    "responsible_agency": "Department of Sanitation",
    "final_address": "1828 Alvar St",
    "address_councildis": "D",
    "status": "Assigned to Contractor",
    "contractor": "IV Waste",
    "rowid": "1209337",
    "final_x": "3692154.71184",
    "final_y": "538254.639561",
    "longitude": "-90.03418560504014",
    "latitude": "29.97368577040872",
    "geocoded_column": {
      "latitude": "29.97368577040872",
      "longitude": "-90.03418560504014"
    }
  },
  {
    "service_request": "2025-1209336",
    "request_type": "Drainage",
    "request_reason": "Street Flooding",
    "date_created": "2025-07-14T16:27:09.000",
    "date_modified": "2025-07-14T16:27:11.000",
    "request_status": "Pending",
    "responsible_agency": "Sewerage & Water Board",
    "final_address": "3722 Downman Rd",
    "address_councildis": "E",
    "status": "Pending",
    "rowid": "1209336",
    "final_x": "3696218.59197",
    "final_y": "550725.513173",
    "longitude": "-90.02089994475105",
    "latitude": "30.007848793481532",
    "geocoded_column": {
      "latitude": "30.007848793481532",
      "longitude": "-90.02089994475105"
    }
  },
  {
    "service_request": "2025-1209335",
    "request_type": "Trash/Recycling",
    "request_reason": "Order Recycling Cart",
    "date_created": "2025-07-14T16:23:21.000",
    "date_modified": "2025-07-14T16:23:23.000",
    "request_status": "Pending",
    "responsible_agency": "Department of Sanitation",
    "final_address": "2719 Lavender St",
    "address_councildis": "D",
    "status": "Pending",
    "rowid": "1209335",
    "final_x": "3687984.52329",
    "final_y": "547041.236881",
    "longitude": "-90.04704441043513",
    "latitude": "29.997975127979437",
    "geocoded_column": {
      "latitude": "29.997975127979437",
      "longitude": "-90.04704441043513"
    }
  },
  {
    "service_request": "2025-1209334",
    "request_type": "Property Maintenance",
    "request_reason": "Property Maintenance",
    "date_created": "2025-07-14T16:17:32.000",
    "date_modified": "2025-07-14T16:17:35.000",
    "request_status": "Pending",
    "responsible_agency": "Department of Code Enforcement",
    "final_address": "3856 Gentilly Blvd",
    "address_councildis": "D",
    "status": "Pending",
    "rowid": "1209334",
    "final_x": "3688157.99171",
    "final_y": "548711.603219",
    "longitude": "-90.04643716561876",
    "latitude": "30.00256267401206",
    "geocoded_column": {
      "latitude": "30.00256267401206",
      "longitude": "-90.04643716561876"
    }
  },
  {
    "service_request": "2025-1209333",
    "request_type": "Trash/Recycling",
    "request_reason": "Replace Trash Cart",
    "date_created": "2025-07-14T16:14:01.000",
    "date_modified": "2025-07-14T16:14:03.000",
    "request_status": "Pending",
    "responsible_agency": "Department of Sanitation",
    "final_address": "1421 Lauradale Dr",
    "address_councildis": "C",
    "status": "Assigned to Contractor",
    "contractor": "Richards Disposal",
    "rowid": "1209333",
    "final_x": "3692746.68496",
    "final_y": "525995.641341",
    "longitude": "-90.03275548290674",
    "latitude": "29.93995933749886",
    "geocoded_column": {
      "latitude": "29.93995933749886",
      "longitude": "-90.03275548290674"
    }
  },
  {
    "service_request": "2025-1209332",
    "request_type": "Trash/Recycling",
    "request_reason": "Request a Large Item Pick Up",
    "date_created": "2025-07-14T16:08:20.000",
    "date_modified": "2025-07-14T16:08:22.000",
    "request_status": "Pending",
    "responsible_agency": "Department of Sanitation",
    "final_address": "2619 Hollygrove St",
    "address_councildis": "A",
    "status": "Assigned to Contractor",
    "contractor": "IV Waste",
    "rowid": "1209332",
    "final_x": "3663172.40064",
    "final_y": "534375.527429",
    "longitude": "-90.12584753922891",
    "latitude": "29.96389119684972",
    "geocoded_column": {
      "latitude": "29.96389119684972",
      "longitude": "-90.12584753922891"
    }
  },
  {
    "service_request": "2025-1209331",
    "request_type": "Trash/Recycling",
    "request_reason": "Request a Large Item Pick Up",
    "date_created": "2025-07-14T16:06:13.000",
    "date_modified": "2025-07-14T16:06:14.000",
    "request_status": "Pending",
    "responsible_agency": "Department of Sanitation",
    "final_address": "4146 Cleveland Ave",
    "address_councildis": "A",
    "status": "Assigned to Contractor",
    "contractor": "IV Waste",
    "rowid": "1209331",
    "final_x": "3670497.8347",
    "final_y": "538204.981257",
    "longitude": "-90.10258455829057",
    "latitude": "29.97420661661674",
    "geocoded_column": {
      "latitude": "29.97420661661674",
      "longitude": "-90.10258455829057"
    }
  },
  {
    "service_request": "2025-1209330",
    "request_type": "Trash/Recycling",
    "request_reason": "Request a Large Item Pick Up",
    "date_created": "2025-07-14T16:05:56.000",
    "date_modified": "2025-07-14T16:05:57.000",
    "request_status": "Pending",
    "responsible_agency": "Department of Sanitation",
    "final_address": "2649 Verbena St",
    "address_councildis": "D",
    "status": "Assigned to Contractor",
    "contractor": "IV Waste",
    "rowid": "1209330",
    "final_x": "3687404.17596",
    "final_y": "547859.623698",
    "longitude": "-90.04884873328423",
    "latitude": "30.00024329647712",
    "geocoded_column": {
      "latitude": "30.00024329647712",
      "longitude": "-90.04884873328423"
    }
  },
  {
    "service_request": "2025-1209329",
    "request_type": "Trash/Recycling",
    "request_reason": "Order Recycling Cart",
    "date_created": "2025-07-14T16:05:20.000",
    "date_modified": "2025-07-14T16:05:21.000",
    "request_status": "Pending",
    "responsible_agency": "Department of Sanitation",
    "final_address": "1625 Lafreniere St",
    "address_councildis": "D",
    "status": "Pending",
    "rowid": "1209329",
    "final_x": "3679970.00136",
    "final_y": "545206.779535",
    "longitude": "-90.0724259257384",
    "latitude": "29.993175967145437",
    "geocoded_column": {
      "latitude": "29.993175967145437",
      "longitude": "-90.0724259257384"
    }
  },
  {
    "service_request": "2025-1209328",
    "request_type": "Trash/Recycling",
    "request_reason": "Order Trash Cart",
    "date_created": "2025-07-14T16:04:30.000",
    "date_modified": "2025-07-14T16:04:49.000",
    "request_status": "Pending",
    "responsible_agency": "Department of Sanitation",
    "final_address": "1625 Lafreniere St",
    "address_councildis": "D",
    "status": "Assigned to Contractor",
    "contractor": "IV Waste",
    "rowid": "1209328",
    "final_x": "3679970.00136",
    "final_y": "545206.779535",
    "longitude": "-90.0724259257384",
    "latitude": "29.993175967145437",
    "geocoded_column": {
      "latitude": "29.993175967145437",
      "longitude": "-90.0724259257384"
    }
  },
  {
    "service_request": "2025-1209327",
    "request_type": "Property Maintenance",
    "request_reason": "Property Maintenance",
    "date_created": "2025-07-14T16:02:03.000",
    "date_modified": "2025-07-14T16:02:40.000",
    "request_status": "Pending",
    "responsible_agency": "Department of Code Enforcement",
    "final_address": "6114 Milne Blvd",
    "address_councildis": "A",
    "status": "Pending",
    "rowid": "1209327",
    "final_x": "3667044.2089",
    "final_y": "548245.142354",
    "longitude": "-90.11315428526855",
    "latitude": "30.001915192082812",
    "geocoded_column": {
      "latitude": "30.001915192082812",
      "longitude": "-90.11315428526855"
    }
  },
  {
    "service_request": "2025-1209326",
    "request_type": "Trash/Recycling",
    "request_reason": "Illegal Dumping",
    "date_created": "2025-07-14T16:01:21.000",
    "date_modified": "2025-07-14T16:01:23.000",
    "request_status": "Pending",
    "responsible_agency": "Department of Sanitation",
    "final_address": "1800 BLK N Claiborne Ave",
    "address_councildis": "D",
    "status": "Pending",
    "rowid": "1209326",
    "final_x": "3683548.18077",
    "final_y": "538036.216038",
    "longitude": "-90.06137450728811",
    "latitude": "29.97335068707077",
    "geocoded_column": {
      "latitude": "29.97335068707077",
      "longitude": "-90.06137450728811"
    }
  },
  {
    "service_request": "2025-1209325",
    "request_type": "Property Maintenance",
    "request_reason": "Property Maintenance",
    "date_created": "2025-07-14T16:01:04.000",
    "date_modified": "2025-07-14T16:01:06.000",
    "request_status": "Pending",
    "responsible_agency": "Department of Code Enforcement",
    "final_address": "2318 Chippewa St",
    "address_councildis": "B",
    "status": "Pending",
    "rowid": "1209325",
    "final_x": "3679321.7044",
    "final_y": "520562.510392",
    "longitude": "-90.0753284618938",
    "latitude": "29.92543217884726",
    "geocoded_column": {
      "latitude": "29.92543217884726",
      "longitude": "-90.0753284618938"
    }
  },
  {
    "service_request": "2025-1209324",
    "request_type": "Property Maintenance",
    "request_reason": "Property Maintenance",
    "date_created": "2025-07-14T16:00:13.000",
    "date_modified": "2025-07-14T16:00:16.000",
    "request_status": "Pending",
    "responsible_agency": "Department of Code Enforcement",
    "final_address": "14020 Intrepid St",
    "address_councildis": "E",
    "status": "Pending",
    "rowid": "1209324",
    "final_x": "3726424.57568",
    "final_y": "570718.526439",
    "longitude": "-89.92469520393801",
    "latitude": "30.061835454635705",
    "geocoded_column": {
      "latitude": "30.061835454635705",
      "longitude": "-89.92469520393801"
    }
  },
  {
    "service_request": "2025-1209323",
    "request_type": "Property Maintenance",
    "request_reason": "Property Maintenance",
    "date_created": "2025-07-14T16:00:08.000",
    "date_modified": "2025-07-14T16:00:09.000",
    "request_status": "Pending",
    "responsible_agency": "Department of Code Enforcement",
    "final_address": "14040 Intrepid St",
    "address_councildis": "E",
    "status": "Pending",
    "rowid": "1209323",
    "final_x": "3726435.61773",
    "final_y": "570782.951719",
    "longitude": "-89.92465779684711",
    "latitude": "30.062012223561116",
    "geocoded_column": {
      "latitude": "30.062012223561116",
      "longitude": "-89.92465779684711"
    }
  },
  {
    "service_request": "2025-1209322",
    "request_type": "Property Maintenance",
    "request_reason": "Property Maintenance",
    "date_created": "2025-07-14T15:59:19.000",
    "date_modified": "2025-07-14T15:59:20.000",
    "request_status": "Pending",
    "responsible_agency": "Department of Code Enforcement",
    "final_address": "2328 Annunciation St",
    "address_councildis": "B",
    "status": "Pending",
    "rowid": "1209322",
    "final_x": "3679026.62287",
    "final_y": "520788.680121",
    "longitude": "-90.07625210995661",
    "latitude": "29.926062976598562",
    "geocoded_column": {
      "latitude": "29.926062976598562",
      "longitude": "-90.07625210995661"
    }
  },
  {
    "service_request": "2025-1209321",
    "request_type": "Trash/Recycling",
    "request_reason": "Request a Large Item Pick Up",
    "date_created": "2025-07-14T15:58:39.000",
    "date_modified": "2025-07-14T15:58:41.000",
    "request_status": "Pending",
    "responsible_agency": "Department of Sanitation",
    "final_address": "3957 Pauger St",
    "address_councildis": "D",
    "status": "Assigned to Contractor",
    "contractor": "IV Waste",
    "rowid": "1209321",
    "final_x": "3683197.08341",
    "final_y": "545546.346832",
    "longitude": "-90.06222022708162",
    "latitude": "29.99401161762301",
    "geocoded_column": {
      "latitude": "29.99401161762301",
      "longitude": "-90.06222022708162"
    }
  },
  {
    "service_request": "2025-1209320",
    "request_type": "Property Maintenance",
    "request_reason": "Property Maintenance",
    "date_created": "2025-07-14T15:57:41.000",
    "date_modified": "2025-07-14T15:57:44.000",
    "request_status": "Pending",
    "responsible_agency": "Department of Code Enforcement",
    "final_address": "548 Fourth St",
    "address_councildis": "B",
    "status": "Pending",
    "rowid": "1209320",
    "final_x": "3678314.45538",
    "final_y": "519435.127479",
    "longitude": "-90.07854700626801",
    "latitude": "29.92236261070652",
    "geocoded_column": {
      "latitude": "29.92236261070652",
      "longitude": "-90.07854700626801"
    }
  },
  {
    "service_request": "2025-1209319",
    "request_type": "Drainage",
    "request_reason": "Street Flooding",
    "date_created": "2025-07-14T15:56:16.000",
    "date_modified": "2025-07-14T15:56:17.000",
    "request_status": "Pending",
    "responsible_agency": "Sewerage & Water Board",
    "final_address": "2222 Lakeshore Dr",
    "address_councildis": "D",
    "status": "Pending",
    "rowid": "1209319",
    "final_x": "3684233.25916",
    "final_y": "558810.595804",
    "longitude": "-90.0584809246529",
    "latitude": "30.030451820504528",
    "geocoded_column": {
      "latitude": "30.030451820504528",
      "longitude": "-90.0584809246529"
    }
  },
  {
    "service_request": "2025-1209318",
    "request_type": "Drainage",
    "request_reason": "Catch Basin Damaged",
    "date_created": "2025-07-14T15:56:00.000",
    "date_modified": "2025-07-14T15:56:01.000",
    "request_status": "Pending",
    "responsible_agency": "Sewerage & Water Board",
    "final_address": "6227 Wadsworth Dr",
    "address_councildis": "D",
    "status": "Pending",
    "rowid": "1209318",
    "final_x": "3681669.01512",
    "final_y": "555976.583257",
    "longitude": "-90.06668296144453",
    "latitude": "30.02273752712933",
    "geocoded_column": {
      "latitude": "30.02273752712933",
      "longitude": "-90.06668296144453"
    }
  },
  {
    "service_request": "2025-1209317",
    "request_type": "Trash/Recycling",
    "request_reason": "Request a Large Item Pick Up",
    "date_created": "2025-07-14T15:55:26.000",
    "date_modified": "2025-07-14T15:55:29.000",
    "request_status": "Pending",
    "responsible_agency": "Department of Sanitation",
    "final_address": "5331 Magazine St",
    "address_councildis": "B",
    "status": "Assigned to Contractor",
    "contractor": "IV Waste",
    "rowid": "1209317",
    "final_x": "3667256.96436",
    "final_y": "518747.601015",
    "longitude": "-90.1134742218522",
    "latitude": "29.920800452309216",
    "geocoded_column": {
      "latitude": "29.920800452309216",
      "longitude": "-90.1134742218522"
    }
  },
  {
    "service_request": "2025-1209316",
    "request_type": "Trash/Recycling",
    "request_reason": "Repair Trash Cart",
    "date_created": "2025-07-14T15:55:21.000",
    "date_modified": "2025-07-14T15:55:22.000",
    "request_status": "Pending",
    "responsible_agency": "Department of Sanitation",
    "final_address": "1910 N Dorgenois St",
    "address_councildis": "D",
    "status": "Assigned to Contractor",
    "contractor": "IV Waste",
    "rowid": "1209316",
    "final_x": "3681326.49615",
    "final_y": "541164.482252",
    "longitude": "-90.0682819623966",
    "latitude": "29.98201995699922",
    "geocoded_column": {
      "latitude": "29.98201995699922",
      "longitude": "-90.0682819623966"
    }
  },
  {
    "service_request": "2025-1209315",
    "request_type": "Trash/Recycling",
    "request_reason": "Replace Trash Cart",
    "date_created": "2025-07-14T15:54:11.000",
    "date_modified": "2025-07-14T15:54:14.000",
    "request_status": "Pending",
    "responsible_agency": "Department of Sanitation",
    "final_address": "5803 Tall Timbers Dr",
    "address_councildis": "C",
    "status": "Assigned to Contractor",
    "contractor": "Richards Disposal",
    "rowid": "1209315",
    "final_x": "3705241.10103",
    "final_y": "513951.84453",
    "longitude": "-89.9937536061482",
    "latitude": "29.906447219720548",
    "geocoded_column": {
      "latitude": "29.906447219720548",
      "longitude": "-89.9937536061482"
    }
  },
  {
    "service_request": "2025-1209314",
    "request_type": "Drainage",
    "request_reason": "Catch Basin Clogged",
    "date_created": "2025-07-14T15:53:03.000",
    "date_modified": "2025-07-14T15:53:05.000",
    "request_status": "Pending",
    "responsible_agency": "Sewerage & Water Board",
    "final_address": "2230 N Roman St",
    "address_councildis": "D",
    "status": "Pending",
    "rowid": "1209314",
    "final_x": "3685119.45301",
    "final_y": "538871.815561",
    "longitude": "-90.05638270693825",
    "latitude": "29.97560024020728",
    "geocoded_column": {
      "latitude": "29.97560024020728",
      "longitude": "-90.05638270693825"
    }
  },
  {
    "service_request": "2025-1209313",
    "request_type": "General Services",
    "request_reason": "General Service Request",
    "date_created": "2025-07-14T15:52:07.000",
    "date_modified": "2025-07-14T15:52:08.000",
    "request_status": "Pending",
    "responsible_agency": "Orleans Parish Communication District",
    "final_address": "7121 Thornley Dr",
    "address_councildis": "E",
    "status": "Pending",
    "rowid": "1209313",
    "final_x": "3703375.79793",
    "final_y": "560227.269917",
    "longitude": "-89.99793852702344",
    "latitude": "30.03374761808902",
    "geocoded_column": {
      "latitude": "30.03374761808902",
      "longitude": "-89.99793852702344"
    }
  },
  {
    "service_request": "2025-1209312",
    "request_type": "Trash/Recycling",
    "request_reason": "Order Second Trash Cart",
    "date_created": "2025-07-14T15:51:41.000",
    "date_modified": "2025-07-14T15:51:42.000",
    "request_status": "Pending",
    "responsible_agency": "Department of Sanitation",
    "final_address": "6900 Argonne Blvd",
    "address_councildis": "A",
    "status": "Assigned to Contractor",
    "contractor": "IV Waste",
    "rowid": "1209312",
    "final_x": "3670647.5026",
    "final_y": "553242.851863",
    "longitude": "-90.10160133932402",
    "latitude": "30.015551137707746",
    "geocoded_column": {
      "latitude": "30.015551137707746",
      "longitude": "-90.10160133932402"
    }
  },
  {
    "service_request": "2025-1209311",
    "request_type": "Trash/Recycling",
    "request_reason": "Order Second Trash Cart",
    "date_created": "2025-07-14T15:51:37.000",
    "date_modified": "2025-07-14T15:51:39.000",
    "request_status": "Pending",
    "responsible_agency": "Department of Sanitation",
    "final_address": "4867 Redwood St",
    "address_councildis": "E",
    "status": "Assigned to Contractor",
    "contractor": "Waste Pro",
    "rowid": "1209311",
    "final_x": "3712485.48197",
    "final_y": "556928.656538",
    "longitude": "-89.96927524525323",
    "latitude": "30.024382673922148",
    "geocoded_column": {
      "latitude": "30.024382673922148",
      "longitude": "-89.96927524525323"
    }
  },
  {
    "service_request": "2025-1209310",
    "request_type": "Streetlights",
    "request_reason": "New Streetlight Request",
    "date_created": "2025-07-14T15:49:18.000",
    "date_modified": "2025-07-14T15:49:21.000",
    "request_status": "Pending",
    "responsible_agency": "Department of Public Works",
    "final_address": "4867 Redwood St",
    "address_councildis": "E",
    "status": "Pending",
    "contractor": "Legacy Professional Services",
    "rowid": "1209310",
    "final_x": "3712485.48197",
    "final_y": "556928.656538",
    "longitude": "-89.96927524525323",
    "latitude": "30.024382673922148",
    "geocoded_column": {
      "latitude": "30.024382673922148",
      "longitude": "-89.96927524525323"
    }
  },
  {
    "service_request": "2025-1209309",
    "request_type": "Trash/Recycling",
    "request_reason": "Change Size of Trash Cart",
    "date_created": "2025-07-14T15:47:17.000",
    "date_modified": "2025-07-14T15:47:18.000",
    "request_status": "Pending",
    "responsible_agency": "Department of Sanitation",
    "final_address": "710 Webster St",
    "address_councildis": "A",
    "status": "Assigned to Contractor",
    "contractor": "IV Waste",
    "rowid": "1209309",
    "final_x": "3664001.82093",
    "final_y": "519216.008119",
    "longitude": "-90.12373365851342",
    "latitude": "29.922183312161255",
    "geocoded_column": {
      "latitude": "29.922183312161255",
      "longitude": "-90.12373365851342"
    }
  },
  {
    "service_request": "2025-1209308",
    "request_type": "Trash/Recycling",
    "request_reason": "Request a Large Item Pick Up",
    "date_created": "2025-07-14T15:46:21.000",
    "date_modified": "2025-07-14T15:46:23.000",
    "request_status": "Pending",
    "responsible_agency": "Department of Sanitation",
    "final_address": "3037 Louisiana Avenue Prkwy",
    "address_councildis": "B",
    "status": "Assigned to Contractor",
    "contractor": "IV Waste",
    "rowid": "1209308",
    "final_x": "3672182.933",
    "final_y": "526597.60787",
    "longitude": "-90.09765794430845",
    "latitude": "29.942240323191616",
    "geocoded_column": {
      "latitude": "29.942240323191616",
      "longitude": "-90.09765794430845"
    }
  },
  {
    "service_request": "2025-1209307",
    "request_type": "Trash/Recycling",
    "request_reason": "Request a Large Item Pick Up",
    "date_created": "2025-07-14T15:46:09.000",
    "date_modified": "2025-07-14T15:46:12.000",
    "request_status": "Pending",
    "responsible_agency": "Department of Sanitation",
    "final_address": "8227 Green St",
    "address_councildis": "A",
    "status": "Assigned to Contractor",
    "contractor": "IV Waste",
    "rowid": "1209307",
    "final_x": "3662743.79424",
    "final_y": "530098.580993",
    "longitude": "-90.12734319648014",
    "latitude": "29.95214339531321",
    "geocoded_column": {
      "latitude": "29.95214339531321",
      "longitude": "-90.12734319648014"
    }
  },
  {
    "service_request": "2025-1209306",
    "request_type": "Property Maintenance",
    "request_reason": "Property Maintenance",
    "date_created": "2025-07-14T15:45:29.000",
    "date_modified": "2025-07-14T15:45:30.000",
    "request_status": "Pending",
    "responsible_agency": "Department of Code Enforcement",
    "final_address": "6867 Canal Blvd",
    "address_councildis": "A",
    "status": "Pending",
    "rowid": "1209306",
    "final_x": "3669180.2729",
    "final_y": "553166.896087",
    "longitude": "-90.10623969605906",
    "latitude": "30.01538557223606",
    "geocoded_column": {
      "latitude": "30.01538557223606",
      "longitude": "-90.10623969605906"
    }
  },
  {
    "service_request": "2025-1209305",
    "request_type": "Roads and Streets",
    "request_reason": "Sidewalk Damaged or Missing",
    "date_created": "2025-07-14T15:44:49.000",
    "date_modified": "2025-07-14T15:44:52.000",
    "request_status": "Pending",
    "responsible_agency": "Department of Public Works",
    "final_address": "8430 S Claiborne Ave",
    "address_councildis": "A",
    "status": "Pending",
    "rowid": "1209305",
    "final_x": "3663797.69799",
    "final_y": "532353.473987",
    "longitude": "-90.12394029645594",
    "latitude": "29.958313077205982",
    "geocoded_column": {
      "latitude": "29.958313077205982",
      "longitude": "-90.12394029645594"
    }
  },
  {
    "service_request": "2025-1209304",
    "request_type": "Drainage",
    "request_reason": "Catch Basin Damaged",
    "date_created": "2025-07-14T15:41:35.000",
    "date_modified": "2025-07-14T15:41:38.000",
    "request_status": "Pending",
    "responsible_agency": "Sewerage & Water Board",
    "final_address": "1401 New York St",
    "address_councildis": "D",
    "status": "Pending",
    "rowid": "1209304",
    "final_x": "3677686.31234",
    "final_y": "555660.719833",
    "longitude": "-90.07927831098777",
    "latitude": "30.021989471942835",
    "geocoded_column": {
      "latitude": "30.021989471942835",
      "longitude": "-90.07927831098777"
    }
  },
  {
    "service_request": "2025-1209303",
    "request_type": "Trash/Recycling",
    "request_reason": "Request a Large Item Pick Up",
    "date_created": "2025-07-14T15:40:04.000",
    "date_modified": "2025-07-14T15:40:07.000",
    "request_status": "Pending",
    "responsible_agency": "Department of Sanitation",
    "final_address": "7240 E Tamaron Blvd",
    "address_councildis": "E",
    "status": "Assigned to Contractor",
    "contractor": "Waste Pro",
    "rowid": "1209303",
    "final_x": "3717916.79289",
    "final_y": "569695.779494",
    "longitude": "-89.95162702840578",
    "latitude": "30.059308163000818",
    "geocoded_column": {
      "latitude": "30.059308163000818",
      "longitude": "-89.95162702840578"
    }
  },
  {
    "service_request": "2025-1209302",
    "request_type": "Abandoned Vehicles",
    "request_reason": "Abandoned/Junk Vehicles",
    "date_created": "2025-07-14T15:39:30.000",
    "date_modified": "2025-07-14T15:39:32.000",
    "request_status": "Pending",
    "responsible_agency": "Department of Public Works",
    "final_address": "LOURDES ST & MICHOUD BLVD",
    "address_councildis": "E",
    "status": "Pending",
    "rowid": "1209302",
    "final_x": "3725178.3",
    "final_y": "560655.88",
    "longitude": "-89.92902446277111",
    "latitude": "30.034209438972297",
    "geocoded_column": {
      "latitude": "30.034209438972297",
      "longitude": "-89.92902446277111"
    }
  },
  {
    "service_request": "2025-1209301",
    "request_type": "Trash/Recycling",
    "request_reason": "Request a Large Item Pick Up",
    "date_created": "2025-07-14T15:38:07.000",
    "date_modified": "2025-07-14T15:41:18.000",
    "request_status": "Pending",
    "responsible_agency": "Department of Sanitation",
    "final_address": "4925 Rhodes Dr",
    "address_councildis": "E",
    "status": "Assigned to Contractor",
    "contractor": "Waste Pro",
    "rowid": "1209301",
    "final_x": "3702483.36317",
    "final_y": "555327.753497",
    "longitude": "-90.00093874360098",
    "latitude": "30.020304410375555",
    "geocoded_column": {
      "latitude": "30.020304410375555",
      "longitude": "-90.00093874360098"
    }
  },
  {
    "service_request": "2025-1209300",
    "request_type": "Streetlights",
    "request_reason": "Streetlight Outage/Malfunction",
    "date_created": "2025-07-14T15:36:43.000",
    "date_modified": "2025-07-14T15:36:45.000",
    "request_status": "Pending",
    "responsible_agency": "Department of Public Works",
    "final_address": "619 Tupelo St",
    "address_councildis": "E",
    "status": "Pending",
    "contractor": "Legacy Professional Services",
    "rowid": "1209300",
    "final_x": "3698920.40208",
    "final_y": "531729.728067",
    "longitude": "-90.01305566837569",
    "latitude": "29.95553193866794",
    "geocoded_column": {
      "latitude": "29.95553193866794",
      "longitude": "-90.01305566837569"
    }
  },
  {
    "service_request": "2025-1209299",
    "request_type": "Healthy Homes",
    "request_reason": "Healthy Homes",
    "date_created": "2025-07-14T15:34:26.000",
    "date_modified": "2025-07-14T15:34:28.000",
    "request_status": "Pending",
    "responsible_agency": "Department of Code Enforcement",
    "final_address": "1320 St Bernard Ave",
    "address_councildis": "C",
    "status": "Pending",
    "rowid": "1209299",
    "final_x": "3682735.69448",
    "final_y": "536684.396039",
    "longitude": "-90.06398779771878",
    "latitude": "29.96965842479355",
    "geocoded_column": {
      "latitude": "29.96965842479355",
      "longitude": "-90.06398779771878"
    }
  },
  {
    "service_request": "2025-1209298",
    "request_type": "Streetlights",
    "request_reason": "Streetlight Outage/Malfunction",
    "date_created": "2025-07-14T15:30:12.000",
    "date_modified": "2025-07-14T15:30:14.000",
    "request_status": "Pending",
    "responsible_agency": "Department of Public Works",
    "final_address": "600 Canal St",
    "address_councildis": "B",
    "status": "Pending",
    "contractor": "Legacy Professional Services",
    "rowid": "1209298",
    "final_x": "3681390.76431",
    "final_y": "530409.599746",
    "longitude": "-90.06845395328503",
    "latitude": "29.952445774072807",
    "geocoded_column": {
      "latitude": "29.952445774072807",
      "longitude": "-90.06845395328503"
    }
  },
  {
    "service_request": "2025-1209297",
    "request_type": "Property Maintenance",
    "request_reason": "Property Maintenance",
    "date_created": "2025-07-14T15:29:59.000",
    "date_modified": "2025-07-14T15:30:01.000",
    "request_status": "Pending",
    "responsible_agency": "Department of Code Enforcement",
    "final_address": "2463 Halsey Ave",
    "address_councildis": "C",
    "status": "Pending",
    "rowid": "1209297",
    "final_x": "3697616.96189",
    "final_y": "521885.974394",
    "longitude": "-90.01752837705412",
    "latitude": "29.928506271430855",
    "geocoded_column": {
      "latitude": "29.928506271430855",
      "longitude": "-90.01752837705412"
    }
  },
  {
    "service_request": "2025-1209296",
    "request_type": "Property Maintenance",
    "request_reason": "Property Maintenance",
    "date_created": "2025-07-14T15:28:57.000",
    "date_modified": "2025-07-14T15:28:58.000",
    "request_status": "Pending",
    "responsible_agency": "Department of Code Enforcement",
    "final_address": "2718 St Thomas St",
    "address_councildis": "B",
    "status": "Pending",
    "rowid": "1209296",
    "final_x": "3678191.43803",
    "final_y": "519355.620599",
    "longitude": "-90.07893806942859",
    "latitude": "29.92214769616893",
    "geocoded_column": {
      "latitude": "29.92214769616893",
      "longitude": "-90.07893806942859"
    }
  },
  {
    "service_request": "2025-1209295",
    "request_type": "Trash/Recycling",
    "request_reason": "Order Recycling Cart",
    "date_created": "2025-07-14T15:28:45.000",
    "date_modified": "2025-07-14T15:28:47.000",
    "request_status": "Pending",
    "responsible_agency": "Department of Sanitation",
    "final_address": "3341 Dickens Dr",
    "address_councildis": "C",
    "status": "Pending",
    "rowid": "1209295",
    "final_x": "3708238.42641",
    "final_y": "518340.458998",
    "longitude": "-89.98413077715537",
    "latitude": "29.91841769720015",
    "geocoded_column": {
      "latitude": "29.91841769720015",
      "longitude": "-89.98413077715537"
    }
  },
  {
    "service_request": "2025-1209294",
    "request_type": "Trash/Recycling",
    "request_reason": "Order Second Trash Cart",
    "date_created": "2025-07-14T15:28:14.000",
    "date_modified": "2025-07-14T15:28:16.000",
    "request_status": "Pending",
    "responsible_agency": "Department of Sanitation",
    "final_address": "3341 Dickens Dr",
    "address_councildis": "C",
    "status": "Assigned to Contractor",
    "contractor": "Richards Disposal",
    "rowid": "1209294",
    "final_x": "3708238.42641",
    "final_y": "518340.458998",
    "longitude": "-89.98413077715537",
    "latitude": "29.91841769720015",
    "geocoded_column": {
      "latitude": "29.91841769720015",
      "longitude": "-89.98413077715537"
    }
  },
  {
    "service_request": "2025-1209293",
    "request_type": "Trash/Recycling",
    "request_reason": "Repair Trash Cart",
    "date_created": "2025-07-14T15:27:09.000",
    "date_modified": "2025-07-14T15:27:11.000",
    "request_status": "Pending",
    "responsible_agency": "Department of Sanitation",
    "final_address": "3341 Dickens Dr",
    "address_councildis": "C",
    "status": "Assigned to Contractor",
    "contractor": "Richards Disposal",
    "rowid": "1209293",
    "final_x": "3708238.42641",
    "final_y": "518340.458998",
    "longitude": "-89.98413077715537",
    "latitude": "29.91841769720015",
    "geocoded_column": {
      "latitude": "29.91841769720015",
      "longitude": "-89.98413077715537"
    }
  },
  {
    "service_request": "2025-1209292",
    "request_type": "Streetlights",
    "request_reason": "Streetlight Outage/Malfunction",
    "date_created": "2025-07-14T15:26:47.000",
    "date_modified": "2025-07-14T15:26:48.000",
    "request_status": "Pending",
    "responsible_agency": "Department of Public Works",
    "final_address": "1600 Canal St",
    "address_councildis": "B",
    "status": "Pending",
    "contractor": "Legacy Professional Services",
    "rowid": "1209292",
    "final_x": "3678593.30325",
    "final_y": "532525.416708",
    "longitude": "-90.07721382195156",
    "latitude": "29.958348173876995",
    "geocoded_column": {
      "latitude": "29.958348173876995",
      "longitude": "-90.07721382195156"
    }
  },
  {
    "service_request": "2025-1209291",
    "request_type": "Trash/Recycling",
    "request_reason": "Request a Large Item Pick Up",
    "date_created": "2025-07-14T15:25:27.000",
    "date_modified": "2025-07-14T15:25:29.000",
    "request_status": "Pending",
    "responsible_agency": "Department of Sanitation",
    "final_address": "5891 Doral Ct",
    "address_councildis": "E",
    "status": "Assigned to Contractor",
    "contractor": "Waste Pro",
    "rowid": "1209291",
    "final_x": "3719824.59257",
    "final_y": "564580.379617",
    "longitude": "-89.94579248932449",
    "latitude": "30.045179536823788",
    "geocoded_column": {
      "latitude": "30.045179536823788",
      "longitude": "-89.94579248932449"
    }
  },
  {
    "service_request": "2025-1209290",
    "request_type": "Abandoned Vehicles",
    "request_reason": "Abandoned/Junk Vehicles",
    "date_created": "2025-07-14T15:25:27.000",
    "date_modified": "2025-07-14T15:27:50.000",
    "request_status": "Pending",
    "responsible_agency": "Department of Public Works",
    "final_address": "ROYAL ST & DESLONDE ST",
    "address_councildis": "E",
    "status": "Pending",
    "rowid": "1209290",
    "final_x": "3694970.0",
    "final_y": "532933.68",
    "longitude": "-90.02548616799318",
    "latitude": "29.958966951067733",
    "geocoded_column": {
      "latitude": "29.958966951067733",
      "longitude": "-90.02548616799318"
    }
  },
  {
    "service_request": "2025-1209289",
    "request_type": "Trash/Recycling",
    "request_reason": "Order Trash Cart",
    "date_created": "2025-07-14T15:22:44.000",
    "date_modified": "2025-07-14T15:22:46.000",
    "request_status": "Pending",
    "responsible_agency": "Department of Sanitation",
    "final_address": "8020 Haney Dr",
    "address_councildis": "E",
    "status": "Assigned to Contractor",
    "contractor": "Waste Pro",
    "rowid": "1209289",
    "final_x": "3711790.82667",
    "final_y": "568334.384997",
    "longitude": "-89.9710417296323",
    "latitude": "30.055766574351434",
    "geocoded_column": {
      "latitude": "30.055766574351434",
      "longitude": "-89.9710417296323"
    }
  },
  {
    "service_request": "2025-1209288",
    "request_type": "Drainage",
    "request_reason": "Ditch and Culvert Maintenance",
    "date_created": "2025-07-14T15:20:17.000",
    "date_modified": "2025-07-14T15:20:19.000",
    "request_status": "Pending",
    "responsible_agency": "Department of Public Works",
    "final_address": "MARR AVE & DONNER RD",
    "address_councildis": "C",
    "status": "Pending",
    "rowid": "1209288",
    "final_x": "3691389.5",
    "final_y": "520636.08",
    "longitude": "-90.03723169979754",
    "latitude": "29.925264648070964",
    "geocoded_column": {
      "latitude": "29.925264648070964",
      "longitude": "-90.03723169979754"
    }
  },
  {
    "service_request": "2025-1209287",
    "request_type": "Trash/Recycling",
    "request_reason": "Request a Large Item Pick Up",
    "date_created": "2025-07-14T15:12:01.000",
    "date_modified": "2025-07-14T15:12:02.000",
    "request_status": "Pending",
    "responsible_agency": "Department of Sanitation",
    "final_address": "7331 Briarheath Dr",
    "address_councildis": "E",
    "status": "Assigned to Contractor",
    "contractor": "Waste Pro",
    "rowid": "1209287",
    "final_x": "3714246.23544",
    "final_y": "566475.079075",
    "longitude": "-89.96335098585419",
    "latitude": "30.050573747323753",
    "geocoded_column": {
      "latitude": "30.050573747323753",
      "longitude": "-89.96335098585419"
    }
  },
  {
    "service_request": "2025-1209286",
    "request_type": "EMS",
    "request_reason": "EMS Compliment",
    "date_created": "2025-07-14T15:10:17.000",
    "date_modified": "2025-07-14T15:10:21.000",
    "request_status": "Pending",
    "responsible_agency": "Emergency Medical Services",
    "final_address": "8415 Dixon St",
    "address_councildis": "A",
    "status": "Pending",
    "rowid": "1209286",
    "final_x": "3667541.55693",
    "final_y": "536359.562055",
    "longitude": "-90.11198332547978",
    "latitude": "29.969219309955115",
    "geocoded_column": {
      "latitude": "29.969219309955115",
      "longitude": "-90.11198332547978"
    }
  },
  {
    "service_request": "2025-1209285",
    "request_type": "Trash/Recycling",
    "request_reason": "Repair Trash Cart",
    "date_created": "2025-07-14T15:08:06.000",
    "date_modified": "2025-07-14T15:08:08.000",
    "request_status": "Pending",
    "responsible_agency": "Department of Sanitation",
    "final_address": "328 Delaronde St",
    "address_councildis": "C",
    "status": "Assigned to Contractor",
    "contractor": "Richards Disposal",
    "rowid": "1209285",
    "final_x": "3686455.07062",
    "final_y": "530966.416386",
    "longitude": "-90.0524435677788",
    "latitude": "29.953822139699025",
    "geocoded_column": {
      "latitude": "29.953822139699025",
      "longitude": "-90.0524435677788"
    }
  },
  {
    "service_request": "2025-1209284",
    "request_type": "Trash/Recycling",
    "request_reason": "Replace Recycling Cart",
    "date_created": "2025-07-14T15:04:24.000",
    "date_modified": "2025-07-14T15:04:26.000",
    "request_status": "Pending",
    "responsible_agency": "Department of Sanitation",
    "final_address": "2707 Bruxelles St",
    "address_councildis": "D",
    "status": "Pending",
    "rowid": "1209284",
    "final_x": "3680382.64373",
    "final_y": "542316.394957",
    "longitude": "-90.07122302498951",
    "latitude": "29.98521593357412",
    "geocoded_column": {
      "latitude": "29.98521593357412",
      "longitude": "-90.07122302498951"
    }
  },
  {
    "service_request": "2025-1209283",
    "request_type": "Drainage",
    "request_reason": "Street Flooding",
    "date_created": "2025-07-14T15:03:53.000",
    "date_modified": "2025-07-14T15:03:54.000",
    "request_status": "Pending",
    "responsible_agency": "Sewerage & Water Board",
    "final_address": "8239 Green St",
    "address_councildis": "A",
    "status": "Pending",
    "rowid": "1209283",
    "final_x": "3662671.11475",
    "final_y": "530163.561153",
    "longitude": "-90.12757052648055",
    "latitude": "29.95232417295145",
    "geocoded_column": {
      "latitude": "29.95232417295145",
      "longitude": "-90.12757052648055"
    }
  },
  {
    "service_request": "2025-1209282",
    "request_type": "Property Maintenance",
    "request_reason": "Property Maintenance",
    "date_created": "2025-07-14T15:02:12.000",
    "date_modified": "2025-07-14T15:02:15.000",
    "request_status": "Pending",
    "responsible_agency": "Department of Code Enforcement",
    "final_address": "6611 Louis Xiv St",
    "address_councildis": "A",
    "status": "Pending",
    "rowid": "1209282",
    "final_x": "3668555.79745",
    "final_y": "551547.251605",
    "longitude": "-90.10826746655279",
    "latitude": "30.01095049355478",
    "geocoded_column": {
      "latitude": "30.01095049355478",
      "longitude": "-90.10826746655279"
    }
  },
  {
    "service_request": "2025-1209281",
    "request_type": "Trash/Recycling",
    "request_reason": "Request a Large Item Pick Up",
    "date_created": "2025-07-14T15:01:33.000",
    "date_modified": "2025-07-14T15:01:35.000",
    "request_status": "Pending",
    "responsible_agency": "Department of Sanitation",
    "final_address": "7731 Marquis St",
    "address_councildis": "E",
    "status": "Assigned to Contractor",
    "contractor": "Waste Pro",
    "rowid": "1209281",
    "final_x": "3710953.03038",
    "final_y": "566770.709027",
    "longitude": "-89.97374846731358",
    "latitude": "30.05149446192293",
    "geocoded_column": {
      "latitude": "30.05149446192293",
      "longitude": "-89.97374846731358"
    }
  },
  {
    "service_request": "2025-1209280",
    "request_type": "Trash/Recycling",
    "request_reason": "Request a Large Item Pick Up",
    "date_created": "2025-07-14T14:58:55.000",
    "date_modified": "2025-07-14T14:58:56.000",
    "request_status": "Pending",
    "responsible_agency": "Department of Sanitation",
    "final_address": "4428 Dodt Ave",
    "address_councildis": "E",
    "status": "Assigned to Contractor",
    "contractor": "Waste Pro",
    "rowid": "1209280",
    "final_x": "3705527.18142",
    "final_y": "553567.768791",
    "longitude": "-89.99138642238061",
    "latitude": "30.015367459478416",
    "geocoded_column": {
      "latitude": "30.015367459478416",
      "longitude": "-89.99138642238061"
    }
  },
  {
    "service_request": "2025-1209279",
    "request_type": "Trash/Recycling",
    "request_reason": "Request a Large Item Pick Up",
    "date_created": "2025-07-14T14:57:02.000",
    "date_modified": "2025-07-14T14:57:04.000",
    "request_status": "Pending",
    "responsible_agency": "Department of Sanitation",
    "final_address": "4308 Constance St",
    "address_councildis": "B",
    "status": "Assigned to Contractor",
    "contractor": "IV Waste",
    "rowid": "1209279",
    "final_x": "3671401.20577",
    "final_y": "518408.727094",
    "longitude": "-90.10040422684627",
    "latitude": "29.919746691801887",
    "geocoded_column": {
      "latitude": "29.919746691801887",
      "longitude": "-90.10040422684627"
    }
  },
  {
    "service_request": "2025-1209278",
    "request_type": "Trash/Recycling",
    "request_reason": "Replace Trash Cart",
    "date_created": "2025-07-14T14:55:32.000",
    "date_modified": "2025-07-14T14:55:34.000",
    "request_status": "Pending",
    "responsible_agency": "Department of Sanitation",
    "final_address": "2310 Third St",
    "address_councildis": "B",
    "status": "Assigned to Contractor",
    "contractor": "IV Waste",
    "rowid": "1209278",
    "final_x": "3674974.24629",
    "final_y": "525021.367549",
    "longitude": "-90.0888991888343",
    "latitude": "29.937823114584432",
    "geocoded_column": {
      "latitude": "29.937823114584432",
      "longitude": "-90.0888991888343"
    }
  },
  {
    "service_request": "2025-1209277",
    "request_type": "Roads and Streets",
    "request_reason": "Pothole",
    "date_created": "2025-07-14T14:55:05.000",
    "date_modified": "2025-07-14T14:55:07.000",
    "request_status": "Pending",
    "responsible_agency": "Department of Public Works",
    "final_address": "2343 Prytania St",
    "address_councildis": "B",
    "status": "Pending",
    "rowid": "1209277",
    "final_x": "3677281.27502",
    "final_y": "522926.885179",
    "longitude": "-90.08168793872933",
    "latitude": "29.931994879128844",
    "geocoded_column": {
      "latitude": "29.931994879128844",
      "longitude": "-90.08168793872933"
    }
  },