[
  {
    "service_request": "2023-1018060",
    "request_type": "Tax and Revenue",
    "request_reason": "Occupational License Tax",
    "date_created": "2023-07-18T02:01:37.000",
    "date_modified": "2023-07-18T02:01:37.000",
    "request_status": "Pending",
    "responsible_agency": "Bureau of Revenue",
    "final_address": "1328 St Bernard Ave",
    "address_councildis": "C",
    "status": "Pending",
    "rowid": "1018060",
    "final_x": "3682712.52284",
    "final_y": "536735.540615",
    "longitude": "-90.06405918653729",
    "latitude": "29.96979976049472",
    "geocoded_column": {
      "latitude": "29.96979976049472",
      "longitude": "-90.06405918653729"
    }
  },
  {
    "service_request": "2023-1018059",
    "request_type": "Safety & Permits",
    "request_reason": "Licenses & Permits",
    "date_created": "2023-07-18T02:00:33.000",
    "date_modified": "2023-07-18T02:00:33.000",
    "request_status": "Pending",
    "responsible_agency": "Safety and Permits",
    "final_address": "1328 St Bernard Ave",
    "address_councildis": "C",
    "status": "Pending",
    "rowid": "1018059",
    "final_x": "3682712.52284",
    "final_y": "536735.540615",
    "longitude": "-90.06405918653729",
    "latitude": "29.96979976049472",
    "geocoded_column": {
      "latitude": "29.96979976049472",
      "longitude": "-90.06405918653729"
    }
  },
  {
    "service_request": "2023-1018058",
    "request_type": "Health Related Request",
    "request_reason": "Noise Ordinance Complaint",
    "date_created": "2023-07-18T01:59:06.000",
    "date_modified": "2023-07-18T01:59:06.000",
    "request_status": "Pending",
    "responsible_agency": "Health Department",
    "final_address": "1328 St Bernard Ave",
    "address_councildis": "C",
    "status": "Pending",
    "rowid": "1018058",
    "final_x": "3682712.52284",
    "final_y": "536735.540615",
    "longitude": "-90.06405918653729",
    "latitude": "29.96979976049472",
    "geocoded_column": {
      "latitude": "29.96979976049472",
      "longitude": "-90.06405918653729"
    }
  },
  {
    "service_request": "2023-1018057",
    "request_type": "Property Maintenance",
    "request_reason": "Property Maintenance",
    "date_created": "2023-07-18T01:49:41.000",
    "date_modified": "2023-07-18T01:49:41.000",
    "request_status": "Pending",
    "responsible_agency": "Department of Code Enforcement",
    "final_address": "1234 Henry Clay Ave",
    "address_councildis": "A",
    "status": "Pending",
    "rowid": "1018057",
    "final_x": "3664327.06445",
    "final_y": "521120.367609",
    "longitude": "-90.12264347982506",
    "latitude": "29.92741025864685",
    "geocoded_column": {
      "latitude": "29.92741025864685",
      "longitude": "-90.12264347982506"
    }
  },
  {
    "service_request": "2023-1018056",
    "request_type": "Roads/Drainage",
    "request_reason": "Pothole",
    "date_created": "2023-07-18T01:01:24.000",
    "date_modified": "2023-07-18T01:01:24.000",
    "request_status": "Pending",
    "responsible_agency": "Department of Public Works",
    "final_address": "1528 Webster St",
    "address_councildis": "A",
    "status": "Pending",
    "rowid": "1018056",
    "final_x": "3665070.67732",
    "final_y": "522217.95289",
    "longitude": "-90.12025938783236",
    "latitude": "29.930406646529782",
    "geocoded_column": {
      "latitude": "29.930406646529782",
      "longitude": "-90.12025938783236"
    }
  },
  {
    "service_request": "2023-1018055",
    "request_type": "Roads/Drainage",
    "request_reason": "Pothole",
    "date_created": "2023-07-18T00:17:54.000",
    "date_modified": "2023-07-18T00:17:54.000",
    "request_status": "Pending",
    "responsible_agency": "Department of Public Works",
    "final_address": "1579 Henry Clay Ave",
    "address_councildis": "A",
    "status": "Pending",
    "rowid": "1018055",
    "final_x": "3665125.97453",
    "final_y": "522693.49369",
    "longitude": "-90.12006892685164",
    "latitude": "29.931712623369517",
    "geocoded_column": {
      "latitude": "29.931712623369517",
      "longitude": "-90.12006892685164"
    }
  },
  {
    "service_request": "2023-1018054",
    "request_type": "Roads/Drainage",
    "request_reason": "Pothole",
    "date_created": "2023-07-18T00:12:34.000",
    "date_modified": "2023-07-18T00:12:34.000",
    "request_status": "Pending",
    "responsible_agency": "Department of Public Works",
    "final_address": "1335 Henry Clay Ave",
    "address_councildis": "A",
    "status": "Pending",
    "rowid": "1018054",
    "final_x": "3664583.92992",
    "final_y": "521396.673465",
    "longitude": "-90.12182339366177",
    "latitude": "29.928162547529823",
    "geocoded_column": {
      "latitude": "29.928162547529823",
      "longitude": "-90.12182339366177"
    }
  },
  {
    "service_request": "2023-1018053",
    "request_type": "Mosquito, Termite & Rodent Control",
    "request_reason": "Mosquito Complaint",
    "date_created": "2023-07-17T23:46:09.000",
    "date_modified": "2023-07-17T23:46:09.000",
    "request_status": "Pending",
    "responsible_agency": "Mosquito, Termite & Rodent Control Board",
    "final_address": "12641 N Lake Carmel Dr",
    "address_councildis": "E",
    "status": "Pending",
    "rowid": "1018053",
    "final_x": "3716023.63557",
    "final_y": "568177.786341",
    "longitude": "-89.95766869916359",
    "latitude": "30.055196941851705",
    "geocoded_column": {
      "latitude": "30.055196941851705",
      "longitude": "-89.95766869916359"
    }
  },
  {
    "service_request": "2023-1018052",
    "request_type": "Traffic Signals/Signs/Striping/Streetlights",
    "request_reason": "Traffic Signal Malfunctioning/Damaged",
    "date_created": "2023-07-17T23:40:32.000",
    "date_modified": "2023-07-17T23:40:32.000",
    "request_status": "Pending",
    "responsible_agency": "Department of Public Works",
    "final_address": "CANAL ST & ROYAL ST",
    "address_councildis": "C",
    "status": "Pending",
    "rowid": "1018052",
    "final_x": "3681217.0",
    "final_y": "530712.28",
    "longitude": "-90.06899207564706",
    "latitude": "29.95328331567276",
    "geocoded_column": {
      "latitude": "29.95328331567276",
      "longitude": "-90.06899207564706"
    }
  },
  {
    "service_request": "2023-1018051",
    "request_type": "Roads/Drainage",
    "request_reason": "Pothole",
    "date_created": "2023-07-17T22:21:14.000",
    "date_modified": "2023-07-17T22:21:14.000",
    "request_status": "Pending",
    "responsible_agency": "Department of Public Works",
    "final_address": "3914 Camp St",
    "address_councildis": "B",
    "status": "Pending",
    "rowid": "1018051",
    "final_x": "3672887.95169",
    "final_y": "519291.163319",
    "longitude": "-90.09568120479007",
    "latitude": "29.9221290381954",
    "geocoded_column": {
      "latitude": "29.9221290381954",
      "longitude": "-90.09568120479007"
    }
  },
  {
    "service_request": "2023-1018050",
    "request_type": "Property Maintenance",
    "request_reason": "Property Maintenance",
    "date_created": "2023-07-17T22:02:05.000",
    "date_modified": "2023-07-17T22:02:05.000",
    "request_status": "Pending",
    "responsible_agency": "Department of Code Enforcement",
    "final_address": "2031 Jourdan Ave",
    "address_councildis": "E",
    "status": "Pending",
    "rowid": "1018050",
    "final_x": "3696102.77334",
    "final_y": "538097.338249",
    "longitude": "-90.02172252748531",
    "latitude": "29.973129575143023",
    "geocoded_column": {
      "latitude": "29.973129575143023",
      "longitude": "-90.02172252748531"
    }
  },
  {
    "service_request": "2023-1018049",
    "request_type": "Traffic Signals/Signs/Striping/Streetlights",
    "request_reason": "Street Light Outage/Malfunction",
    "date_created": "2023-07-17T21:44:22.000",
    "date_modified": "2023-07-17T21:44:23.000",
    "request_status": "Pending",
    "responsible_agency": "Department of Public Works",
    "final_address": "7217 Lake Willow Dr",
    "address_councildis": "E",
    "status": "Assigned to Contractor",
    "contractor": "Legacy Professional Services",
    "rowid": "1018049",
    "final_x": "3702503.82052",
    "final_y": "559935.892125",
    "longitude": "-90.00070476723864",
    "latitude": "30.032974356256556",
    "geocoded_column": {
      "latitude": "30.032974356256556",
      "longitude": "-90.00070476723864"
    }
  },
  {
    "service_request": "2023-1018048",
    "request_type": "Trash/Recycling",
    "request_reason": "Order Trash Cart",
    "date_created": "2023-07-17T21:22:04.000",
    "date_modified": "2023-07-17T21:22:04.000",
    "request_status": "Pending",
    "responsible_agency": "Department of Sanitation",
    "final_address": "4924 Rosalia Dr",
    "address_councildis": "E",
    "status": "Assigned to Contractor",
    "contractor": "Waste Pro",
    "rowid": "1018048",
    "final_x": "3711014.5187",
    "final_y": "556999.73577",
    "longitude": "-89.97392051482005",
    "latitude": "30.024626180472037",
    "geocoded_column": {
      "latitude": "30.024626180472037",
      "longitude": "-89.97392051482005"
    }
  },
  {
    "service_request": "2023-1018047",
    "request_type": "Traffic Signals/Signs/Striping/Streetlights",
    "request_reason": "Street Light Outage/Malfunction",
    "date_created": "2023-07-17T21:08:15.000",
    "date_modified": "2023-07-17T21:08:16.000",
    "request_status": "Pending",
    "responsible_agency": "Department of Public Works",
    "final_address": "76 Audubon Blvd",
    "address_councildis": "A",
    "status": "Assigned to Contractor",
    "contractor": "Legacy Professional Services",
    "rowid": "1018047",
    "final_x": "3665685.25613",
    "final_y": "527653.766335",
    "longitude": "-90.11813726209179",
    "latitude": "29.94533549199607",
    "geocoded_column": {
      "latitude": "29.94533549199607",
      "longitude": "-90.11813726209179"
    }
  },
  {
    "service_request": "2023-1018044",
    "request_type": "Parks & Parkways",
    "request_reason": "Request Tree Service (Right of Way/Public Property)",
    "date_created": "2023-07-17T21:00:21.000",
    "date_modified": "2023-07-17T21:00:22.000",
    "request_status": "Pending",
    "responsible_agency": "Department of Parks & Parkway",
    "final_address": "KERLEREC ST & BURGUNDY ST",
    "address_councildis": "C",
    "status": "Pending",
    "rowid": "1018044",
    "final_x": "3683397.3",
    "final_y": "535367.88",
    "longitude": "-90.06194452409039",
    "latitude": "29.96601829120931",
    "geocoded_column": {
      "latitude": "29.96601829120931",
      "longitude": "-90.06194452409039"
    }
  },
  {
    "service_request": "2023-1018043",
    "request_type": "Traffic Signals/Signs/Striping/Streetlights",
    "request_reason": "Street Light Outage/Malfunction",
    "date_created": "2023-07-17T20:55:39.000",
    "date_modified": "2023-07-17T20:55:40.000",
    "request_status": "Pending",
    "responsible_agency": "Department of Public Works",
    "final_address": "VENICE BLVD & WALES ST",
    "address_councildis": "E",
    "status": "Assigned to Contractor",
    "contractor": "Legacy Professional Services",
    "rowid": "1018043",
    "final_x": "3720560.9",
    "final_y": "574964.18",
    "longitude": "-89.94306725338646",
    "latitude": "30.073706112408942",
    "geocoded_column": {
      "latitude": "30.073706112408942",
      "longitude": "-89.94306725338646"
    }
  },
  {
    "service_request": "2023-1018042",
    "request_type": "Trash/Recycling",
    "request_reason": "Order Trash Cart",
    "date_created": "2023-07-17T20:53:35.000",
    "date_modified": "2023-07-17T20:53:35.000",
    "request_status": "Pending",
    "responsible_agency": "Department of Sanitation",
    "final_address": "6865 Colbert St",
    "address_councildis": "A",
    "status": "Assigned to Contractor",
    "contractor": "IV Waste",
    "rowid": "1018042",
    "final_x": "3668043.53185",
    "final_y": "553269.345431",
    "longitude": "-90.10982782601054",
    "latitude": "30.0157006955605",
    "geocoded_column": {
      "latitude": "30.0157006955605",
      "longitude": "-90.10982782601054"
    }
  },
  {
    "service_request": "2023-1018041",
    "request_type": "Trash/Recycling",
    "request_reason": "Start Trash Service",
    "date_created": "2023-07-17T20:52:48.000",
    "date_modified": "2023-07-17T20:52:49.000",
    "request_status": "Pending",
    "responsible_agency": "Department of Sanitation",
    "final_address": "6865 Colbert St",
    "address_councildis": "A",
    "status": "Assigned to Contractor",
    "contractor": "IV Waste",
    "rowid": "1018041",
    "final_x": "3668043.53185",
    "final_y": "553269.345431",
    "longitude": "-90.10982782601054",
    "latitude": "30.0157006955605",
    "geocoded_column": {
      "latitude": "30.0157006955605",
      "longitude": "-90.10982782601054"
    }
  },
  {
    "service_request": "2023-1018040",
    "request_type": "Property Maintenance",
    "request_reason": "Property Maintenance",
    "date_created": "2023-07-17T20:25:17.000",
    "date_modified": "2023-07-17T20:25:17.000",
    "request_status": "Pending",
    "responsible_agency": "Department of Code Enforcement",
    "final_address": "4043 S Inwood Ave",
    "address_councildis": "C",
    "status": "Pending",
    "rowid": "1018040",
    "final_x": "3705075.17406",
    "final_y": "513134.414642",
    "longitude": "-89.99430743049646",
    "latitude": "29.90420489926468",
    "geocoded_column": {
      "latitude": "29.90420489926468",
      "longitude": "-89.99430743049646"
    }
  },
  {
    "service_request": "2023-1018039",
    "request_type": "Abandoned Vehicles",
    "request_reason": "Abandoned/Junk Vehicles",
    "date_created": "2023-07-17T20:19:19.000",
    "date_modified": "2023-07-17T20:19:19.000",
    "request_status": "Pending",
    "responsible_agency": "Department of Public Works",
    "final_address": "1400 Alabo St",
    "address_councildis": "E",
    "status": "Pending",
    "rowid": "1018039",
    "final_x": "3699161.10916",
    "final_y": "534696.648518",
    "longitude": "-90.01218758897838",
    "latitude": "29.963682285964676",
    "geocoded_column": {
      "latitude": "29.963682285964676",
      "longitude": "-90.01218758897838"
    }
  },
  {
    "service_request": "2023-1018038",
    "request_type": "Abandoned Vehicles",
    "request_reason": "Abandoned/Junk Vehicles",
    "date_created": "2023-07-17T20:11:35.000",
    "date_modified": "2023-07-17T20:11:35.000",
    "request_status": "Pending",
    "responsible_agency": "Department of Public Works",
    "final_address": "1400 Allen Toussaint Blvd",
    "address_councildis": "D",
    "status": "Pending",
    "rowid": "1018038",
    "final_x": "3677704.23022",
    "final_y": "555156.085017",
    "longitude": "-90.0792391466304",
    "latitude": "30.02060137014106",
    "geocoded_column": {
      "latitude": "30.02060137014106",
      "longitude": "-90.0792391466304"
    }
  },
  {
    "service_request": "2023-1018037",
    "request_type": "Property Maintenance",
    "request_reason": "Property Maintenance",
    "date_created": "2023-07-17T20:08:30.000",
    "date_modified": "2023-07-17T20:08:30.000",
    "request_status": "Pending",
    "responsible_agency": "Department of Code Enforcement",
    "final_address": "4623 Metropolitan Dr",
    "address_councildis": "D",
    "status": "Pending",
    "rowid": "1018037",
    "final_x": "3690758.19484",
    "final_y": "550734.076117",
    "longitude": "-90.03815059562498",
    "latitude": "30.008043178263232",
    "geocoded_column": {
      "latitude": "30.008043178263232",
      "longitude": "-90.03815059562498"
    }
  },
  {
    "service_request": "2023-1018036",
    "request_type": "Mosquito, Termite & Rodent Control",
    "request_reason": "Mosquito Complaint",
    "date_created": "2023-07-17T20:02:05.000",
    "date_modified": "2023-07-17T20:02:06.000",
    "request_status": "Pending",
    "responsible_agency": "Mosquito, Termite & Rodent Control Board",
    "final_address": "10501 Prentiss Ave",
    "address_councildis": "E",
    "status": "Pending",
    "rowid": "1018036",
    "final_x": "3714427.16242",
    "final_y": "556449.37801",
    "longitude": "-89.96315806006128",
    "latitude": "30.023001148289023",
    "geocoded_column": {
      "latitude": "30.023001148289023",
      "longitude": "-89.96315806006128"
    }
  },
  {
    "service_request": "2023-1018034",
    "request_type": "Property Maintenance",
    "request_reason": "Property Maintenance",
    "date_created": "2023-07-17T19:48:46.000",
    "date_modified": "2023-07-17T19:48:46.000",
    "request_status": "Pending",
    "responsible_agency": "Department of Code Enforcement",
    "final_address": "2708 Robert St",
    "address_councildis": "B",
    "status": "Pending",
    "rowid": "1018034",
    "final_x": "3668778.91009",
    "final_y": "525389.728893",
    "longitude": "-90.10844599512791",
    "latitude": "29.939019544905587",
    "geocoded_column": {
      "latitude": "29.939019544905587",
      "longitude": "-90.10844599512791"
    }
  },
  {
    "service_request": "2023-1018033",
    "request_type": "Trash/Recycling",
    "request_reason": "Request a Large Item Pick Up",
    "date_created": "2023-07-17T19:45:52.000",
    "date_modified": "2023-07-17T19:45:52.000",
    "request_status": "Pending",
    "responsible_agency": "Department of Sanitation",
    "final_address": "9886 E Rockton Cir",
    "address_councildis": "E",
    "status": "Assigned to Contractor",
    "contractor": "Waste Pro",
    "rowid": "1018033",
    "final_x": "3708796.16235",
    "final_y": "563174.976864",
    "longitude": "-89.98069973426304",
    "latitude": "30.041677832891516",
    "geocoded_column": {
      "latitude": "30.041677832891516",
      "longitude": "-89.98069973426304"
    }
  },
  {
    "service_request": "2023-1018032",
    "request_type": "Abandoned Vehicles",
    "request_reason": "Abandoned/Junk Vehicles",
    "date_created": "2023-07-17T19:39:37.000",
    "date_modified": "2023-07-17T19:39:37.000",
    "request_status": "Pending",
    "responsible_agency": "Department of Public Works",
    "final_address": "305 Vallette St",
    "address_councildis": "C",
    "status": "Pending",
    "rowid": "1018032",
    "final_x": "3687518.14479",
    "final_y": "530729.834178",
    "longitude": "-90.04909519974422",
    "latitude": "29.95313890093693",
    "geocoded_column": {
      "latitude": "29.95313890093693",
      "longitude": "-90.04909519974422"
    }
  },
  {
    "service_request": "2023-1018031",
    "request_type": "Abandoned Vehicles",
    "request_reason": "Abandoned/Junk Vehicles",
    "date_created": "2023-07-17T19:34:19.000",
    "date_modified": "2023-07-17T19:34:19.000",
    "request_status": "Pending",
    "responsible_agency": "Department of Public Works",
    "final_address": "305 Vallette St",
    "address_councildis": "C",
    "status": "Pending",
    "rowid": "1018031",
    "final_x": "3687518.14479",
    "final_y": "530729.834178",
    "longitude": "-90.04909519974422",
    "latitude": "29.95313890093693",
    "geocoded_column": {
      "latitude": "29.95313890093693",
      "longitude": "-90.04909519974422"
    }
  },
  {
    "service_request": "2023-1018030",
    "request_type": "Parks & Parkways",
    "request_reason": "Request Tree Service (Right of Way/Public Property)",
    "date_created": "2023-07-17T19:31:43.000",
    "date_modified": "2023-07-17T19:31:43.000",
    "request_status": "Pending",
    "responsible_agency": "Department of Parks & Parkway",
    "final_address": "FRERET ST & STATE ST",
    "address_councildis": "A",
    "status": "Pending",
    "rowid": "1018030",
    "final_x": "3666387.4",
    "final_y": "524406.68",
    "longitude": "-90.1160292768105",
    "latitude": "29.93638655348985",
    "geocoded_column": {
      "latitude": "29.93638655348985",
      "longitude": "-90.1160292768105"
    }
  },
  {
    "service_request": "2023-1018029",
    "request_type": "Trash/Recycling",
    "request_reason": "Request a Large Item Pick Up",
    "date_created": "2023-07-17T19:28:31.000",
    "date_modified": "2023-07-17T19:28:32.000",
    "request_status": "Pending",
    "responsible_agency": "Department of Sanitation",
    "final_address": "4449 Werner Dr",
    "address_councildis": "E",
    "status": "Assigned to Contractor",
    "contractor": "Waste Pro",
    "rowid": "1018029",
    "final_x": "3705020.73316",
    "final_y": "553641.307863",
    "longitude": "-89.99298383279091",
    "latitude": "30.015585962724032",
    "geocoded_column": {
      "latitude": "30.015585962724032",
      "longitude": "-89.99298383279091"
    }
  },
  {
    "service_request": "2023-1018028",
    "request_type": "Abandoned Vehicles",
    "request_reason": "Vehicle Blocking Your Driveway",
    "date_created": "2023-07-17T19:21:26.000",
    "date_modified": "2023-07-17T19:21:26.000",
    "request_status": "Pending",
    "responsible_agency": "Department of Public Works",
    "final_address": "2430 Clover St",
    "address_councildis": "D",
    "status": "Pending",
    "rowid": "1018028",
    "final_x": "3686374.15964",
    "final_y": "546531.522257",
    "longitude": "-90.05214951692447",
    "latitude": "29.99662320462448",
    "geocoded_column": {
      "latitude": "29.99662320462448",
      "longitude": "-90.05214951692447"
    }
  },
  {
    "service_request": "2023-1018027",
    "request_type": "Parks & Parkways",
    "request_reason": "Tree Stump (removal, grind)",
    "date_created": "2023-07-17T19:06:14.000",
    "date_modified": "2023-07-17T19:06:14.000",
    "request_status": "Pending",
    "responsible_agency": "Department of Parks & Parkway",
    "final_address": "3331 Louisiana Avenue Prkwy",
    "address_councildis": "B",
    "status": "Pending",
    "rowid": "1018027",
    "final_x": "3671827.18324",
    "final_y": "527513.486911",
    "longitude": "-90.09874997138813",
    "latitude": "29.944769235532743",
    "geocoded_column": {
      "latitude": "29.944769235532743",
      "longitude": "-90.09874997138813"
    }
  },
  {
    "service_request": "2023-1018026",
    "request_type": "Trash/Recycling",
    "request_reason": "Replace Trash Cart",
    "date_created": "2023-07-17T19:00:24.000",
    "date_modified": "2023-07-17T19:00:25.000",
    "request_status": "Pending",
    "responsible_agency": "Department of Sanitation",
    "final_address": "5228 Tullis Dr",
    "address_councildis": "C",
    "status": "Assigned to Contractor",
    "contractor": "Richards Disposal",
    "rowid": "1018026",
    "final_x": "3703040.23716",
    "final_y": "511994.60312",
    "longitude": "-90.00077151454065",
    "latitude": "29.901136034452733",
    "geocoded_column": {
      "latitude": "29.901136034452733",
      "longitude": "-90.00077151454065"
    }
  },
  {
    "service_request": "2023-1018025",
    "request_type": "Trash/Recycling",
    "request_reason": "Replace Trash Cart",
    "date_created": "2023-07-17T19:00:17.000",
    "date_modified": "2023-07-17T19:00:18.000",
    "request_status": "Pending",
    "responsible_agency": "Department of Sanitation",
    "final_address": "5228 Tullis Dr",
    "address_councildis": "C",
    "status": "Assigned to Contractor",
    "contractor": "Richards Disposal",
    "rowid": "1018025",
    "final_x": "3703040.23716",
    "final_y": "511994.60312",
    "longitude": "-90.00077151454065",
    "latitude": "29.901136034452733",
    "geocoded_column": {
      "latitude": "29.901136034452733",
      "longitude": "-90.00077151454065"
    }
  },
  {
    "service_request": "2023-1018024",
    "request_type": "Trash/Recycling",
    "request_reason": "Replace Trash Cart",
    "date_created": "2023-07-17T19:00:13.000",
    "date_modified": "2023-07-17T19:00:13.000",
    "request_status": "Pending",
    "responsible_agency": "Department of Sanitation",
    "final_address": "5228 Tullis Dr",
    "address_councildis": "C",
    "status": "Assigned to Contractor",
    "contractor": "Richards Disposal",
    "rowid": "1018024",
    "final_x": "3703040.23716",
    "final_y": "511994.60312",
    "longitude": "-90.00077151454065",
    "latitude": "29.901136034452733",
    "geocoded_column": {
      "latitude": "29.901136034452733",
      "longitude": "-90.00077151454065"
    }
  },
  {
    "service_request": "2023-1018023",
    "request_type": "Property Maintenance",
    "request_reason": "Property Maintenance",
    "date_created": "2023-07-17T19:00:02.000",
    "date_modified": "2023-07-17T19:00:02.000",
    "request_status": "Pending",
    "responsible_agency": "Department of Code Enforcement",
    "final_address": "306 Octavia St",
    "address_councildis": "A",
    "status": "Pending",
    "rowid": "1018023",
    "final_x": "3666050.6048",
    "final_y": "517240.256565",
    "longitude": "-90.11733265534573",
    "latitude": "29.916690985392073",
    "geocoded_column": {
      "latitude": "29.916690985392073",
      "longitude": "-90.11733265534573"
    }
  },
  {
    "service_request": "2023-1018022",
    "request_type": "Trash/Recycling",
    "request_reason": "Request a Large Item Pick Up",
    "date_created": "2023-07-17T18:57:12.000",
    "date_modified": "2023-07-17T18:57:13.000",
    "request_status": "Pending",
    "responsible_agency": "Department of Sanitation",
    "final_address": "7721 Oak St",
    "address_councildis": "A",
    "status": "Assigned to Contractor",
    "contractor": "Richards Disposal",
    "rowid": "1018022",
    "final_x": "3662941.75482",
    "final_y": "527536.196863",
    "longitude": "-90.12680331982291",
    "latitude": "29.945091931763542",
    "geocoded_column": {
      "latitude": "29.945091931763542",
      "longitude": "-90.12680331982291"
    }
  },
  {
    "service_request": "2023-1018021",
    "request_type": "Trash/Recycling",
    "request_reason": "Replace Trash Cart",
    "date_created": "2023-07-17T18:56:06.000",
    "date_modified": "2023-07-17T18:56:07.000",
    "request_status": "Pending",
    "responsible_agency": "Department of Sanitation",
    "final_address": "5228 Tullis Dr",
    "address_councildis": "C",
    "status": "Assigned to Contractor",
    "contractor": "Richards Disposal",
    "rowid": "1018021",
    "final_x": "3703040.23716",
    "final_y": "511994.60312",
    "longitude": "-90.00077151454065",
    "latitude": "29.901136034452733",
    "geocoded_column": {
      "latitude": "29.901136034452733",
      "longitude": "-90.00077151454065"
    }
  },
  {
    "service_request": "2023-1018020",
    "request_type": "Trash/Recycling",
    "request_reason": "Request a Large Item Pick Up",
    "date_created": "2023-07-17T18:46:45.000",
    "date_modified": "2023-07-17T18:46:45.000",
    "request_status": "Pending",
    "responsible_agency": "Department of Sanitation",
    "final_address": "12400 N Lake Carmel Dr",
    "address_councildis": "E",
    "status": "Assigned to Contractor",
    "contractor": "Waste Pro",
    "rowid": "1018020",
    "final_x": "3715367.01125",
    "final_y": "567568.389604",
    "longitude": "-89.95976722187062",
    "latitude": "30.053543010614035",
    "geocoded_column": {
      "latitude": "30.053543010614035",
      "longitude": "-89.95976722187062"
    }
  },
  {
    "service_request": "2023-1018019",
    "request_type": "Trash/Recycling",
    "request_reason": "Repair Trash Cart",
    "date_created": "2023-07-17T18:36:28.000",
    "date_modified": "2023-07-17T18:36:29.000",
    "request_status": "Pending",
    "responsible_agency": "Department of Sanitation",
    "final_address": "844 Taft Pl",
    "address_councildis": "A",
    "status": "Assigned to Contractor",
    "contractor": "Richards Disposal",
    "rowid": "1018019",
    "final_x": "3673847.3515",
    "final_y": "539714.952458",
    "longitude": "-90.09195432536946",
    "latitude": "29.978259172620614",
    "geocoded_column": {
      "latitude": "29.978259172620614",
      "longitude": "-90.09195432536946"
    }
  },
  {
    "service_request": "2023-1018018",
    "request_type": "Trash/Recycling",
    "request_reason": "Repair Recycling Cart",
    "date_created": "2023-07-17T18:35:35.000",
    "date_modified": "2023-07-17T18:35:35.000",
    "request_status": "Pending",
    "responsible_agency": "Department of Sanitation",
    "final_address": "844 Taft Pl",
    "address_councildis": "A",
    "status": "Pending",
    "rowid": "1018018",
    "final_x": "3673847.3515",
    "final_y": "539714.952458",
    "longitude": "-90.09195432536946",
    "latitude": "29.978259172620614",
    "geocoded_column": {
      "latitude": "29.978259172620614",
      "longitude": "-90.09195432536946"
    }
  },
  {
    "service_request": "2023-1018017",
    "request_type": "Abandoned Vehicles",
    "request_reason": "Abandoned/Junk Vehicles",
    "date_created": "2023-07-17T18:34:04.000",
    "date_modified": "2023-07-17T18:34:04.000",
    "request_status": "Pending",
    "responsible_agency": "Department of Public Works",
    "final_address": "5201 Conti St",
    "address_councildis": "A",
    "status": "Pending",
    "rowid": "1018017",
    "final_x": "3668632.30234",
    "final_y": "541726.024076",
    "longitude": "-90.10835747807717",
    "latitude": "29.9839432600466",
    "geocoded_column": {
      "latitude": "29.9839432600466",
      "longitude": "-90.10835747807717"
    }
  },
  {
    "service_request": "2023-1018016",
    "request_type": "Trash/Recycling",
    "request_reason": "Order Recycling Cart",
    "date_created": "2023-07-17T18:33:39.000",
    "date_modified": "2023-07-17T18:33:39.000",
    "request_status": "Pending",
    "responsible_agency": "Department of Sanitation",
    "final_address": "1311 Burbank Dr",
    "address_councildis": "D",
    "status": "Pending",
    "rowid": "1018016",
    "final_x": "3676983.49845",
    "final_y": "554248.56508",
    "longitude": "-90.08154777148438",
    "latitude": "30.018127688477474",
    "geocoded_column": {
      "latitude": "30.018127688477474",
      "longitude": "-90.08154777148438"
    }
  },
  {
    "service_request": "2023-1018015",
    "request_type": "Abandoned Vehicles",
    "request_reason": "Abandoned/Junk Vehicles",
    "date_created": "2023-07-17T18:32:09.000",
    "date_modified": "2023-07-17T18:32:09.000",
    "request_status": "Pending",
    "responsible_agency": "Department of Public Works",
    "final_address": "5201 Conti St",
    "address_councildis": "A",
    "status": "Pending",
    "rowid": "1018015",
    "final_x": "3668632.30234",
    "final_y": "541726.024076",
    "longitude": "-90.10835747807717",
    "latitude": "29.9839432600466",
    "geocoded_column": {
      "latitude": "29.9839432600466",
      "longitude": "-90.10835747807717"
    }
  },
  {
    "service_request": "2023-1018014",
    "request_type": "Roads/Drainage",
    "request_reason": "Street Flooding / Drainage",
    "date_created": "2023-07-17T18:27:31.000",
    "date_modified": "2023-07-17T18:27:31.000",
    "request_status": "Pending",
    "responsible_agency": "Department of Public Works",
    "final_address": "4731 Pauline Dr",
    "address_councildis": "D",
    "status": "Pending",
    "rowid": "1018014",
    "final_x": "3692673.51376",
    "final_y": "551434.803925",
    "longitude": "-90.03207440624362",
    "latitude": "30.009910252920537",
    "geocoded_column": {
      "latitude": "30.009910252920537",
      "longitude": "-90.03207440624362"
    }
  },
  {
    "service_request": "2023-1018013",
    "request_type": "Trash/Recycling",
    "request_reason": "Request a Large Item Pick Up",
    "date_created": "2023-07-17T18:26:39.000",
    "date_modified": "2023-07-17T18:26:40.000",
    "request_status": "Pending",
    "responsible_agency": "Department of Sanitation",
    "final_address": "2812 St Claude Ave",
    "address_councildis": "C",
    "status": "Assigned to Contractor",
    "contractor": "IV Waste",
    "rowid": "1018013",
    "final_x": "3687827.7135",
    "final_y": "536253.968647",
    "longitude": "-90.04792204444968",
    "latitude": "29.96831881310011",
    "geocoded_column": {
      "latitude": "29.96831881310011",
      "longitude": "-90.04792204444968"
    }
  },
  {
    "service_request": "2023-1018012",
    "request_type": "Trash/Recycling",
    "request_reason": "Order Recycling Cart",
    "date_created": "2023-07-17T18:19:52.000",
    "date_modified": "2023-07-17T18:19:52.000",
    "request_status": "Pending",
    "responsible_agency": "Department of Sanitation",
    "final_address": "1134 Eighth St",
    "address_councildis": "B",
    "status": "Pending",
    "rowid": "1018012",
    "final_x": "3675910.11265",
    "final_y": "520428.318584",
    "longitude": "-90.08610241741411",
    "latitude": "29.925165744260227",
    "geocoded_column": {
      "latitude": "29.925165744260227",
      "longitude": "-90.08610241741411"
    }
  },
  {
    "service_request": "2023-1018011",
    "request_type": "Trash/Recycling",
    "request_reason": "Replace Trash Cart",
    "date_created": "2023-07-17T18:18:43.000",
    "date_modified": "2023-07-17T18:18:44.000",
    "request_status": "Pending",
    "responsible_agency": "Department of Sanitation",
    "final_address": "710 Milan St",
    "address_councildis": "B",
    "status": "Assigned to Contractor",
    "contractor": "Richards Disposal",
    "rowid": "1018011",
    "final_x": "3671827.46311",
    "final_y": "518217.526326",
    "longitude": "-90.09906523970139",
    "latitude": "29.919208332051454",
    "geocoded_column": {
      "latitude": "29.919208332051454",
      "longitude": "-90.09906523970139"
    }
  },
  {
    "service_request": "2023-1018010",
    "request_type": "Traffic Signals/Signs/Striping/Streetlights",
    "request_reason": "Street Name Sign Damaged or Missing",
    "date_created": "2023-07-17T18:15:01.000",
    "date_modified": "2023-07-17T18:15:01.000",
    "request_status": "Pending",
    "responsible_agency": "Department of Public Works",
    "final_address": "TENNYSON PL & WOODLAND DR & FAIRFAX PL",
    "address_councildis": "C",
    "status": "Pending",
    "rowid": "1018010",
    "final_x": "3705470.4",
    "final_y": "517449.48",
    "longitude": "-89.99290078938418",
    "latitude": "29.916057142497582",
    "geocoded_column": {
      "latitude": "29.916057142497582",
      "longitude": "-89.99290078938418"
    }
  },
  {
    "service_request": "2023-1018009",
    "request_type": "Roads/Drainage",
    "request_reason": "Street Subsidence (Sinking)",
    "date_created": "2023-07-17T18:12:15.000",
    "date_modified": "2023-07-17T18:12:15.000",
    "request_status": "Pending",
    "responsible_agency": "Department of Public Works",
    "final_address": "TENNYSON PL & WOODLAND DR & FAIRFAX PL",
    "address_councildis": "C",
    "status": "Pending",
    "rowid": "1018009",
    "final_x": "3705470.4",
    "final_y": "517449.48",
    "longitude": "-89.99290078938418",
    "latitude": "29.916057142497582",
    "geocoded_column": {
      "latitude": "29.916057142497582",
      "longitude": "-89.99290078938418"
    }
  },
  {
    "service_request": "2023-1018008",
    "request_type": "Trash/Recycling",
    "request_reason": "Order Recycling Cart",
    "date_created": "2023-07-17T18:11:57.000",
    "date_modified": "2023-07-17T18:11:57.000",
    "request_status": "Pending",
    "responsible_agency": "Department of Sanitation",
    "final_address": "6803 Louis Xiv St",
    "address_councildis": "A",
    "status": "Pending",
    "rowid": "1018008",
    "final_x": "3668672.77313",
    "final_y": "552759.890262",
    "longitude": "-90.10785691816447",
    "latitude": "30.014281383969088",
    "geocoded_column": {
      "latitude": "30.014281383969088",
      "longitude": "-90.10785691816447"
    }
  },
  {
    "service_request": "2023-1018007",
    "request_type": "Traffic Signals/Signs/Striping/Streetlights",
    "request_reason": "Street Light Outage/Malfunction",
    "date_created": "2023-07-17T18:11:20.000",
    "date_modified": "2023-07-17T18:11:21.000",
    "request_status": "Pending",
    "responsible_agency": "Department of Public Works",
    "final_address": "1470 Annunciation St",
    "address_councildis": "B",
    "status": "Assigned to Contractor",
    "contractor": "Legacy Professional Services",
    "rowid": "1018007",
    "final_x": "3681092.03253",
    "final_y": "523787.941115",
    "longitude": "-90.06962779989148",
    "latitude": "29.934247489613004",
    "geocoded_column": {
      "latitude": "29.934247489613004",
      "longitude": "-90.06962779989148"
    }
  },
  {
    "service_request": "2023-1018006",
    "request_type": "Trash/Recycling",
    "request_reason": "Replace Recycling Cart",
    "date_created": "2023-07-17T18:11:16.000",
    "date_modified": "2023-07-17T18:11:16.000",
    "request_status": "Pending",
    "responsible_agency": "Department of Sanitation",
    "final_address": "636 Seguin St",
    "address_councildis": "C",
    "status": "Pending",
    "rowid": "1018006",
    "final_x": "3686843.99785",
    "final_y": "529438.089793",
    "longitude": "-90.05126949447741",
    "latitude": "29.949607804132864",
    "geocoded_column": {
      "latitude": "29.949607804132864",
      "longitude": "-90.05126949447741"
    }
  },
  {
    "service_request": "2023-1018005",
    "request_type": "Trash/Recycling",
    "request_reason": "Replace Trash Cart",
    "date_created": "2023-07-17T17:57:17.000",
    "date_modified": "2023-07-17T17:57:17.000",
    "request_status": "Pending",
    "responsible_agency": "Department of Sanitation",
    "final_address": "7131 Pinebrook Dr",
    "address_councildis": "E",
    "status": "Assigned to Contractor",
    "contractor": "Waste Pro",
    "rowid": "1018005",
    "final_x": "3719390.91026",
    "final_y": "570180.165031",
    "longitude": "-89.94694898382629",
    "latitude": "30.06059106299396",
    "geocoded_column": {
      "latitude": "30.06059106299396",
      "longitude": "-89.94694898382629"
    }
  },
  {
    "service_request": "2023-1018004",
    "request_type": "Trash/Recycling",
    "request_reason": "Missed Trash Pick-Up",
    "date_created": "2023-07-17T17:53:10.000",
    "date_modified": "2023-07-17T17:53:11.000",
    "request_status": "Pending",
    "responsible_agency": "Department of Sanitation",
    "final_address": "1015 N Salcedo St",
    "address_councildis": "A",
    "status": "Assigned to Contractor",
    "contractor": "Richards Disposal",
    "rowid": "1018004",
    "final_x": "3676236.94766",
    "final_y": "538975.785994",
    "longitude": "-90.08443255819074",
    "latitude": "29.976155318048335",
    "geocoded_column": {
      "latitude": "29.976155318048335",
      "longitude": "-90.08443255819074"
    }
  },
  {
    "service_request": "2023-1018003",
    "request_type": "Roads/Drainage",
    "request_reason": "Pothole",
    "date_created": "2023-07-17T17:47:30.000",
    "date_modified": "2023-07-17T17:47:30.000",
    "request_status": "Pending",
    "responsible_agency": "Department of Public Works",
    "final_address": "3719 Camp St",
    "address_councildis": "B",
    "status": "Pending",
    "rowid": "1018003",
    "final_x": "3673390.5684",
    "final_y": "519487.602743",
    "longitude": "-90.09408794366054",
    "latitude": "29.9226542464518",
    "geocoded_column": {
      "latitude": "29.9226542464518",
      "longitude": "-90.09408794366054"
    }
  },
  {
    "service_request": "2023-1018002",
    "request_type": "Trash/Recycling",
    "request_reason": "Missed Trash Pick-Up",
    "date_created": "2023-07-17T17:44:21.000",
    "date_modified": "2023-07-17T17:44:21.000",
    "request_status": "Pending",
    "responsible_agency": "Department of Sanitation",
    "final_address": "2821 St Peter St",
    "address_councildis": "A",
    "status": "Assigned to Contractor",
    "contractor": "Richards Disposal",
    "rowid": "1018002",
    "final_x": "3676075.24507",
    "final_y": "537345.791304",
    "longitude": "-90.08499934779233",
    "latitude": "29.971678234926454",
    "geocoded_column": {
      "latitude": "29.971678234926454",
      "longitude": "-90.08499934779233"
    }
  },
  {
    "service_request": "2023-1018001",
    "request_type": "Trash/Recycling",
    "request_reason": "Request a Large Item Pick Up",
    "date_created": "2023-07-17T17:41:50.000",
    "date_modified": "2023-07-17T17:41:50.000",
    "request_status": "Pending",
    "responsible_agency": "Department of Sanitation",
    "final_address": "7322 Ebbtide Dr",
    "address_councildis": "E",
    "status": "Assigned to Contractor",
    "contractor": "Waste Pro",
    "rowid": "1018001",
    "final_x": "3702472.81668",
    "final_y": "560573.074654",
    "longitude": "-90.00077932497862",
    "latitude": "30.03472735130149",
    "geocoded_column": {
      "latitude": "30.03472735130149",
      "longitude": "-90.00077932497862"
    }
  },
  {
    "service_request": "2023-1018000",
    "request_type": "Trash/Recycling",
    "request_reason": "Request a Large Item Pick Up",
    "date_created": "2023-07-17T17:40:58.000",
    "date_modified": "2023-07-17T17:40:59.000",
    "request_status": "Pending",
    "responsible_agency": "Department of Sanitation",
    "final_address": "1353 Annette St",
    "address_councildis": "C",
    "status": "Assigned to Contractor",
    "contractor": "IV Waste",
    "rowid": "1018000",
    "final_x": "3683106.98664",
    "final_y": "536988.899336",
    "longitude": "-90.06280456283635",
    "latitude": "29.97048438857825",
    "geocoded_column": {
      "latitude": "29.97048438857825",
      "longitude": "-90.06280456283635"
    }
  },
  {
    "service_request": "2023-1017999",
    "request_type": "Trash/Recycling",
    "request_reason": "Missed Trash Pick-Up",
    "date_created": "2023-07-17T17:31:58.000",
    "date_modified": "2023-07-17T17:31:58.000",
    "request_status": "Pending",
    "responsible_agency": "Department of Sanitation",
    "final_address": "230 S Dupre St",
    "address_councildis": "B",
    "status": "Assigned to Contractor",
    "contractor": "Richards Disposal",
    "rowid": "1017999",
    "final_x": "3674228.30376",
    "final_y": "535051.024774",
    "longitude": "-90.09091085887941",
    "latitude": "29.96542360081309",
    "geocoded_column": {
      "latitude": "29.96542360081309",
      "longitude": "-90.09091085887941"
    }
  },
  {
    "service_request": "2023-1017998",
    "request_type": "Property Maintenance",
    "request_reason": "Property Maintenance",
    "date_created": "2023-07-17T17:31:29.000",
    "date_modified": "2023-07-17T17:31:29.000",
    "request_status": "Pending",
    "responsible_agency": "Department of Code Enforcement",
    "final_address": "422 Country Club Dr",
    "address_councildis": "A",
    "status": "Pending",
    "rowid": "1017998",
    "final_x": "3664255.87252",
    "final_y": "544237.185038",
    "longitude": "-90.12209682630302",
    "latitude": "29.990976026474808",
    "geocoded_column": {
      "latitude": "29.990976026474808",
      "longitude": "-90.12209682630302"
    }
  },
  {
    "service_request": "2023-1017996",
    "request_type": "Property Maintenance",
    "request_reason": "Property Maintenance",
    "date_created": "2023-07-17T17:28:40.000",
    "date_modified": "2023-07-17T17:28:40.000",
    "request_status": "Pending",
    "responsible_agency": "Department of Code Enforcement",
    "final_address": "5811 Bellaire Dr",
    "address_councildis": "A",
    "status": "Pending",
    "rowid": "1017996",
    "final_x": "3664258.34292",
    "final_y": "546516.597137",
    "longitude": "-90.1220129069545",
    "latitude": "29.99724356207445",
    "geocoded_column": {
      "latitude": "29.99724356207445",
      "longitude": "-90.1220129069545"
    }
  },
  {
    "service_request": "2023-1017995",
    "request_type": "Roads/Drainage",
    "request_reason": "Accessibility Ramps, Curbs and Sidewalk Repair",
    "date_created": "2023-07-17T17:28:08.000",
    "date_modified": "2023-07-17T17:28:08.000",
    "request_status": "Pending",
    "responsible_agency": "Department of Public Works",
    "final_address": "2123 N Villere St",
    "address_councildis": "C",
    "status": "Pending",
    "rowid": "1017995",
    "final_x": "3684712.78837",
    "final_y": "537424.038984",
    "longitude": "-90.05771796745086",
    "latitude": "29.971631814762965",
    "geocoded_column": {
      "latitude": "29.971631814762965",
      "longitude": "-90.05771796745086"
    }
  },
  {
    "service_request": "2023-1017994",
    "request_type": "Abandoned Vehicles",
    "request_reason": "Abandoned/Junk Vehicles",
    "date_created": "2023-07-17T17:25:05.000",
    "date_modified": "2023-07-17T17:25:05.000",
    "request_status": "Pending",
    "responsible_agency": "Department of Public Works",
    "final_address": "1621 Washington Ave",
    "address_councildis": "B",
    "status": "Pending",
    "rowid": "1017994",
    "final_x": "3675854.42645",
    "final_y": "522903.231803",
    "longitude": "-90.08619316923972",
    "latitude": "29.93197261935882",
    "geocoded_column": {
      "latitude": "29.93197261935882",
      "longitude": "-90.08619316923972"
    }
  },
  {
    "service_request": "2023-1017993",
    "request_type": "Roads/Drainage",
    "request_reason": "Street Subsidence (Sinking)",
    "date_created": "2023-07-17T17:24:41.000",
    "date_modified": "2023-07-17T17:24:41.000",
    "request_status": "Pending",
    "responsible_agency": "Department of Public Works",
    "final_address": "5001 Perlita St",
    "address_councildis": "D",
    "status": "Pending",
    "rowid": "1017993",
    "final_x": "3678824.21403",
    "final_y": "550600.930068",
    "longitude": "-90.07585828364795",
    "latitude": "30.008042585289",
    "geocoded_column": {
      "latitude": "30.008042585289",
      "longitude": "-90.07585828364795"
    }
  },
  {
    "service_request": "2023-1017992",
    "request_type": "Trash/Recycling",
    "request_reason": "Missed Trash Pick-Up",
    "date_created": "2023-07-17T17:18:00.000",
    "date_modified": "2023-07-17T17:18:01.000",
    "request_status": "Pending",
    "responsible_agency": "Department of Sanitation",
    "final_address": "709 N Salcedo St, New Orleans, Louisiana, 70119",
    "address_councildis": "A",
    "status": "Assigned to Contractor",
    "contractor": "Richards Disposal",
    "rowid": "1017992",
    "final_x": "3675428.95809",
    "final_y": "537912.177609",
    "longitude": "-90.08702096685914",
    "latitude": "29.973254948724637",
    "geocoded_column": {
      "latitude": "29.973254948724637",
      "longitude": "-90.08702096685914"
    }
  },
  {
    "service_request": "2023-1017991",
    "request_type": "Property Maintenance",
    "request_reason": "Property Maintenance",
    "date_created": "2023-07-17T17:10:08.000",
    "date_modified": "2023-07-17T17:10:08.000",
    "request_status": "Pending",
    "responsible_agency": "Department of Code Enforcement",
    "final_address": "216 Fairfax Pl",
    "address_councildis": "C",
    "status": "Pending",
    "rowid": "1017991",
    "final_x": "3706712.74129",
    "final_y": "517507.355382",
    "longitude": "-89.98897736311484",
    "latitude": "29.91617625975911",
    "geocoded_column": {
      "latitude": "29.91617625975911",
      "longitude": "-89.98897736311484"
    }
  },
  {
    "service_request": "2023-1017990",
    "request_type": "Trash/Recycling",
    "request_reason": "Replace Recycling Cart",
    "date_created": "2023-07-17T17:09:46.000",
    "date_modified": "2023-07-17T17:09:46.000",
    "request_status": "Pending",
    "responsible_agency": "Department of Sanitation",
    "final_address": "1411 Burbank Dr",
    "address_councildis": "D",
    "status": "Pending",
    "rowid": "1017990",
    "final_x": "3677574.3348",
    "final_y": "554302.73276",
    "longitude": "-90.0796790779699",
    "latitude": "30.018258868820748",
    "geocoded_column": {
      "latitude": "30.018258868820748",
      "longitude": "-90.0796790779699"
    }
  },
  {
    "service_request": "2023-1017989",
    "request_type": "Trash/Recycling",
    "request_reason": "Request a Large Item Pick Up",
    "date_created": "2023-07-17T17:08:40.000",
    "date_modified": "2023-07-17T17:08:41.000",
    "request_status": "Pending",
    "responsible_agency": "Department of Sanitation",
    "final_address": "7343 Read Blvd",
    "address_councildis": "E",
    "status": "Assigned to Contractor",
    "contractor": "Waste Pro",
    "rowid": "1017989",
    "final_x": "3709306.2364",
    "final_y": "563243.791136",
    "longitude": "-89.97908515689079",
    "latitude": "30.041850478552938",
    "geocoded_column": {
      "latitude": "30.041850478552938",
      "longitude": "-89.97908515689079"
    }
  },
  {
    "service_request": "2023-1017988",
    "request_type": "Trash/Recycling",
    "request_reason": "Repair Recycling Cart",
    "date_created": "2023-07-17T17:07:40.000",
    "date_modified": "2023-07-17T17:07:40.000",
    "request_status": "Pending",
    "responsible_agency": "Department of Sanitation",
    "final_address": "2620 Halsey Ave",
    "address_councildis": "C",
    "status": "Pending",
    "rowid": "1017988",
    "final_x": "3697744.01827",
    "final_y": "521534.038969",
    "longitude": "-90.01714005106504",
    "latitude": "29.92753455717527",
    "geocoded_column": {
      "latitude": "29.92753455717527",
      "longitude": "-90.01714005106504"
    }
  },
  {
    "service_request": "2023-1017987",
    "request_type": "Trash/Recycling",
    "request_reason": "Missed Trash Pick-Up",
    "date_created": "2023-07-17T17:05:10.000",
    "date_modified": "2023-07-17T17:05:10.000",
    "request_status": "Pending",
    "responsible_agency": "Department of Sanitation",
    "final_address": "1401 S Rendon St",
    "address_councildis": "B",
    "status": "Assigned to Contractor",
    "contractor": "Richards Disposal",
    "rowid": "1017987",
    "final_x": "3670077.35284",
    "final_y": "531554.604995",
    "longitude": "-90.10413785485666",
    "latitude": "29.955932710853986",
    "geocoded_column": {
      "latitude": "29.955932710853986",
      "longitude": "-90.10413785485666"
    }
  },
  {
    "service_request": "2023-1017986",
    "request_type": "Abandoned Vehicles",
    "request_reason": "Abandoned/Junk Vehicles",
    "date_created": "2023-07-17T16:59:36.000",
    "date_modified": "2023-07-17T16:59:36.000",
    "request_status": "Pending",
    "responsible_agency": "Department of Public Works",
    "final_address": "2700 BLK Spain St",
    "address_councildis": "D",
    "status": "Pending",
    "rowid": "1017986",
    "final_x": "3685613.42172",
    "final_y": "542862.666359",
    "longitude": "-90.0546819692534",
    "latitude": "29.986558526820584",
    "geocoded_column": {
      "latitude": "29.986558526820584",
      "longitude": "-90.0546819692534"
    }
  },
  {
    "service_request": "2023-1017985",
    "request_type": "Traffic Signals/Signs/Striping/Streetlights",
    "request_reason": "Traffic Sign Missing/Damaged",
    "date_created": "2023-07-17T16:55:28.000",
    "date_modified": "2023-07-17T16:55:28.000",
    "request_status": "Pending",
    "responsible_agency": "Department of Public Works",
    "final_address": "CATON ST & GENTILLY BLVD",
    "address_councildis": "D",
    "status": "Pending",
    "rowid": "1017985",
    "final_x": "3683861.68",
    "final_y": "547329.14",
    "longitude": "-90.06005828404274",
    "latitude": "29.998893372885753",
    "geocoded_column": {
      "latitude": "29.998893372885753",
      "longitude": "-90.06005828404274"
    }
  },
  {
    "service_request": "2023-1017984",
    "request_type": "Trash/Recycling",
    "request_reason": "Missed Trash Pick-Up",
    "date_created": "2023-07-17T16:54:40.000",
    "date_modified": "2023-07-17T17:42:40.000",
    "case_close_date": "2023-07-17T12:42:40.000",
    "request_status": "Closed",
    "responsible_agency": "Department of Sanitation",
    "final_address": "5427 N Villere St",
    "address_councildis": "E",
    "status": "Invalid Request",
    "contractor": "Waste Pro",
    "contractor_action": "Invalid Pick-Up",
    "rowid": "1017984",
    "final_x": "3697692.17168",
    "final_y": "535050.568582",
    "longitude": "-90.01681347734653",
    "latitude": "29.964701928474042",
    "geocoded_column": {
      "latitude": "29.964701928474042",
      "longitude": "-90.01681347734653"
    }
  },
  {
    "service_request": "2023-1017983",
    "request_type": "Trash/Recycling",
    "request_reason": "MIssed Recycling Pick-Up",
    "date_created": "2023-07-17T16:53:32.000",
    "date_modified": "2023-07-17T16:53:32.000",
    "request_status": "Pending",
    "responsible_agency": "Department of Sanitation",
    "final_address": "5427 N Villere St",
    "address_councildis": "E",
    "status": "Assigned to Contractor",
    "contractor": "Waste Pro",
    "rowid": "1017983",
    "final_x": "3697692.17168",
    "final_y": "535050.568582",
    "longitude": "-90.01681347734653",
    "latitude": "29.964701928474042",
    "geocoded_column": {
      "latitude": "29.964701928474042",
      "longitude": "-90.01681347734653"
    }
  },
  {
    "service_request": "2023-1017982",
    "request_type": "Property Maintenance",
    "request_reason": "Property Maintenance",
    "date_created": "2023-07-17T16:42:25.000",
    "date_modified": "2023-07-17T16:42:26.000",
    "request_status": "Pending",
    "responsible_agency": "Department of Code Enforcement",
    "final_address": "5016 Madrid St",
    "address_councildis": "D",
    "status": "Pending",
    "rowid": "1017982",
    "final_x": "3691304.13616",
    "final_y": "556165.939482",
    "longitude": "-90.03623154502134",
    "latitude": "30.022961803130304",
    "geocoded_column": {
      "latitude": "30.022961803130304",
      "longitude": "-90.03623154502134"
    }
  },
  {
    "service_request": "2023-1017981",
    "request_type": "Roads/Drainage",
    "request_reason": "Pothole",
    "date_created": "2023-07-17T16:41:36.000",
    "date_modified": "2023-07-17T16:41:37.000",
    "request_status": "Pending",
    "responsible_agency": "Department of Public Works",
    "final_address": "8138 Jeannette St",
    "address_councildis": "A",
    "status": "Pending",
    "rowid": "1017981",
    "final_x": "3662445.50579",
    "final_y": "529305.378433",
    "longitude": "-90.12831139629516",
    "latitude": "29.949970972672084",
    "geocoded_column": {
      "latitude": "29.949970972672084",
      "longitude": "-90.12831139629516"
    }
  },
  {
    "service_request": "2023-1017980",
    "request_type": "Roads/Drainage",
    "request_reason": "Damaged Sidewalk",
    "date_created": "2023-07-17T16:40:52.000",
    "date_modified": "2023-07-17T16:40:52.000",
    "request_status": "Pending",
    "responsible_agency": "Department of Public Works",
    "final_address": "2622 Florida Ave",
    "address_councildis": "D",
    "status": "Pending",
    "rowid": "1017980",
    "final_x": "3686571.20681",
    "final_y": "542316.505229",
    "longitude": "-90.05167598991758",
    "latitude": "29.985027354804",
    "geocoded_column": {
      "latitude": "29.985027354804",
      "longitude": "-90.05167598991758"
    }
  },
  {
    "service_request": "2023-1017979",
    "request_type": "Trash/Recycling",
    "request_reason": "MIssed Recycling Pick-Up",
    "date_created": "2023-07-17T16:36:39.000",
    "date_modified": "2023-07-17T16:36:39.000",
    "request_status": "Pending",
    "responsible_agency": "Department of Sanitation",
    "final_address": "6065 General Meyer Ave",
    "address_councildis": "C",
    "status": "Assigned to Contractor",
    "contractor": "Richards Disposal",
    "rowid": "1017979",
    "final_x": "3706429.86993",
    "final_y": "520953.953593",
    "longitude": "-89.98974264689541",
    "latitude": "29.925662328529434",
    "geocoded_column": {
      "latitude": "29.925662328529434",
      "longitude": "-89.98974264689541"
    }
  },
  {
    "service_request": "2023-1017978",
    "request_type": "Trash/Recycling",
    "request_reason": "Repair Recycling Cart",
    "date_created": "2023-07-17T16:33:18.000",
    "date_modified": "2023-07-17T16:33:18.000",
    "request_status": "Pending",
    "responsible_agency": "Department of Sanitation",
    "final_address": "6863 Argonne Blvd",
    "address_councildis": "A",
    "status": "Pending",
    "rowid": "1017978",
    "final_x": "3670753.71278",
    "final_y": "553002.998679",
    "longitude": "-90.10127391152116",
    "latitude": "30.014888486763482",
    "geocoded_column": {
      "latitude": "30.014888486763482",
      "longitude": "-90.10127391152116"
    }
  },
  {
    "service_request": "2023-1017977",
    "request_type": "Trash/Recycling",
    "request_reason": "Repair Recycling Cart",
    "date_created": "2023-07-17T16:33:08.000",
    "date_modified": "2023-07-17T16:33:08.000",
    "request_status": "Pending",
    "responsible_agency": "Department of Sanitation",
    "final_address": "6863 Argonne Blvd",
    "address_councildis": "A",
    "status": "Pending",
    "rowid": "1017977",
    "final_x": "3670753.71278",
    "final_y": "553002.998679",
    "longitude": "-90.10127391152116",
    "latitude": "30.014888486763482",
    "geocoded_column": {
      "latitude": "30.014888486763482",
      "longitude": "-90.10127391152116"
    }
  },
  {
    "service_request": "2023-1017976",
    "request_type": "Trash/Recycling",
    "request_reason": "Repair Recycling Cart",
    "date_created": "2023-07-17T16:32:58.000",
    "date_modified": "2023-07-17T16:32:58.000",
    "request_status": "Pending",
    "responsible_agency": "Department of Sanitation",
    "final_address": "6863 Argonne Blvd",
    "address_councildis": "A",
    "status": "Pending",
    "rowid": "1017976",
    "final_x": "3670753.71278",
    "final_y": "553002.998679",
    "longitude": "-90.10127391152116",
    "latitude": "30.014888486763482",
    "geocoded_column": {
      "latitude": "30.014888486763482",
      "longitude": "-90.10127391152116"
    }
  },
  {
    "service_request": "2023-1017975",
    "request_type": "Trash/Recycling",
    "request_reason": "Request a Large Item Pick Up",
    "date_created": "2023-07-17T16:31:11.000",
    "date_modified": "2023-07-17T16:31:11.000",
    "request_status": "Pending",
    "responsible_agency": "Department of Sanitation",
    "final_address": "4945 Wright Rd",
    "address_councildis": "E",
    "status": "Assigned to Contractor",
    "contractor": "Waste Pro",
    "rowid": "1017975",
    "final_x": "3716694.34412",
    "final_y": "557904.820059",
    "longitude": "-89.95593907400654",
    "latitude": "30.026928295221392",
    "geocoded_column": {
      "latitude": "30.026928295221392",
      "longitude": "-89.95593907400654"
    }
  },
  {
    "service_request": "2023-1017974",
    "request_type": "Trash/Recycling",
    "request_reason": "Request a Large Item Pick Up",
    "date_created": "2023-07-17T16:30:01.000",
    "date_modified": "2023-07-17T16:30:01.000",
    "request_status": "Pending",
    "responsible_agency": "Department of Sanitation",
    "final_address": "4522 America St",
    "address_councildis": "E",
    "status": "Assigned to Contractor",
    "contractor": "Waste Pro",
    "rowid": "1017974",
    "final_x": "3699778.82922",
    "final_y": "553840.541719",
    "longitude": "-90.00953847209826",
    "latitude": "30.016301338546658",
    "geocoded_column": {
      "latitude": "30.016301338546658",
      "longitude": "-90.00953847209826"
    }
  },
  {
    "service_request": "2023-1017973",
    "request_type": "Trash/Recycling",
    "request_reason": "Request a Large Item Pick Up",
    "date_created": "2023-07-17T16:25:09.000",
    "date_modified": "2023-07-17T16:25:09.000",
    "request_status": "Pending",
    "responsible_agency": "Department of Sanitation",
    "final_address": "1232 S Saratoga St",
    "address_councildis": "B",
    "status": "Assigned to Contractor",
    "contractor": "Richards Disposal",
    "rowid": "1017973",
    "final_x": "3677946.82242",
    "final_y": "527161.711039",
    "longitude": "-90.0794405778039",
    "latitude": "29.943619247997038",
    "geocoded_column": {
      "latitude": "29.943619247997038",
      "longitude": "-90.0794405778039"
    }
  },
  {
    "service_request": "2023-1017972",
    "request_type": "Trash/Recycling",
    "request_reason": "Order Recycling Cart",
    "date_created": "2023-07-17T16:23:21.000",
    "date_modified": "2023-07-17T16:23:21.000",
    "request_status": "Pending",
    "responsible_agency": "Department of Sanitation",
    "final_address": "5029 S Prieur St",
    "address_councildis": "B",
    "status": "Pending",
    "rowid": "1017972",
    "final_x": "3668670.06881",
    "final_y": "526642.696382",
    "longitude": "-90.10874734481035",
    "latitude": "29.94246799963137",
    "geocoded_column": {
      "latitude": "29.94246799963137",
      "longitude": "-90.10874734481035"
    }
  },
  {
    "service_request": "2023-1017971",
    "request_type": "Trash/Recycling",
    "request_reason": "Request a Large Item Pick Up",
    "date_created": "2023-07-17T16:19:01.000",
    "date_modified": "2023-07-17T16:19:01.000",
    "request_status": "Pending",
    "responsible_agency": "Department of Sanitation",
    "final_address": "4500 San Marco Rd",
    "address_councildis": "E",
    "status": "Assigned to Contractor",
    "contractor": "Waste Pro",
    "rowid": "1017971",
    "final_x": "3762511.0184",
    "final_y": "573285.592554",
    "longitude": "-89.81052098641185",
    "latitude": "30.067624516855204",
    "geocoded_column": {
      "latitude": "30.067624516855204",
      "longitude": "-89.81052098641185"
    }
  },
  {
    "service_request": "2023-1017970",
    "request_type": "Trash/Recycling",
    "request_reason": "Request a Large Item Pick Up",
    "date_created": "2023-07-17T16:18:00.000",
    "date_modified": "2023-07-17T16:18:00.000",
    "request_status": "Pending",
    "responsible_agency": "Department of Sanitation",
    "final_address": "7043 Boston Dr",
    "address_councildis": "E",
    "status": "Assigned to Contractor",
    "contractor": "Waste Pro",
    "rowid": "1017970",
    "final_x": "3706420.68433",
    "final_y": "560763.893278",
    "longitude": "-89.98829650338546",
    "latitude": "30.03512519662833",
    "geocoded_column": {
      "latitude": "30.03512519662833",
      "longitude": "-89.98829650338546"
    }
  },
  {
    "service_request": "2023-1017969",
    "request_type": "Trash/Recycling",
    "request_reason": "Repair Trash Cart",
    "date_created": "2023-07-17T16:16:19.000",
    "date_modified": "2023-07-17T16:16:19.000",
    "request_status": "Pending",
    "responsible_agency": "Department of Sanitation",
    "final_address": "7140 Pinebrook Dr",
    "address_councildis": "E",
    "status": "Assigned to Contractor",
    "contractor": "Waste Pro",
    "rowid": "1017969",
    "final_x": "3719198.64031",
    "final_y": "570140.706471",
    "longitude": "-89.94755824383394",
    "latitude": "30.060488963495196",
    "geocoded_column": {
      "latitude": "30.060488963495196",
      "longitude": "-89.94755824383394"
    }
  },
  {
    "service_request": "2023-1017968",
    "request_type": "Trash/Recycling",
    "request_reason": "Request a Large Item Pick Up",
    "date_created": "2023-07-17T16:15:00.000",
    "date_modified": "2023-07-17T16:15:01.000",
    "request_status": "Pending",
    "responsible_agency": "Department of Sanitation",
    "status": "Assigned to Contractor",
    "rowid": "1017968",
    "longitude": "0.0",
    "latitude": "0.0",
    "geocoded_column": {
      "latitude": "0.0",
      "longitude": "0.0"
    }
  },
  {
    "service_request": "2023-1017966",
    "request_type": "Traffic Signals/Signs/Striping/Streetlights",
    "request_reason": "Street Light Outage/Malfunction",
    "date_created": "2023-07-17T16:13:17.000",
    "date_modified": "2023-07-17T16:13:18.000",
    "request_status": "Pending",
    "responsible_agency": "Department of Public Works",
    "final_address": "7431 Camberley Dr",
    "address_councildis": "E",
    "status": "Assigned to Contractor",
    "contractor": "Legacy Professional Services",
    "rowid": "1017966",
    "final_x": "3712778.44357",
    "final_y": "565618.47997",
    "longitude": "-89.96802237443458",
    "latitude": "30.048266619185373",
    "geocoded_column": {
      "latitude": "30.048266619185373",
      "longitude": "-89.96802237443458"
    }
  },
  {
    "service_request": "2023-1017965",
    "request_type": "Property Maintenance",
    "request_reason": "Property Maintenance",
    "date_created": "2023-07-17T16:13:00.000",
    "date_modified": "2023-07-17T16:13:00.000",
    "request_status": "Pending",
    "responsible_agency": "Department of Code Enforcement",
    "final_address": "7430 Hurst St",
    "address_councildis": "A",
    "status": "Pending",
    "rowid": "1017965",
    "final_x": "3661474.86214",
    "final_y": "524014.12486",
    "longitude": "-90.13155141221641",
    "latitude": "29.93544973987516",
    "geocoded_column": {
      "latitude": "29.93544973987516",
      "longitude": "-90.13155141221641"
    }
  },
  {
    "service_request": "2023-1017964",
    "request_type": "Trash/Recycling",
    "request_reason": "Request a Large Item Pick Up",
    "date_created": "2023-07-17T16:11:04.000",
    "date_modified": "2023-07-17T16:11:05.000",
    "request_status": "Pending",
    "responsible_agency": "Department of Sanitation",
    "final_address": "8021 Spruce St",
    "address_councildis": "A",
    "status": "Assigned to Contractor",
    "contractor": "Richards Disposal",
    "rowid": "1017964",
    "final_x": "3664094.80941",
    "final_y": "530290.006145",
    "longitude": "-90.12307091708877",
    "latitude": "29.952630584873116",
    "geocoded_column": {
      "latitude": "29.952630584873116",
      "longitude": "-90.12307091708877"
    }
  },
  {
    "service_request": "2023-1017963",
    "request_type": "Roads/Drainage",
    "request_reason": "Road Shoulder Repair",
    "date_created": "2023-07-17T16:09:59.000",
    "date_modified": "2023-07-17T16:09:59.000",
    "request_status": "Pending",
    "responsible_agency": "Department of Public Works",
    "final_address": "4811 Viola St",
    "address_councildis": "E",
    "status": "Pending",
    "rowid": "1017963",
    "final_x": "3703985.09994",
    "final_y": "555662.540697",
    "longitude": "-89.9961814105089",
    "latitude": "30.021176845733148",
    "geocoded_column": {
      "latitude": "30.021176845733148",
      "longitude": "-89.9961814105089"
    }
  },
  {
    "service_request": "2023-1017962",
    "request_type": "Property Maintenance",
    "request_reason": "Property Maintenance",
    "date_created": "2023-07-17T16:09:25.000",
    "date_modified": "2023-07-17T16:11:14.000",
    "request_status": "Pending",
    "responsible_agency": "Department of Code Enforcement",
    "final_address": "3208 Newton St",
    "address_councildis": "C",
    "status": "Pending",
    "rowid": "1017962",
    "final_x": "3696209.64183",
    "final_y": "527831.503423",
    "longitude": "-90.02175612732941",
    "latitude": "29.94489878912658",
    "geocoded_column": {
      "latitude": "29.94489878912658",
      "longitude": "-90.02175612732941"
    }
  },
  {
    "service_request": "2023-1017961",
    "request_type": "Property Maintenance",
    "request_reason": "Property Maintenance",
    "date_created": "2023-07-17T16:08:50.000",
    "date_modified": "2023-07-17T16:08:50.000",
    "request_status": "Pending",
    "responsible_agency": "Department of Code Enforcement",
    "final_address": "7430 Hurst St",
    "address_councildis": "A",
    "status": "Pending",
    "rowid": "1017961",
    "final_x": "3661474.86214",
    "final_y": "524014.12486",
    "longitude": "-90.13155141221641",
    "latitude": "29.93544973987516",
    "geocoded_column": {
      "latitude": "29.93544973987516",
      "longitude": "-90.13155141221641"
    }
  },
  {
    "service_request": "2023-1017960",
    "request_type": "Trash/Recycling",
    "request_reason": "MIssed Recycling Pick-Up",
    "date_created": "2023-07-17T16:03:22.000",
    "date_modified": "2023-07-17T16:03:22.000",
    "request_status": "Pending",
    "responsible_agency": "Department of Sanitation",
    "final_address": "7712 Reindeer St",
    "address_councildis": "E",
    "status": "Assigned to Contractor",
    "contractor": "Waste Pro",
    "rowid": "1017960",
    "final_x": "3716666.99103",
    "final_y": "570926.748199",
    "longitude": "-89.95553072846982",
    "latitude": "30.062734195291842",
    "geocoded_column": {
      "latitude": "30.062734195291842",
      "longitude": "-89.95553072846982"
    }
  },
  {
    "service_request": "2023-1017959",
    "request_type": "Trash/Recycling",
    "request_reason": "Request a Large Item Pick Up",
    "date_created": "2023-07-17T16:00:54.000",
    "date_modified": "2023-07-17T16:00:55.000",
    "request_status": "Pending",
    "responsible_agency": "Department of Sanitation",
    "final_address": "4618 Allen St",
    "address_councildis": "D",
    "status": "Assigned to Contractor",
    "contractor": "IV Waste",
    "rowid": "1017959",
    "final_x": "3681646.04322",
    "final_y": "549547.379283",
    "longitude": "-90.066980061156",
    "latitude": "30.005060248432173",
    "geocoded_column": {
      "latitude": "30.005060248432173",
      "longitude": "-90.066980061156"
    }
  },
  {
    "service_request": "2023-1017958",
    "request_type": "Trash/Recycling",
    "request_reason": "Request a Large Item Pick Up",
    "date_created": "2023-07-17T16:00:34.000",
    "date_modified": "2023-07-17T16:00:34.000",
    "request_status": "Pending",
    "responsible_agency": "Department of Sanitation",
    "final_address": "205 Vallette St",
    "address_councildis": "C",
    "status": "Assigned to Contractor",
    "contractor": "Richards Disposal",
    "rowid": "1017958",
    "final_x": "3687545.62703",
    "final_y": "531145.907906",
    "longitude": "-90.04899369722789",
    "latitude": "29.954282113800772",
    "geocoded_column": {
      "latitude": "29.954282113800772",
      "longitude": "-90.04899369722789"
    }
  },
  {
    "service_request": "2023-1017957",
    "request_type": "Trash/Recycling",
    "request_reason": "Order Recycling Cart",
    "date_created": "2023-07-17T15:59:22.000",
    "date_modified": "2023-07-17T15:59:22.000",
    "request_status": "Pending",
    "responsible_agency": "Department of Sanitation",
    "final_address": "331 Red Allen Way",
    "address_councildis": "C",
    "status": "Pending",
    "rowid": "1017957",
    "final_x": "3686405.38652",
    "final_y": "528586.210752",
    "longitude": "-90.05268444854894",
    "latitude": "29.947278913700977",
    "geocoded_column": {
      "latitude": "29.947278913700977",
      "longitude": "-90.05268444854894"
    }
  },
  {
    "service_request": "2023-1017956",
    "request_type": "Trash/Recycling",
    "request_reason": "Request a Large Item Pick Up",
    "date_created": "2023-07-17T15:51:41.000",
    "date_modified": "2023-07-17T15:51:41.000",
    "request_status": "Pending",
    "responsible_agency": "Department of Sanitation",
    "final_address": "4650 Read Blvd",
    "address_councildis": "E",
    "status": "Assigned to Contractor",
    "contractor": "Waste Pro",
    "rowid": "1017956",
    "final_x": "3712719.71998",
    "final_y": "555649.086425",
    "longitude": "-89.96858325928339",
    "latitude": "30.020856690778757",
    "geocoded_column": {
      "latitude": "30.020856690778757",
      "longitude": "-89.96858325928339"
    }
  },
  {
    "service_request": "2023-1017955",
    "request_type": "Trash/Recycling",
    "request_reason": "Repair Trash Cart",
    "date_created": "2023-07-17T15:48:47.000",
    "date_modified": "2023-07-17T15:48:48.000",
    "request_status": "Pending",
    "responsible_agency": "Department of Sanitation",
    "final_address": "1646 Elizardi Blvd",
    "address_councildis": "C",
    "status": "Assigned to Contractor",
    "contractor": "Richards Disposal",
    "rowid": "1017955",
    "final_x": "3694737.95107",
    "final_y": "524911.70406",
    "longitude": "-90.02650781979878",
    "latitude": "29.936916585402756",
    "geocoded_column": {
      "latitude": "29.936916585402756",
      "longitude": "-90.02650781979878"
    }
  },
  {
    "service_request": "2023-1017954",
    "request_type": "Trash/Recycling",
    "request_reason": "Order Trash Cart",
    "date_created": "2023-07-17T15:48:42.000",
    "date_modified": "2023-07-17T15:48:42.000",
    "request_status": "Pending",
    "responsible_agency": "Department of Sanitation",
    "final_address": "2115 Dante St",
    "address_councildis": "A",
    "status": "Assigned to Contractor",
    "contractor": "Richards Disposal",
    "rowid": "1017954",
    "final_x": "3663705.112",
    "final_y": "531310.563906",
    "longitude": "-90.12426740874434",
    "latitude": "29.955448100165434",
    "geocoded_column": {
      "latitude": "29.955448100165434",
      "longitude": "-90.12426740874434"
    }
  },
  {
    "service_request": "2023-1017953",
    "request_type": "Trash/Recycling",
    "request_reason": "Request a Large Item Pick Up",
    "date_created": "2023-07-17T15:44:33.000",
    "date_modified": "2023-07-17T15:44:34.000",
    "request_status": "Pending",
    "responsible_agency": "Department of Sanitation",
    "final_address": "8810 Lake Forest Blvd",
    "address_councildis": "E",
    "status": "Assigned to Contractor",
    "contractor": "Waste Pro",
    "rowid": "1017953",
    "final_x": "3706957.29016",
    "final_y": "558217.899356",
    "longitude": "-89.98669531370628",
    "latitude": "30.028107382622114",
    "geocoded_column": {
      "latitude": "30.028107382622114",
      "longitude": "-89.98669531370628"
    }
  },
  {
    "service_request": "2023-1017952",
    "request_type": "Roads/Drainage",
    "request_reason": "Debris in Roadway",
    "date_created": "2023-07-17T15:43:58.000",
    "date_modified": "2023-07-17T15:43:58.000",
    "request_status": "Pending",
    "responsible_agency": "Department of Public Works",
    "final_address": "3800 BLK Pontchartrain Expy",
    "address_councildis": "A",
    "status": "Pending",
    "rowid": "1017952",
    "final_x": "3668624.31921",
    "final_y": "536309.168311",
    "longitude": "-90.1085655721574",
    "latitude": "29.969048965309423",
    "geocoded_column": {
      "latitude": "29.969048965309423",
      "longitude": "-90.1085655721574"
    }
  },
  {
    "service_request": "2023-1017951",
    "request_type": "Trash/Recycling",
    "request_reason": "Order Trash Cart",
    "date_created": "2023-07-17T15:43:46.000",
    "date_modified": "2023-07-17T15:43:46.000",
    "request_status": "Pending",
    "responsible_agency": "Department of Sanitation",
    "final_address": "6949 Vicksburg St",
    "address_councildis": "A",
    "status": "Assigned to Contractor",
    "contractor": "IV Waste",
    "rowid": "1017951",
    "final_x": "3669542.96948",
    "final_y": "553696.465623",
    "longitude": "-90.10507580439528",
    "latitude": "30.01683101596882",
    "geocoded_column": {
      "latitude": "30.01683101596882",
      "longitude": "-90.10507580439528"
    }
  },
  {
    "service_request": "2023-1017950",
    "request_type": "Traffic Signals/Signs/Striping/Streetlights",
    "request_reason": "Traffic Sign Missing/Damaged",
    "date_created": "2023-07-17T15:43:12.000",
    "date_modified": "2023-07-17T15:43:12.000",
    "request_status": "Pending",
    "responsible_agency": "Department of Public Works",
    "final_address": "BAUDIN ST & S ALEXANDER ST",
    "address_councildis": "A",
    "status": "Pending",
    "rowid": "1017950",
    "final_x": "3669028.5",
    "final_y": "537895.28",
    "longitude": "-90.10723553853174",
    "latitude": "29.97339835589881",
    "geocoded_column": {
      "latitude": "29.97339835589881",
      "longitude": "-90.10723553853174"
    }
  },
  {
    "service_request": "2023-1017949",
    "request_type": "Trash/Recycling",
    "request_reason": "Order Recycling Cart",
    "date_created": "2023-07-17T15:43:09.000",
    "date_modified": "2023-07-17T15:43:09.000",
    "request_status": "Pending",
    "responsible_agency": "Department of Sanitation",
    "final_address": "6949 Vicksburg St",
    "address_councildis": "A",
    "status": "Pending",
    "rowid": "1017949",
    "final_x": "3669542.96948",
    "final_y": "553696.465623",
    "longitude": "-90.10507580439528",
    "latitude": "30.01683101596882",
    "geocoded_column": {
      "latitude": "30.01683101596882",
      "longitude": "-90.10507580439528"
    }
  },
  {
    "service_request": "2023-1017948",
    "request_type": "Property Maintenance",
    "request_reason": "Property Maintenance",
    "date_created": "2023-07-17T15:42:38.000",
    "date_modified": "2023-07-17T15:42:38.000",
    "request_status": "Pending",
    "responsible_agency": "Department of Code Enforcement",
    "final_address": "2129 N Tonti St",
    "address_councildis": "D",
    "status": "Pending",
    "rowid": "1017948",
    "final_x": "3683703.8294",
    "final_y": "540734.076043",
    "longitude": "-90.06078831211741",
    "latitude": "29.980764107696583",
    "geocoded_column": {
      "latitude": "29.980764107696583",
      "longitude": "-90.06078831211741"
    }
  },
  {
    "service_request": "2023-1017947",
    "request_type": "Trash/Recycling",
    "request_reason": "Request a Large Item Pick Up",
    "date_created": "2023-07-17T15:37:12.000",
    "date_modified": "2023-07-17T15:37:12.000",
    "request_status": "Pending",
    "responsible_agency": "Department of Sanitation",
    "final_address": "10 Fortress Rd",
    "address_councildis": "D",
    "status": "Assigned to Contractor",
    "contractor": "IV Waste",
    "rowid": "1017947",
    "final_x": "3676558.97902",
    "final_y": "554613.978968",
    "longitude": "-90.08287649402884",
    "latitude": "30.01914518999604",
    "geocoded_column": {
      "latitude": "30.01914518999604",
      "longitude": "-90.08287649402884"
    }
  },
  {
    "service_request": "2023-1017946",
    "request_type": "Trash/Recycling",
    "request_reason": "Repair Trash Cart",
    "date_created": "2023-07-17T15:35:51.000",
    "date_modified": "2023-07-17T15:35:51.000",
    "request_status": "Pending",
    "responsible_agency": "Department of Sanitation",
    "final_address": "2229 Valence St",
    "address_councildis": "B",
    "status": "Assigned to Contractor",
    "contractor": "Richards Disposal",
    "rowid": "1017946",
    "final_x": "3669595.98734",
    "final_y": "523147.127163",
    "longitude": "-90.10594221855766",
    "latitude": "29.932829069973195",
    "geocoded_column": {
      "latitude": "29.932829069973195",
      "longitude": "-90.10594221855766"
    }
  },
  {
    "service_request": "2023-1017945",
    "request_type": "Trash/Recycling",
    "request_reason": "Repair Recycling Cart",
    "date_created": "2023-07-17T15:35:11.000",
    "date_modified": "2023-07-17T15:35:11.000",
    "request_status": "Pending",
    "responsible_agency": "Department of Sanitation",
    "final_address": "914 Solomon Pl",
    "address_councildis": "A",
    "status": "Pending",
    "rowid": "1017945",
    "final_x": "3672545.86619",
    "final_y": "541201.87406",
    "longitude": "-90.09601418150352",
    "latitude": "29.982386405304407",
    "geocoded_column": {
      "latitude": "29.982386405304407",
      "longitude": "-90.09601418150352"
    }
  },
  {
    "service_request": "2023-1017944",
    "request_type": "Abandoned Vehicles",
    "request_reason": "Abandoned/Junk Vehicles",
    "date_created": "2023-07-17T15:34:48.000",
    "date_modified": "2023-07-17T15:36:39.000",
    "request_status": "Pending",
    "responsible_agency": "Department of Public Works",
    "final_address": "8904 Edinburgh St",
    "address_councildis": "A",
    "status": "Pending",
    "rowid": "1017944",
    "final_x": "3665320.39956",
    "final_y": "536357.954567",
    "longitude": "-90.11899798801547",
    "latitude": "29.96927980197534",
    "geocoded_column": {
      "latitude": "29.96927980197534",
      "longitude": "-90.11899798801547"
    }
  },
  {
    "service_request": "2023-1017943",
    "request_type": "Trash/Recycling",
    "request_reason": "Replace Trash Cart",
    "date_created": "2023-07-17T15:31:27.000",
    "date_modified": "2023-07-17T15:31:28.000",
    "request_status": "Pending",
    "responsible_agency": "Department of Sanitation",
    "final_address": "2407 Law St",
    "address_councildis": "D",
    "status": "Assigned to Contractor",
    "contractor": "IV Waste",
    "rowid": "1017943",
    "final_x": "3685488.2669",
    "final_y": "541986.635084",
    "longitude": "-90.05510815282076",
    "latitude": "29.984153590751813",
    "geocoded_column": {
      "latitude": "29.984153590751813",
      "longitude": "-90.05510815282076"
    }
  },
  {
    "service_request": "2023-1017942",
    "request_type": "Trash/Recycling",
    "request_reason": "Request a Large Item Pick Up",
    "date_created": "2023-07-17T15:27:24.000",
    "date_modified": "2023-07-17T15:27:25.000",
    "request_status": "Pending",
    "responsible_agency": "Department of Sanitation",
    "final_address": "11231 N Forest Park Ct",
    "address_councildis": "E",
    "status": "Assigned to Contractor",
    "contractor": "Waste Pro",
    "rowid": "1017942",
    "final_x": "3716981.50316",
    "final_y": "558934.912732",
    "longitude": "-89.95499253613525",
    "latitude": "30.029751143233963",
    "geocoded_column": {
      "latitude": "30.029751143233963",
      "longitude": "-89.95499253613525"
    }
  },
  {
    "service_request": "2023-1017941",
    "request_type": "Parks & Parkways",
    "request_reason": "Request Tree Service (Right of Way/Public Property)",
    "date_created": "2023-07-17T15:25:15.000",
    "date_modified": "2023-07-17T15:43:08.000",
    "case_close_date": "2023-07-17T10:43:08.000",
    "request_status": "Closed",
    "responsible_agency": "Department of Parks & Parkway",
    "final_address": "1337 Mendez St",
    "address_councildis": "D",
    "status": "Duplicate Request",
    "rowid": "1017941",
    "final_x": "3677298.42722",
    "final_y": "553066.019095",
    "longitude": "-90.08059356456899",
    "latitude": "30.014866649538916",
    "geocoded_column": {
      "latitude": "30.014866649538916",
      "longitude": "-90.08059356456899"
    }
  },
  {
    "service_request": "2023-1017940",
    "request_type": "Parks & Parkways",
    "request_reason": "Request Tree Service (Right of Way/Public Property)",
    "date_created": "2023-07-17T15:23:56.000",
    "date_modified": "2023-07-17T15:37:53.000",
    "request_status": "Pending",
    "responsible_agency": "Department of Parks & Parkway",
    "final_address": "1337 Mendez St",
    "address_councildis": "D",
    "status": "Pending",
    "rowid": "1017940",
    "final_x": "3677298.42722",
    "final_y": "553066.019095",
    "longitude": "-90.08059356456899",
    "latitude": "30.014866649538916",
    "geocoded_column": {
      "latitude": "30.014866649538916",
      "longitude": "-90.08059356456899"
    }
  },
  {
    "service_request": "2023-1017939",
    "request_type": "Trash/Recycling",
    "request_reason": "Order Trash Cart",
    "date_created": "2023-07-17T15:23:41.000",
    "date_modified": "2023-07-17T15:23:41.000",
    "request_status": "Pending",
    "responsible_agency": "Department of Sanitation",
    "final_address": "5163 Kendall Dr",
    "address_councildis": "D",
    "status": "Assigned to Contractor",
    "contractor": "IV Waste",
    "rowid": "1017939",
    "final_x": "3690311.3494",
    "final_y": "552335.38735",
    "longitude": "-90.03950518708163",
    "latitude": "30.012460074034927",
    "geocoded_column": {
      "latitude": "30.012460074034927",
      "longitude": "-90.03950518708163"
    }
  },
  {
    "service_request": "2023-1017938",
    "request_type": "Trash/Recycling",
    "request_reason": "Request a Large Item Pick Up",
    "date_created": "2023-07-17T15:22:10.000",
    "date_modified": "2023-07-17T15:22:11.000",
    "request_status": "Pending",
    "responsible_agency": "Department of Sanitation",
    "final_address": "2917 Hollygrove St",
    "address_councildis": "A",
    "status": "Assigned to Contractor",
    "contractor": "Richards Disposal",
    "rowid": "1017938",
    "final_x": "3663861.59386",
    "final_y": "535132.014982",
    "longitude": "-90.12364590189583",
    "latitude": "29.965951301256847",
    "geocoded_column": {
      "latitude": "29.965951301256847",
      "longitude": "-90.12364590189583"
    }
  },
  {
    "service_request": "2023-1017937",
    "request_type": "Trash/Recycling",
    "request_reason": "Repair Trash Cart",
    "date_created": "2023-07-17T15:19:07.000",
    "date_modified": "2023-07-17T15:19:08.000",
    "request_status": "Pending",
    "responsible_agency": "Department of Sanitation",
    "final_address": "1732 Agriculture St",
    "address_councildis": "D",
    "status": "Assigned to Contractor",
    "contractor": "IV Waste",
    "rowid": "1017937",
    "final_x": "3680959.7588",
    "final_y": "542981.248205",
    "longitude": "-90.06937699687742",
    "latitude": "29.987026555321513",
    "geocoded_column": {
      "latitude": "29.987026555321513",
      "longitude": "-90.06937699687742"
    }
  },
  {
    "service_request": "2023-1017936",
    "request_type": "Roads/Drainage",
    "request_reason": "Debris in Roadway",
    "date_created": "2023-07-17T15:17:43.000",
    "date_modified": "2023-07-17T15:17:43.000",
    "request_status": "Pending",
    "responsible_agency": "Department of Public Works",
    "final_address": "8616 Palmetto St",
    "address_councildis": "A",
    "status": "Pending",
    "rowid": "1017936",
    "final_x": "3666657.91412",
    "final_y": "536386.078279",
    "longitude": "-90.11477305491569",
    "latitude": "29.96931808950968",
    "geocoded_column": {
      "latitude": "29.96931808950968",
      "longitude": "-90.11477305491569"
    }
  },
  {
    "service_request": "2023-1017935",
    "request_type": "Trash/Recycling",
    "request_reason": "Repair Trash Cart",
    "date_created": "2023-07-17T15:16:45.000",
    "date_modified": "2023-07-17T15:16:45.000",
    "request_status": "Pending",
    "responsible_agency": "Department of Sanitation",
    "final_address": "4800 BLK Stemway Dr",
    "address_councildis": "D",
    "status": "Assigned to Contractor",
    "contractor": "Waste Pro",
    "rowid": "1017935",
    "final_x": "3696876.74565",
    "final_y": "554603.214072",
    "longitude": "-90.01868009647205",
    "latitude": "30.01849026971152",
    "geocoded_column": {
      "latitude": "30.01849026971152",
      "longitude": "-90.01868009647205"
    }
  },
  {
    "service_request": "2023-1017933",
    "request_type": "Abandoned Vehicles",
    "request_reason": "Abandoned/Junk Vehicles",
    "date_created": "2023-07-17T15:10:55.000",
    "date_modified": "2023-07-17T15:10:55.000",
    "request_status": "Pending",
    "responsible_agency": "Department of Public Works",
    "final_address": "9532 Palm St",
    "address_councildis": "A",
    "status": "Pending",
    "rowid": "1017933",
    "final_x": "3663807.42515",
    "final_y": "538200.539721",
    "longitude": "-90.12371466892033",
    "latitude": "29.974390303043133",
    "geocoded_column": {
      "latitude": "29.974390303043133",
      "longitude": "-90.12371466892033"
    }
  },
  {
    "service_request": "2023-1017932",
    "request_type": "Trash/Recycling",
    "request_reason": "Request a Large Item Pick Up",
    "date_created": "2023-07-17T15:10:18.000",
    "date_modified": "2023-07-17T15:10:18.000",
    "request_status": "Pending",
    "responsible_agency": "Department of Sanitation",
    "final_address": "7061 W Renaissance Ct",
    "address_councildis": "E",
    "status": "Assigned to Contractor",
    "contractor": "Waste Pro",
    "rowid": "1017932",
    "final_x": "3716899.56229",
    "final_y": "567320.623908",
    "longitude": "-89.95493269697825",
    "latitude": "30.052811153860855",
    "geocoded_column": {
      "latitude": "30.052811153860855",
      "longitude": "-89.95493269697825"
    }
  },
  {
    "service_request": "2023-1017931",
    "request_type": "Trash/Recycling",
    "request_reason": "Order Recycling Cart",
    "date_created": "2023-07-17T15:08:53.000",
    "date_modified": "2023-07-17T15:08:53.000",
    "request_status": "Pending",
    "responsible_agency": "Department of Sanitation",
    "final_address": "729 Amelia St",
    "address_councildis": "B",
    "status": "Pending",
    "rowid": "1017931",
    "final_x": "3673970.79976",
    "final_y": "517994.543542",
    "longitude": "-90.09230742686985",
    "latitude": "29.91853154360584",
    "geocoded_column": {
      "latitude": "29.91853154360584",
      "longitude": "-90.09230742686985"
    }
  },
  {
    "service_request": "2023-1017930",
    "request_type": "Trash/Recycling",
    "request_reason": "Replace Trash Cart",
    "date_created": "2023-07-17T15:07:08.000",
    "date_modified": "2023-07-17T15:07:09.000",
    "request_status": "Pending",
    "responsible_agency": "Department of Sanitation",
    "final_address": "4419 St Ann St",
    "address_councildis": "A",
    "status": "Assigned to Contractor",
    "contractor": "Richards Disposal",
    "rowid": "1017930",
    "final_x": "3671492.67681",
    "final_y": "541430.167564",
    "longitude": "-90.09933291293981",
    "latitude": "29.9830453634559",
    "geocoded_column": {
      "latitude": "29.9830453634559",
      "longitude": "-90.09933291293981"
    }
  },
  {
    "service_request": "2023-1017929",
    "request_type": "Trash/Recycling",
    "request_reason": "Request a Large Item Pick Up",
    "date_created": "2023-07-17T15:04:59.000",
    "date_modified": "2023-07-17T15:04:59.000",
    "request_status": "Pending",
    "responsible_agency": "Department of Sanitation",
    "final_address": "3026 Robert St",
    "address_councildis": "B",
    "status": "Assigned to Contractor",
    "contractor": "Richards Disposal",
    "rowid": "1017929",
    "final_x": "3668824.71425",
    "final_y": "526483.243326",
    "longitude": "-90.10826447481786",
    "latitude": "29.942025009960354",
    "geocoded_column": {
      "latitude": "29.942025009960354",
      "longitude": "-90.10826447481786"
    }
  },
  {
    "service_request": "2023-1017928",
    "request_type": "Trash/Recycling",
    "request_reason": "Replace Trash Cart",
    "date_created": "2023-07-17T15:03:07.000",
    "date_modified": "2023-07-17T15:03:07.000",
    "request_status": "Pending",
    "responsible_agency": "Department of Sanitation",
    "final_address": "25685 Chef Menteur Hwy",
    "address_councildis": "E",
    "status": "Assigned to Contractor",
    "contractor": "Waste Pro",
    "rowid": "1017928",
    "final_x": "3781262.94654",
    "final_y": "600883.068675",
    "longitude": "-89.75003916078059",
    "latitude": "30.142805210290774",
    "geocoded_column": {
      "latitude": "30.142805210290774",
      "longitude": "-89.75003916078059"
    }
  },
  {
    "service_request": "2023-1017927",
    "request_type": "Trash/Recycling",
    "request_reason": "Request a Large Item Pick Up",
    "date_created": "2023-07-17T14:57:44.000",
    "date_modified": "2023-07-17T14:57:44.000",
    "request_status": "Pending",
    "responsible_agency": "Department of Sanitation",
    "final_address": "2216 Onzaga St",
    "address_councildis": "D",
    "status": "Assigned to Contractor",
    "contractor": "IV Waste",
    "rowid": "1017927",
    "final_x": "3680549.33563",
    "final_y": "539420.02849",
    "longitude": "-90.07079731644988",
    "latitude": "29.977246885382666",
    "geocoded_column": {
      "latitude": "29.977246885382666",
      "longitude": "-90.07079731644988"
    }
  },
  {
    "service_request": "2023-1017926",
    "request_type": "Health Related Request",
    "request_reason": "Noise Ordinance Complaint",
    "date_created": "2023-07-17T14:56:03.000",
    "date_modified": "2023-07-17T14:56:03.000",
    "request_status": "Pending",
    "responsible_agency": "Health Department",
    "final_address": "1224 Constantinople St",
    "address_councildis": "B",
    "status": "Pending",
    "rowid": "1017926",
    "final_x": "3672326.33211",
    "final_y": "520156.27724",
    "longitude": "-90.09742455349182",
    "latitude": "29.924524493122814",
    "geocoded_column": {
      "latitude": "29.924524493122814",
      "longitude": "-90.09742455349182"
    }
  },
  {
    "service_request": "2023-1017925",
    "request_type": "Trash/Recycling",
    "request_reason": "Request a Large Item Pick Up",
    "date_created": "2023-07-17T14:55:40.000",
    "date_modified": "2023-07-17T14:55:40.000",
    "request_status": "Pending",
    "responsible_agency": "Department of Sanitation",
    "final_address": "2701 Milan St",
    "address_councildis": "B",
    "status": "Assigned to Contractor",
    "contractor": "Richards Disposal",
    "rowid": "1017925",
    "final_x": "3671243.31585",
    "final_y": "524857.225852",
    "longitude": "-90.10068364056652",
    "latitude": "29.93748266631244",
    "geocoded_column": {
      "latitude": "29.93748266631244",
      "longitude": "-90.10068364056652"
    }
  },
  {
    "service_request": "2023-1017924",
    "request_type": "Roads/Drainage",
    "request_reason": "Catch Basin - Clogged",
    "date_created": "2023-07-17T14:47:53.000",
    "date_modified": "2023-07-17T14:47:53.000",
    "request_status": "Pending",
    "responsible_agency": "Department of Public Works",
    "final_address": "BREAKWATER DR & N ROADWAY ST",
    "address_councildis": "A",
    "status": "Pending",
    "rowid": "1017924",
    "final_x": "3664710.9",
    "final_y": "556768.88",
    "longitude": "-90.12024041578584",
    "latitude": "30.025420609058965",
    "geocoded_column": {
      "latitude": "30.025420609058965",
      "longitude": "-90.12024041578584"
    }
  },
  {
    "service_request": "2023-1017923",
    "request_type": "Parks & Parkways",
    "request_reason": "Request Tree Service (Right of Way/Public Property)",
    "date_created": "2023-07-17T14:43:55.000",
    "date_modified": "2023-07-17T14:50:18.000",
    "case_close_date": "2023-07-17T09:50:18.000",
    "request_status": "Closed",
    "responsible_agency": "Department of Parks & Parkway",
    "final_address": "8428 Oleander St",
    "address_councildis": "A",
    "status": "Unfounded",
    "rowid": "1017923",
    "final_x": "3665789.92045",
    "final_y": "534501.636101",
    "longitude": "-90.11757740045978",
    "latitude": "29.964161849466013",
    "geocoded_column": {
      "latitude": "29.964161849466013",
      "longitude": "-90.11757740045978"
    }
  },
  {
    "service_request": "2023-1017922",
    "request_type": "Trash/Recycling",
    "request_reason": "Repair Trash Cart",
    "date_created": "2023-07-17T14:42:37.000",
    "date_modified": "2023-07-17T14:42:38.000",
    "request_status": "Pending",
    "responsible_agency": "Department of Sanitation",
    "final_address": "3406 Touro St",
    "address_councildis": "D",
    "status": "Assigned to Contractor",
    "contractor": "IV Waste",
    "rowid": "1017922",
    "final_x": "3683469.74095",
    "final_y": "545168.061775",
    "longitude": "-90.06137220620367",
    "latitude": "29.992963148766098",
    "geocoded_column": {
      "latitude": "29.992963148766098",
      "longitude": "-90.06137220620367"
    }
  },
  {
    "service_request": "2023-1017921",
    "request_type": "Trash/Recycling",
    "request_reason": "Request a Large Item Pick Up",
    "date_created": "2023-07-17T14:41:27.000",
    "date_modified": "2023-07-17T14:41:28.000",
    "request_status": "Pending",
    "responsible_agency": "Department of Sanitation",
    "final_address": "6411 Memphis St",
    "address_councildis": "A",
    "status": "Assigned to Contractor",
    "contractor": "IV Waste",
    "rowid": "1017921",
    "final_x": "3669516.70433",
    "final_y": "550082.914388",
    "longitude": "-90.1052811564466",
    "latitude": "30.006895796650873",
    "geocoded_column": {
      "latitude": "30.006895796650873",
      "longitude": "-90.1052811564466"
    }
  },
  {
    "service_request": "2023-1017920",
    "request_type": "Parks & Parkways",
    "request_reason": "Request Tree Service (Right of Way/Public Property)",
    "date_created": "2023-07-17T14:40:14.000",
    "date_modified": "2023-07-17T14:46:14.000",
    "case_close_date": "2023-07-17T09:46:14.000",
    "request_status": "Closed",
    "responsible_agency": "Department of Parks & Parkway",
    "final_address": "3074 Boyd St",
    "address_councildis": "C",
    "status": "Referred to Property Owner",
    "rowid": "1017920",
    "final_x": "3708128.8835",
    "final_y": "519080.025271",
    "longitude": "-89.98444906193126",
    "latitude": "29.920454792667325",
    "geocoded_column": {
      "latitude": "29.920454792667325",
      "longitude": "-89.98444906193126"
    }
  },
  {
    "service_request": "2023-1017919",
    "request_type": "Trash/Recycling",
    "request_reason": "Request a Large Item Pick Up",
    "date_created": "2023-07-17T14:38:19.000",
    "date_modified": "2023-07-17T14:38:20.000",
    "request_status": "Pending",
    "responsible_agency": "Department of Sanitation",
    "final_address": "7518 Garfield St",
    "address_councildis": "A",
    "status": "Assigned to Contractor",
    "contractor": "Richards Disposal",
    "rowid": "1017919",
    "final_x": "3660853.52038",
    "final_y": "524242.056892",
    "longitude": "-90.13350546748408",
    "latitude": "29.936094385558107",
    "geocoded_column": {
      "latitude": "29.936094385558107",
      "longitude": "-90.13350546748408"
    }
  },
  {
    "service_request": "2023-1017918",
    "request_type": "Trash/Recycling",
    "request_reason": "Order Trash Cart",
    "date_created": "2023-07-17T14:37:05.000",
    "date_modified": "2023-07-17T14:37:06.000",
    "request_status": "Pending",
    "responsible_agency": "Department of Sanitation",
    "final_address": "3235 Kabel Dr",
    "address_councildis": "C",
    "status": "Assigned to Contractor",
    "contractor": "Richards Disposal",
    "rowid": "1017918",
    "final_x": "3700522.91735",
    "final_y": "519262.668855",
    "longitude": "-90.00845070936474",
    "latitude": "29.92120100736058",
    "geocoded_column": {
      "latitude": "29.92120100736058",
      "longitude": "-90.00845070936474"
    }
  },
  {
    "service_request": "2023-1017917",
    "request_type": "Trash/Recycling",
    "request_reason": "Request a Large Item Pick Up",
    "date_created": "2023-07-17T14:35:32.000",
    "date_modified": "2023-07-17T14:35:33.000",
    "request_status": "Pending",
    "responsible_agency": "Department of Sanitation",
    "final_address": "4838 Laurel St",
    "address_councildis": "B",
    "status": "Assigned to Contractor",
    "contractor": "Richards Disposal",
    "rowid": "1017917",
    "final_x": "3669367.1643",
    "final_y": "517838.076982",
    "longitude": "-90.10684399672023",
    "latitude": "29.91823760791575",
    "geocoded_column": {
      "latitude": "29.91823760791575",
      "longitude": "-90.10684399672023"
    }
  },
  {
    "service_request": "2023-1017916",
    "request_type": "Roads/Drainage",
    "request_reason": "Pothole",
    "date_created": "2023-07-17T14:34:31.000",
    "date_modified": "2023-07-17T14:34:31.000",
    "request_status": "Pending",
    "responsible_agency": "Department of Public Works",
    "final_address": "719 Alvar St",
    "address_councildis": "C",
    "status": "Pending",
    "rowid": "1017916",
    "final_x": "3691192.33712",
    "final_y": "534030.737221",
    "longitude": "-90.03737585724548",
    "latitude": "29.962101493617208",
    "geocoded_column": {
      "latitude": "29.962101493617208",
      "longitude": "-90.03737585724548"
    }
  },