[
  {
    "service_request": "2023-964145",
    "request_type": "Traffic Signals/Signs/Striping/Streetlights",
    "request_reason": "Street Light Outage/Malfunction",
    "date_created": "2023-01-10T01:15:59.000",
    "date_modified": "2023-01-10T01:16:00.000",
    "request_status": "Pending",
    "responsible_agency": "Department of Public Works",
    "final_address": "2829 Joseph St",
    "address_councildis": "A",
    "status": "Assigned to Contractor",
    "contractor": "Legacy Professional Services",
    "rowid": "964145",
    "final_x": "3667855.82426",
    "final_y": "526363.739774",
    "longitude": "-90.11132750173452",
    "latitude": "29.94172486157745",
    "geocoded_column": {
      "latitude": "29.94172486157745",
      "longitude": "-90.11132750173452"
    }
  },
  {
    "service_request": "2023-964143",
    "request_type": "Trash/Recycling",
    "request_reason": "Missed Trash Pick-Up",
    "date_created": "2023-01-10T01:06:55.000",
    "date_modified": "2023-01-10T01:07:05.000",
    "request_status": "Pending",
    "responsible_agency": "Department of Sanitation",
    "final_address": "2609 Nashville Ave",
    "address_councildis": "A",
    "status": "Assigned to Contractor",
    "contractor": "Richards Disposal",
    "rowid": "964143",
    "final_x": "3667365.03565",
    "final_y": "525649.937085",
    "longitude": "-90.1129010303816",
    "latitude": "29.93977651694367",
    "geocoded_column": {
      "latitude": "29.93977651694367",
      "longitude": "-90.1129010303816"
    }
  },
  {
    "service_request": "2023-964142",
    "request_type": "Trash/Recycling",
    "request_reason": "Missed Trash Pick-Up",
    "date_created": "2023-01-10T00:44:05.000",
    "date_modified": "2023-01-10T00:44:05.000",
    "request_status": "Pending",
    "responsible_agency": "Department of Sanitation",
    "final_address": "420 S Scott St",
    "address_councildis": "B",
    "status": "Assigned to Contractor",
    "contractor": "Richards Disposal",
    "rowid": "964142",
    "final_x": "3670951.27905",
    "final_y": "536653.228103",
    "longitude": "-90.10120517082653",
    "latitude": "29.969926418255515",
    "geocoded_column": {
      "latitude": "29.969926418255515",
      "longitude": "-90.10120517082653"
    }
  },
  {
    "service_request": "2023-964141",
    "request_type": "Trash/Recycling",
    "request_reason": "Missed Trash Pick-Up",
    "date_created": "2023-01-10T00:41:15.000",
    "date_modified": "2023-01-10T00:41:16.000",
    "request_status": "Pending",
    "responsible_agency": "Department of Sanitation",
    "final_address": "422 S Scott St",
    "address_councildis": "B",
    "status": "Assigned to Contractor",
    "contractor": "Richards Disposal",
    "rowid": "964141",
    "final_x": "3670939.61243",
    "final_y": "536640.728071",
    "longitude": "-90.10124243970867",
    "latitude": "29.96989239231165",
    "geocoded_column": {
      "latitude": "29.96989239231165",
      "longitude": "-90.10124243970867"
    }
  },
  {
    "service_request": "2023-964140",
    "request_type": "Health Related Request",
    "request_reason": "Noise Ordinance Complaint",
    "date_created": "2023-01-09T23:42:51.000",
    "date_modified": "2023-01-09T23:42:52.000",
    "request_status": "Pending",
    "responsible_agency": "Health Department",
    "final_address": "2615 Dante St",
    "address_councildis": "A",
    "status": "Pending",
    "rowid": "964140",
    "final_x": "3664932.4656",
    "final_y": "532658.096452",
    "longitude": "-90.1203468097667",
    "latitude": "29.95911770775208",
    "geocoded_column": {
      "latitude": "29.95911770775208",
      "longitude": "-90.1203468097667"
    }
  },
  {
    "service_request": "2023-964139",
    "request_type": "Trash/Recycling",
    "request_reason": "Missed Trash Pick-Up",
    "date_created": "2023-01-09T23:37:05.000",
    "date_modified": "2023-01-09T23:37:06.000",
    "request_status": "Pending",
    "responsible_agency": "Department of Sanitation",
    "final_address": "751 S Genois St",
    "address_councildis": "B",
    "status": "Assigned to Contractor",
    "contractor": "Richards Disposal",
    "rowid": "964139",
    "final_x": "3670876.03803",
    "final_y": "534999.29383",
    "longitude": "-90.10149894272753",
    "latitude": "29.96538087757639",
    "geocoded_column": {
      "latitude": "29.96538087757639",
      "longitude": "-90.10149894272753"
    }
  },
  {
    "service_request": "2023-964138",
    "request_type": "Roads/Drainage",
    "request_reason": "Street Flooding / Drainage",
    "date_created": "2023-01-09T23:20:36.000",
    "date_modified": "2023-01-09T23:20:36.000",
    "request_status": "Pending",
    "responsible_agency": "Department of Public Works",
    "final_address": "4013 Royal St",
    "address_councildis": "C",
    "status": "Pending",
    "rowid": "964138",
    "final_x": "3691553.03888",
    "final_y": "533807.592901",
    "longitude": "-90.03624479657847",
    "latitude": "29.96147670248431",
    "geocoded_column": {
      "latitude": "29.96147670248431",
      "longitude": "-90.03624479657847"
    }
  },
  {
    "service_request": "2023-964137",
    "request_type": "Trash/Recycling",
    "request_reason": "MIssed Recycling Pick-Up",
    "date_created": "2023-01-09T23:11:05.000",
    "date_modified": "2023-01-09T23:11:06.000",
    "request_status": "Pending",
    "responsible_agency": "Department of Sanitation",
    "final_address": "410 Lowerline St",
    "address_councildis": "A",
    "status": "Assigned to Contractor",
    "contractor": "Richards Disposal",
    "rowid": "964137",
    "final_x": "3661666.96403",
    "final_y": "524041.37734",
    "longitude": "-90.13094403947427",
    "latitude": "29.93551913414109",
    "geocoded_column": {
      "latitude": "29.93551913414109",
      "longitude": "-90.13094403947427"
    }
  },
  {
    "service_request": "2023-964136",
    "request_type": "Trash/Recycling",
    "request_reason": "Replace Trash Cart",
    "date_created": "2023-01-09T23:02:59.000",
    "date_modified": "2023-01-09T23:03:01.000",
    "request_status": "Pending",
    "responsible_agency": "Department of Sanitation",
    "final_address": "3623 State Street Dr",
    "address_councildis": "A",
    "status": "Assigned to Contractor",
    "contractor": "Richards Disposal",
    "rowid": "964136",
    "final_x": "3667978.77159",
    "final_y": "529192.614592",
    "longitude": "-90.11084404269931",
    "latitude": "29.94949974422787",
    "geocoded_column": {
      "latitude": "29.94949974422787",
      "longitude": "-90.11084404269931"
    }
  },
  {
    "service_request": "2023-964135",
    "request_type": "Trash/Recycling",
    "request_reason": "Replace Trash Cart",
    "date_created": "2023-01-09T23:01:54.000",
    "date_modified": "2023-01-09T23:01:55.000",
    "request_status": "Pending",
    "responsible_agency": "Department of Sanitation",
    "final_address": "3621 State Street Dr",
    "address_councildis": "A",
    "status": "Assigned to Contractor",
    "contractor": "Richards Disposal",
    "rowid": "964135",
    "final_x": "3667973.21268",
    "final_y": "529168.49248",
    "longitude": "-90.11086240732065",
    "latitude": "29.949433579350597",
    "geocoded_column": {
      "latitude": "29.949433579350597",
      "longitude": "-90.11086240732065"
    }
  },
  {
    "service_request": "2023-964134",
    "request_type": "Trash/Recycling",
    "request_reason": "Missed Trash Pick-Up",
    "date_created": "2023-01-09T22:55:19.000",
    "date_modified": "2023-01-09T22:55:20.000",
    "request_status": "Pending",
    "responsible_agency": "Department of Sanitation",
    "final_address": "526 S Hennessey St",
    "address_councildis": "A",
    "status": "Assigned to Contractor",
    "contractor": "Richards Disposal",
    "rowid": "964134",
    "final_x": "3669218.21742",
    "final_y": "537479.91508",
    "longitude": "-90.10665041357578",
    "latitude": "29.97225065849027",
    "geocoded_column": {
      "latitude": "29.97225065849027",
      "longitude": "-90.10665041357578"
    }
  },
  {
    "service_request": "2023-964133",
    "request_type": "Trash/Recycling",
    "request_reason": "Request a Large Item Pick Up",
    "date_created": "2023-01-09T22:48:45.000",
    "date_modified": "2023-01-09T22:48:48.000",
    "request_status": "Pending",
    "responsible_agency": "Department of Sanitation",
    "final_address": "55 Winners Cir",
    "address_councildis": "E",
    "status": "Assigned to Contractor",
    "contractor": "Waste Pro",
    "rowid": "964133",
    "final_x": "3715942.45752",
    "final_y": "570299.851495",
    "longitude": "-89.95784476675227",
    "latitude": "30.061034424210863",
    "geocoded_column": {
      "latitude": "30.061034424210863",
      "longitude": "-89.95784476675227"
    }
  },
  {
    "service_request": "2023-964132",
    "request_type": "Trash/Recycling",
    "request_reason": "Request a Large Item Pick Up",
    "date_created": "2023-01-09T22:28:46.000",
    "date_modified": "2023-01-09T22:28:47.000",
    "request_status": "Pending",
    "responsible_agency": "Department of Sanitation",
    "final_address": "318 Delaronde St",
    "address_councildis": "C",
    "status": "Assigned to Contractor",
    "contractor": "Richards Disposal",
    "rowid": "964132",
    "final_x": "3686383.81257",
    "final_y": "530911.627266",
    "longitude": "-90.05267050434477",
    "latitude": "29.95367367847893",
    "geocoded_column": {
      "latitude": "29.95367367847893",
      "longitude": "-90.05267050434477"
    }
  },
  {
    "service_request": "2023-964131",
    "request_type": "Trash/Recycling",
    "request_reason": "Missed Trash Pick-Up",
    "date_created": "2023-01-09T22:27:20.000",
    "date_modified": "2023-01-09T22:27:21.000",
    "request_status": "Pending",
    "responsible_agency": "Department of Sanitation",
    "final_address": "413 S Norman C Francis Prkwy",
    "address_councildis": "B",
    "status": "Assigned to Contractor",
    "contractor": "Richards Disposal",
    "rowid": "964131",
    "final_x": "3672287.74043",
    "final_y": "535754.989063",
    "longitude": "-90.09701509516098",
    "latitude": "29.967416980080156",
    "geocoded_column": {
      "latitude": "29.967416980080156",
      "longitude": "-90.09701509516098"
    }
  },
  {
    "service_request": "2023-964130",
    "request_type": "Property Maintenance",
    "request_reason": "Property Maintenance",
    "date_created": "2023-01-09T22:10:22.000",
    "date_modified": "2023-01-09T22:10:22.000",
    "request_status": "Pending",
    "responsible_agency": "Department of Code Enforcement",
    "final_address": "5229 Lakeview Ct",
    "address_councildis": "E",
    "status": "Pending",
    "rowid": "964130",
    "final_x": "3699151.82877",
    "final_y": "556656.496218",
    "longitude": "-90.01141686490138",
    "latitude": "30.02406404401893",
    "geocoded_column": {
      "latitude": "30.02406404401893",
      "longitude": "-90.01141686490138"
    }
  },
  {
    "service_request": "2023-964129",
    "request_type": "Trash/Recycling",
    "request_reason": "Missed Trash Pick-Up",
    "date_created": "2023-01-09T22:09:29.000",
    "date_modified": "2023-01-09T22:12:47.000",
    "request_status": "Pending",
    "responsible_agency": "Department of Sanitation",
    "final_address": "2243 State St",
    "address_councildis": "A",
    "status": "Assigned to Contractor",
    "contractor": "Richards Disposal",
    "rowid": "964129",
    "final_x": "3666662.12135",
    "final_y": "525000.517885",
    "longitude": "-90.11514203708604",
    "latitude": "29.938011389707736",
    "geocoded_column": {
      "latitude": "29.938011389707736",
      "longitude": "-90.11514203708604"
    }
  },
  {
    "service_request": "2023-964128",
    "request_type": "Property Maintenance",
    "request_reason": "Property Maintenance",
    "date_created": "2023-01-09T22:08:33.000",
    "date_modified": "2023-01-09T22:08:33.000",
    "request_status": "Pending",
    "responsible_agency": "Department of Code Enforcement",
    "final_address": "5227 Lakeview Ct",
    "address_councildis": "E",
    "status": "Pending",
    "rowid": "964128",
    "final_x": "3699140.54436",
    "final_y": "556629.27881",
    "longitude": "-90.0114535134275",
    "latitude": "30.02398956450945",
    "geocoded_column": {
      "latitude": "30.02398956450945",
      "longitude": "-90.0114535134275"
    }
  },
  {
    "service_request": "2023-964127",
    "request_type": "Traffic Signals/Signs/Striping/Streetlights",
    "request_reason": "Street Light Knocked Down/Leaning",
    "date_created": "2023-01-09T22:07:22.000",
    "date_modified": "2023-01-09T22:09:47.000",
    "request_status": "Pending",
    "responsible_agency": "Department of Public Works",
    "final_address": "700 Camp St",
    "address_councildis": "B",
    "status": "Pending",
    "contractor": "Legacy Professional Services",
    "rowid": "964127",
    "final_x": "3681038.13877",
    "final_y": "528353.351104",
    "longitude": "-90.06963898802405",
    "latitude": "29.94680248076086",
    "geocoded_column": {
      "latitude": "29.94680248076086",
      "longitude": "-90.06963898802405"
    }
  },
  {
    "service_request": "2023-964126",
    "request_type": "Trash/Recycling",
    "request_reason": "MIssed Recycling Pick-Up",
    "date_created": "2023-01-09T22:04:35.000",
    "date_modified": "2023-01-09T22:04:36.000",
    "request_status": "Pending",
    "responsible_agency": "Department of Sanitation",
    "final_address": "925 N Lopez St",
    "address_councildis": "A",
    "status": "Assigned to Contractor",
    "contractor": "Richards Disposal",
    "rowid": "964126",
    "final_x": "3675802.01352",
    "final_y": "538822.385097",
    "longitude": "-90.0858114841512",
    "latitude": "29.975746545768466",
    "geocoded_column": {
      "latitude": "29.975746545768466",
      "longitude": "-90.0858114841512"
    }
  },
  {
    "service_request": "2023-964125",
    "request_type": "Trash/Recycling",
    "request_reason": "MIssed Recycling Pick-Up",
    "date_created": "2023-01-09T22:02:12.000",
    "date_modified": "2023-01-09T22:02:13.000",
    "request_status": "Pending",
    "responsible_agency": "Department of Sanitation",
    "final_address": "404 Olivier St",
    "address_councildis": "C",
    "status": "Assigned to Contractor",
    "contractor": "Richards Disposal",
    "rowid": "964125",
    "final_x": "3687284.65558",
    "final_y": "530271.761025",
    "longitude": "-90.04984865679002",
    "latitude": "29.951886550343776",
    "geocoded_column": {
      "latitude": "29.951886550343776",
      "longitude": "-90.04984865679002"
    }
  },
  {
    "service_request": "2023-964123",
    "request_type": "Trash/Recycling",
    "request_reason": "Missed Trash Pick-Up",
    "date_created": "2023-01-09T22:01:24.000",
    "date_modified": "2023-01-09T22:01:24.000",
    "request_status": "Pending",
    "responsible_agency": "Department of Sanitation",
    "final_address": "2401 Joseph St",
    "address_councildis": "A",
    "status": "Assigned to Contractor",
    "contractor": "Richards Disposal",
    "rowid": "964123",
    "final_x": "3667474.23559",
    "final_y": "524859.426172",
    "longitude": "-90.1125828585947",
    "latitude": "29.9375996673123",
    "geocoded_column": {
      "latitude": "29.9375996673123",
      "longitude": "-90.1125828585947"
    }
  },
  {
    "service_request": "2023-964122",
    "request_type": "Safety & Permits",
    "request_reason": "Licenses & Permits",
    "date_created": "2023-01-09T22:00:07.000",
    "date_modified": "2023-01-09T22:00:07.000",
    "request_status": "Pending",
    "responsible_agency": "Safety and Permits",
    "final_address": "4523 Magazine St",
    "address_councildis": "B",
    "status": "Pending",
    "rowid": "964122",
    "final_x": "3670459.91399",
    "final_y": "518764.599223",
    "longitude": "-90.10336337284775",
    "latitude": "29.920753043460966",
    "geocoded_column": {
      "latitude": "29.920753043460966",
      "longitude": "-90.10336337284775"
    }
  },
  {
    "service_request": "2023-964121",
    "request_type": "Trash/Recycling",
    "request_reason": "Missed Trash Pick-Up",
    "date_created": "2023-01-09T21:54:37.000",
    "date_modified": "2023-01-09T21:54:38.000",
    "request_status": "Pending",
    "responsible_agency": "Department of Sanitation",
    "final_address": "1020 7th St, New Orleans, Louisiana, 70115",
    "status": "Assigned to Contractor",
    "rowid": "964121",
    "longitude": "0.0",
    "latitude": "0.0",
    "geocoded_column": {
      "latitude": "0.0",
      "longitude": "0.0"
    }
  },
  {
    "service_request": "2023-964120",
    "request_type": "Trash/Recycling",
    "request_reason": "Missed Trash Pick-Up",
    "date_created": "2023-01-09T21:46:28.000",
    "date_modified": "2023-01-09T21:47:21.000",
    "request_status": "Pending",
    "responsible_agency": "Department of Sanitation",
    "final_address": "501 S Cortez St",
    "address_councildis": "B",
    "status": "Assigned to Contractor",
    "contractor": "Richards Disposal",
    "rowid": "964120",
    "final_x": "3671042.87502",
    "final_y": "536310.541127",
    "longitude": "-90.10092754119889",
    "latitude": "29.96898143561401",
    "geocoded_column": {
      "latitude": "29.96898143561401",
      "longitude": "-90.10092754119889"
    }
  },
  {
    "service_request": "2023-964119",
    "request_type": "Trash/Recycling",
    "request_reason": "Missed Trash Pick-Up",
    "date_created": "2023-01-09T21:40:13.000",
    "date_modified": "2023-01-09T21:40:15.000",
    "request_status": "Pending",
    "responsible_agency": "Department of Sanitation",
    "final_address": "1310 State St",
    "address_councildis": "A",
    "status": "Assigned to Contractor",
    "contractor": "Richards Disposal",
    "rowid": "964119",
    "final_x": "3665176.10893",
    "final_y": "520950.159353",
    "longitude": "-90.11996893590921",
    "latitude": "29.926917545026498",
    "geocoded_column": {
      "latitude": "29.926917545026498",
      "longitude": "-90.11996893590921"
    }
  },
  {
    "service_request": "2023-964118",
    "request_type": "Traffic Signals/Signs/Striping/Streetlights",
    "request_reason": "Street Light Outage/Malfunction",
    "date_created": "2023-01-09T21:30:59.000",
    "date_modified": "2023-01-09T21:31:00.000",
    "request_status": "Pending",
    "responsible_agency": "Department of Public Works",
    "final_address": "929 Harding Dr",
    "address_councildis": "A",
    "status": "Assigned to Contractor",
    "contractor": "Legacy Professional Services",
    "rowid": "964118",
    "final_x": "3674308.46798",
    "final_y": "539879.64801",
    "longitude": "-90.09049230919976",
    "latitude": "29.97869828470128",
    "geocoded_column": {
      "latitude": "29.97869828470128",
      "longitude": "-90.09049230919976"
    }
  },
  {
    "service_request": "2023-964117",
    "request_type": "Traffic Signals/Signs/Striping/Streetlights",
    "request_reason": "Street Light Outage/Malfunction",
    "date_created": "2023-01-09T21:29:45.000",
    "date_modified": "2023-01-09T21:29:46.000",
    "request_status": "Pending",
    "responsible_agency": "Department of Public Works",
    "final_address": "967 Harding Dr",
    "address_councildis": "A",
    "status": "Assigned to Contractor",
    "contractor": "Legacy Professional Services",
    "rowid": "964117",
    "final_x": "3674345.82081",
    "final_y": "540237.951371",
    "longitude": "-90.09036205896032",
    "latitude": "29.979682382165304",
    "geocoded_column": {
      "latitude": "29.979682382165304",
      "longitude": "-90.09036205896032"
    }
  },
  {
    "service_request": "2023-964116",
    "request_type": "Traffic Signals/Signs/Striping/Streetlights",
    "request_reason": "Street Light Outage/Malfunction",
    "date_created": "2023-01-09T21:28:27.000",
    "date_modified": "2023-01-09T21:28:27.000",
    "request_status": "Pending",
    "responsible_agency": "Department of Public Works",
    "final_address": "912 Harding Dr",
    "address_councildis": "A",
    "status": "Assigned to Contractor",
    "contractor": "Legacy Professional Services",
    "rowid": "964116",
    "final_x": "3674397.40731",
    "final_y": "539789.517578",
    "longitude": "-90.09021449343581",
    "latitude": "29.97844780401165",
    "geocoded_column": {
      "latitude": "29.97844780401165",
      "longitude": "-90.09021449343581"
    }
  },
  {
    "service_request": "2023-964115",
    "request_type": "Traffic Signals/Signs/Striping/Streetlights",
    "request_reason": "Street Light Outage/Malfunction",
    "date_created": "2023-01-09T21:27:04.000",
    "date_modified": "2023-01-09T21:27:05.000",
    "request_status": "Pending",
    "responsible_agency": "Department of Public Works",
    "final_address": "926 Harding Dr",
    "address_councildis": "A",
    "status": "Assigned to Contractor",
    "contractor": "Legacy Professional Services",
    "rowid": "964115",
    "final_x": "3674410.09921",
    "final_y": "539926.161418",
    "longitude": "-90.0901697254339",
    "latitude": "29.97882314918236",
    "geocoded_column": {
      "latitude": "29.97882314918236",
      "longitude": "-90.0901697254339"
    }
  },
  {
    "service_request": "2023-964114",
    "request_type": "Trash/Recycling",
    "request_reason": "Missed Trash Pick-Up",
    "date_created": "2023-01-09T21:27:03.000",
    "date_modified": "2023-01-09T21:27:04.000",
    "request_status": "Pending",
    "responsible_agency": "Department of Sanitation",
    "final_address": "212 S Cortez St",
    "address_councildis": "A",
    "status": "Assigned to Contractor",
    "contractor": "Richards Disposal",
    "rowid": "964114",
    "final_x": "3671767.62209",
    "final_y": "537122.067144",
    "longitude": "-90.09861112000515",
    "latitude": "29.971191405413634",
    "geocoded_column": {
      "latitude": "29.971191405413634",
      "longitude": "-90.09861112000515"
    }
  },
  {
    "service_request": "2023-964113",
    "request_type": "Traffic Signals/Signs/Striping/Streetlights",
    "request_reason": "Street Light Outage/Malfunction",
    "date_created": "2023-01-09T21:25:55.000",
    "date_modified": "2023-01-09T21:25:56.000",
    "request_status": "Pending",
    "responsible_agency": "Department of Public Works",
    "final_address": "946 Harding Dr",
    "address_councildis": "A",
    "status": "Assigned to Contractor",
    "contractor": "Legacy Professional Services",
    "rowid": "964113",
    "final_x": "3674419.2068",
    "final_y": "540069.792203",
    "longitude": "-90.09013603833567",
    "latitude": "29.979217812953365",
    "geocoded_column": {
      "latitude": "29.979217812953365",
      "longitude": "-90.09013603833567"
    }
  },
  {
    "service_request": "2023-964112",
    "request_type": "Trash/Recycling",
    "request_reason": "Illegal Dumping",
    "date_created": "2023-01-09T21:24:38.000",
    "date_modified": "2023-01-09T21:24:38.000",
    "request_status": "Pending",
    "responsible_agency": "Department of Sanitation",
    "final_address": "1631 Sixth St",
    "address_councildis": "B",
    "status": "Pending",
    "rowid": "964112",
    "final_x": "3675383.72424",
    "final_y": "522475.95353",
    "longitude": "-90.08769379233294",
    "latitude": "29.930811821581226",
    "geocoded_column": {
      "latitude": "29.930811821581226",
      "longitude": "-90.08769379233294"
    }
  },
  {
    "service_request": "2023-964111",
    "request_type": "Traffic Signals/Signs/Striping/Streetlights",
    "request_reason": "Street Light Outage/Malfunction",
    "date_created": "2023-01-09T21:24:37.000",
    "date_modified": "2023-01-09T21:24:38.000",
    "request_status": "Pending",
    "responsible_agency": "Department of Public Works",
    "final_address": "976 Harding Dr",
    "address_councildis": "A",
    "status": "Assigned to Contractor",
    "contractor": "Legacy Professional Services",
    "rowid": "964111",
    "final_x": "3674500.19131",
    "final_y": "540217.932491",
    "longitude": "-90.08987517979526",
    "latitude": "29.979622731736807",
    "geocoded_column": {
      "latitude": "29.979622731736807",
      "longitude": "-90.08987517979526"
    }
  },
  {
    "service_request": "2023-964110",
    "request_type": "Traffic Signals/Signs/Striping/Streetlights",
    "request_reason": "Street Light Outage/Malfunction",
    "date_created": "2023-01-09T21:22:51.000",
    "date_modified": "2023-01-09T21:22:52.000",
    "request_status": "Pending",
    "responsible_agency": "Department of Public Works",
    "final_address": "1007 Harding Dr",
    "address_councildis": "A",
    "status": "Assigned to Contractor",
    "contractor": "Legacy Professional Services",
    "rowid": "964110",
    "final_x": "3674524.14267",
    "final_y": "540390.448139",
    "longitude": "-90.08979361830364",
    "latitude": "29.980096375908946",
    "geocoded_column": {
      "latitude": "29.980096375908946",
      "longitude": "-90.08979361830364"
    }
  },
  {
    "service_request": "2023-964109",
    "request_type": "Traffic Signals/Signs/Striping/Streetlights",
    "request_reason": "Street Light Outage/Malfunction",
    "date_created": "2023-01-09T21:21:50.000",
    "date_modified": "2023-01-09T21:21:51.000",
    "request_status": "Pending",
    "responsible_agency": "Department of Public Works",
    "final_address": "1018 Harding Dr",
    "address_councildis": "A",
    "status": "Assigned to Contractor",
    "contractor": "Legacy Professional Services",
    "rowid": "964109",
    "final_x": "3674654.42497",
    "final_y": "540388.963147",
    "longitude": "-90.08938218263324",
    "latitude": "29.9800884042908",
    "geocoded_column": {
      "latitude": "29.9800884042908",
      "longitude": "-90.08938218263324"
    }
  },
  {
    "service_request": "2023-964108",
    "request_type": "Traffic Signals/Signs/Striping/Streetlights",
    "request_reason": "Street Light Outage/Malfunction",
    "date_created": "2023-01-09T21:20:20.000",
    "date_modified": "2023-01-09T21:20:21.000",
    "request_status": "Pending",
    "responsible_agency": "Department of Public Works",
    "final_address": "1023 Harding Dr",
    "address_councildis": "A",
    "status": "Assigned to Contractor",
    "contractor": "Legacy Professional Services",
    "rowid": "964108",
    "final_x": "3674607.09236",
    "final_y": "540498.408459",
    "longitude": "-90.08952792673816",
    "latitude": "29.980390754183617",
    "geocoded_column": {
      "latitude": "29.980390754183617",
      "longitude": "-90.08952792673816"
    }
  },
  {
    "service_request": "2023-964107",
    "request_type": "Traffic Signals/Signs/Striping/Streetlights",
    "request_reason": "Street Light Outage/Malfunction",
    "date_created": "2023-01-09T21:19:09.000",
    "date_modified": "2023-01-09T21:19:10.000",
    "request_status": "Pending",
    "responsible_agency": "Department of Public Works",
    "final_address": "1347 Moss St",
    "address_councildis": "A",
    "status": "Assigned to Contractor",
    "contractor": "Legacy Professional Services",
    "rowid": "964107",
    "final_x": "3674775.9876",
    "final_y": "540519.565323",
    "longitude": "-90.08899375693768",
    "latitude": "29.98044388613289",
    "geocoded_column": {
      "latitude": "29.98044388613289",
      "longitude": "-90.08899375693768"
    }
  },
  {
    "service_request": "2023-964106",
    "request_type": "Traffic Signals/Signs/Striping/Streetlights",
    "request_reason": "Street Light Outage/Malfunction",
    "date_created": "2023-01-09T21:17:57.000",
    "date_modified": "2023-01-09T21:17:58.000",
    "request_status": "Pending",
    "responsible_agency": "Department of Public Works",
    "final_address": "808 Wilson Dr",
    "address_councildis": "A",
    "status": "Assigned to Contractor",
    "contractor": "Legacy Professional Services",
    "rowid": "964106",
    "final_x": "3674072.88379",
    "final_y": "539316.73473",
    "longitude": "-90.09125564552313",
    "latitude": "29.977157489567006",
    "geocoded_column": {
      "latitude": "29.977157489567006",
      "longitude": "-90.09125564552313"
    }
  },
  {
    "service_request": "2023-964105",
    "request_type": "Trash/Recycling",
    "request_reason": "Missed Trash Pick-Up",
    "date_created": "2023-01-09T21:16:45.000",
    "date_modified": "2023-01-09T21:16:46.000",
    "request_status": "Pending",
    "responsible_agency": "Department of Sanitation",
    "final_address": "221 S Genois St",
    "address_councildis": "B",
    "status": "Assigned to Contractor",
    "contractor": "Richards Disposal",
    "rowid": "964105",
    "final_x": "3672170.85627",
    "final_y": "536748.918728",
    "longitude": "-90.09735036031731",
    "latitude": "29.970153419346236",
    "geocoded_column": {
      "latitude": "29.970153419346236",
      "longitude": "-90.09735036031731"
    }
  },
  {
    "service_request": "2023-964104",
    "request_type": "Traffic Signals/Signs/Striping/Streetlights",
    "request_reason": "Street Light Outage/Malfunction",
    "date_created": "2023-01-09T21:16:28.000",
    "date_modified": "2023-01-09T21:16:29.000",
    "request_status": "Pending",
    "responsible_agency": "Department of Public Works",
    "final_address": "830 Wilson Dr",
    "address_councildis": "A",
    "status": "Assigned to Contractor",
    "contractor": "Legacy Professional Services",
    "rowid": "964104",
    "final_x": "3674105.90612",
    "final_y": "539459.660554",
    "longitude": "-90.09114645647384",
    "latitude": "29.97754950246694",
    "geocoded_column": {
      "latitude": "29.97754950246694",
      "longitude": "-90.09114645647384"
    }
  },
  {
    "service_request": "2023-964103",
    "request_type": "Traffic Signals/Signs/Striping/Streetlights",
    "request_reason": "Street Light Outage/Malfunction",
    "date_created": "2023-01-09T21:15:24.000",
    "date_modified": "2023-01-09T21:15:25.000",
    "request_status": "Pending",
    "responsible_agency": "Department of Public Works",
    "final_address": "830 Wilson Dr",
    "address_councildis": "A",
    "status": "Assigned to Contractor",
    "contractor": "Legacy Professional Services",
    "rowid": "964103",
    "final_x": "3674105.90612",
    "final_y": "539459.660554",
    "longitude": "-90.09114645647384",
    "latitude": "29.97754950246694",
    "geocoded_column": {
      "latitude": "29.97754950246694",
      "longitude": "-90.09114645647384"
    }
  },
  {
    "service_request": "2023-964102",
    "request_type": "Trash/Recycling",
    "request_reason": "Missed Trash Pick-Up",
    "date_created": "2023-01-09T21:15:00.000",
    "date_modified": "2023-01-09T21:15:01.000",
    "request_status": "Pending",
    "responsible_agency": "Department of Sanitation",
    "final_address": "200 Alonzo St",
    "address_councildis": "A",
    "status": "Assigned to Contractor",
    "contractor": "Richards Disposal",
    "rowid": "964102",
    "final_x": "3664456.84813",
    "final_y": "517096.615925",
    "longitude": "-90.12236802251839",
    "latitude": "29.916342428615057",
    "geocoded_column": {
      "latitude": "29.916342428615057",
      "longitude": "-90.12236802251839"
    }
  },
  {
    "service_request": "2023-964101",
    "request_type": "Traffic Signals/Signs/Striping/Streetlights",
    "request_reason": "Street Light Outage/Malfunction",
    "date_created": "2023-01-09T21:14:12.000",
    "date_modified": "2023-01-09T21:14:13.000",
    "request_status": "Pending",
    "responsible_agency": "Department of Public Works",
    "final_address": "854 Wilson Dr",
    "address_councildis": "A",
    "status": "Assigned to Contractor",
    "contractor": "Legacy Professional Services",
    "rowid": "964101",
    "final_x": "3674099.83451",
    "final_y": "539621.613962",
    "longitude": "-90.09116008763046",
    "latitude": "29.97799499998573",
    "geocoded_column": {
      "latitude": "29.97799499998573",
      "longitude": "-90.09116008763046"
    }
  },
  {
    "service_request": "2023-964100",
    "request_type": "Traffic Signals/Signs/Striping/Streetlights",
    "request_reason": "Street Light Outage/Malfunction",
    "date_created": "2023-01-09T21:12:39.000",
    "date_modified": "2023-01-09T21:12:39.000",
    "request_status": "Pending",
    "responsible_agency": "Department of Public Works",
    "final_address": "857 Wilson Dr",
    "address_councildis": "A",
    "status": "Assigned to Contractor",
    "contractor": "Legacy Professional Services",
    "rowid": "964100",
    "final_x": "3674033.71771",
    "final_y": "539692.351626",
    "longitude": "-90.09136648650885",
    "latitude": "29.97819147504569",
    "geocoded_column": {
      "latitude": "29.97819147504569",
      "longitude": "-90.09136648650885"
    }
  },
  {
    "service_request": "2023-964099",
    "request_type": "Traffic Signals/Signs/Striping/Streetlights",
    "request_reason": "Street Light Outage/Malfunction",
    "date_created": "2023-01-09T21:11:20.000",
    "date_modified": "2023-01-09T21:11:21.000",
    "request_status": "Pending",
    "responsible_agency": "Department of Public Works",
    "final_address": "3627 Dumaine St",
    "address_councildis": "A",
    "status": "Assigned to Contractor",
    "contractor": "Legacy Professional Services",
    "rowid": "964099",
    "final_x": "3674154.00641",
    "final_y": "539879.47553",
    "longitude": "-90.09098016328954",
    "latitude": "29.978702416237894",
    "geocoded_column": {
      "latitude": "29.978702416237894",
      "longitude": "-90.09098016328954"
    }
  },
  {
    "service_request": "2023-964098",
    "request_type": "Traffic Signals/Signs/Striping/Streetlights",
    "request_reason": "Street Light Outage/Malfunction",
    "date_created": "2023-01-09T21:10:06.000",
    "date_modified": "2023-01-09T21:10:07.000",
    "request_status": "Pending",
    "responsible_agency": "Department of Public Works",
    "final_address": "924 Wilson Dr",
    "address_councildis": "A",
    "status": "Assigned to Contractor",
    "contractor": "Legacy Professional Services",
    "rowid": "964098",
    "final_x": "3674158.67995",
    "final_y": "540062.062155",
    "longitude": "-90.09095914987235",
    "latitude": "29.979204327642105",
    "geocoded_column": {
      "latitude": "29.979204327642105",
      "longitude": "-90.09095914987235"
    }
  },
  {
    "service_request": "2023-964097",
    "request_type": "Traffic Signals/Signs/Striping/Streetlights",
    "request_reason": "Street Light Outage/Malfunction",
    "date_created": "2023-01-09T21:08:40.000",
    "date_modified": "2023-01-09T21:08:40.000",
    "request_status": "Pending",
    "responsible_agency": "Department of Public Works",
    "final_address": "950 Wilson Dr",
    "address_councildis": "A",
    "status": "Assigned to Contractor",
    "contractor": "Legacy Professional Services",
    "rowid": "964097",
    "final_x": "3674182.00507",
    "final_y": "540254.494475",
    "longitude": "-90.09087888970289",
    "latitude": "29.97973275521195",
    "geocoded_column": {
      "latitude": "29.97973275521195",
      "longitude": "-90.09087888970289"
    }
  },
  {
    "service_request": "2023-964096",
    "request_type": "Traffic Signals/Signs/Striping/Streetlights",
    "request_reason": "Street Light Outage/Malfunction",
    "date_created": "2023-01-09T21:07:34.000",
    "date_modified": "2023-01-09T21:07:35.000",
    "request_status": "Pending",
    "responsible_agency": "Department of Public Works",
    "final_address": "3626 Delgado Dr",
    "address_councildis": "A",
    "status": "Assigned to Contractor",
    "contractor": "Legacy Professional Services",
    "rowid": "964096",
    "final_x": "3674200.76731",
    "final_y": "540465.066571",
    "longitude": "-90.09081241894077",
    "latitude": "29.980311196908268",
    "geocoded_column": {
      "latitude": "29.980311196908268",
      "longitude": "-90.09081241894077"
    }
  },
  {
    "service_request": "2023-964095",
    "request_type": "Traffic Signals/Signs/Striping/Streetlights",
    "request_reason": "Street Light Outage/Malfunction",
    "date_created": "2023-01-09T21:06:26.000",
    "date_modified": "2023-01-09T21:06:27.000",
    "request_status": "Pending",
    "responsible_agency": "Department of Public Works",
    "final_address": "909 Wilson Dr",
    "address_councildis": "A",
    "status": "Assigned to Contractor",
    "contractor": "Legacy Professional Services",
    "rowid": "964095",
    "final_x": "3674061.49262",
    "final_y": "540023.187147",
    "longitude": "-90.09126743679809",
    "latitude": "29.979100331766837",
    "geocoded_column": {
      "latitude": "29.979100331766837",
      "longitude": "-90.09126743679809"
    }
  },
  {
    "service_request": "2023-964094",
    "request_type": "Traffic Signals/Signs/Striping/Streetlights",
    "request_reason": "Street Light Outage/Malfunction",
    "date_created": "2023-01-09T21:05:23.000",
    "date_modified": "2023-01-09T21:05:24.000",
    "request_status": "Pending",
    "responsible_agency": "Department of Public Works",
    "final_address": "937 Wilson Dr",
    "address_councildis": "A",
    "status": "Assigned to Contractor",
    "contractor": "Legacy Professional Services",
    "rowid": "964094",
    "final_x": "3674074.4507",
    "final_y": "540171.560779",
    "longitude": "-90.09122143016083",
    "latitude": "29.979507922238295",
    "geocoded_column": {
      "latitude": "29.979507922238295",
      "longitude": "-90.09122143016083"
    }
  },
  {
    "service_request": "2023-964093",
    "request_type": "Traffic Signals/Signs/Striping/Streetlights",
    "request_reason": "Street Light Outage/Malfunction",
    "date_created": "2023-01-09T21:03:38.000",
    "date_modified": "2023-01-09T21:03:39.000",
    "request_status": "Pending",
    "responsible_agency": "Department of Public Works",
    "final_address": "965 Wilson Dr",
    "address_councildis": "A",
    "status": "Assigned to Contractor",
    "contractor": "Legacy Professional Services",
    "rowid": "964093",
    "final_x": "3674104.25582",
    "final_y": "540387.317387",
    "longitude": "-90.0911199059273",
    "latitude": "29.98010029058351",
    "geocoded_column": {
      "latitude": "29.98010029058351",
      "longitude": "-90.0911199059273"
    }
  },
  {
    "service_request": "2023-964092",
    "request_type": "Traffic Signals/Signs/Striping/Streetlights",
    "request_reason": "Street Light Outage/Malfunction",
    "date_created": "2023-01-09T21:02:31.000",
    "date_modified": "2023-01-09T21:02:33.000",
    "request_status": "Pending",
    "responsible_agency": "Department of Public Works",
    "final_address": "3902 Delgado Dr",
    "address_councildis": "A",
    "status": "Assigned to Contractor",
    "contractor": "Legacy Professional Services",
    "rowid": "964092",
    "final_x": "3674107.93409",
    "final_y": "540570.592971",
    "longitude": "-90.0911020128278",
    "latitude": "29.98060412597764",
    "geocoded_column": {
      "latitude": "29.98060412597764",
      "longitude": "-90.0911020128278"
    }
  },
  {
    "service_request": "2023-964091",
    "request_type": "Traffic Signals/Signs/Striping/Streetlights",
    "request_reason": "Street Light Outage/Malfunction",
    "date_created": "2023-01-09T21:01:16.000",
    "date_modified": "2023-01-09T21:01:17.000",
    "request_status": "Pending",
    "responsible_agency": "Department of Public Works",
    "final_address": "1023 Wilson Dr",
    "address_councildis": "A",
    "status": "Assigned to Contractor",
    "contractor": "Legacy Professional Services",
    "rowid": "964091",
    "final_x": "3674407.59841",
    "final_y": "540663.400651",
    "longitude": "-90.09015236103022",
    "latitude": "29.980850378970146",
    "geocoded_column": {
      "latitude": "29.980850378970146",
      "longitude": "-90.09015236103022"
    }
  },
  {
    "service_request": "2023-964090",
    "request_type": "Traffic Signals/Signs/Striping/Streetlights",
    "request_reason": "Street Light Outage/Malfunction",
    "date_created": "2023-01-09T21:00:04.000",
    "date_modified": "2023-01-09T21:00:05.000",
    "request_status": "Pending",
    "responsible_agency": "Department of Public Works",
    "final_address": "1010 Wilson Dr",
    "address_councildis": "A",
    "status": "Assigned to Contractor",
    "contractor": "Legacy Professional Services",
    "rowid": "964090",
    "final_x": "3674396.71464",
    "final_y": "540476.089739",
    "longitude": "-90.09019315532024",
    "latitude": "29.980335662907574",
    "geocoded_column": {
      "latitude": "29.980335662907574",
      "longitude": "-90.09019315532024"
    }
  },
  {
    "service_request": "2023-964089",
    "request_type": "Trash/Recycling",
    "request_reason": "MIssed Recycling Pick-Up",
    "date_created": "2023-01-09T20:58:35.000",
    "date_modified": "2023-01-09T20:58:36.000",
    "request_status": "Pending",
    "responsible_agency": "Department of Sanitation",
    "final_address": "4910 Baronne St",
    "address_councildis": "B",
    "status": "Assigned to Contractor",
    "contractor": "Richards Disposal",
    "rowid": "964089",
    "final_x": "3668968.88391",
    "final_y": "521387.841849",
    "longitude": "-90.10798133506876",
    "latitude": "29.928010052943375",
    "geocoded_column": {
      "latitude": "29.928010052943375",
      "longitude": "-90.10798133506876"
    }
  },
  {
    "service_request": "2023-964088",
    "request_type": "Traffic Signals/Signs/Striping/Streetlights",
    "request_reason": "Street Light Outage/Malfunction",
    "date_created": "2023-01-09T20:58:34.000",
    "date_modified": "2023-01-09T20:58:34.000",
    "request_status": "Pending",
    "responsible_agency": "Department of Public Works",
    "final_address": "1020 Wilson Dr",
    "address_councildis": "A",
    "status": "Assigned to Contractor",
    "contractor": "Legacy Professional Services",
    "rowid": "964088",
    "final_x": "3674496.94984",
    "final_y": "540585.951371",
    "longitude": "-90.08987280388484",
    "latitude": "29.980634754161045",
    "geocoded_column": {
      "latitude": "29.980634754161045",
      "longitude": "-90.08987280388484"
    }
  },
  {
    "service_request": "2023-964087",
    "request_type": "Traffic Signals/Signs/Striping/Streetlights",
    "request_reason": "Street Light Outage/Malfunction",
    "date_created": "2023-01-09T20:56:52.000",
    "date_modified": "2023-01-09T20:56:53.000",
    "request_status": "Pending",
    "responsible_agency": "Department of Public Works",
    "final_address": "1405 Moss St",
    "address_councildis": "A",
    "status": "Assigned to Contractor",
    "contractor": "Legacy Professional Services",
    "rowid": "964087",
    "final_x": "3674431.83848",
    "final_y": "540754.446347",
    "longitude": "-90.09007267994127",
    "latitude": "29.98110000022047",
    "geocoded_column": {
      "latitude": "29.98110000022047",
      "longitude": "-90.09007267994127"
    }
  },
  {
    "service_request": "2023-964086",
    "request_type": "Trash/Recycling",
    "request_reason": "Missed Trash Pick-Up",
    "date_created": "2023-01-09T20:56:48.000",
    "date_modified": "2023-01-09T20:56:49.000",
    "request_status": "Pending",
    "responsible_agency": "Department of Sanitation",
    "final_address": "2900 St Peter St",
    "address_councildis": "A",
    "status": "Assigned to Contractor",
    "contractor": "Richards Disposal",
    "rowid": "964086",
    "final_x": "3675873.25333",
    "final_y": "537398.609864",
    "longitude": "-90.08563545268144",
    "latitude": "29.971829517306773",
    "geocoded_column": {
      "latitude": "29.971829517306773",
      "longitude": "-90.08563545268144"
    }
  },
  {
    "service_request": "2023-964085",
    "request_type": "Trash/Recycling",
    "request_reason": "Missed Trash Pick-Up",
    "date_created": "2023-01-09T20:53:48.000",
    "date_modified": "2023-01-09T20:53:49.000",
    "request_status": "Pending",
    "responsible_agency": "Department of Sanitation",
    "final_address": "1127 Crete St",
    "address_councildis": "A",
    "status": "Assigned to Contractor",
    "contractor": "Richards Disposal",
    "rowid": "964085",
    "final_x": "3677579.27682",
    "final_y": "538946.068618",
    "longitude": "-90.08019411278619",
    "latitude": "29.97603330803299",
    "geocoded_column": {
      "latitude": "29.97603330803299",
      "longitude": "-90.08019411278619"
    }
  },
  {
    "service_request": "2023-964084",
    "request_type": "Trash/Recycling",
    "request_reason": "Missed Trash Pick-Up",
    "date_created": "2023-01-09T20:48:13.000",
    "date_modified": "2023-01-09T20:48:14.000",
    "request_status": "Pending",
    "responsible_agency": "Department of Sanitation",
    "final_address": "3810 Octavia St, New Orleans, Louisiana, 70125",
    "address_councildis": "A",
    "status": "Assigned to Contractor",
    "contractor": "Richards Disposal",
    "rowid": "964084",
    "final_x": "3668736.84084",
    "final_y": "529489.897857",
    "longitude": "-90.10844043515104",
    "latitude": "29.950294915657583",
    "geocoded_column": {
      "latitude": "29.950294915657583",
      "longitude": "-90.10844043515104"
    }
  },
  {
    "service_request": "2023-964082",
    "request_type": "Trash/Recycling",
    "request_reason": "Missed Trash Pick-Up",
    "date_created": "2023-01-09T20:27:37.000",
    "date_modified": "2023-01-09T20:27:37.000",
    "request_status": "Pending",
    "responsible_agency": "Department of Sanitation",
    "final_address": "6045 Patton St",
    "address_councildis": "A",
    "status": "Assigned to Contractor",
    "contractor": "Richards Disposal",
    "rowid": "964082",
    "final_x": "3664162.39706",
    "final_y": "518786.099127",
    "longitude": "-90.12324111526924",
    "latitude": "29.920996534739043",
    "geocoded_column": {
      "latitude": "29.920996534739043",
      "longitude": "-90.12324111526924"
    }
  },
  {
    "service_request": "2023-964081",
    "request_type": "Trash/Recycling",
    "request_reason": "Missed Trash Pick-Up",
    "date_created": "2023-01-09T20:26:04.000",
    "date_modified": "2023-01-09T20:26:05.000",
    "request_status": "Pending",
    "responsible_agency": "Department of Sanitation",
    "final_address": "1701 Joseph St",
    "address_councildis": "A",
    "status": "Assigned to Contractor",
    "contractor": "Richards Disposal",
    "rowid": "964081",
    "final_x": "3666862.54093",
    "final_y": "522553.375418",
    "longitude": "-90.11459146664491",
    "latitude": "29.931276668810387",
    "geocoded_column": {
      "latitude": "29.931276668810387",
      "longitude": "-90.11459146664491"
    }
  },
  {
    "service_request": "2023-964080",
    "request_type": "Trash/Recycling",
    "request_reason": "Return Recycling Cart",
    "date_created": "2023-01-09T20:19:18.000",
    "date_modified": "2023-01-09T20:19:18.000",
    "request_status": "Pending",
    "responsible_agency": "Department of Sanitation",
    "final_address": "535 Belleville St",
    "address_councildis": "C",
    "status": "Pending",
    "rowid": "964080",
    "final_x": "3687790.07535",
    "final_y": "529639.179457",
    "longitude": "-90.048275185763",
    "latitude": "29.950131591368322",
    "geocoded_column": {
      "latitude": "29.950131591368322",
      "longitude": "-90.048275185763"
    }
  },
  {
    "service_request": "2023-964079",
    "request_type": "Trash/Recycling",
    "request_reason": "Missed Trash Pick-Up",
    "date_created": "2023-01-09T20:13:53.000",
    "date_modified": "2023-01-09T20:13:54.000",
    "request_status": "Pending",
    "responsible_agency": "Department of Sanitation",
    "final_address": "S Alexander St & Baudin St, New Orleans, Louisiana, 70119",
    "status": "Assigned to Contractor",
    "rowid": "964079",
    "longitude": "0.0",
    "latitude": "0.0",
    "geocoded_column": {
      "latitude": "0.0",
      "longitude": "0.0"
    }
  },
  {
    "service_request": "2023-964078",
    "request_type": "Trash/Recycling",
    "request_reason": "Missed Trash Pick-Up",
    "date_created": "2023-01-09T20:10:06.000",
    "date_modified": "2023-01-09T20:10:07.000",
    "request_status": "Pending",
    "responsible_agency": "Department of Sanitation",
    "final_address": "5249 Marcia Ave",
    "address_councildis": "A",
    "status": "Assigned to Contractor",
    "contractor": "IV Waste",
    "rowid": "964078",
    "final_x": "3664391.19661",
    "final_y": "543305.037134",
    "longitude": "-90.12170050273659",
    "latitude": "29.988409001418095",
    "geocoded_column": {
      "latitude": "29.988409001418095",
      "longitude": "-90.12170050273659"
    }
  },
  {
    "service_request": "2023-964077",
    "request_type": "Trash/Recycling",
    "request_reason": "Missed Trash Pick-Up",
    "date_created": "2023-01-09T20:06:17.000",
    "date_modified": "2023-01-09T20:06:18.000",
    "request_status": "Pending",
    "responsible_agency": "Department of Sanitation",
    "final_address": "519 S Cortez St",
    "address_councildis": "B",
    "status": "Assigned to Contractor",
    "contractor": "Richards Disposal",
    "rowid": "964077",
    "final_x": "3670971.35329",
    "final_y": "536215.415047",
    "longitude": "-90.1011566426498",
    "latitude": "29.968721985798698",
    "geocoded_column": {
      "latitude": "29.968721985798698",
      "longitude": "-90.1011566426498"
    }
  },
  {
    "service_request": "2023-964076",
    "request_type": "Trash/Recycling",
    "request_reason": "Missed Trash Pick-Up",
    "date_created": "2023-01-09T19:48:45.000",
    "date_modified": "2023-01-09T19:48:46.000",
    "request_status": "Pending",
    "responsible_agency": "Department of Sanitation",
    "final_address": "3205 Octavia St",
    "address_councildis": "A",
    "status": "Assigned to Contractor",
    "contractor": "Richards Disposal",
    "rowid": "964076",
    "final_x": "3668384.49671",
    "final_y": "527399.763007",
    "longitude": "-90.10962343716993",
    "latitude": "29.944558076578662",
    "geocoded_column": {
      "latitude": "29.944558076578662",
      "longitude": "-90.10962343716993"
    }
  },
  {
    "service_request": "2023-964075",
    "request_type": "Trash/Recycling",
    "request_reason": "Missed Trash Pick-Up",
    "date_created": "2023-01-09T19:48:02.000",
    "date_modified": "2023-01-09T19:48:03.000",
    "request_status": "Pending",
    "responsible_agency": "Department of Sanitation",
    "final_address": "3205 Octavia St",
    "address_councildis": "A",
    "status": "Assigned to Contractor",
    "contractor": "Richards Disposal",
    "rowid": "964075",
    "final_x": "3668384.49671",
    "final_y": "527399.763007",
    "longitude": "-90.10962343716993",
    "latitude": "29.944558076578662",
    "geocoded_column": {
      "latitude": "29.944558076578662",
      "longitude": "-90.10962343716993"
    }
  },
  {
    "service_request": "2023-964074",
    "request_type": "Trash/Recycling",
    "request_reason": "MIssed Recycling Pick-Up",
    "date_created": "2023-01-09T19:45:13.000",
    "date_modified": "2023-01-09T19:45:14.000",
    "request_status": "Pending",
    "responsible_agency": "Department of Sanitation",
    "final_address": "7937 Olive St",
    "address_councildis": "B",
    "status": "Assigned to Contractor",
    "contractor": "Richards Disposal",
    "rowid": "964074",
    "final_x": "3667652.89652",
    "final_y": "533851.895365",
    "longitude": "-90.11171613690854",
    "latitude": "29.96232079461137",
    "geocoded_column": {
      "latitude": "29.96232079461137",
      "longitude": "-90.11171613690854"
    }
  },
  {
    "service_request": "2023-964073",
    "request_type": "Trash/Recycling",
    "request_reason": "Missed Trash Pick-Up",
    "date_created": "2023-01-09T19:44:16.000",
    "date_modified": "2023-01-09T19:44:17.000",
    "request_status": "Pending",
    "responsible_agency": "Department of Sanitation",
    "final_address": "1721 Nashville Ave",
    "address_councildis": "A",
    "status": "Assigned to Contractor",
    "contractor": "Richards Disposal",
    "rowid": "964073",
    "final_x": "3666512.55802",
    "final_y": "522764.596346",
    "longitude": "-90.11568923685391",
    "latitude": "29.93186769024428",
    "geocoded_column": {
      "latitude": "29.93186769024428",
      "longitude": "-90.11568923685391"
    }
  },
  {
    "service_request": "2023-964072",
    "request_type": "Trash/Recycling",
    "request_reason": "Missed Trash Pick-Up",
    "date_created": "2023-01-09T19:39:17.000",
    "date_modified": "2023-01-09T19:39:18.000",
    "request_status": "Pending",
    "responsible_agency": "Department of Sanitation",
    "final_address": "418 S Scott St",
    "address_councildis": "B",
    "status": "Assigned to Contractor",
    "contractor": "Richards Disposal",
    "rowid": "964072",
    "final_x": "3670952.65121",
    "final_y": "536682.005383",
    "longitude": "-90.1011998601443",
    "latitude": "29.970005505535237",
    "geocoded_column": {
      "latitude": "29.970005505535237",
      "longitude": "-90.1011998601443"
    }
  },
  {
    "service_request": "2023-964071",
    "request_type": "Trash/Recycling",
    "request_reason": "Missed Trash Pick-Up",
    "date_created": "2023-01-09T19:32:38.000",
    "date_modified": "2023-01-09T19:32:39.000",
    "request_status": "Pending",
    "responsible_agency": "Department of Sanitation",
    "final_address": "617 Fourth St",
    "address_councildis": "B",
    "status": "Assigned to Contractor",
    "contractor": "Richards Disposal",
    "rowid": "964071",
    "final_x": "3678273.21928",
    "final_y": "519613.663864",
    "longitude": "-90.07867100095176",
    "latitude": "29.922854769476718",
    "geocoded_column": {
      "latitude": "29.922854769476718",
      "longitude": "-90.07867100095176"
    }
  },
  {
    "service_request": "2023-964070",
    "request_type": "Trash/Recycling",
    "request_reason": "Missed Trash Pick-Up",
    "date_created": "2023-01-09T19:23:16.000",
    "date_modified": "2023-01-09T19:23:17.000",
    "request_status": "Pending",
    "responsible_agency": "Department of Sanitation",
    "final_address": "724 N Salcedo St",
    "address_councildis": "A",
    "status": "Assigned to Contractor",
    "contractor": "Richards Disposal",
    "rowid": "964070",
    "final_x": "3675608.28725",
    "final_y": "538044.193801",
    "longitude": "-90.08645007154601",
    "latitude": "29.97361258368972",
    "geocoded_column": {
      "latitude": "29.97361258368972",
      "longitude": "-90.08645007154601"
    }
  },
  {
    "service_request": "2023-964069",
    "request_type": "Trash/Recycling",
    "request_reason": "Missed Trash Pick-Up",
    "date_created": "2023-01-09T19:15:50.000",
    "date_modified": "2023-01-09T19:15:50.000",
    "request_status": "Pending",
    "responsible_agency": "Department of Sanitation",
    "final_address": "3104 Dumaine St",
    "address_councildis": "A",
    "status": "Assigned to Contractor",
    "contractor": "Richards Disposal",
    "rowid": "964069",
    "final_x": "3675629.24091",
    "final_y": "538644.852425",
    "longitude": "-90.08636325099864",
    "latitude": "29.975263562735798",
    "geocoded_column": {
      "latitude": "29.975263562735798",
      "longitude": "-90.08636325099864"
    }
  },
  {
    "service_request": "2023-964068",
    "request_type": "Trash/Recycling",
    "request_reason": "Missed Trash Pick-Up",
    "date_created": "2023-01-09T19:15:11.000",
    "date_modified": "2023-01-09T19:15:12.000",
    "request_status": "Pending",
    "responsible_agency": "Department of Sanitation",
    "final_address": "305 S Pierce St",
    "address_councildis": "A",
    "status": "Assigned to Contractor",
    "contractor": "Richards Disposal",
    "rowid": "964068",
    "final_x": "3670912.3419",
    "final_y": "537382.580808",
    "longitude": "-90.10130337214864",
    "latitude": "29.971933044081446",
    "geocoded_column": {
      "latitude": "29.971933044081446",
      "longitude": "-90.10130337214864"
    }
  },
  {
    "service_request": "2023-964067",
    "request_type": "Trash/Recycling",
    "request_reason": "Missed Trash Pick-Up",
    "date_created": "2023-01-09T19:14:27.000",
    "date_modified": "2023-01-09T19:14:28.000",
    "request_status": "Pending",
    "responsible_agency": "Department of Sanitation",
    "final_address": "307 S Pierce St",
    "address_councildis": "A",
    "status": "Assigned to Contractor",
    "contractor": "Richards Disposal",
    "rowid": "964067",
    "final_x": "3670901.54734",
    "final_y": "537369.43956",
    "longitude": "-90.10133790940915",
    "latitude": "29.971897229209855",
    "geocoded_column": {
      "latitude": "29.971897229209855",
      "longitude": "-90.10133790940915"
    }
  },
  {
    "service_request": "2023-964066",
    "request_type": "Trash/Recycling",
    "request_reason": "MIssed Recycling Pick-Up",
    "date_created": "2023-01-09T19:11:47.000",
    "date_modified": "2023-01-09T19:11:48.000",
    "request_status": "Pending",
    "responsible_agency": "Department of Sanitation",
    "final_address": "5721 Abbey Dr",
    "address_councildis": "C",
    "status": "Assigned to Contractor",
    "contractor": "Richards Disposal",
    "rowid": "964066",
    "final_x": "3704783.30948",
    "final_y": "521039.323769",
    "longitude": "-89.99493714882166",
    "latitude": "29.92595005261294",
    "geocoded_column": {
      "latitude": "29.92595005261294",
      "longitude": "-89.99493714882166"
    }
  },
  {
    "service_request": "2023-964065",
    "request_type": "Trash/Recycling",
    "request_reason": "Missed Trash Pick-Up",
    "date_created": "2023-01-09T19:10:41.000",
    "date_modified": "2023-01-09T19:10:42.000",
    "request_status": "Pending",
    "responsible_agency": "Department of Sanitation",
    "final_address": "5721 Abbey Dr",
    "address_councildis": "C",
    "status": "Assigned to Contractor",
    "contractor": "Richards Disposal",
    "rowid": "964065",
    "final_x": "3704783.30948",
    "final_y": "521039.323769",
    "longitude": "-89.99493714882166",
    "latitude": "29.92595005261294",
    "geocoded_column": {
      "latitude": "29.92595005261294",
      "longitude": "-89.99493714882166"
    }
  },
  {
    "service_request": "2023-964064",
    "request_type": "Trash/Recycling",
    "request_reason": "Missed Trash Pick-Up",
    "date_created": "2023-01-09T19:05:47.000",
    "date_modified": "2023-01-09T19:05:48.000",
    "request_status": "Pending",
    "responsible_agency": "Department of Sanitation",
    "final_address": "849 Olga St",
    "address_councildis": "A",
    "status": "Assigned to Contractor",
    "contractor": "Richards Disposal",
    "rowid": "964064",
    "final_x": "3673303.3876",
    "final_y": "540157.306763",
    "longitude": "-90.09365724713349",
    "latitude": "29.979491688927357",
    "geocoded_column": {
      "latitude": "29.979491688927357",
      "longitude": "-90.09365724713349"
    }
  },
  {
    "service_request": "2023-964063",
    "request_type": "Trash/Recycling",
    "request_reason": "Order Recycling Cart",
    "date_created": "2023-01-09T19:04:06.000",
    "date_modified": "2023-01-09T19:04:06.000",
    "request_status": "Pending",
    "responsible_agency": "Department of Sanitation",
    "final_address": "7050 Edgefield Dr",
    "address_councildis": "E",
    "status": "Pending",
    "rowid": "964063",
    "final_x": "3718687.64972",
    "final_y": "569150.090406",
    "longitude": "-89.94921127171993",
    "latitude": "30.057782163760944",
    "geocoded_column": {
      "latitude": "30.057782163760944",
      "longitude": "-89.94921127171993"
    }
  },
  {
    "service_request": "2023-964062",
    "request_type": "Trash/Recycling",
    "request_reason": "Missed Trash Pick-Up",
    "date_created": "2023-01-09T19:03:06.000",
    "date_modified": "2023-01-09T19:03:08.000",
    "request_status": "Pending",
    "responsible_agency": "Department of Sanitation",
    "final_address": "2527 Cleveland Ave, New Orleans, Louisiana, 70119",
    "address_councildis": "B",
    "status": "Assigned to Contractor",
    "contractor": "Richards Disposal",
    "rowid": "964062",
    "final_x": "3675734.17345",
    "final_y": "534376.653573",
    "longitude": "-90.08617856593321",
    "latitude": "29.963524325457225",
    "geocoded_column": {
      "latitude": "29.963524325457225",
      "longitude": "-90.08617856593321"
    }
  },
  {
    "service_request": "2023-964061",
    "request_type": "Roads/Drainage",
    "request_reason": "Pothole",
    "date_created": "2023-01-09T19:01:04.000",
    "date_modified": "2023-01-09T19:01:04.000",
    "request_status": "Pending",
    "responsible_agency": "Department of Public Works",
    "final_address": "6100 Constance St",
    "address_councildis": "A",
    "status": "Pending",
    "rowid": "964061",
    "final_x": "3663886.80666",
    "final_y": "519096.152375",
    "longitude": "-90.12410070528682",
    "latitude": "29.92185708429662",
    "geocoded_column": {
      "latitude": "29.92185708429662",
      "longitude": "-90.12410070528682"
    }
  },
  {
    "service_request": "2023-964060",
    "request_type": "Trash/Recycling",
    "request_reason": "Missed Trash Pick-Up",
    "date_created": "2023-01-09T18:44:28.000",
    "date_modified": "2023-01-09T18:44:28.000",
    "request_status": "Pending",
    "responsible_agency": "Department of Sanitation",
    "final_address": "5919 Laurel St",
    "address_councildis": "A",
    "status": "Assigned to Contractor",
    "contractor": "Richards Disposal",
    "rowid": "964060",
    "final_x": "3664856.04474",
    "final_y": "518142.721398",
    "longitude": "-90.12107305902657",
    "latitude": "29.91920728616994",
    "geocoded_column": {
      "latitude": "29.91920728616994",
      "longitude": "-90.12107305902657"
    }
  },
  {
    "service_request": "2023-964059",
    "request_type": "Trash/Recycling",
    "request_reason": "Replace Trash Cart",
    "date_created": "2023-01-09T18:44:00.000",
    "date_modified": "2023-01-09T18:44:01.000",
    "request_status": "Pending",
    "responsible_agency": "Department of Sanitation",
    "final_address": "2600 BLK Valence St",
    "address_councildis": "B",
    "status": "Assigned to Contractor",
    "contractor": "Richards Disposal",
    "rowid": "964059",
    "final_x": "3669373.98766",
    "final_y": "524453.200553",
    "longitude": "-90.10659891383341",
    "latitude": "29.936426889028237",
    "geocoded_column": {
      "latitude": "29.936426889028237",
      "longitude": "-90.10659891383341"
    }
  },
  {
    "service_request": "2023-964058",
    "request_type": "Trash/Recycling",
    "request_reason": "Missed Trash Pick-Up",
    "date_created": "2023-01-09T18:39:32.000",
    "date_modified": "2023-01-09T18:39:33.000",
    "request_status": "Pending",
    "responsible_agency": "Department of Sanitation",
    "final_address": "4810 Bienville Ave",
    "address_councildis": "A",
    "status": "Assigned to Contractor",
    "contractor": "Richards Disposal",
    "rowid": "964058",
    "final_x": "3669177.79854",
    "final_y": "540724.592267",
    "longitude": "-90.10666836299133",
    "latitude": "29.98117361622397",
    "geocoded_column": {
      "latitude": "29.98117361622397",
      "longitude": "-90.10666836299133"
    }
  },
  {
    "service_request": "2023-964057",
    "request_type": "Traffic Signals/Signs/Striping/Streetlights",
    "request_reason": "Street Light Outage/Malfunction",
    "date_created": "2023-01-09T18:39:27.000",
    "date_modified": "2023-01-09T18:39:28.000",
    "request_status": "Pending",
    "responsible_agency": "Department of Public Works",
    "final_address": "3626 Delgado Dr",
    "address_councildis": "A",
    "status": "Assigned to Contractor",
    "contractor": "Legacy Professional Services",
    "rowid": "964057",
    "final_x": "3674200.76731",
    "final_y": "540465.066571",
    "longitude": "-90.09081241894077",
    "latitude": "29.980311196908268",
    "geocoded_column": {
      "latitude": "29.980311196908268",
      "longitude": "-90.09081241894077"
    }
  },
  {
    "service_request": "2023-964056",
    "request_type": "Traffic Signals/Signs/Striping/Streetlights",
    "request_reason": "Street Light Outage/Malfunction",
    "date_created": "2023-01-09T18:38:09.000",
    "date_modified": "2023-01-09T18:38:09.000",
    "request_status": "Pending",
    "responsible_agency": "Department of Public Works",
    "final_address": "3600 Delgado Dr",
    "address_councildis": "A",
    "status": "Assigned to Contractor",
    "contractor": "Legacy Professional Services",
    "rowid": "964056",
    "final_x": "3674325.3426",
    "final_y": "540400.416523",
    "longitude": "-90.0904211715261",
    "latitude": "29.98012971644632",
    "geocoded_column": {
      "latitude": "29.98012971644632",
      "longitude": "-90.0904211715261"
    }
  },
  {
    "service_request": "2023-964055",
    "request_type": "Trash/Recycling",
    "request_reason": "Missed Trash Pick-Up",
    "date_created": "2023-01-09T18:37:19.000",
    "date_modified": "2023-01-09T18:37:19.000",
    "request_status": "Pending",
    "responsible_agency": "Department of Sanitation",
    "final_address": "5027 S Johnson St",
    "address_councildis": "B",
    "status": "Assigned to Contractor",
    "contractor": "Richards Disposal",
    "rowid": "964055",
    "final_x": "3668685.60852",
    "final_y": "527038.837694",
    "longitude": "-90.10868491495066",
    "latitude": "29.94355680329856",
    "geocoded_column": {
      "latitude": "29.94355680329856",
      "longitude": "-90.10868491495066"
    }
  },
  {
    "service_request": "2023-964054",
    "request_type": "Traffic Signals/Signs/Striping/Streetlights",
    "request_reason": "Street Light Outage/Malfunction",
    "date_created": "2023-01-09T18:36:46.000",
    "date_modified": "2023-01-09T18:36:47.000",
    "request_status": "Pending",
    "responsible_agency": "Department of Public Works",
    "final_address": "3609 Delgado Dr",
    "address_councildis": "A",
    "status": "Assigned to Contractor",
    "contractor": "Legacy Professional Services",
    "rowid": "964054",
    "final_x": "3674470.85",
    "final_y": "540386.477515",
    "longitude": "-90.0899620751811",
    "latitude": "29.980087048254465",
    "geocoded_column": {
      "latitude": "29.980087048254465",
      "longitude": "-90.0899620751811"
    }
  },
  {
    "service_request": "2023-964053",
    "request_type": "Trash/Recycling",
    "request_reason": "Replace Trash Cart",
    "date_created": "2023-01-09T18:36:35.000",
    "date_modified": "2023-01-09T18:36:36.000",
    "request_status": "Pending",
    "responsible_agency": "Department of Sanitation",
    "final_address": "2624 Valence Street New Orleans 70115",
    "status": "Assigned to Contractor",
    "rowid": "964053",
    "longitude": "0.0",
    "latitude": "0.0",
    "geocoded_column": {
      "latitude": "0.0",
      "longitude": "0.0"
    }
  },
  {
    "service_request": "2023-964052",
    "request_type": "Trash/Recycling",
    "request_reason": "Missed Trash Pick-Up",
    "date_created": "2023-01-09T18:36:01.000",
    "date_modified": "2023-01-09T18:36:02.000",
    "request_status": "Pending",
    "responsible_agency": "Department of Sanitation",
    "final_address": "5821 Norland Ave",
    "address_councildis": "C",
    "status": "Assigned to Contractor",
    "contractor": "Richards Disposal",
    "rowid": "964052",
    "final_x": "3705195.53227",
    "final_y": "520338.856824",
    "longitude": "-89.993661745536",
    "latitude": "29.924010766436467",
    "geocoded_column": {
      "latitude": "29.924010766436467",
      "longitude": "-89.993661745536"
    }
  },
  {
    "service_request": "2023-964051",
    "request_type": "Traffic Signals/Signs/Striping/Streetlights",
    "request_reason": "Street Light Outage/Malfunction",
    "date_created": "2023-01-09T18:35:07.000",
    "date_modified": "2023-01-09T18:35:07.000",
    "request_status": "Pending",
    "responsible_agency": "Department of Public Works",
    "final_address": "3615 Delgado Dr",
    "address_councildis": "A",
    "status": "Assigned to Contractor",
    "contractor": "Legacy Professional Services",
    "rowid": "964051",
    "final_x": "3674426.98158",
    "final_y": "540418.381579",
    "longitude": "-90.09009953688313",
    "latitude": "29.980176082318305",
    "geocoded_column": {
      "latitude": "29.980176082318305",
      "longitude": "-90.09009953688313"
    }
  },
  {
    "service_request": "2023-964050",
    "request_type": "Trash/Recycling",
    "request_reason": "MIssed Recycling Pick-Up",
    "date_created": "2023-01-09T18:34:47.000",
    "date_modified": "2023-01-09T18:34:48.000",
    "request_status": "Pending",
    "responsible_agency": "Department of Sanitation",
    "final_address": "11 Grand Canyon Dr",
    "address_councildis": "C",
    "status": "Assigned to Contractor",
    "contractor": "Richards Disposal",
    "rowid": "964050",
    "final_x": "3699463.06628",
    "final_y": "517427.78367",
    "longitude": "-90.01186296337428",
    "latitude": "29.916189352110166",
    "geocoded_column": {
      "latitude": "29.916189352110166",
      "longitude": "-90.01186296337428"
    }
  },
  {
    "service_request": "2023-964049",
    "request_type": "Traffic Signals/Signs/Striping/Streetlights",
    "request_reason": "Street Light Outage/Malfunction",
    "date_created": "2023-01-09T18:33:54.000",
    "date_modified": "2023-01-09T18:33:55.000",
    "request_status": "Pending",
    "responsible_agency": "Department of Public Works",
    "final_address": "3701 Delgado Dr",
    "address_councildis": "A",
    "status": "Assigned to Contractor",
    "contractor": "Legacy Professional Services",
    "rowid": "964049",
    "final_x": "3674311.29409",
    "final_y": "540561.876555",
    "longitude": "-90.09046001124534",
    "latitude": "29.980574095172003",
    "geocoded_column": {
      "latitude": "29.980574095172003",
      "longitude": "-90.09046001124534"
    }
  },
  {
    "service_request": "2023-964048",
    "request_type": "Traffic Signals/Signs/Striping/Streetlights",
    "request_reason": "Street Light Outage/Malfunction",
    "date_created": "2023-01-09T18:32:49.000",
    "date_modified": "2023-01-09T18:32:49.000",
    "request_status": "Pending",
    "responsible_agency": "Department of Public Works",
    "final_address": "3715 Delgado Dr",
    "address_councildis": "A",
    "status": "Assigned to Contractor",
    "contractor": "Legacy Professional Services",
    "rowid": "964048",
    "final_x": "3674175.06728",
    "final_y": "540635.731851",
    "longitude": "-90.09088774589387",
    "latitude": "29.980781234174053",
    "geocoded_column": {
      "latitude": "29.980781234174053",
      "longitude": "-90.09088774589387"
    }
  },
  {
    "service_request": "2023-964047",
    "request_type": "Trash/Recycling",
    "request_reason": "Repair Recycling Cart",
    "date_created": "2023-01-09T18:32:35.000",
    "date_modified": "2023-01-09T18:32:35.000",
    "request_status": "Pending",
    "responsible_agency": "Department of Sanitation",
    "final_address": "6648 Marshal Foch St",
    "address_councildis": "A",
    "status": "Pending",
    "rowid": "964047",
    "final_x": "3670142.16526",
    "final_y": "551638.484629",
    "longitude": "-90.10325239524656",
    "latitude": "30.01115462145588",
    "geocoded_column": {
      "latitude": "30.01115462145588",
      "longitude": "-90.10325239524656"
    }
  },
  {
    "service_request": "2023-964046",
    "request_type": "Traffic Signals/Signs/Striping/Streetlights",
    "request_reason": "Street Light Outage/Malfunction",
    "date_created": "2023-01-09T18:31:44.000",
    "date_modified": "2023-01-09T18:31:45.000",
    "request_status": "Pending",
    "responsible_agency": "Department of Public Works",
    "final_address": "3919 Delgado Dr",
    "address_councildis": "A",
    "status": "Assigned to Contractor",
    "contractor": "Legacy Professional Services",
    "rowid": "964046",
    "final_x": "3674041.46644",
    "final_y": "540762.021387",
    "longitude": "-90.09130539318919",
    "latitude": "29.981132469690593",
    "geocoded_column": {
      "latitude": "29.981132469690593",
      "longitude": "-90.09130539318919"
    }
  },
  {
    "service_request": "2023-964045",
    "request_type": "Traffic Signals/Signs/Striping/Streetlights",
    "request_reason": "Street Light Outage/Malfunction",
    "date_created": "2023-01-09T18:30:33.000",
    "date_modified": "2023-01-09T18:30:34.000",
    "request_status": "Pending",
    "responsible_agency": "Department of Public Works",
    "final_address": "4009 Delgado Dr",
    "address_councildis": "A",
    "status": "Assigned to Contractor",
    "contractor": "Legacy Professional Services",
    "rowid": "964045",
    "final_x": "3673915.00219",
    "final_y": "540878.013195",
    "longitude": "-90.0917008551793",
    "latitude": "29.981455176009806",
    "geocoded_column": {
      "latitude": "29.981455176009806",
      "longitude": "-90.0917008551793"
    }
  },
  {
    "service_request": "2023-964044",
    "request_type": "Trash/Recycling",
    "request_reason": "MIssed Recycling Pick-Up",
    "date_created": "2023-01-09T18:30:27.000",
    "date_modified": "2023-01-09T18:30:27.000",
    "request_status": "Pending",
    "responsible_agency": "Department of Sanitation",
    "final_address": "255 Belleville St",
    "address_councildis": "C",
    "status": "Assigned to Contractor",
    "contractor": "Richards Disposal",
    "rowid": "964044",
    "final_x": "3687856.53724",
    "final_y": "530994.247682",
    "longitude": "-90.0480173410112",
    "latitude": "29.95385551437567",
    "geocoded_column": {
      "latitude": "29.95385551437567",
      "longitude": "-90.0480173410112"
    }
  },
  {
    "service_request": "2023-964043",
    "request_type": "Trash/Recycling",
    "request_reason": "Missed Trash Pick-Up",
    "date_created": "2023-01-09T18:30:25.000",
    "date_modified": "2023-01-09T18:30:26.000",
    "request_status": "Pending",
    "responsible_agency": "Department of Sanitation",
    "final_address": "834 Wilson Dr",
    "address_councildis": "A",
    "status": "Assigned to Contractor",
    "contractor": "Richards Disposal",
    "rowid": "964043",
    "final_x": "3674110.26388",
    "final_y": "539500.885834",
    "longitude": "-90.09113128164303",
    "latitude": "29.9776627280038",
    "geocoded_column": {
      "latitude": "29.9776627280038",
      "longitude": "-90.09113128164303"
    }
  },
  {
    "service_request": "2023-964042",
    "request_type": "Roads/Drainage",
    "request_reason": "Pothole",
    "date_created": "2023-01-09T18:30:20.000",
    "date_modified": "2023-01-09T18:30:20.000",
    "request_status": "Pending",
    "responsible_agency": "Department of Public Works",
    "final_address": "WEST ROADWAY & W ROADWAY ST & S ROADWAY ST & WEST END PARK",
    "address_councildis": "A",
    "status": "Pending",
    "rowid": "964042",
    "final_x": "3664901.8",
    "final_y": "556144.08",
    "longitude": "-90.11965810868256",
    "latitude": "30.023697071675763",
    "geocoded_column": {
      "latitude": "30.023697071675763",
      "longitude": "-90.11965810868256"
    }
  },
  {
    "service_request": "2023-964041",
    "request_type": "Traffic Signals/Signs/Striping/Streetlights",
    "request_reason": "Street Light Outage/Malfunction",
    "date_created": "2023-01-09T18:29:15.000",
    "date_modified": "2023-01-09T18:29:16.000",
    "request_status": "Pending",
    "responsible_agency": "Department of Public Works",
    "final_address": "970 Picheloup Pl",
    "address_councildis": "A",
    "status": "Assigned to Contractor",
    "contractor": "Legacy Professional Services",
    "rowid": "964041",
    "final_x": "3673685.70024",
    "final_y": "540787.730379",
    "longitude": "-90.09242818589162",
    "latitude": "29.981213759329115",
    "geocoded_column": {
      "latitude": "29.981213759329115",
      "longitude": "-90.09242818589162"
    }
  },
  {
    "service_request": "2023-964040",
    "request_type": "Traffic Signals/Signs/Striping/Streetlights",
    "request_reason": "Street Light Outage/Malfunction",
    "date_created": "2023-01-09T18:27:55.000",
    "date_modified": "2023-01-09T18:27:56.000",
    "request_status": "Pending",
    "responsible_agency": "Department of Public Works",
    "final_address": "963 Picheloup Pl",
    "address_councildis": "A",
    "status": "Assigned to Contractor",
    "contractor": "Legacy Professional Services",
    "rowid": "964040",
    "final_x": "3673590.10004",
    "final_y": "540763.802443",
    "longitude": "-90.09273095347677",
    "latitude": "29.98115081212068",
    "geocoded_column": {
      "latitude": "29.98115081212068",
      "longitude": "-90.09273095347677"
    }
  },
  {
    "service_request": "2023-964039",
    "request_type": "Traffic Signals/Signs/Striping/Streetlights",
    "request_reason": "Street Light Outage/Malfunction",
    "date_created": "2023-01-09T18:26:08.000",
    "date_modified": "2023-01-09T18:26:09.000",
    "request_status": "Pending",
    "responsible_agency": "Department of Public Works",
    "final_address": "4030 Delgado Dr",
    "address_councildis": "A",
    "status": "Assigned to Contractor",
    "contractor": "Legacy Professional Services",
    "rowid": "964039",
    "final_x": "3673740.77313",
    "final_y": "540909.538315",
    "longitude": "-90.09225007338904",
    "latitude": "29.981547049327187",
    "geocoded_column": {
      "latitude": "29.981547049327187",
      "longitude": "-90.09225007338904"
    }
  },
  {
    "service_request": "2023-964038",
    "request_type": "Trash/Recycling",
    "request_reason": "Missed Trash Pick-Up",
    "date_created": "2023-01-09T18:25:49.000",
    "date_modified": "2023-01-09T18:25:50.000",
    "request_status": "Pending",
    "responsible_agency": "Department of Sanitation",
    "final_address": "1680 State St, New Orleans, Louisiana, 70118",
    "address_councildis": "A",
    "status": "Assigned to Contractor",
    "contractor": "Richards Disposal",
    "rowid": "964038",
    "final_x": "3665927.38535",
    "final_y": "523304.767739",
    "longitude": "-90.11751847731074",
    "latitude": "29.933370075599115",
    "geocoded_column": {
      "latitude": "29.933370075599115",
      "longitude": "-90.11751847731074"
    }
  },
  {
    "service_request": "2023-964037",
    "request_type": "Traffic Signals/Signs/Striping/Streetlights",
    "request_reason": "Street Light Outage/Malfunction",
    "date_created": "2023-01-09T18:25:32.000",
    "date_modified": "2023-01-09T18:25:33.000",
    "request_status": "Pending",
    "responsible_agency": "Department of Public Works",
    "final_address": "3306 Octavia St",
    "address_councildis": "A",
    "status": "Assigned to Contractor",
    "contractor": "Legacy Professional Services",
    "rowid": "964037",
    "final_x": "3668360.82855",
    "final_y": "527792.686335",
    "longitude": "-90.1096849165814",
    "latitude": "29.94563918329579",
    "geocoded_column": {
      "latitude": "29.94563918329579",
      "longitude": "-90.1096849165814"
    }
  },
  {
    "service_request": "2023-964036",
    "request_type": "Trash/Recycling",
    "request_reason": "Missed Trash Pick-Up",
    "date_created": "2023-01-09T18:25:28.000",
    "date_modified": "2023-01-09T18:25:29.000",
    "request_status": "Pending",
    "responsible_agency": "Department of Sanitation",
    "final_address": "2422 Monroe St",
    "address_councildis": "A",
    "status": "Assigned to Contractor",
    "contractor": "Richards Disposal",
    "rowid": "964036",
    "final_x": "3663438.33722",
    "final_y": "533216.245764",
    "longitude": "-90.12504633690708",
    "latitude": "29.960695842833577",
    "geocoded_column": {
      "latitude": "29.960695842833577",
      "longitude": "-90.12504633690708"
    }
  },
  {
    "service_request": "2023-964035",
    "request_type": "Traffic Signals/Signs/Striping/Streetlights",
    "request_reason": "Street Light Outage/Malfunction",
    "date_created": "2023-01-09T18:24:34.000",
    "date_modified": "2023-01-09T18:24:36.000",
    "request_status": "Pending",
    "responsible_agency": "Department of Public Works",
    "final_address": "4006 Delgado Dr",
    "address_councildis": "A",
    "status": "Assigned to Contractor",
    "contractor": "Legacy Professional Services",
    "rowid": "964035",
    "final_x": "3673854.15918",
    "final_y": "540818.181835",
    "longitude": "-90.09189507320743",
    "latitude": "29.98129247298059",
    "geocoded_column": {
      "latitude": "29.98129247298059",
      "longitude": "-90.09189507320743"
    }
  },
  {
    "service_request": "2023-964034",
    "request_type": "Trash/Recycling",
    "request_reason": "Missed Trash Pick-Up",
    "date_created": "2023-01-09T18:21:26.000",
    "date_modified": "2023-01-09T18:21:27.000",
    "request_status": "Pending",
    "responsible_agency": "Department of Sanitation",
    "final_address": "1800 BLK Fern St",
    "address_councildis": "A",
    "status": "Assigned to Contractor",
    "contractor": "Richards Disposal",
    "rowid": "964034",
    "final_x": "3664073.56355",
    "final_y": "529538.59327",
    "longitude": "-90.12316306054721",
    "latitude": "29.950565059439647",
    "geocoded_column": {
      "latitude": "29.950565059439647",
      "longitude": "-90.12316306054721"
    }
  },
  {
    "service_request": "2023-964033",
    "request_type": "Trash/Recycling",
    "request_reason": "Missed Trash Pick-Up",
    "date_created": "2023-01-09T18:21:13.000",
    "date_modified": "2023-01-09T18:21:13.000",
    "request_status": "Pending",
    "responsible_agency": "Department of Sanitation",
    "final_address": "827 Olga St",
    "address_councildis": "A",
    "status": "Assigned to Contractor",
    "contractor": "Richards Disposal",
    "rowid": "964033",
    "final_x": "3673291.54913",
    "final_y": "540022.405259",
    "longitude": "-90.09369924731193",
    "latitude": "29.97912110804875",
    "geocoded_column": {
      "latitude": "29.97912110804875",
      "longitude": "-90.09369924731193"
    }
  },
  {
    "service_request": "2023-964032",
    "request_type": "Traffic Signals/Signs/Striping/Streetlights",
    "request_reason": "Street Light Outage/Malfunction",
    "date_created": "2023-01-09T18:19:08.000",
    "date_modified": "2023-01-09T18:19:09.000",
    "request_status": "Pending",
    "responsible_agency": "Department of Public Works",
    "final_address": "977 Taft Pl",
    "address_councildis": "A",
    "status": "Assigned to Contractor",
    "contractor": "Legacy Professional Services",
    "rowid": "964032",
    "final_x": "3673856.42459",
    "final_y": "540665.299147",
    "longitude": "-90.09189314960383",
    "latitude": "29.980872030512426",
    "geocoded_column": {
      "latitude": "29.980872030512426",
      "longitude": "-90.09189314960383"
    }
  },
  {
    "service_request": "2023-964031",
    "request_type": "Traffic Signals/Signs/Striping/Streetlights",
    "request_reason": "Street Light Outage/Malfunction",
    "date_created": "2023-01-09T18:17:28.000",
    "date_modified": "2023-01-09T18:24:56.000",
    "request_status": "Pending",
    "responsible_agency": "Department of Public Works",
    "final_address": "New Orleans,LA",
    "address_councildis": "A",
    "status": "Assigned to Contractor",
    "contractor": "Legacy Professional Services",
    "rowid": "964031",
    "final_x": "3661818.02902",
    "final_y": "522451.690449",
    "longitude": "-90.13051980563229",
    "latitude": "29.931143635865944",
    "geocoded_column": {
      "latitude": "29.931143635865944",
      "longitude": "-90.13051980563229"
    }
  },
  {
    "service_request": "2023-964030",
    "request_type": "Traffic Signals/Signs/Striping/Streetlights",
    "request_reason": "Street Light Outage/Malfunction",
    "date_created": "2023-01-09T18:16:43.000",
    "date_modified": "2023-01-09T18:16:43.000",
    "request_status": "Pending",
    "responsible_agency": "Department of Public Works",
    "final_address": "3940 Delgado Dr",
    "address_councildis": "A",
    "status": "Assigned to Contractor",
    "contractor": "Legacy Professional Services",
    "rowid": "964030",
    "final_x": "3673976.88321",
    "final_y": "540691.170507",
    "longitude": "-90.0915118017358",
    "latitude": "29.98093957879386",
    "geocoded_column": {
      "latitude": "29.98093957879386",
      "longitude": "-90.0915118017358"
    }
  },
  {
    "service_request": "2023-964029",
    "request_type": "Parks & Parkways",
    "request_reason": "Request Tree Service (Right of Way/Public Property)",
    "date_created": "2023-01-09T18:16:00.000",
    "date_modified": "2023-01-09T18:16:00.000",
    "request_status": "Pending",
    "responsible_agency": "Department of Parks & Parkway",
    "final_address": "6124 N Galvez St",
    "address_councildis": "E",
    "status": "Pending",
    "rowid": "964029",
    "final_x": "3701098.83357",
    "final_y": "536708.950023",
    "longitude": "-90.00599488092195",
    "latitude": "29.96915381591089",
    "geocoded_column": {
      "latitude": "29.96915381591089",
      "longitude": "-90.00599488092195"
    }
  },
  {
    "service_request": "2023-964028",
    "request_type": "Traffic Signals/Signs/Striping/Streetlights",
    "request_reason": "Street Light Outage/Malfunction",
    "date_created": "2023-01-09T18:15:11.000",
    "date_modified": "2023-01-09T18:15:12.000",
    "request_status": "Pending",
    "responsible_agency": "Department of Public Works",
    "final_address": "3904 Delgado Dr",
    "address_councildis": "A",
    "status": "Assigned to Contractor",
    "contractor": "Legacy Professional Services",
    "rowid": "964028",
    "final_x": "3674060.07739",
    "final_y": "540601.833419",
    "longitude": "-90.09125209573223",
    "latitude": "29.98069145300311",
    "geocoded_column": {
      "latitude": "29.98069145300311",
      "longitude": "-90.09125209573223"
    }
  },
  {
    "service_request": "2023-964027",
    "request_type": "Trash/Recycling",
    "request_reason": "Missed Trash Pick-Up",
    "date_created": "2023-01-09T18:13:34.000",
    "date_modified": "2023-01-09T18:13:34.000",
    "request_status": "Pending",
    "responsible_agency": "Department of Sanitation",
    "final_address": "2503 Annunciation St",
    "address_councildis": "B",
    "status": "Assigned to Contractor",
    "contractor": "Richards Disposal",
    "rowid": "964027",
    "final_x": "3678370.0667",
    "final_y": "520423.410488",
    "longitude": "-90.07833729610664",
    "latitude": "29.925078393427984",
    "geocoded_column": {
      "latitude": "29.925078393427984",
      "longitude": "-90.07833729610664"
    }
  },
  {
    "service_request": "2023-964026",
    "request_type": "Trash/Recycling",
    "request_reason": "Missed Trash Pick-Up",
    "date_created": "2023-01-09T18:13:20.000",
    "date_modified": "2023-01-09T18:13:21.000",
    "request_status": "Pending",
    "responsible_agency": "Department of Sanitation",
    "final_address": "3019 Joseph St",
    "address_councildis": "A",
    "status": "Assigned to Contractor",
    "contractor": "Richards Disposal",
    "rowid": "964026",
    "final_x": "3667970.43981",
    "final_y": "526880.150334",
    "longitude": "-90.11094824251568",
    "latitude": "29.943141462271317",
    "geocoded_column": {
      "latitude": "29.943141462271317",
      "longitude": "-90.11094824251568"
    }
  },
  {
    "service_request": "2023-964025",
    "request_type": "Trash/Recycling",
    "request_reason": "Missed Trash Pick-Up",
    "date_created": "2023-01-09T18:10:46.000",
    "date_modified": "2023-01-09T18:10:47.000",
    "request_status": "Pending",
    "responsible_agency": "Department of Sanitation",
    "final_address": "8701 Pritchard Pl",
    "address_councildis": "A",
    "status": "Assigned to Contractor",
    "contractor": "Richards Disposal",
    "rowid": "964025",
    "final_x": "3664491.29236",
    "final_y": "534366.411589",
    "longitude": "-90.1216828899228",
    "latitude": "29.963827849252564",
    "geocoded_column": {
      "latitude": "29.963827849252564",
      "longitude": "-90.1216828899228"
    }
  },
  {
    "service_request": "2023-964024",
    "request_type": "Traffic Signals/Signs/Striping/Streetlights",
    "request_reason": "Traffic Signal Malfunctioning/Damaged",
    "date_created": "2023-01-09T18:09:04.000",
    "date_modified": "2023-01-09T18:09:04.000",
    "request_status": "Pending",
    "responsible_agency": "Department of Public Works",
    "final_address": "4401 Freret St",
    "address_councildis": "B",
    "status": "Pending",
    "rowid": "964024",
    "final_x": "3670403.78996",
    "final_y": "524064.76102",
    "longitude": "-90.10336094525515",
    "latitude": "29.935328450184063",
    "geocoded_column": {
      "latitude": "29.935328450184063",
      "longitude": "-90.10336094525515"
    }
  },
  {
    "service_request": "2023-964023",
    "request_type": "Roads/Drainage",
    "request_reason": "Catch Basin - Broken/Damage",
    "date_created": "2023-01-09T18:05:55.000",
    "date_modified": "2023-01-09T18:05:55.000",
    "request_status": "Pending",
    "responsible_agency": "Department of Public Works",
    "final_address": "6127 N Galvez St",
    "address_councildis": "E",
    "status": "Pending",
    "rowid": "964023",
    "final_x": "3701141.90397",
    "final_y": "536833.2402",
    "longitude": "-90.0058543150392",
    "latitude": "29.9694941970473",
    "geocoded_column": {
      "latitude": "29.9694941970473",
      "longitude": "-90.0058543150392"
    }
  },
  {
    "service_request": "2023-964022",
    "request_type": "Trash/Recycling",
    "request_reason": "MIssed Recycling Pick-Up",
    "date_created": "2023-01-09T18:04:55.000",
    "date_modified": "2023-01-09T18:04:56.000",
    "request_status": "Pending",
    "responsible_agency": "Department of Sanitation",
    "final_address": "5813 Oxford Pl",
    "address_councildis": "C",
    "status": "Assigned to Contractor",
    "contractor": "Richards Disposal",
    "rowid": "964022",
    "final_x": "3704924.21841",
    "final_y": "519819.880696",
    "longitude": "-89.99453732081759",
    "latitude": "29.922592481763278",
    "geocoded_column": {
      "latitude": "29.922592481763278",
      "longitude": "-89.99453732081759"
    }
  },
  {
    "service_request": "2023-964021",
    "request_type": "Roads/Drainage",
    "request_reason": "Catch Basin - Broken/Damage",
    "date_created": "2023-01-09T18:04:29.000",
    "date_modified": "2023-01-09T18:04:30.000",
    "request_status": "Pending",
    "responsible_agency": "Department of Public Works",
    "final_address": "6127 N Galvez St",
    "address_councildis": "E",
    "status": "Pending",
    "rowid": "964021",
    "final_x": "3701141.90397",
    "final_y": "536833.2402",
    "longitude": "-90.0058543150392",
    "latitude": "29.9694941970473",
    "geocoded_column": {
      "latitude": "29.9694941970473",
      "longitude": "-90.0058543150392"
    }
  },
  {
    "service_request": "2023-964020",
    "request_type": "Trash/Recycling",
    "request_reason": "Missed Trash Pick-Up",
    "date_created": "2023-01-09T18:03:33.000",
    "date_modified": "2023-01-09T18:03:35.000",
    "request_status": "Pending",
    "responsible_agency": "Department of Sanitation",
    "final_address": "2314 Octavia St",
    "address_councildis": "A",
    "status": "Assigned to Contractor",
    "contractor": "Richards Disposal",
    "rowid": "964020",
    "final_x": "3667563.1826",
    "final_y": "524215.7831",
    "longitude": "-90.11232369870703",
    "latitude": "29.93582724925723",
    "geocoded_column": {
      "latitude": "29.93582724925723",
      "longitude": "-90.11232369870703"
    }
  },
  {
    "service_request": "2023-964019",
    "request_type": "Trash/Recycling",
    "request_reason": "Request a Large Item Pick Up",
    "date_created": "2023-01-09T18:02:58.000",
    "date_modified": "2023-01-09T18:02:59.000",
    "request_status": "Pending",
    "responsible_agency": "Department of Sanitation",
    "final_address": "7001 Wayside Dr",
    "address_councildis": "E",
    "status": "Assigned to Contractor",
    "contractor": "Waste Pro",
    "rowid": "964019",
    "final_x": "3717850.95193",
    "final_y": "567651.169956",
    "longitude": "-89.9519130600812",
    "latitude": "30.05368851598994",
    "geocoded_column": {
      "latitude": "30.05368851598994",
      "longitude": "-89.9519130600812"
    }
  },
  {
    "service_request": "2023-964018",
    "request_type": "Trash/Recycling",
    "request_reason": "MIssed Recycling Pick-Up",
    "date_created": "2023-01-09T18:02:27.000",
    "date_modified": "2023-01-09T18:02:29.000",
    "request_status": "Pending",
    "responsible_agency": "Department of Sanitation",
    "final_address": "1321 Terry St",
    "address_councildis": "C",
    "status": "Assigned to Contractor",
    "contractor": "Richards Disposal",
    "rowid": "964018",
    "final_x": "3696905.81213",
    "final_y": "526351.740158",
    "longitude": "-90.01961168337353",
    "latitude": "29.940808024794965",
    "geocoded_column": {
      "latitude": "29.940808024794965",
      "longitude": "-90.01961168337353"
    }
  },
  {
    "service_request": "2023-964017",
    "request_type": "Trash/Recycling",
    "request_reason": "Missed Trash Pick-Up",
    "date_created": "2023-01-09T18:00:48.000",
    "date_modified": "2023-01-09T18:00:49.000",
    "request_status": "Pending",
    "responsible_agency": "Department of Sanitation",
    "final_address": "1321 Terry St",
    "address_councildis": "C",
    "status": "Assigned to Contractor",
    "contractor": "Richards Disposal",
    "rowid": "964017",
    "final_x": "3696905.81213",
    "final_y": "526351.740158",
    "longitude": "-90.01961168337353",
    "latitude": "29.940808024794965",
    "geocoded_column": {
      "latitude": "29.940808024794965",
      "longitude": "-90.01961168337353"
    }
  },
  {
    "service_request": "2023-964016",
    "request_type": "Trash/Recycling",
    "request_reason": "Illegal Dumping",
    "date_created": "2023-01-09T17:58:30.000",
    "date_modified": "2023-01-09T17:58:30.000",
    "request_status": "Pending",
    "responsible_agency": "Department of Sanitation",
    "final_address": "1026 Toulouse St",
    "address_councildis": "C",
    "status": "Pending",
    "rowid": "964016",
    "final_x": "3681222.8132",
    "final_y": "532894.996804",
    "longitude": "-90.06889766593379",
    "latitude": "29.95928487023321",
    "geocoded_column": {
      "latitude": "29.95928487023321",
      "longitude": "-90.06889766593379"
    }
  },
  {
    "service_request": "2023-964015",
    "request_type": "Trash/Recycling",
    "request_reason": "MIssed Recycling Pick-Up",
    "date_created": "2023-01-09T17:56:40.000",
    "date_modified": "2023-01-09T17:56:41.000",
    "request_status": "Pending",
    "responsible_agency": "Department of Sanitation",
    "final_address": "6133 Carlisle Ct",
    "address_councildis": "C",
    "status": "Assigned to Contractor",
    "contractor": "Richards Disposal",
    "rowid": "964015",
    "final_x": "3706640.81726",
    "final_y": "516406.221173",
    "longitude": "-89.98924515129089",
    "latitude": "29.913150841579256",
    "geocoded_column": {
      "latitude": "29.913150841579256",
      "longitude": "-89.98924515129089"
    }
  },
  {
    "service_request": "2023-964014",
    "request_type": "Trash/Recycling",
    "request_reason": "Order Recycling Cart",
    "date_created": "2023-01-09T17:55:43.000",
    "date_modified": "2023-01-09T17:55:43.000",
    "request_status": "Pending",
    "responsible_agency": "Department of Sanitation",
    "final_address": "13225 Willowbrook Dr",
    "address_councildis": "E",
    "status": "Pending",
    "rowid": "964014",
    "final_x": "3726747.69344",
    "final_y": "563956.929441",
    "longitude": "-89.92393673629587",
    "latitude": "30.043232978872158",
    "geocoded_column": {
      "latitude": "30.043232978872158",
      "longitude": "-89.92393673629587"
    }
  },
  {
    "service_request": "2023-964013",
    "request_type": "Trash/Recycling",
    "request_reason": "Missed Trash Pick-Up",
    "date_created": "2023-01-09T17:54:46.000",
    "date_modified": "2023-01-09T17:54:47.000",
    "request_status": "Pending",
    "responsible_agency": "Department of Sanitation",
    "final_address": "2808 Conti St",
    "address_councildis": "B",
    "status": "Assigned to Contractor",
    "contractor": "Richards Disposal",
    "rowid": "964013",
    "final_x": "3675477.79848",
    "final_y": "536409.290183",
    "longitude": "-90.08691834921541",
    "latitude": "29.969121058791576",
    "geocoded_column": {
      "latitude": "29.969121058791576",
      "longitude": "-90.08691834921541"
    }
  },
  {
    "service_request": "2023-964012",
    "request_type": "Trash/Recycling",
    "request_reason": "Missed Trash Pick-Up",
    "date_created": "2023-01-09T17:51:34.000",
    "date_modified": "2023-01-09T17:51:34.000",
    "request_status": "Pending",
    "responsible_agency": "Department of Sanitation",
    "final_address": "131 S Rendon St",
    "address_councildis": "B",
    "status": "Assigned to Contractor",
    "contractor": "Richards Disposal",
    "rowid": "964012",
    "final_x": "3673353.23329",
    "final_y": "536264.249415",
    "longitude": "-90.09363284460643",
    "latitude": "29.968785620484017",
    "geocoded_column": {
      "latitude": "29.968785620484017",
      "longitude": "-90.09363284460643"
    }
  },
  {
    "service_request": "2023-964011",
    "request_type": "Trash/Recycling",
    "request_reason": "Missed Trash Pick-Up",
    "date_created": "2023-01-09T17:49:55.000",
    "date_modified": "2023-01-09T17:49:56.000",
    "request_status": "Pending",
    "responsible_agency": "Department of Sanitation",
    "final_address": "637 N Alexander St",
    "address_councildis": "A",
    "status": "Assigned to Contractor",
    "contractor": "Richards Disposal",
    "rowid": "964011",
    "final_x": "3671233.33351",
    "final_y": "540852.523531",
    "longitude": "-90.10017168915013",
    "latitude": "29.981464716581954",
    "geocoded_column": {
      "latitude": "29.981464716581954",
      "longitude": "-90.10017168915013"
    }
  },
  {
    "service_request": "2023-964010",
    "request_type": "Trash/Recycling",
    "request_reason": "Missed Trash Pick-Up",
    "date_created": "2023-01-09T17:48:14.000",
    "date_modified": "2023-01-09T17:48:15.000",
    "request_status": "Pending",
    "responsible_agency": "Department of Sanitation",
    "final_address": "1409 Calhoun St",
    "address_councildis": "A",
    "status": "Assigned to Contractor",
    "contractor": "Richards Disposal",
    "rowid": "964010",
    "final_x": "3664338.30503",
    "final_y": "521676.228281",
    "longitude": "-90.12258945486786",
    "latitude": "29.9289383738888",
    "geocoded_column": {
      "latitude": "29.9289383738888",
      "longitude": "-90.12258945486786"
    }
  },