[
  {
    "service_request": "2023-1058130",
    "request_type": "Property Maintenance",
    "request_reason": "Property Maintenance",
    "date_created": "2023-12-29T02:03:44.000",
    "date_modified": "2023-12-29T02:03:44.000",
    "request_status": "Pending",
    "responsible_agency": "Department of Code Enforcement",
    "final_address": "8701 Curran Rd",
    "address_councildis": "E",
    "status": "Pending",
    "rowid": "1058130",
    "final_x": "3704377.19562",
    "final_y": "562767.795104",
    "longitude": "-89.99468022444094",
    "latitude": "30.04070093640636",
    "geocoded_column": {
      "latitude": "30.04070093640636",
      "longitude": "-89.99468022444094"
    }
  },
  {
    "service_request": "2023-1058129",
    "request_type": "Trash/Recycling",
    "request_reason": "Illegal Dumping",
    "date_created": "2023-12-29T01:57:46.000",
    "date_modified": "2023-12-29T01:57:46.000",
    "request_status": "Pending",
    "responsible_agency": "Department of Sanitation",
    "final_address": "8701 Curran Rd",
    "address_councildis": "E",
    "status": "Pending",
    "rowid": "1058129",
    "final_x": "3704377.19562",
    "final_y": "562767.795104",
    "longitude": "-89.99468022444094",
    "latitude": "30.04070093640636",
    "geocoded_column": {
      "latitude": "30.04070093640636",
      "longitude": "-89.99468022444094"
    }
  },
  {
    "service_request": "2023-1058128",
    "request_type": "Trash/Recycling",
    "request_reason": "Illegal Dumping",
    "date_created": "2023-12-29T01:53:24.000",
    "date_modified": "2023-12-29T01:53:24.000",
    "request_status": "Pending",
    "responsible_agency": "Department of Sanitation",
    "final_address": "8651 Gervais St",
    "address_councildis": "E",
    "status": "Pending",
    "rowid": "1058128",
    "final_x": "3704150.23946",
    "final_y": "562906.638432",
    "longitude": "-89.99539235353079",
    "latitude": "30.041089989366004",
    "geocoded_column": {
      "latitude": "30.041089989366004",
      "longitude": "-89.99539235353079"
    }
  },
  {
    "service_request": "2023-1058127",
    "request_type": "Roads/Drainage",
    "request_reason": "Pothole",
    "date_created": "2023-12-29T01:11:30.000",
    "date_modified": "2023-12-29T01:11:30.000",
    "request_status": "Pending",
    "responsible_agency": "Department of Public Works",
    "final_address": "4314 Pitt St",
    "address_councildis": "B",
    "status": "Pending",
    "rowid": "1058127",
    "final_x": "3671181.83662",
    "final_y": "520562.776248",
    "longitude": "-90.10102354544037",
    "latitude": "29.92567612958479",
    "geocoded_column": {
      "latitude": "29.92567612958479",
      "longitude": "-90.10102354544037"
    }
  },
  {
    "service_request": "2023-1058126",
    "request_type": "Property Maintenance",
    "request_reason": "Property Maintenance",
    "date_created": "2023-12-29T00:53:23.000",
    "date_modified": "2023-12-29T00:53:23.000",
    "request_status": "Pending",
    "responsible_agency": "Department of Code Enforcement",
    "final_address": "3612 Camp St",
    "address_councildis": "B",
    "status": "Pending",
    "rowid": "1058126",
    "final_x": "3673956.47982",
    "final_y": "519569.877816",
    "longitude": "-90.09229877137166",
    "latitude": "29.922863635195007",
    "geocoded_column": {
      "latitude": "29.922863635195007",
      "longitude": "-90.09229877137166"
    }
  },
  {
    "service_request": "2023-1058125",
    "request_type": "Trash/Recycling",
    "request_reason": "Illegal Dumping",
    "date_created": "2023-12-29T00:39:47.000",
    "date_modified": "2023-12-29T00:39:47.000",
    "request_status": "Pending",
    "responsible_agency": "Department of Sanitation",
    "final_address": "CANAL BLVD & CITY PARK AVE",
    "address_councildis": "A",
    "status": "Pending",
    "rowid": "1058125",
    "final_x": "3667987.5",
    "final_y": "541115.08",
    "longitude": "-90.11041471405822",
    "latitude": "29.98228230942653",
    "geocoded_column": {
      "latitude": "29.98228230942653",
      "longitude": "-90.11041471405822"
    }
  },
  {
    "service_request": "2023-1058124",
    "request_type": "Roads/Drainage",
    "request_reason": "Pothole",
    "date_created": "2023-12-28T23:37:22.000",
    "date_modified": "2023-12-28T23:37:22.000",
    "request_status": "Pending",
    "responsible_agency": "Department of Public Works",
    "final_address": "1501 General Taylor St",
    "address_councildis": "B",
    "status": "Pending",
    "rowid": "1058124",
    "final_x": "3672757.23963",
    "final_y": "520814.498105",
    "longitude": "-90.09604188611411",
    "latitude": "29.926321602463354",
    "geocoded_column": {
      "latitude": "29.926321602463354",
      "longitude": "-90.09604188611411"
    }
  },
  {
    "service_request": "2023-1058123",
    "request_type": "Property Maintenance",
    "request_reason": "Property Maintenance",
    "date_created": "2023-12-28T23:35:37.000",
    "date_modified": "2023-12-28T23:35:37.000",
    "request_status": "Pending",
    "responsible_agency": "Department of Code Enforcement",
    "final_address": "1315 Foucher St",
    "address_councildis": "B",
    "status": "Pending",
    "rowid": "1058123",
    "final_x": "3673940.36635",
    "final_y": "520153.185464",
    "longitude": "-90.09232969341609",
    "latitude": "29.924468023825387",
    "geocoded_column": {
      "latitude": "29.924468023825387",
      "longitude": "-90.09232969341609"
    }
  },
  {
    "service_request": "2023-1058122",
    "request_type": "Trash/Recycling",
    "request_reason": "Request a Large Item Pick Up",
    "date_created": "2023-12-28T23:01:37.000",
    "date_modified": "2023-12-28T23:01:38.000",
    "request_status": "Pending",
    "responsible_agency": "Department of Sanitation",
    "final_address": "4911 Sandalwood St",
    "address_councildis": "E",
    "status": "Assigned to Contractor",
    "contractor": "Waste Pro",
    "rowid": "1058122",
    "final_x": "3712205.42226",
    "final_y": "557149.154779",
    "longitude": "-89.97015188573648",
    "latitude": "30.024998121279673",
    "geocoded_column": {
      "latitude": "30.024998121279673",
      "longitude": "-89.97015188573648"
    }
  },
  {
    "service_request": "2023-1058121",
    "request_type": "Trash/Recycling",
    "request_reason": "Order Trash Cart",
    "date_created": "2023-12-28T22:44:53.000",
    "date_modified": "2023-12-28T22:44:54.000",
    "request_status": "Pending",
    "responsible_agency": "Department of Sanitation",
    "final_address": "2900 Somerset Dr",
    "address_councildis": "C",
    "status": "Assigned to Contractor",
    "contractor": "Richards Disposal",
    "rowid": "1058121",
    "final_x": "3702833.12964",
    "final_y": "520330.009656",
    "longitude": "-90.00111927946436",
    "latitude": "29.924062174993523",
    "geocoded_column": {
      "latitude": "29.924062174993523",
      "longitude": "-90.00111927946436"
    }
  },
  {
    "service_request": "2023-1058120",
    "request_type": "Trash/Recycling",
    "request_reason": "Missed Trash Pick-Up",
    "date_created": "2023-12-28T22:14:29.000",
    "date_modified": "2023-12-28T22:14:30.000",
    "request_status": "Pending",
    "responsible_agency": "Department of Sanitation",
    "final_address": "1305 St Andrew St",
    "address_councildis": "B",
    "status": "Assigned to Contractor",
    "contractor": "Richards Disposal",
    "rowid": "1058120",
    "final_x": "3679039.33743",
    "final_y": "523231.214459",
    "longitude": "-90.0761273762998",
    "latitude": "29.932778762971367",
    "geocoded_column": {
      "latitude": "29.932778762971367",
      "longitude": "-90.0761273762998"
    }
  },
  {
    "service_request": "2023-1058119",
    "request_type": "Roads/Drainage",
    "request_reason": "Pothole",
    "date_created": "2023-12-28T21:58:21.000",
    "date_modified": "2023-12-28T21:58:21.000",
    "request_status": "Pending",
    "responsible_agency": "Department of Public Works",
    "final_address": "6019 Chestnut St",
    "address_councildis": "A",
    "status": "Pending",
    "rowid": "1058119",
    "final_x": "3664762.62535",
    "final_y": "519948.884408",
    "longitude": "-90.12130763332809",
    "latitude": "29.92417638659354",
    "geocoded_column": {
      "latitude": "29.92417638659354",
      "longitude": "-90.12130763332809"
    }
  },
  {
    "service_request": "2023-1058118",
    "request_type": "Roads/Drainage",
    "request_reason": "Pothole",
    "date_created": "2023-12-28T21:56:59.000",
    "date_modified": "2023-12-28T21:56:59.000",
    "request_status": "Pending",
    "responsible_agency": "Department of Public Works",
    "final_address": "6215 Hurst St",
    "address_councildis": "A",
    "status": "Pending",
    "rowid": "1058118",
    "final_x": "3664668.32039",
    "final_y": "522243.373626",
    "longitude": "-90.12152872358996",
    "latitude": "29.93048825206563",
    "geocoded_column": {
      "latitude": "29.93048825206563",
      "longitude": "-90.12152872358996"
    }
  },
  {
    "service_request": "2023-1058117",
    "request_type": "Roads/Drainage",
    "request_reason": "Pothole",
    "date_created": "2023-12-28T21:54:45.000",
    "date_modified": "2023-12-28T21:54:45.000",
    "request_status": "Pending",
    "responsible_agency": "Department of Public Works",
    "final_address": "6024 Benjamin St",
    "address_councildis": "A",
    "status": "Pending",
    "rowid": "1058117",
    "final_x": "3665395.13933",
    "final_y": "522178.833594",
    "longitude": "-90.11923641544821",
    "latitude": "29.93028963171796",
    "geocoded_column": {
      "latitude": "29.93028963171796",
      "longitude": "-90.11923641544821"
    }
  },
  {
    "service_request": "2023-1058116",
    "request_type": "Roads/Drainage",
    "request_reason": "Pothole",
    "date_created": "2023-12-28T21:52:43.000",
    "date_modified": "2023-12-28T21:52:43.000",
    "request_status": "Pending",
    "responsible_agency": "Department of Public Works",
    "final_address": "6215 Hurst St",
    "address_councildis": "A",
    "status": "Pending",
    "rowid": "1058116",
    "final_x": "3664668.32039",
    "final_y": "522243.373626",
    "longitude": "-90.12152872358996",
    "latitude": "29.93048825206563",
    "geocoded_column": {
      "latitude": "29.93048825206563",
      "longitude": "-90.12152872358996"
    }
  },
  {
    "service_request": "2023-1058115",
    "request_type": "Property Maintenance",
    "request_reason": "Property Maintenance",
    "date_created": "2023-12-28T21:40:27.000",
    "date_modified": "2023-12-28T21:40:27.000",
    "request_status": "Pending",
    "responsible_agency": "Department of Code Enforcement",
    "final_address": "1412 Webster St",
    "address_councildis": "A",
    "status": "Pending",
    "rowid": "1058115",
    "final_x": "3664819.89184",
    "final_y": "521454.399737",
    "longitude": "-90.12107658380523",
    "latitude": "29.92831441443238",
    "geocoded_column": {
      "latitude": "29.92831441443238",
      "longitude": "-90.12107658380523"
    }
  },
  {
    "service_request": "2023-1058114",
    "request_type": "Trash/Recycling",
    "request_reason": "Missed Trash Pick-Up",
    "date_created": "2023-12-28T21:28:33.000",
    "date_modified": "2023-12-28T21:28:34.000",
    "request_status": "Pending",
    "responsible_agency": "Department of Sanitation",
    "final_address": "2508 S Prieur St",
    "address_councildis": "B",
    "status": "Assigned to Contractor",
    "contractor": "Richards Disposal",
    "rowid": "1058114",
    "final_x": "3673296.46996",
    "final_y": "528028.984959",
    "longitude": "-90.09409338090353",
    "latitude": "29.946143074604056",
    "geocoded_column": {
      "latitude": "29.946143074604056",
      "longitude": "-90.09409338090353"
    }
  },
  {
    "service_request": "2023-1058113",
    "request_type": "Trash/Recycling",
    "request_reason": "MIssed Recycling Pick-Up",
    "date_created": "2023-12-28T20:45:58.000",
    "date_modified": "2023-12-28T20:45:59.000",
    "request_status": "Pending",
    "responsible_agency": "Department of Sanitation",
    "final_address": "3609 Nashville Ave",
    "address_councildis": "A",
    "status": "Assigned to Contractor",
    "contractor": "Richards Disposal",
    "rowid": "1058113",
    "final_x": "3668340.89306",
    "final_y": "528826.355776",
    "longitude": "-90.10971300793435",
    "latitude": "29.948482023631545",
    "geocoded_column": {
      "latitude": "29.948482023631545",
      "longitude": "-90.10971300793435"
    }
  },
  {
    "service_request": "2023-1058112",
    "request_type": "Trash/Recycling",
    "request_reason": "Missed Trash Pick-Up",
    "date_created": "2023-12-28T20:33:50.000",
    "date_modified": "2023-12-28T20:33:51.000",
    "request_status": "Pending",
    "responsible_agency": "Department of Sanitation",
    "final_address": "2726 Pauger St",
    "address_councildis": "D",
    "status": "Assigned to Contractor",
    "contractor": "IV Waste",
    "rowid": "1058112",
    "final_x": "3683558.10492",
    "final_y": "539751.134794",
    "longitude": "-90.06128303862418",
    "latitude": "29.978065812691963",
    "geocoded_column": {
      "latitude": "29.978065812691963",
      "longitude": "-90.06128303862418"
    }
  },
  {
    "service_request": "2023-1058111",
    "request_type": "Abandoned Vehicles",
    "request_reason": "Abandoned/Junk Vehicles",
    "date_created": "2023-12-28T20:27:44.000",
    "date_modified": "2023-12-28T20:27:44.000",
    "request_status": "Pending",
    "responsible_agency": "Department of Public Works",
    "final_address": "3115 N Rampart St",
    "address_councildis": "C",
    "status": "Pending",
    "rowid": "1058111",
    "final_x": "3689028.71881",
    "final_y": "535557.377606",
    "longitude": "-90.04415397677101",
    "latitude": "29.966366330928878",
    "geocoded_column": {
      "latitude": "29.966366330928878",
      "longitude": "-90.04415397677101"
    }
  },
  {
    "service_request": "2023-1058110",
    "request_type": "Property Maintenance",
    "request_reason": "Property Maintenance",
    "date_created": "2023-12-28T20:07:05.000",
    "date_modified": "2023-12-28T20:07:05.000",
    "request_status": "Pending",
    "responsible_agency": "Department of Code Enforcement",
    "final_address": "1450 State St",
    "address_councildis": "A",
    "status": "Pending",
    "rowid": "1058110",
    "final_x": "3665403.60756",
    "final_y": "521613.739321",
    "longitude": "-90.11922858441115",
    "latitude": "29.92873555443688",
    "geocoded_column": {
      "latitude": "29.92873555443688",
      "longitude": "-90.11922858441115"
    }
  },
  {
    "service_request": "2023-1058109",
    "request_type": "Trash/Recycling",
    "request_reason": "Missed Trash Pick-Up",
    "date_created": "2023-12-28T19:58:06.000",
    "date_modified": "2023-12-28T19:58:07.000",
    "request_status": "Pending",
    "responsible_agency": "Department of Sanitation",
    "final_address": "421 Tupelo St",
    "address_councildis": "E",
    "status": "Assigned to Contractor",
    "contractor": "Waste Pro",
    "rowid": "1058109",
    "final_x": "3698659.4794",
    "final_y": "531148.35501",
    "longitude": "-90.01390070235071",
    "latitude": "29.95394163236033",
    "geocoded_column": {
      "latitude": "29.95394163236033",
      "longitude": "-90.01390070235071"
    }
  },
  {
    "service_request": "2023-1058108",
    "request_type": "Trash/Recycling",
    "request_reason": "MIssed Recycling Pick-Up",
    "date_created": "2023-12-28T19:56:49.000",
    "date_modified": "2023-12-28T19:56:50.000",
    "request_status": "Pending",
    "responsible_agency": "Department of Sanitation",
    "final_address": "609 Eleonore St",
    "address_councildis": "A",
    "status": "Assigned to Contractor",
    "contractor": "Richards Disposal",
    "rowid": "1058108",
    "final_x": "3665134.981",
    "final_y": "518484.693558",
    "longitude": "-90.12018116679658",
    "latitude": "29.920139485356092",
    "geocoded_column": {
      "latitude": "29.920139485356092",
      "longitude": "-90.12018116679658"
    }
  },
  {
    "service_request": "2023-1058107",
    "request_type": "Trash/Recycling",
    "request_reason": "Missed Trash Pick-Up",
    "date_created": "2023-12-28T19:38:04.000",
    "date_modified": "2023-12-28T19:38:05.000",
    "request_status": "Pending",
    "responsible_agency": "Department of Sanitation",
    "final_address": "1830 Elysian Fields Ave",
    "address_councildis": "D",
    "status": "Assigned to Contractor",
    "contractor": "IV Waste",
    "rowid": "1058107",
    "final_x": "3684674.09807",
    "final_y": "539133.358602",
    "longitude": "-90.0577800631494",
    "latitude": "29.976333031478543",
    "geocoded_column": {
      "latitude": "29.976333031478543",
      "longitude": "-90.0577800631494"
    }
  },
  {
    "service_request": "2023-1058106",
    "request_type": "Traffic Signals/Signs/Striping/Streetlights",
    "request_reason": "Street Name Sign Damaged or Missing",
    "date_created": "2023-12-28T19:14:21.000",
    "date_modified": "2023-12-28T19:14:21.000",
    "request_status": "Pending",
    "responsible_agency": "Department of Public Works",
    "final_address": "4400 BLK Longfellow Dr",
    "address_councildis": "E",
    "status": "Pending",
    "rowid": "1058106",
    "final_x": "3709769.4364",
    "final_y": "554362.64828",
    "longitude": "-89.9779532891422",
    "latitude": "30.01741577712585",
    "geocoded_column": {
      "latitude": "30.01741577712585",
      "longitude": "-89.9779532891422"
    }
  },
  {
    "service_request": "2023-1058105",
    "request_type": "Roads/Drainage",
    "request_reason": "Pothole",
    "date_created": "2023-12-28T19:03:08.000",
    "date_modified": "2023-12-28T19:03:08.000",
    "request_status": "Pending",
    "responsible_agency": "Department of Public Works",
    "final_address": "1027 Opelousas Ave",
    "address_councildis": "C",
    "status": "Pending",
    "rowid": "1058105",
    "final_x": "3688693.00131",
    "final_y": "529004.325888",
    "longitude": "-90.04544676248187",
    "latitude": "29.948358086871497",
    "geocoded_column": {
      "latitude": "29.948358086871497",
      "longitude": "-90.04544676248187"
    }
  },
  {
    "service_request": "2023-1058104",
    "request_type": "Trash/Recycling",
    "request_reason": "MIssed Recycling Pick-Up",
    "date_created": "2023-12-28T18:54:35.000",
    "date_modified": "2023-12-28T18:54:36.000",
    "request_status": "Pending",
    "responsible_agency": "Department of Sanitation",
    "final_address": "2025 Almonaster Ave",
    "address_councildis": "D",
    "status": "Assigned to Contractor",
    "contractor": "IV Waste",
    "rowid": "1058104",
    "final_x": "3688067.44668",
    "final_y": "540027.970187",
    "longitude": "-90.04703116346818",
    "latitude": "29.97868859321199",
    "geocoded_column": {
      "latitude": "29.97868859321199",
      "longitude": "-90.04703116346818"
    }
  },
  {
    "service_request": "2023-1058103",
    "request_type": "Trash/Recycling",
    "request_reason": "Missed Trash Pick-Up",
    "date_created": "2023-12-28T18:53:41.000",
    "date_modified": "2023-12-28T18:53:42.000",
    "request_status": "Pending",
    "responsible_agency": "Department of Sanitation",
    "final_address": "2025 Almonaster Ave",
    "address_councildis": "D",
    "status": "Assigned to Contractor",
    "contractor": "IV Waste",
    "rowid": "1058103",
    "final_x": "3688067.44668",
    "final_y": "540027.970187",
    "longitude": "-90.04703116346818",
    "latitude": "29.97868859321199",
    "geocoded_column": {
      "latitude": "29.97868859321199",
      "longitude": "-90.04703116346818"
    }
  },
  {
    "service_request": "2023-1058102",
    "request_type": "Trash/Recycling",
    "request_reason": "MIssed Recycling Pick-Up",
    "date_created": "2023-12-28T18:53:26.000",
    "date_modified": "2023-12-28T18:53:27.000",
    "request_status": "Pending",
    "responsible_agency": "Department of Sanitation",
    "final_address": "1525 Dufossat St",
    "address_councildis": "B",
    "status": "Assigned to Contractor",
    "contractor": "Richards Disposal",
    "rowid": "1058102",
    "final_x": "3668161.69364",
    "final_y": "520678.110521",
    "longitude": "-90.11055336688219",
    "latitude": "29.926082227758133",
    "geocoded_column": {
      "latitude": "29.926082227758133",
      "longitude": "-90.11055336688219"
    }
  },
  {
    "service_request": "2023-1058101",
    "request_type": "Abandoned Vehicles",
    "request_reason": "Abandoned/Junk Vehicles",
    "date_created": "2023-12-28T18:47:59.000",
    "date_modified": "2023-12-28T18:47:59.000",
    "request_status": "Pending",
    "responsible_agency": "Department of Public Works",
    "final_address": "4937 Maid Marion Dr",
    "address_councildis": "E",
    "status": "Pending",
    "rowid": "1058101",
    "final_x": "3716959.71474",
    "final_y": "557870.565339",
    "longitude": "-89.95510184090823",
    "latitude": "30.026825334539513",
    "geocoded_column": {
      "latitude": "30.026825334539513",
      "longitude": "-89.95510184090823"
    }
  },
  {
    "service_request": "2023-1058100",
    "request_type": "Abandoned Vehicles",
    "request_reason": "Abandoned/Junk Vehicles",
    "date_created": "2023-12-28T18:36:12.000",
    "date_modified": "2023-12-28T18:36:12.000",
    "request_status": "Pending",
    "responsible_agency": "Department of Public Works",
    "final_address": "4937 Maid Marion Dr",
    "address_councildis": "E",
    "status": "Pending",
    "rowid": "1058100",
    "final_x": "3716959.71474",
    "final_y": "557870.565339",
    "longitude": "-89.95510184090823",
    "latitude": "30.026825334539513",
    "geocoded_column": {
      "latitude": "30.026825334539513",
      "longitude": "-89.95510184090823"
    }
  },
  {
    "service_request": "2023-1058099",
    "request_type": "Traffic Signals/Signs/Striping/Streetlights",
    "request_reason": "Street Light Outage/Malfunction",
    "date_created": "2023-12-28T18:34:28.000",
    "date_modified": "2023-12-28T18:34:29.000",
    "request_status": "Pending",
    "responsible_agency": "Department of Public Works",
    "final_address": "FRENCHMEN ST & SENATE ST",
    "address_councildis": "D",
    "status": "Assigned to Contractor",
    "contractor": "Legacy Professional Services",
    "rowid": "1058099",
    "final_x": "3683676.7",
    "final_y": "547685.28",
    "longitude": "-90.06063014147597",
    "latitude": "29.999878280861328",
    "geocoded_column": {
      "latitude": "29.999878280861328",
      "longitude": "-90.06063014147597"
    }
  },
  {
    "service_request": "2023-1058098",
    "request_type": "Traffic Signals/Signs/Striping/Streetlights",
    "request_reason": "Street Light Outage/Malfunction",
    "date_created": "2023-12-28T18:29:16.000",
    "date_modified": "2023-12-28T18:29:17.000",
    "request_status": "Pending",
    "responsible_agency": "Department of Public Works",
    "final_address": "2224 Allen Toussaint Blvd",
    "address_councildis": "D",
    "status": "Assigned to Contractor",
    "contractor": "Legacy Professional Services",
    "rowid": "1058098",
    "final_x": "3683743.46805",
    "final_y": "555642.692441",
    "longitude": "-90.06013990129382",
    "latitude": "30.0217562334655",
    "geocoded_column": {
      "latitude": "30.0217562334655",
      "longitude": "-90.06013990129382"
    }
  },
  {
    "service_request": "2023-1058097",
    "request_type": "Traffic Signals/Signs/Striping/Streetlights",
    "request_reason": "Street Light Outage/Malfunction",
    "date_created": "2023-12-28T18:18:58.000",
    "date_modified": "2023-12-28T18:18:59.000",
    "request_status": "Pending",
    "responsible_agency": "Department of Public Works",
    "final_address": "7157 Parkside Ct",
    "address_councildis": "E",
    "status": "Assigned to Contractor",
    "contractor": "Legacy Professional Services",
    "rowid": "1058097",
    "final_x": "3704500.85066",
    "final_y": "560387.324574",
    "longitude": "-89.99437734560306",
    "latitude": "30.034151605546306",
    "geocoded_column": {
      "latitude": "30.034151605546306",
      "longitude": "-89.99437734560306"
    }
  },
  {
    "service_request": "2023-1058096",
    "request_type": "Parks & Parkways",
    "request_reason": "Request Grass Cutting Service (City Owned Property)",
    "date_created": "2023-12-28T18:16:44.000",
    "date_modified": "2023-12-28T18:16:44.000",
    "request_status": "Pending",
    "responsible_agency": "Department of Parks & Parkway",
    "final_address": "LIFE CENTER DR & MURL ST & SANDRA DR",
    "address_councildis": "C",
    "status": "Pending",
    "rowid": "1058096",
    "final_x": "3695044.2",
    "final_y": "521955.68",
    "longitude": "-90.0256474852478",
    "latitude": "29.928778923147803",
    "geocoded_column": {
      "latitude": "29.928778923147803",
      "longitude": "-90.0256474852478"
    }
  },
  {
    "service_request": "2023-1058095",
    "request_type": "Trash/Recycling",
    "request_reason": "Missed Trash Pick-Up",
    "date_created": "2023-12-28T18:15:54.000",
    "date_modified": "2023-12-28T18:15:54.000",
    "request_status": "Pending",
    "responsible_agency": "Department of Sanitation",
    "final_address": "9321 Hammond St",
    "address_councildis": "E",
    "status": "Assigned to Contractor",
    "contractor": "Waste Pro",
    "rowid": "1058095",
    "final_x": "3709779.42635",
    "final_y": "556183.10057",
    "longitude": "-89.9778536829056",
    "latitude": "30.02242098593665",
    "geocoded_column": {
      "latitude": "30.02242098593665",
      "longitude": "-89.9778536829056"
    }
  },
  {
    "service_request": "2023-1058094",
    "request_type": "Property Maintenance",
    "request_reason": "Property Maintenance",
    "date_created": "2023-12-28T18:12:59.000",
    "date_modified": "2023-12-28T18:12:59.000",
    "request_status": "Pending",
    "responsible_agency": "Department of Code Enforcement",
    "final_address": "4018 Coliseum St",
    "address_councildis": "B",
    "status": "Pending",
    "rowid": "1058094",
    "final_x": "3672274.20046",
    "final_y": "519884.476152",
    "longitude": "-90.09759836869694",
    "latitude": "29.923778673092567",
    "geocoded_column": {
      "latitude": "29.923778673092567",
      "longitude": "-90.09759836869694"
    }
  },
  {
    "service_request": "2023-1058092",
    "request_type": "Trash/Recycling",
    "request_reason": "Missed Trash Pick-Up",
    "date_created": "2023-12-28T17:57:01.000",
    "date_modified": "2023-12-28T17:57:02.000",
    "request_status": "Pending",
    "responsible_agency": "Department of Sanitation",
    "final_address": "500 BLK Saint Maurice Ave",
    "address_councildis": "E",
    "status": "Assigned to Contractor",
    "contractor": "Waste Pro",
    "rowid": "1058092",
    "final_x": "3699065.4145",
    "final_y": "531263.38608",
    "longitude": "-90.01261474678708",
    "latitude": "29.954245068072215",
    "geocoded_column": {
      "latitude": "29.954245068072215",
      "longitude": "-90.01261474678708"
    }
  },
  {
    "service_request": "2023-1058091",
    "request_type": "Trash/Recycling",
    "request_reason": "MIssed Recycling Pick-Up",
    "date_created": "2023-12-28T17:42:37.000",
    "date_modified": "2023-12-28T17:42:38.000",
    "request_status": "Pending",
    "responsible_agency": "Department of Sanitation",
    "final_address": "3212 Camp St",
    "address_councildis": "B",
    "status": "Assigned to Contractor",
    "contractor": "Richards Disposal",
    "rowid": "1058091",
    "final_x": "3675486.57102",
    "final_y": "520206.083128",
    "longitude": "-90.087447032309",
    "latitude": "29.9245673382118",
    "geocoded_column": {
      "latitude": "29.9245673382118",
      "longitude": "-90.087447032309"
    }
  },
  {
    "service_request": "2023-1058090",
    "request_type": "Trash/Recycling",
    "request_reason": "Replace Trash Cart",
    "date_created": "2023-12-28T17:41:10.000",
    "date_modified": "2023-12-28T17:41:11.000",
    "request_status": "Pending",
    "responsible_agency": "Department of Sanitation",
    "final_address": "6706 Tara Ln",
    "address_councildis": "E",
    "status": "Assigned to Contractor",
    "contractor": "Waste Pro",
    "rowid": "1058090",
    "final_x": "3707577.74577",
    "final_y": "558585.417052",
    "longitude": "-89.98472106079176",
    "latitude": "30.029097847819017",
    "geocoded_column": {
      "latitude": "30.029097847819017",
      "longitude": "-89.98472106079176"
    }
  },
  {
    "service_request": "2023-1058089",
    "request_type": "Traffic Signals/Signs/Striping/Streetlights",
    "request_reason": "Street Light Outage/Malfunction",
    "date_created": "2023-12-28T17:40:05.000",
    "date_modified": "2023-12-28T17:40:06.000",
    "request_status": "Pending",
    "responsible_agency": "Department of Public Works",
    "final_address": "2200 Prytania St",
    "address_councildis": "B",
    "status": "Assigned to Contractor",
    "contractor": "Legacy Professional Services",
    "rowid": "1058089",
    "final_x": "3677884.99771",
    "final_y": "523197.775803",
    "longitude": "-90.07977269224845",
    "latitude": "29.93272159259696",
    "geocoded_column": {
      "latitude": "29.93272159259696",
      "longitude": "-90.07977269224845"
    }
  },
  {
    "service_request": "2023-1058088",
    "request_type": "Trash/Recycling",
    "request_reason": "Missed Trash Pick-Up",
    "date_created": "2023-12-28T17:38:29.000",
    "date_modified": "2023-12-28T17:38:30.000",
    "request_status": "Pending",
    "responsible_agency": "Department of Sanitation",
    "final_address": "9321 Hammond St",
    "address_councildis": "E",
    "status": "Assigned to Contractor",
    "contractor": "Waste Pro",
    "rowid": "1058088",
    "final_x": "3709779.42635",
    "final_y": "556183.10057",
    "longitude": "-89.9778536829056",
    "latitude": "30.02242098593665",
    "geocoded_column": {
      "latitude": "30.02242098593665",
      "longitude": "-89.9778536829056"
    }
  },
  {
    "service_request": "2023-1058087",
    "request_type": "Roads/Drainage",
    "request_reason": "Pothole",
    "date_created": "2023-12-28T17:35:01.000",
    "date_modified": "2023-12-28T17:35:25.000",
    "request_status": "Pending",
    "responsible_agency": "Department of Public Works",
    "final_address": "719 St James St",
    "address_councildis": "B",
    "status": "Pending",
    "rowid": "1058087",
    "final_x": "3681214.12719",
    "final_y": "522102.692282",
    "longitude": "-90.0693010417611",
    "latitude": "29.929609908430653",
    "geocoded_column": {
      "latitude": "29.929609908430653",
      "longitude": "-90.0693010417611"
    }
  },
  {
    "service_request": "2023-1058085",
    "request_type": "Trash/Recycling",
    "request_reason": "MIssed Recycling Pick-Up",
    "date_created": "2023-12-28T17:01:44.000",
    "date_modified": "2023-12-28T17:01:45.000",
    "request_status": "Pending",
    "responsible_agency": "Department of Sanitation",
    "final_address": "926 Charbonnet St",
    "address_councildis": "E",
    "status": "Assigned to Contractor",
    "contractor": "Waste Pro",
    "rowid": "1058085",
    "final_x": "3698424.26788",
    "final_y": "533039.192324",
    "longitude": "-90.01457468483525",
    "latitude": "29.959148210945834",
    "geocoded_column": {
      "latitude": "29.959148210945834",
      "longitude": "-90.01457468483525"
    }
  },
  {
    "service_request": "2023-1058084",
    "request_type": "Trash/Recycling",
    "request_reason": "Missed Trash Pick-Up",
    "date_created": "2023-12-28T17:00:50.000",
    "date_modified": "2023-12-28T17:00:51.000",
    "request_status": "Pending",
    "responsible_agency": "Department of Sanitation",
    "final_address": "926 Charbonnet St",
    "address_councildis": "E",
    "status": "Assigned to Contractor",
    "contractor": "Waste Pro",
    "rowid": "1058084",
    "final_x": "3698424.26788",
    "final_y": "533039.192324",
    "longitude": "-90.01457468483525",
    "latitude": "29.959148210945834",
    "geocoded_column": {
      "latitude": "29.959148210945834",
      "longitude": "-90.01457468483525"
    }
  },
  {
    "service_request": "2023-1058083",
    "request_type": "Trash/Recycling",
    "request_reason": "Repair Recycling Cart",
    "date_created": "2023-12-28T16:50:35.000",
    "date_modified": "2023-12-28T16:50:36.000",
    "request_status": "Pending",
    "responsible_agency": "Department of Sanitation",
    "final_address": "1917 Burdette St",
    "address_councildis": "A",
    "status": "Pending",
    "rowid": "1058083",
    "final_x": "3664583.54368",
    "final_y": "529521.966721",
    "longitude": "-90.12155335469774",
    "latitude": "29.950504521921964",
    "geocoded_column": {
      "latitude": "29.950504521921964",
      "longitude": "-90.12155335469774"
    }
  },
  {
    "service_request": "2023-1058082",
    "request_type": "Abandoned Vehicles",
    "request_reason": "Abandoned/Junk Vehicles",
    "date_created": "2023-12-28T16:44:11.000",
    "date_modified": "2023-12-28T16:44:12.000",
    "request_status": "Pending",
    "responsible_agency": "Department of Public Works",
    "final_address": "9424 Hayne Blvd",
    "address_councildis": "E",
    "status": "Pending",
    "rowid": "1058082",
    "final_x": "3705810.72491",
    "final_y": "564813.026466",
    "longitude": "-89.99007405252702",
    "latitude": "30.046278383359994",
    "geocoded_column": {
      "latitude": "30.046278383359994",
      "longitude": "-89.99007405252702"
    }
  },
  {
    "service_request": "2023-1058081",
    "request_type": "Trash/Recycling",
    "request_reason": "Order Recycling Cart",
    "date_created": "2023-12-28T16:40:14.000",
    "date_modified": "2023-12-28T16:40:14.000",
    "request_status": "Pending",
    "responsible_agency": "Department of Sanitation",
    "final_address": "5042 Toulon St",
    "address_councildis": "E",
    "status": "Pending",
    "contractor": "Waste Pro",
    "rowid": "1058081",
    "final_x": "3723591.50022",
    "final_y": "561562.215583",
    "longitude": "-89.93400391160907",
    "latitude": "30.036754867934103",
    "geocoded_column": {
      "latitude": "30.036754867934103",
      "longitude": "-89.93400391160907"
    }
  },
  {
    "service_request": "2023-1058080",
    "request_type": "Trash/Recycling",
    "request_reason": "Order Trash Cart",
    "date_created": "2023-12-28T16:39:50.000",
    "date_modified": "2023-12-28T16:39:51.000",
    "request_status": "Pending",
    "responsible_agency": "Department of Sanitation",
    "final_address": "5042 Toulon St",
    "address_councildis": "E",
    "status": "Assigned to Contractor",
    "contractor": "Waste Pro",
    "rowid": "1058080",
    "final_x": "3723591.50022",
    "final_y": "561562.215583",
    "longitude": "-89.93400391160907",
    "latitude": "30.036754867934103",
    "geocoded_column": {
      "latitude": "30.036754867934103",
      "longitude": "-89.93400391160907"
    }
  },
  {
    "service_request": "2023-1058079",
    "request_type": "Mosquito, Termite & Rodent Control",
    "request_reason": "Mosquito Complaint",
    "date_created": "2023-12-28T16:34:39.000",
    "date_modified": "2023-12-28T16:34:39.000",
    "request_status": "Closed",
    "responsible_agency": "Mosquito, Termite & Rodent Control Board",
    "final_address": "4602 Francis Dr",
    "address_councildis": "D",
    "status": "Resolved",
    "rowid": "1058079",
    "final_x": "3698267.80816",
    "final_y": "553522.622743",
    "longitude": "-90.01432417608751",
    "latitude": "30.015475095069082",
    "geocoded_column": {
      "latitude": "30.015475095069082",
      "longitude": "-90.01432417608751"
    }
  },
  {
    "service_request": "2023-1058078",
    "request_type": "Trash/Recycling",
    "request_reason": "Missed Trash Pick-Up",
    "date_created": "2023-12-28T16:29:37.000",
    "date_modified": "2023-12-28T16:29:38.000",
    "request_status": "Pending",
    "responsible_agency": "Department of Sanitation",
    "final_address": "425 Celeste St",
    "address_councildis": "B",
    "status": "Assigned to Contractor",
    "contractor": "Richards Disposal",
    "rowid": "1058078",
    "final_x": "3682253.27951",
    "final_y": "521476.733881",
    "longitude": "-90.06604248169063",
    "latitude": "29.927857167766927",
    "geocoded_column": {
      "latitude": "29.927857167766927",
      "longitude": "-90.06604248169063"
    }
  },
  {
    "service_request": "2023-1058077",
    "request_type": "Trash/Recycling",
    "request_reason": "Repair Trash Cart",
    "date_created": "2023-12-28T16:28:03.000",
    "date_modified": "2023-12-28T16:28:04.000",
    "request_status": "Pending",
    "responsible_agency": "Department of Sanitation",
    "final_address": "3318 Short St",
    "address_councildis": "B",
    "status": "Assigned to Contractor",
    "contractor": "Richards Disposal",
    "rowid": "1058077",
    "final_x": "3667415.3433",
    "final_y": "533747.688709",
    "longitude": "-90.11246980453193",
    "latitude": "29.96204122244859",
    "geocoded_column": {
      "latitude": "29.96204122244859",
      "longitude": "-90.11246980453193"
    }
  },
  {
    "service_request": "2023-1058076",
    "request_type": "Trash/Recycling",
    "request_reason": "Order Trash Cart",
    "date_created": "2023-12-28T16:25:06.000",
    "date_modified": "2023-12-28T16:25:07.000",
    "request_status": "Pending",
    "responsible_agency": "Department of Sanitation",
    "final_address": "4651 Shalimar Dr",
    "address_councildis": "D",
    "status": "Assigned to Contractor",
    "contractor": "Waste Pro",
    "rowid": "1058076",
    "final_x": "3697251.91619",
    "final_y": "553824.779031",
    "longitude": "-90.01752294544616",
    "latitude": "30.016338026564135",
    "geocoded_column": {
      "latitude": "30.016338026564135",
      "longitude": "-90.01752294544616"
    }
  },
  {
    "service_request": "2023-1058075",
    "request_type": "Trash/Recycling",
    "request_reason": "Order Recycling Cart",
    "date_created": "2023-12-28T16:21:44.000",
    "date_modified": "2023-12-28T16:21:54.000",
    "request_status": "Pending",
    "responsible_agency": "Department of Sanitation",
    "final_address": "6645 Bellaire Dr",
    "address_councildis": "A",
    "contractor": "IV Waste",
    "rowid": "1058075",
    "final_x": "3664621.76544",
    "final_y": "552450.533078",
    "longitude": "-90.12066648095897",
    "latitude": "30.0135492673041",
    "geocoded_column": {
      "latitude": "30.0135492673041",
      "longitude": "-90.12066648095897"
    }
  },
  {
    "service_request": "2023-1058074",
    "request_type": "Trash/Recycling",
    "request_reason": "Missed Trash Pick-Up",
    "date_created": "2023-12-28T16:11:24.000",
    "date_modified": "2023-12-28T16:11:25.000",
    "request_status": "Pending",
    "responsible_agency": "Department of Sanitation",
    "final_address": "4440 Baccich St",
    "address_councildis": "D",
    "status": "Assigned to Contractor",
    "contractor": "IV Waste",
    "rowid": "1058074",
    "final_x": "3687782.63964",
    "final_y": "549240.086355",
    "longitude": "-90.04760421473537",
    "latitude": "30.004027396459538",
    "geocoded_column": {
      "latitude": "30.004027396459538",
      "longitude": "-90.04760421473537"
    }
  },
  {
    "service_request": "2023-1058073",
    "request_type": "Roads/Drainage",
    "request_reason": "Pothole",
    "date_created": "2023-12-28T16:09:31.000",
    "date_modified": "2023-12-28T16:09:32.000",
    "request_status": "Pending",
    "responsible_agency": "Department of Public Works",
    "final_address": "3112 General Taylor St",
    "address_councildis": "B",
    "status": "Pending",
    "rowid": "1058073",
    "final_x": "3671312.61505",
    "final_y": "526472.280446",
    "longitude": "-90.10040999410032",
    "latitude": "29.941921491961196",
    "geocoded_column": {
      "latitude": "29.941921491961196",
      "longitude": "-90.10040999410032"
    }
  },
  {
    "service_request": "2023-1058072",
    "request_type": "Roads/Drainage",
    "request_reason": "Catch Basin - Clogged",
    "date_created": "2023-12-28T16:04:45.000",
    "date_modified": "2023-12-28T16:04:46.000",
    "request_status": "Pending",
    "responsible_agency": "Department of Public Works",
    "final_address": "PINES BLVD & DEANNE ST",
    "address_councildis": "D",
    "status": "Pending",
    "rowid": "1058072",
    "final_x": "3695786.4",
    "final_y": "555990.38",
    "longitude": "-90.02207501573812",
    "latitude": "30.02233880411819",
    "geocoded_column": {
      "latitude": "30.02233880411819",
      "longitude": "-90.02207501573812"
    }
  },
  {
    "service_request": "2023-1058071",
    "request_type": "Trash/Recycling",
    "request_reason": "Repair Trash Cart",
    "date_created": "2023-12-28T16:04:45.000",
    "date_modified": "2023-12-28T16:04:45.000",
    "request_status": "Pending",
    "responsible_agency": "Department of Sanitation",
    "final_address": "4811 Cardenas Dr",
    "address_councildis": "E",
    "status": "Assigned to Contractor",
    "contractor": "Waste Pro",
    "rowid": "1058071",
    "final_x": "3713729.26475",
    "final_y": "556605.59529",
    "longitude": "-89.96535734418731",
    "latitude": "30.023453612167025",
    "geocoded_column": {
      "latitude": "30.023453612167025",
      "longitude": "-89.96535734418731"
    }
  },
  {
    "service_request": "2023-1058070",
    "request_type": "Roads/Drainage",
    "request_reason": "Catch Basin - Clogged",
    "date_created": "2023-12-28T16:01:41.000",
    "date_modified": "2023-12-28T16:01:44.000",
    "request_status": "Pending",
    "responsible_agency": "Department of Public Works",
    "final_address": "6701 Deanne St",
    "address_councildis": "D",
    "status": "Pending",
    "rowid": "1058070",
    "final_x": "3696048.45162",
    "final_y": "555363.023961",
    "longitude": "-90.02126969931615",
    "latitude": "30.020605564271165",
    "geocoded_column": {
      "latitude": "30.020605564271165",
      "longitude": "-90.02126969931615"
    }
  },
  {
    "service_request": "2023-1058069",
    "request_type": "Traffic Signals/Signs/Striping/Streetlights",
    "request_reason": "Traffic Signal Malfunctioning/Damaged",
    "date_created": "2023-12-28T15:53:04.000",
    "date_modified": "2023-12-28T15:53:04.000",
    "request_status": "Pending",
    "responsible_agency": "Department of Public Works",
    "final_address": "TULANE AVE & S RAMPART ST & COMMON ST",
    "address_councildis": "B",
    "status": "Pending",
    "rowid": "1058069",
    "final_x": "3679627.79",
    "final_y": "531022.73",
    "longitude": "-90.07399934305039",
    "latitude": "29.954185069998477",
    "geocoded_column": {
      "latitude": "29.954185069998477",
      "longitude": "-90.07399934305039"
    }
  },
  {
    "service_request": "2023-1058068",
    "request_type": "Trash/Recycling",
    "request_reason": "Request a Large Item Pick Up",
    "date_created": "2023-12-28T15:51:55.000",
    "date_modified": "2023-12-28T15:51:56.000",
    "request_status": "Pending",
    "responsible_agency": "Department of Sanitation",
    "final_address": "230 Leboeuf St",
    "address_councildis": "C",
    "status": "Assigned to Contractor",
    "contractor": "Richards Disposal",
    "rowid": "1058068",
    "final_x": "3689925.43536",
    "final_y": "530887.720322",
    "longitude": "-90.04148842688844",
    "latitude": "29.953498626538025",
    "geocoded_column": {
      "latitude": "29.953498626538025",
      "longitude": "-90.04148842688844"
    }
  },
  {
    "service_request": "2023-1058067",
    "request_type": "Traffic Signals/Signs/Striping/Streetlights",
    "request_reason": "Street Light Knocked Down/Leaning",
    "date_created": "2023-12-28T15:49:38.000",
    "date_modified": "2023-12-28T15:49:39.000",
    "request_status": "Pending",
    "responsible_agency": "Department of Public Works",
    "final_address": "CITY PARK AVE & ORLEANS AVE",
    "address_councildis": "A",
    "status": "Pending",
    "contractor": "Legacy Professional Services",
    "rowid": "1058067",
    "final_x": "3670423.5",
    "final_y": "541801.18",
    "longitude": "-90.10269734375164",
    "latitude": "29.984097138378488",
    "geocoded_column": {
      "latitude": "29.984097138378488",
      "longitude": "-90.10269734375164"
    }
  },
  {
    "service_request": "2023-1058066",
    "request_type": "Roads/Drainage",
    "request_reason": "Pothole",
    "date_created": "2023-12-28T15:40:37.000",
    "date_modified": "2023-12-28T15:40:38.000",
    "request_status": "Pending",
    "responsible_agency": "Department of Public Works",
    "final_address": "828 N Salcedo St",
    "address_councildis": "A",
    "status": "Pending",
    "rowid": "1058066",
    "final_x": "3675883.01582",
    "final_y": "538308.302921",
    "longitude": "-90.0855733362152",
    "latitude": "29.974330570451148",
    "geocoded_column": {
      "latitude": "29.974330570451148",
      "longitude": "-90.0855733362152"
    }
  },
  {
    "service_request": "2023-1058065",
    "request_type": "Trash/Recycling",
    "request_reason": "Order Recycling Cart",
    "date_created": "2023-12-28T15:35:04.000",
    "date_modified": "2023-12-28T15:35:05.000",
    "request_status": "Pending",
    "responsible_agency": "Department of Sanitation",
    "final_address": "4917 Gallier Dr",
    "address_councildis": "D",
    "status": "Pending",
    "rowid": "1058065",
    "final_x": "3691958.89699",
    "final_y": "552181.474006",
    "longitude": "-90.03430538713009",
    "latitude": "30.011985614189182",
    "geocoded_column": {
      "latitude": "30.011985614189182",
      "longitude": "-90.03430538713009"
    }
  },
  {
    "service_request": "2023-1058062",
    "request_type": "Trash/Recycling",
    "request_reason": "Missed Trash Pick-Up",
    "date_created": "2023-12-28T15:31:38.000",
    "date_modified": "2023-12-28T15:31:39.000",
    "request_status": "Pending",
    "responsible_agency": "Department of Sanitation",
    "final_address": "1139 Oretha Castle Haley Blvd",
    "address_councildis": "B",
    "status": "Assigned to Contractor",
    "contractor": "Richards Disposal",
    "rowid": "1058062",
    "final_x": "3678583.04571",
    "final_y": "527278.543167",
    "longitude": "-90.07742780941236",
    "latitude": "29.943921338497315",
    "geocoded_column": {
      "latitude": "29.943921338497315",
      "longitude": "-90.07742780941236"
    }
  },
  {
    "service_request": "2023-1058061",
    "request_type": "Trash/Recycling",
    "request_reason": "Missed Trash Pick-Up",
    "date_created": "2023-12-28T15:28:26.000",
    "date_modified": "2023-12-28T15:50:59.000",
    "case_close_date": "2023-12-28T09:50:59.000",
    "request_status": "Closed",
    "responsible_agency": "Department of Sanitation",
    "final_address": "1200 BLK Mandeville St",
    "address_councildis": "C",
    "status": "Invalid Request",
    "contractor": "IV Waste",
    "contractor_action": "Invalid Request",
    "rowid": "1058061",
    "final_x": "3685732.93886",
    "final_y": "536915.83114",
    "longitude": "-90.05451409764342",
    "latitude": "29.970203153384496",
    "geocoded_column": {
      "latitude": "29.970203153384496",
      "longitude": "-90.05451409764342"
    }
  },
  {
    "service_request": "2023-1058060",
    "request_type": "Trash/Recycling",
    "request_reason": "Repair Trash Cart",
    "date_created": "2023-12-28T15:28:08.000",
    "date_modified": "2023-12-28T15:28:09.000",
    "request_status": "Pending",
    "responsible_agency": "Department of Sanitation",
    "final_address": "4819 Cardenas Dr",
    "address_councildis": "E",
    "status": "Assigned to Contractor",
    "contractor": "Waste Pro",
    "rowid": "1058060",
    "final_x": "3713722.64856",
    "final_y": "556668.37897",
    "longitude": "-89.9653758813572",
    "latitude": "30.023626459661664",
    "geocoded_column": {
      "latitude": "30.023626459661664",
      "longitude": "-89.9653758813572"
    }
  },
  {
    "service_request": "2023-1058059",
    "request_type": "Trash/Recycling",
    "request_reason": "Return Trash Cart",
    "date_created": "2023-12-28T15:19:22.000",
    "date_modified": "2023-12-28T15:19:23.000",
    "request_status": "Pending",
    "responsible_agency": "Department of Sanitation",
    "final_address": "2900 Winston St",
    "address_councildis": "C",
    "status": "Assigned to Contractor",
    "contractor": "Richards Disposal",
    "rowid": "1058059",
    "final_x": "3711231.75665",
    "final_y": "519206.010487",
    "longitude": "-89.97465012811467",
    "latitude": "29.920700405820348",
    "geocoded_column": {
      "latitude": "29.920700405820348",
      "longitude": "-89.97465012811467"
    }
  },
  {
    "service_request": "2023-1058058",
    "request_type": "Trash/Recycling",
    "request_reason": "Request a Large Item Pick Up",
    "date_created": "2023-12-28T15:18:55.000",
    "date_modified": "2023-12-28T15:18:56.000",
    "request_status": "Pending",
    "responsible_agency": "Department of Sanitation",
    "final_address": "2900 Winston St",
    "address_councildis": "C",
    "status": "Assigned to Contractor",
    "contractor": "Richards Disposal",
    "rowid": "1058058",
    "final_x": "3711231.75665",
    "final_y": "519206.010487",
    "longitude": "-89.97465012811467",
    "latitude": "29.920700405820348",
    "geocoded_column": {
      "latitude": "29.920700405820348",
      "longitude": "-89.97465012811467"
    }
  },
  {
    "service_request": "2023-1058057",
    "request_type": "Trash/Recycling",
    "request_reason": "Request a Large Item Pick Up",
    "date_created": "2023-12-28T15:15:10.000",
    "date_modified": "2023-12-28T15:15:11.000",
    "request_status": "Pending",
    "responsible_agency": "Department of Sanitation",
    "final_address": "7134 Tudor Ct",
    "address_councildis": "E",
    "status": "Assigned to Contractor",
    "contractor": "Waste Pro",
    "rowid": "1058057",
    "final_x": "3703641.15505",
    "final_y": "559852.243613",
    "longitude": "-89.99711379395829",
    "latitude": "30.03270793618484",
    "geocoded_column": {
      "latitude": "30.03270793618484",
      "longitude": "-89.99711379395829"
    }
  },
  {
    "service_request": "2023-1058056",
    "request_type": "Roads/Drainage",
    "request_reason": "Damaged Sidewalk",
    "date_created": "2023-12-28T15:12:05.000",
    "date_modified": "2023-12-28T15:12:06.000",
    "request_status": "Pending",
    "responsible_agency": "Department of Public Works",
    "final_address": "1801 Adams St",
    "address_councildis": "A",
    "status": "Pending",
    "rowid": "1058056",
    "final_x": "3664526.31284",
    "final_y": "528935.067072",
    "longitude": "-90.12175365528675",
    "latitude": "29.948892401533723",
    "geocoded_column": {
      "latitude": "29.948892401533723",
      "longitude": "-90.12175365528675"
    }
  },
  {
    "service_request": "2023-1058055",
    "request_type": "Trash/Recycling",
    "request_reason": "Repair Trash Cart",
    "date_created": "2023-12-28T15:11:35.000",
    "date_modified": "2023-12-28T15:11:36.000",
    "request_status": "Pending",
    "responsible_agency": "Department of Sanitation",
    "final_address": "621 N Murat St Apt 1B",
    "address_councildis": "A",
    "status": "Assigned to Contractor",
    "contractor": "Richards Disposal",
    "rowid": "1058055",
    "final_x": "3670832.45563",
    "final_y": "541004.805515",
    "longitude": "-90.10143267877987",
    "latitude": "29.981895296852013",
    "geocoded_column": {
      "latitude": "29.981895296852013",
      "longitude": "-90.10143267877987"
    }
  },
  {
    "service_request": "2023-1058054",
    "request_type": "Trash/Recycling",
    "request_reason": "Repair Trash Cart",
    "date_created": "2023-12-28T15:11:00.000",
    "date_modified": "2023-12-28T15:11:01.000",
    "request_status": "Pending",
    "responsible_agency": "Department of Sanitation",
    "final_address": "621 N Murat St Apt 1A",
    "address_councildis": "A",
    "status": "Assigned to Contractor",
    "contractor": "Richards Disposal",
    "rowid": "1058054",
    "final_x": "3670843.53307",
    "final_y": "540996.245707",
    "longitude": "-90.10139798154374",
    "latitude": "29.981871432823354",
    "geocoded_column": {
      "latitude": "29.981871432823354",
      "longitude": "-90.10139798154374"
    }
  },
  {
    "service_request": "2023-1058053",
    "request_type": "Trash/Recycling",
    "request_reason": "Replace Recycling Cart",
    "date_created": "2023-12-28T15:09:18.000",
    "date_modified": "2023-12-28T15:09:18.000",
    "request_status": "Pending",
    "responsible_agency": "Department of Sanitation",
    "final_address": "319 35Th St",
    "address_councildis": "A",
    "status": "Pending",
    "rowid": "1058053",
    "final_x": "3665088.6352",
    "final_y": "551724.441301",
    "longitude": "-90.11921571780118",
    "latitude": "30.0115391740158",
    "geocoded_column": {
      "latitude": "30.0115391740158",
      "longitude": "-90.11921571780118"
    }
  },
  {
    "service_request": "2023-1058052",
    "request_type": "Trash/Recycling",
    "request_reason": "Request a Large Item Pick Up",
    "date_created": "2023-12-28T15:07:57.000",
    "date_modified": "2023-12-28T15:07:58.000",
    "request_status": "Pending",
    "responsible_agency": "Department of Sanitation",
    "final_address": "4736 Donna Dr",
    "address_councildis": "E",
    "status": "Assigned to Contractor",
    "contractor": "Waste Pro",
    "rowid": "1058052",
    "final_x": "3710944.58814",
    "final_y": "555753.646553",
    "longitude": "-89.9741881850872",
    "latitude": "30.021202205141854",
    "geocoded_column": {
      "latitude": "30.021202205141854",
      "longitude": "-89.9741881850872"
    }
  },
  {
    "service_request": "2023-1058051",
    "request_type": "Traffic Signals/Signs/Striping/Streetlights",
    "request_reason": "Street Light Outage/Malfunction",
    "date_created": "2023-12-28T15:07:37.000",
    "date_modified": "2023-12-28T15:07:38.000",
    "request_status": "Pending",
    "responsible_agency": "Department of Public Works",
    "final_address": "7421 Sheffield St",
    "address_councildis": "E",
    "status": "Assigned to Contractor",
    "contractor": "Legacy Professional Services",
    "rowid": "1058051",
    "final_x": "3699493.3537",
    "final_y": "559711.864925",
    "longitude": "-90.01022623807616",
    "latitude": "30.032454294719255",
    "geocoded_column": {
      "latitude": "30.032454294719255",
      "longitude": "-90.01022623807616"
    }
  },
  {
    "service_request": "2023-1058050",
    "request_type": "Trash/Recycling",
    "request_reason": "Replace Recycling Cart",
    "date_created": "2023-12-28T15:07:31.000",
    "date_modified": "2023-12-28T15:07:31.000",
    "request_status": "Pending",
    "responsible_agency": "Department of Sanitation",
    "final_address": "319 35Th St",
    "address_councildis": "A",
    "status": "Pending",
    "rowid": "1058050",
    "final_x": "3665088.6352",
    "final_y": "551724.441301",
    "longitude": "-90.11921571780118",
    "latitude": "30.0115391740158",
    "geocoded_column": {
      "latitude": "30.0115391740158",
      "longitude": "-90.11921571780118"
    }
  },
  {
    "service_request": "2023-1058049",
    "request_type": "Trash/Recycling",
    "request_reason": "Replace Trash Cart",
    "date_created": "2023-12-28T15:05:08.000",
    "date_modified": "2023-12-28T15:05:09.000",
    "request_status": "Pending",
    "responsible_agency": "Department of Sanitation",
    "final_address": "1321 Coliseum St",
    "address_councildis": "B",
    "status": "Assigned to Contractor",
    "contractor": "Richards Disposal",
    "rowid": "1058049",
    "final_x": "3680001.24495",
    "final_y": "525179.628797",
    "longitude": "-90.07302305597607",
    "latitude": "29.938107203843167",
    "geocoded_column": {
      "latitude": "29.938107203843167",
      "longitude": "-90.07302305597607"
    }
  },
  {
    "service_request": "2023-1058048",
    "request_type": "Trash/Recycling",
    "request_reason": "Missed Trash Pick-Up",
    "date_created": "2023-12-28T15:04:08.000",
    "date_modified": "2023-12-28T15:04:09.000",
    "request_status": "Pending",
    "responsible_agency": "Department of Sanitation",
    "final_address": "1835 Baronne St",
    "address_councildis": "B",
    "status": "Assigned to Contractor",
    "contractor": "Richards Disposal",
    "rowid": "1058048",
    "final_x": "3677645.63982",
    "final_y": "524996.187069",
    "longitude": "-90.08046624879695",
    "latitude": "29.93767383133148",
    "geocoded_column": {
      "latitude": "29.93767383133148",
      "longitude": "-90.08046624879695"
    }
  },
  {
    "service_request": "2023-1058047",
    "request_type": "Traffic Signals/Signs/Striping/Streetlights",
    "request_reason": "Street Light Outage/Malfunction",
    "date_created": "2023-12-28T15:01:23.000",
    "date_modified": "2023-12-28T15:01:24.000",
    "request_status": "Pending",
    "responsible_agency": "Department of Public Works",
    "final_address": "5011 Good Dr",
    "address_councildis": "E",
    "status": "Assigned to Contractor",
    "contractor": "Legacy Professional Services",
    "rowid": "1058047",
    "final_x": "3714745.87525",
    "final_y": "557886.054107",
    "longitude": "-89.96209668454567",
    "latitude": "30.026940954578897",
    "geocoded_column": {
      "latitude": "30.026940954578897",
      "longitude": "-89.96209668454567"
    }
  },
  {
    "service_request": "2023-1058046",
    "request_type": "Trash/Recycling",
    "request_reason": "Missed Trash Pick-Up",
    "date_created": "2023-12-28T14:56:55.000",
    "date_modified": "2023-12-28T14:56:56.000",
    "request_status": "Pending",
    "responsible_agency": "Department of Sanitation",
    "final_address": "1015 Louisiana Ave",
    "address_councildis": "B",
    "status": "Assigned to Contractor",
    "contractor": "Richards Disposal",
    "rowid": "1058046",
    "final_x": "3675199.70267",
    "final_y": "519448.536567",
    "longitude": "-90.08837856136961",
    "latitude": "29.922492902670886",
    "geocoded_column": {
      "latitude": "29.922492902670886",
      "longitude": "-90.08837856136961"
    }
  },
  {
    "service_request": "2023-1058045",
    "request_type": "Roads/Drainage",
    "request_reason": "Pothole",
    "date_created": "2023-12-28T14:53:38.000",
    "date_modified": "2023-12-28T14:54:38.000",
    "request_status": "Pending",
    "responsible_agency": "Department of Public Works",
    "final_address": "7919 Panola St",
    "address_councildis": "A",
    "status": "Pending",
    "rowid": "1058045",
    "final_x": "3664574.13671",
    "final_y": "530324.525442",
    "longitude": "-90.12155625826915",
    "latitude": "29.952711572130568",
    "geocoded_column": {
      "latitude": "29.952711572130568",
      "longitude": "-90.12155625826915"
    }
  },
  {
    "service_request": "2023-1058044",
    "request_type": "Trash/Recycling",
    "request_reason": "Request a Large Item Pick Up",
    "date_created": "2023-12-28T14:34:09.000",
    "date_modified": "2023-12-28T14:34:10.000",
    "request_status": "Pending",
    "responsible_agency": "Department of Sanitation",
    "final_address": "5064 Van Chu Dr",
    "address_councildis": "E",
    "status": "Assigned to Contractor",
    "contractor": "Waste Pro",
    "rowid": "1058044",
    "final_x": "3727614.93581",
    "final_y": "563120.183648",
    "longitude": "-89.92122851971912",
    "latitude": "30.04090291714669",
    "geocoded_column": {
      "latitude": "30.04090291714669",
      "longitude": "-89.92122851971912"
    }
  },
  {
    "service_request": "2023-1058043",
    "request_type": "Roads/Drainage",
    "request_reason": "Pothole",
    "date_created": "2023-12-28T14:33:09.000",
    "date_modified": "2023-12-28T14:33:09.000",
    "request_status": "Pending",
    "responsible_agency": "Department of Public Works",
    "final_address": "1836 Valence St",
    "address_councildis": "B",
    "status": "Pending",
    "rowid": "1058043",
    "final_x": "3669548.88276",
    "final_y": "521749.076666",
    "longitude": "-90.10613819354518",
    "latitude": "29.928986265896693",
    "geocoded_column": {
      "latitude": "29.928986265896693",
      "longitude": "-90.10613819354518"
    }
  },
  {
    "service_request": "2023-1058042",
    "request_type": "Abandoned Vehicles",
    "request_reason": "Abandoned/Junk Vehicles",
    "date_created": "2023-12-28T14:32:11.000",
    "date_modified": "2023-12-28T14:32:11.000",
    "request_status": "Pending",
    "responsible_agency": "Department of Public Works",
    "final_address": "1924 St Philip St",
    "address_councildis": "D",
    "status": "Pending",
    "rowid": "1058042",
    "final_x": "3679681.05205",
    "final_y": "536037.734535",
    "longitude": "-90.07365707725513",
    "latitude": "29.96797301907005",
    "geocoded_column": {
      "latitude": "29.96797301907005",
      "longitude": "-90.07365707725513"
    }
  },
  {
    "service_request": "2023-1058041",
    "request_type": "Parks & Parkways",
    "request_reason": "Request Tree Service (Right of Way/Public Property)",
    "date_created": "2023-12-28T14:30:34.000",
    "date_modified": "2023-12-28T14:41:36.000",
    "case_close_date": "2023-12-28T08:41:36.000",
    "request_status": "Closed",
    "responsible_agency": "Department of Parks & Parkway",
    "final_address": "MORRISON EXIT & I 10 W SERVICE RD",
    "address_councildis": "E",
    "status": "Referred to External Agency",
    "rowid": "1058041",
    "final_x": "3697830.95",
    "final_y": "557835.25",
    "longitude": "-90.01554773250923",
    "latitude": "30.027347000729335",
    "geocoded_column": {
      "latitude": "30.027347000729335",
      "longitude": "-90.01554773250923"
    }
  },
  {
    "service_request": "2023-1058040",
    "request_type": "Abandoned Vehicles",
    "request_reason": "Abandoned/Junk Vehicles",
    "date_created": "2023-12-28T14:30:24.000",
    "date_modified": "2023-12-28T14:30:24.000",
    "request_status": "Pending",
    "responsible_agency": "Department of Public Works",
    "final_address": "1208 N Derbigny St",
    "address_councildis": "D",
    "status": "Pending",
    "rowid": "1058040",
    "final_x": "3680662.36488",
    "final_y": "536345.687111",
    "longitude": "-90.07054734079568",
    "latitude": "29.968790083021425",
    "geocoded_column": {
      "latitude": "29.968790083021425",
      "longitude": "-90.07054734079568"
    }
  },
  {
    "service_request": "2023-1058039",
    "request_type": "Traffic Signals/Signs/Striping/Streetlights",
    "request_reason": "Road Surface Marking Maintenance-Traffic Control",
    "date_created": "2023-12-28T14:30:13.000",
    "date_modified": "2023-12-28T14:30:13.000",
    "request_status": "Pending",
    "responsible_agency": "Department of Public Works",
    "final_address": "1600 BLK King Dr",
    "address_councildis": "D",
    "status": "Pending",
    "rowid": "1058039",
    "final_x": "3680110.12957",
    "final_y": "550045.562098",
    "longitude": "-90.07181500446632",
    "latitude": "30.006476657137405",
    "geocoded_column": {
      "latitude": "30.006476657137405",
      "longitude": "-90.07181500446632"
    }
  },
  {
    "service_request": "2023-1058038",
    "request_type": "Trash/Recycling",
    "request_reason": "Request a Large Item Pick Up",
    "date_created": "2023-12-28T14:28:55.000",
    "date_modified": "2023-12-28T14:28:56.000",
    "request_status": "Pending",
    "responsible_agency": "Department of Sanitation",
    "final_address": "6409 St Roch Ave",
    "address_councildis": "D",
    "status": "Assigned to Contractor",
    "contractor": "IV Waste",
    "rowid": "1058038",
    "final_x": "3684957.47356",
    "final_y": "556762.005338",
    "longitude": "-90.05626455105921",
    "latitude": "30.024796783263774",
    "geocoded_column": {
      "latitude": "30.024796783263774",
      "longitude": "-90.05626455105921"
    }
  },
  {
    "service_request": "2023-1058037",
    "request_type": "Abandoned Vehicles",
    "request_reason": "Abandoned/Junk Vehicles",
    "date_created": "2023-12-28T14:28:34.000",
    "date_modified": "2023-12-28T14:28:34.000",
    "request_status": "Pending",
    "responsible_agency": "Department of Public Works",
    "final_address": "1208 N Derbigny St",
    "address_councildis": "D",
    "status": "Pending",
    "rowid": "1058037",
    "final_x": "3680662.36488",
    "final_y": "536345.687111",
    "longitude": "-90.07054734079568",
    "latitude": "29.968790083021425",
    "geocoded_column": {
      "latitude": "29.968790083021425",
      "longitude": "-90.07054734079568"
    }
  },
  {
    "service_request": "2023-1058036",
    "request_type": "Trash/Recycling",
    "request_reason": "Request a Large Item Pick Up",
    "date_created": "2023-12-28T14:26:49.000",
    "date_modified": "2023-12-28T14:26:50.000",
    "request_status": "Pending",
    "responsible_agency": "Department of Sanitation",
    "final_address": "3825 Lennox Blvd",
    "address_councildis": "C",
    "status": "Assigned to Contractor",
    "contractor": "Richards Disposal",
    "rowid": "1058036",
    "final_x": "3700467.23095",
    "final_y": "517196.451701",
    "longitude": "-90.0087018833046",
    "latitude": "29.91552138647352",
    "geocoded_column": {
      "latitude": "29.91552138647352",
      "longitude": "-90.0087018833046"
    }
  },
  {
    "service_request": "2023-1058035",
    "request_type": "Trash/Recycling",
    "request_reason": "Repair Trash Cart",
    "date_created": "2023-12-28T14:25:11.000",
    "date_modified": "2023-12-28T14:25:12.000",
    "request_status": "Pending",
    "responsible_agency": "Department of Sanitation",
    "final_address": "1310 State St",
    "address_councildis": "A",
    "status": "Assigned to Contractor",
    "contractor": "Richards Disposal",
    "rowid": "1058035",
    "final_x": "3665176.10893",
    "final_y": "520950.159353",
    "longitude": "-90.11996893590921",
    "latitude": "29.926917545026498",
    "geocoded_column": {
      "latitude": "29.926917545026498",
      "longitude": "-90.11996893590921"
    }
  },
  {
    "service_request": "2023-1058034",
    "request_type": "Trash/Recycling",
    "request_reason": "Missed Trash Pick-Up",
    "date_created": "2023-12-28T14:25:08.000",
    "date_modified": "2023-12-28T14:26:01.000",
    "request_status": "Pending",
    "responsible_agency": "Department of Sanitation",
    "final_address": "4659 Coronado Dr",
    "address_councildis": "E",
    "status": "Assigned to Contractor",
    "contractor": "Waste Pro",
    "rowid": "1058034",
    "final_x": "3714234.04722",
    "final_y": "556135.50441",
    "longitude": "-89.96378010831427",
    "latitude": "30.022144468062457",
    "geocoded_column": {
      "latitude": "30.022144468062457",
      "longitude": "-89.96378010831427"
    }
  },
  {
    "service_request": "2023-1058033",
    "request_type": "Trash/Recycling",
    "request_reason": "Return Trash Cart",
    "date_created": "2023-12-28T14:22:50.000",
    "date_modified": "2023-12-28T14:22:51.000",
    "request_status": "Pending",
    "responsible_agency": "Department of Sanitation",
    "final_address": "4130 Vincennes Pl",
    "address_councildis": "B",
    "status": "Assigned to Contractor",
    "contractor": "Richards Disposal",
    "rowid": "1058033",
    "final_x": "3668538.62561",
    "final_y": "530775.589954",
    "longitude": "-90.109022921315",
    "latitude": "29.95383597315917",
    "geocoded_column": {
      "latitude": "29.95383597315917",
      "longitude": "-90.109022921315"
    }
  },
  {
    "service_request": "2023-1058032",
    "request_type": "Trash/Recycling",
    "request_reason": "Request a Large Item Pick Up",
    "date_created": "2023-12-28T14:21:28.000",
    "date_modified": "2023-12-28T14:21:29.000",
    "request_status": "Pending",
    "responsible_agency": "Department of Sanitation",
    "final_address": "3708 Preston Pl",
    "address_councildis": "C",
    "status": "Assigned to Contractor",
    "contractor": "Richards Disposal",
    "rowid": "1058032",
    "final_x": "3708492.66558",
    "final_y": "517395.232437",
    "longitude": "-89.98336343777682",
    "latitude": "29.915810419512944",
    "geocoded_column": {
      "latitude": "29.915810419512944",
      "longitude": "-89.98336343777682"
    }
  },
  {
    "service_request": "2023-1058030",
    "request_type": "Trash/Recycling",
    "request_reason": "Repair Trash Cart",
    "date_created": "2023-12-28T14:10:59.000",
    "date_modified": "2023-12-28T14:11:00.000",
    "request_status": "Pending",
    "responsible_agency": "Department of Sanitation",
    "final_address": "3586 Mimosa Ct",
    "address_councildis": "C",
    "status": "Assigned to Contractor",
    "contractor": "Richards Disposal",
    "rowid": "1058030",
    "final_x": "3703134.42378",
    "final_y": "513094.515185",
    "longitude": "-90.0004338921796",
    "latitude": "29.904157408039566",
    "geocoded_column": {
      "latitude": "29.904157408039566",
      "longitude": "-90.0004338921796"
    }
  },
  {
    "service_request": "2023-1058029",
    "request_type": "Trash/Recycling",
    "request_reason": "Replace Trash Cart",
    "date_created": "2023-12-28T14:09:12.000",
    "date_modified": "2023-12-28T14:09:13.000",
    "request_status": "Pending",
    "responsible_agency": "Department of Sanitation",
    "final_address": "4663 Read Blvd",
    "address_councildis": "E",
    "status": "Assigned to Contractor",
    "contractor": "Waste Pro",
    "rowid": "1058029",
    "final_x": "3712908.58315",
    "final_y": "555778.032985",
    "longitude": "-89.96798165805949",
    "latitude": "30.02120505659953",
    "geocoded_column": {
      "latitude": "30.02120505659953",
      "longitude": "-89.96798165805949"
    }
  },
  {
    "service_request": "2023-1058028",
    "request_type": "Trash/Recycling",
    "request_reason": "Order Recycling Cart",
    "date_created": "2023-12-28T14:07:54.000",
    "date_modified": "2023-12-28T14:07:55.000",
    "request_status": "Pending",
    "responsible_agency": "Department of Sanitation",
    "final_address": "101 E Park Pl",
    "address_councildis": "A",
    "status": "Pending",
    "rowid": "1058028",
    "final_x": "3670379.81492",
    "final_y": "544519.747215",
    "longitude": "-90.10274310716606",
    "latitude": "29.991573556477523",
    "geocoded_column": {
      "latitude": "29.991573556477523",
      "longitude": "-90.10274310716606"
    }
  },
  {
    "service_request": "2023-1058027",
    "request_type": "Property Maintenance",
    "request_reason": "Property Maintenance",
    "date_created": "2023-12-28T14:06:51.000",
    "date_modified": "2023-12-28T14:06:51.000",
    "request_status": "Pending",
    "responsible_agency": "Department of Code Enforcement",
    "final_address": "2425 Deslonde St",
    "address_councildis": "E",
    "status": "Pending",
    "rowid": "1058027",
    "final_x": "3696835.90096",
    "final_y": "539471.210122",
    "longitude": "-90.0193574216786",
    "latitude": "29.976884133307493",
    "geocoded_column": {
      "latitude": "29.976884133307493",
      "longitude": "-90.0193574216786"
    }
  },
  {
    "service_request": "2023-1058026",
    "request_type": "Trash/Recycling",
    "request_reason": "Replace Trash Cart",
    "date_created": "2023-12-28T14:06:17.000",
    "date_modified": "2023-12-28T14:06:18.000",
    "request_status": "Pending",
    "responsible_agency": "Department of Sanitation",
    "final_address": "2415 S Claiborne Ave",
    "address_councildis": "B",
    "status": "Assigned to Contractor",
    "contractor": "Richards Disposal",
    "rowid": "1058026",
    "final_x": "3673978.87796",
    "final_y": "527424.013247",
    "longitude": "-90.09195947428914",
    "latitude": "29.944459290342092",
    "geocoded_column": {
      "latitude": "29.944459290342092",
      "longitude": "-90.09195947428914"
    }
  },
  {
    "service_request": "2023-1058025",
    "request_type": "Roads/Drainage",
    "request_reason": "Man hole cover issue",
    "date_created": "2023-12-28T14:01:28.000",
    "date_modified": "2023-12-28T14:01:28.000",
    "request_status": "Pending",
    "responsible_agency": "Department of Public Works",
    "final_address": "PAUGER ST & N MIRO ST",
    "address_councildis": "D",
    "status": "Pending",
    "rowid": "1058025",
    "final_x": "3683547.7",
    "final_y": "540267.78",
    "longitude": "-90.06129778642872",
    "latitude": "29.97948672381614",
    "geocoded_column": {
      "latitude": "29.97948672381614",
      "longitude": "-90.06129778642872"
    }
  },
  {
    "service_request": "2023-1058024",
    "request_type": "Trash/Recycling",
    "request_reason": "Request a Large Item Pick Up",
    "date_created": "2023-12-28T14:00:09.000",
    "date_modified": "2023-12-28T14:00:10.000",
    "request_status": "Pending",
    "responsible_agency": "Department of Sanitation",
    "final_address": "5419 S Johnson St",
    "address_councildis": "A",
    "status": "Assigned to Contractor",
    "contractor": "Richards Disposal",
    "rowid": "1058024",
    "final_x": "3668409.49767",
    "final_y": "527049.452798",
    "longitude": "-90.10955631416249",
    "latitude": "29.94359410281482",
    "geocoded_column": {
      "latitude": "29.94359410281482",
      "longitude": "-90.10955631416249"
    }
  },
  {
    "service_request": "2023-1058023",
    "request_type": "Trash/Recycling",
    "request_reason": "Order Recycling Cart",
    "date_created": "2023-12-28T13:58:15.000",
    "date_modified": "2023-12-28T13:58:16.000",
    "request_status": "Pending",
    "responsible_agency": "Department of Sanitation",
    "final_address": "5004 Camp St",
    "address_councildis": "B",
    "status": "Pending",
    "rowid": "1058023",
    "final_x": "3668597.96046",
    "final_y": "518911.210231",
    "longitude": "-90.10923578017892",
    "latitude": "29.92121100288829",
    "geocoded_column": {
      "latitude": "29.92121100288829",
      "longitude": "-90.10923578017892"
    }
  },
  {
    "service_request": "2023-1058022",
    "request_type": "Trash/Recycling",
    "request_reason": "Illegal Dumping",
    "date_created": "2023-12-28T13:57:23.000",
    "date_modified": "2023-12-28T13:57:23.000",
    "request_status": "Pending",
    "responsible_agency": "Department of Sanitation",
    "final_address": "2437 Gravier St",
    "address_councildis": "B",
    "status": "Pending",
    "rowid": "1058022",
    "final_x": "3674967.80193",
    "final_y": "532884.632772",
    "longitude": "-90.08864986985932",
    "latitude": "29.959444683123056",
    "geocoded_column": {
      "latitude": "29.959444683123056",
      "longitude": "-90.08864986985932"
    }
  },
  {
    "service_request": "2023-1058021",
    "request_type": "Trash/Recycling",
    "request_reason": "Request a Large Item Pick Up",
    "date_created": "2023-12-28T13:55:46.000",
    "date_modified": "2023-12-28T13:55:47.000",
    "request_status": "Pending",
    "responsible_agency": "Department of Sanitation",
    "final_address": "7321 Arbor Dr",
    "address_councildis": "E",
    "status": "Assigned to Contractor",
    "contractor": "Waste Pro",
    "rowid": "1058021",
    "final_x": "3701031.2234",
    "final_y": "558177.051355",
    "longitude": "-90.00542269248814",
    "latitude": "30.028185234074552",
    "geocoded_column": {
      "latitude": "30.028185234074552",
      "longitude": "-90.00542269248814"
    }
  },
  {
    "service_request": "2023-1058020",
    "request_type": "Trash/Recycling",
    "request_reason": "Illegal Dumping",
    "date_created": "2023-12-28T13:55:43.000",
    "date_modified": "2023-12-28T13:55:43.000",
    "request_status": "Pending",
    "responsible_agency": "Department of Sanitation",
    "final_address": "2501 Gravier St",
    "address_councildis": "B",
    "status": "Pending",
    "rowid": "1058020",
    "final_x": "3674902.39278",
    "final_y": "532927.285124",
    "longitude": "-90.0888549540379",
    "latitude": "29.959563916310575",
    "geocoded_column": {
      "latitude": "29.959563916310575",
      "longitude": "-90.0888549540379"
    }
  },
  {
    "service_request": "2023-1058019",
    "request_type": "Trash/Recycling",
    "request_reason": "Request a Large Item Pick Up",
    "date_created": "2023-12-28T13:55:23.000",
    "date_modified": "2023-12-28T13:55:24.000",
    "request_status": "Pending",
    "responsible_agency": "Department of Sanitation",
    "final_address": "733 Lang St",
    "address_councildis": "C",
    "status": "Assigned to Contractor",
    "contractor": "Richards Disposal",
    "rowid": "1058019",
    "final_x": "3701967.94231",
    "final_y": "519659.90764",
    "longitude": "-90.00387489229628",
    "latitude": "29.92224725631187",
    "geocoded_column": {
      "latitude": "29.92224725631187",
      "longitude": "-90.00387489229628"
    }
  },
  {
    "service_request": "2023-1058018",
    "request_type": "Traffic Signals/Signs/Striping/Streetlights",
    "request_reason": "Street Light Outage/Malfunction",
    "date_created": "2023-12-28T13:54:12.000",
    "date_modified": "2023-12-28T13:54:13.000",
    "request_status": "Pending",
    "responsible_agency": "Department of Public Works",
    "final_address": "8TH ST & CONSTANCE ST",
    "address_councildis": "B",
    "status": "Assigned to Contractor",
    "contractor": "Legacy Professional Services",
    "rowid": "1058018",
    "final_x": "3676320.5",
    "final_y": "519897.18",
    "longitude": "-90.08482522315451",
    "latitude": "29.92369299566159",
    "geocoded_column": {
      "latitude": "29.92369299566159",
      "longitude": "-90.08482522315451"
    }
  },
  {
    "service_request": "2023-1058017",
    "request_type": "Trash/Recycling",
    "request_reason": "Request a Large Item Pick Up",
    "date_created": "2023-12-28T13:50:09.000",
    "date_modified": "2023-12-28T13:50:10.000",
    "request_status": "Pending",
    "responsible_agency": "Department of Sanitation",
    "final_address": "4900 Lancelot Dr",
    "address_councildis": "E",
    "status": "Assigned to Contractor",
    "contractor": "Waste Pro",
    "rowid": "1058017",
    "final_x": "3707280.49937",
    "final_y": "556462.766682",
    "longitude": "-89.98573922751619",
    "latitude": "30.023271004518307",
    "geocoded_column": {
      "latitude": "30.023271004518307",
      "longitude": "-89.98573922751619"
    }
  },
  {
    "service_request": "2023-1058016",
    "request_type": "Trash/Recycling",
    "request_reason": "Request a Large Item Pick Up",
    "date_created": "2023-12-28T13:49:25.000",
    "date_modified": "2023-12-28T13:49:26.000",
    "request_status": "Pending",
    "responsible_agency": "Department of Sanitation",
    "final_address": "2327 Franklin Ave",
    "address_councildis": "D",
    "status": "Assigned to Contractor",
    "contractor": "IV Waste",
    "rowid": "1058016",
    "final_x": "3687631.09961",
    "final_y": "541168.60558",
    "longitude": "-90.04836890752634",
    "latitude": "29.981838398323543",
    "geocoded_column": {
      "latitude": "29.981838398323543",
      "longitude": "-90.04836890752634"
    }
  },
  {
    "service_request": "2023-1058015",
    "request_type": "Abandoned Vehicles",
    "request_reason": "Abandoned/Junk Vehicles",
    "date_created": "2023-12-28T13:44:26.000",
    "date_modified": "2023-12-28T13:46:53.000",
    "request_status": "Pending",
    "responsible_agency": "Department of Public Works",
    "final_address": "5446 Chartres St",
    "address_councildis": "E",
    "status": "Pending",
    "rowid": "1058015",
    "final_x": "3697036.29207",
    "final_y": "532000.766339",
    "longitude": "-90.01899516173607",
    "latitude": "29.956336757231963",
    "geocoded_column": {
      "latitude": "29.956336757231963",
      "longitude": "-90.01899516173607"
    }
  },
  {
    "service_request": "2023-1058014",
    "request_type": "Trash/Recycling",
    "request_reason": "Order Trash Cart",
    "date_created": "2023-12-28T13:42:42.000",
    "date_modified": "2023-12-28T13:42:43.000",
    "request_status": "Pending",
    "responsible_agency": "Department of Sanitation",
    "final_address": "2422 S Robertson St",
    "address_councildis": "B",
    "status": "Assigned to Contractor",
    "contractor": "Richards Disposal",
    "rowid": "1058014",
    "final_x": "3674790.92481",
    "final_y": "526079.891518",
    "longitude": "-90.08944167219204",
    "latitude": "29.940739182116975",
    "geocoded_column": {
      "latitude": "29.940739182116975",
      "longitude": "-90.08944167219204"
    }
  },
  {
    "service_request": "2023-1058013",
    "request_type": "Trash/Recycling",
    "request_reason": "Request a Large Item Pick Up",
    "date_created": "2023-12-28T13:41:47.000",
    "date_modified": "2023-12-28T13:41:48.000",
    "request_status": "Pending",
    "responsible_agency": "Department of Sanitation",
    "final_address": "4220 Loyola Ave",
    "address_councildis": "B",
    "status": "Assigned to Contractor",
    "contractor": "Richards Disposal",
    "rowid": "1058013",
    "final_x": "3671205.72327",
    "final_y": "523015.053499",
    "longitude": "-90.10086487890048",
    "latitude": "29.932418399084426",
    "geocoded_column": {
      "latitude": "29.932418399084426",
      "longitude": "-90.10086487890048"
    }
  },
  {
    "service_request": "2023-1058012",
    "request_type": "Trash/Recycling",
    "request_reason": "Request a Large Item Pick Up",
    "date_created": "2023-12-28T13:37:48.000",
    "date_modified": "2023-12-28T13:37:49.000",
    "request_status": "Pending",
    "responsible_agency": "Department of Sanitation",
    "final_address": "9926 Grant St",
    "address_councildis": "E",
    "status": "Assigned to Contractor",
    "contractor": "Waste Pro",
    "rowid": "1058012",
    "final_x": "3712332.46322",
    "final_y": "555136.612057",
    "longitude": "-89.9698261339445",
    "latitude": "30.019460264110023",
    "geocoded_column": {
      "latitude": "30.019460264110023",
      "longitude": "-89.9698261339445"
    }
  },
  {
    "service_request": "2023-1058011",
    "request_type": "Trash/Recycling",
    "request_reason": "Missed Trash Pick-Up",
    "date_created": "2023-12-28T13:37:24.000",
    "date_modified": "2023-12-28T13:37:25.000",
    "request_status": "Pending",
    "responsible_agency": "Department of Sanitation",
    "final_address": "9926 Grant St",
    "address_councildis": "E",
    "status": "Assigned to Contractor",
    "contractor": "Waste Pro",
    "rowid": "1058011",
    "final_x": "3712332.46322",
    "final_y": "555136.612057",
    "longitude": "-89.9698261339445",
    "latitude": "30.019460264110023",
    "geocoded_column": {
      "latitude": "30.019460264110023",
      "longitude": "-89.9698261339445"
    }
  },
  {
    "service_request": "2023-1058010",
    "request_type": "Abandoned Vehicles",
    "request_reason": "Abandoned/Junk Vehicles",
    "date_created": "2023-12-28T13:36:25.000",
    "date_modified": "2023-12-28T13:37:54.000",
    "request_status": "Pending",
    "responsible_agency": "Department of Public Works",
    "final_address": "1833 Louisiana Ave",
    "address_councildis": "B",
    "status": "Pending",
    "rowid": "1058010",
    "final_x": "3673871.50267",
    "final_y": "522512.76249",
    "longitude": "-90.09246641198798",
    "latitude": "29.930958150429188",
    "geocoded_column": {
      "latitude": "29.930958150429188",
      "longitude": "-90.09246641198798"
    }
  },
  {
    "service_request": "2023-1058009",
    "request_type": "Trash/Recycling",
    "request_reason": "Request a Large Item Pick Up",
    "date_created": "2023-12-28T13:28:25.000",
    "date_modified": "2023-12-28T13:28:26.000",
    "request_status": "Pending",
    "responsible_agency": "Department of Sanitation",
    "final_address": "4871 Metropolitan Dr",
    "address_councildis": "D",
    "status": "Assigned to Contractor",
    "contractor": "IV Waste",
    "rowid": "1058009",
    "final_x": "3690641.21385",
    "final_y": "551396.126549",
    "longitude": "-90.0384965368346",
    "latitude": "30.00986720823679",
    "geocoded_column": {
      "latitude": "30.00986720823679",
      "longitude": "-90.0384965368346"
    }
  },
  {
    "service_request": "2023-1058008",
    "request_type": "Trash/Recycling",
    "request_reason": "Request a Large Item Pick Up",
    "date_created": "2023-12-28T13:28:17.000",
    "date_modified": "2023-12-28T13:28:18.000",
    "request_status": "Pending",
    "responsible_agency": "Department of Sanitation",
    "final_address": "1218 Kabel Dr",
    "address_councildis": "C",
    "status": "Assigned to Contractor",
    "contractor": "Richards Disposal",
    "rowid": "1058008",
    "final_x": "3700898.53706",
    "final_y": "523109.726459",
    "longitude": "-90.00712450368928",
    "latitude": "29.9317671413075",
    "geocoded_column": {
      "latitude": "29.9317671413075",
      "longitude": "-90.00712450368928"
    }
  },
  {
    "service_request": "2023-1058007",
    "request_type": "Abandoned Vehicles",
    "request_reason": "Abandoned/Junk Vehicles",
    "date_created": "2023-12-28T13:27:39.000",
    "date_modified": "2023-12-28T13:27:39.000",
    "request_status": "Pending",
    "responsible_agency": "Department of Public Works",
    "final_address": "1949 Lafayette St",
    "address_councildis": "B",
    "status": "Inspected",
    "rowid": "1058007",
    "final_x": "3676159.96001",
    "final_y": "530748.573122",
    "longitude": "-90.08495879908367",
    "latitude": "29.953535572824403",
    "geocoded_column": {
      "latitude": "29.953535572824403",
      "longitude": "-90.08495879908367"
    }
  },
  {
    "service_request": "2023-1058006",
    "request_type": "Roads/Drainage",
    "request_reason": "Pothole",
    "date_created": "2023-12-28T13:20:29.000",
    "date_modified": "2023-12-28T13:20:29.000",
    "request_status": "Pending",
    "responsible_agency": "Department of Public Works",
    "final_address": "100 BLK Roselyn Park Pl",
    "address_councildis": "C",
    "status": "Pending",
    "rowid": "1058006",
    "final_x": "3702644.64454",
    "final_y": "523579.027105",
    "longitude": "-90.0015950570796",
    "latitude": "29.933001869241924",
    "geocoded_column": {
      "latitude": "29.933001869241924",
      "longitude": "-90.0015950570796"
    }
  },
  {
    "service_request": "2023-1058005",
    "request_type": "Roads/Drainage",
    "request_reason": "Pothole",
    "date_created": "2023-12-28T13:19:18.000",
    "date_modified": "2023-12-28T13:19:19.000",
    "request_status": "Pending",
    "responsible_agency": "Department of Public Works",
    "final_address": "100 BLK Roselyn Park Pl",
    "address_councildis": "C",
    "status": "Pending",
    "rowid": "1058005",
    "final_x": "3702644.64454",
    "final_y": "523579.027105",
    "longitude": "-90.0015950570796",
    "latitude": "29.933001869241924",
    "geocoded_column": {
      "latitude": "29.933001869241924",
      "longitude": "-90.0015950570796"
    }
  },
  {
    "service_request": "2023-1058004",
    "request_type": "Trash/Recycling",
    "request_reason": "Illegal Dumping",
    "date_created": "2023-12-28T13:17:03.000",
    "date_modified": "2023-12-28T13:17:04.000",
    "case_close_date": "2023-12-12T18:00:00.000",
    "request_status": "Pending",
    "responsible_agency": "Department of Sanitation",
    "final_address": "MORRISON RD & PARIS RD",
    "address_councildis": "E",
    "status": "Pending",
    "rowid": "1058004",
    "final_x": "3721505.5",
    "final_y": "572975.48",
    "longitude": "-89.94015749076085",
    "latitude": "30.06820648399455",
    "geocoded_column": {
      "latitude": "30.06820648399455",
      "longitude": "-89.94015749076085"
    }
  },
  {
    "service_request": "2023-1058003",
    "request_type": "Trash/Recycling",
    "request_reason": "Replace Trash Cart",
    "date_created": "2023-12-28T13:14:26.000",
    "date_modified": "2023-12-28T13:14:27.000",
    "request_status": "Pending",
    "responsible_agency": "Department of Sanitation",
    "final_address": "518 Burdette St",
    "address_councildis": "A",
    "status": "Assigned to Contractor",
    "contractor": "Richards Disposal",
    "rowid": "1058003",
    "final_x": "3661223.30022",
    "final_y": "525976.653565",
    "longitude": "-90.13228065620562",
    "latitude": "29.94085332603563",
    "geocoded_column": {
      "latitude": "29.94085332603563",
      "longitude": "-90.13228065620562"
    }
  },
  {
    "service_request": "2023-1058002",
    "request_type": "Trash/Recycling",
    "request_reason": "Request a Large Item Pick Up",
    "date_created": "2023-12-28T13:12:58.000",
    "date_modified": "2023-12-28T13:12:58.000",
    "request_status": "Pending",
    "responsible_agency": "Department of Sanitation",
    "final_address": "13 Stilt St",
    "address_councildis": "D",
    "status": "Assigned to Contractor",
    "contractor": "IV Waste",
    "rowid": "1058002",
    "final_x": "3672780.2251",
    "final_y": "557229.417051",
    "longitude": "-90.09472674699369",
    "latitude": "30.02644955135677",
    "geocoded_column": {
      "latitude": "30.02644955135677",
      "longitude": "-90.09472674699369"
    }
  },
  {
    "service_request": "2023-1058001",
    "request_type": "Trash/Recycling",
    "request_reason": "Missed Trash Pick-Up",
    "date_created": "2023-12-28T13:11:21.000",
    "date_modified": "2023-12-28T13:11:22.000",
    "request_status": "Pending",
    "responsible_agency": "Department of Sanitation",
    "final_address": "6950 Yorktown Dr",
    "address_councildis": "E",
    "status": "Assigned to Contractor",
    "contractor": "Waste Pro",
    "rowid": "1058001",
    "final_x": "3706243.30199",
    "final_y": "560288.286365",
    "longitude": "-89.98887469064296",
    "latitude": "30.033823188742147",
    "geocoded_column": {
      "latitude": "30.033823188742147",
      "longitude": "-89.98887469064296"
    }
  },
  {
    "service_request": "2023-1058000",
    "request_type": "Trash/Recycling",
    "request_reason": "Order Recycling Cart",
    "date_created": "2023-12-28T13:11:06.000",
    "date_modified": "2023-12-28T13:11:06.000",
    "request_status": "Pending",
    "responsible_agency": "Department of Sanitation",
    "final_address": "1012 Valence St",
    "address_councildis": "B",
    "status": "Pending",
    "rowid": "1058000",
    "final_x": "3669845.02273",
    "final_y": "519154.534775",
    "longitude": "-90.10529111625263",
    "latitude": "29.92184337726024",
    "geocoded_column": {
      "latitude": "29.92184337726024",
      "longitude": "-90.10529111625263"
    }
  },
  {
    "service_request": "2023-1057999",
    "request_type": "Trash/Recycling",
    "request_reason": "Request a Large Item Pick Up",
    "date_created": "2023-12-28T13:11:04.000",
    "date_modified": "2023-12-28T13:11:05.000",
    "request_status": "Pending",
    "responsible_agency": "Department of Sanitation",
    "final_address": "9911 E Rockton Cir",
    "address_councildis": "E",
    "status": "Assigned to Contractor",
    "contractor": "Waste Pro",
    "rowid": "1057999",
    "final_x": "3708693.96523",
    "final_y": "562933.62768",
    "longitude": "-89.98103171374704",
    "latitude": "30.04101753561943",
    "geocoded_column": {
      "latitude": "30.04101753561943",
      "longitude": "-89.98103171374704"
    }
  },
  {
    "service_request": "2023-1057998",
    "request_type": "Trash/Recycling",
    "request_reason": "Repair Trash Cart",
    "date_created": "2023-12-28T13:07:24.000",
    "date_modified": "2023-12-28T13:07:25.000",
    "request_status": "Pending",
    "responsible_agency": "Department of Sanitation",
    "final_address": "5648 Stillwater Dr",
    "address_councildis": "E",
    "status": "Assigned to Contractor",
    "contractor": "Waste Pro",
    "rowid": "1057998",
    "final_x": "3716122.13029",
    "final_y": "561227.841246",
    "longitude": "-89.9576211232543",
    "latitude": "30.03608417203301",
    "geocoded_column": {
      "latitude": "30.03608417203301",
      "longitude": "-89.9576211232543"
    }
  },
  {
    "service_request": "2023-1057997",
    "request_type": "Trash/Recycling",
    "request_reason": "Request a Large Item Pick Up",
    "date_created": "2023-12-28T13:06:46.000",
    "date_modified": "2023-12-28T13:06:47.000",
    "request_status": "Pending",
    "responsible_agency": "Department of Sanitation",
    "final_address": "3025 Bienville Ave",
    "address_councildis": "B",
    "status": "Assigned to Contractor",
    "contractor": "Richards Disposal",
    "rowid": "1057997",
    "final_x": "3674674.54068",
    "final_y": "536679.064967",
    "longitude": "-90.08944584920847",
    "latitude": "29.96988684906901",
    "geocoded_column": {
      "latitude": "29.96988684906901",
      "longitude": "-90.08944584920847"
    }
  },
  {
    "service_request": "2023-1057996",
    "request_type": "Graffiti Removal",
    "request_reason": "Graffiti Removal",
    "date_created": "2023-12-28T13:03:29.000",
    "date_modified": "2023-12-28T13:03:29.000",
    "request_status": "Pending",
    "responsible_agency": "Department of Code Enforcement",
    "final_address": "900 BLK Tchoupitoulas St",
    "address_councildis": "B",
    "status": "Pending",
    "rowid": "1057996",
    "final_x": "3681710.58274",
    "final_y": "527017.740044",
    "longitude": "-90.06756242254134",
    "latitude": "29.94310958927508",
    "geocoded_column": {
      "latitude": "29.94310958927508",
      "longitude": "-90.06756242254134"
    }
  },
  {
    "service_request": "2023-1057995",
    "request_type": "Trash/Recycling",
    "request_reason": "Request a Large Item Pick Up",
    "date_created": "2023-12-28T13:02:43.000",
    "date_modified": "2023-12-28T13:02:44.000",
    "request_status": "Pending",
    "responsible_agency": "Department of Sanitation",
    "final_address": "2115 Painters St",
    "address_councildis": "D",
    "status": "Assigned to Contractor",
    "contractor": "IV Waste",
    "rowid": "1057995",
    "final_x": "3687288.20073",
    "final_y": "540349.476107",
    "longitude": "-90.04948093006799",
    "latitude": "29.979596651003117",
    "geocoded_column": {
      "latitude": "29.979596651003117",
      "longitude": "-90.04948093006799"
    }
  },
  {
    "service_request": "2023-1057994",
    "request_type": "Trash/Recycling",
    "request_reason": "Order Recycling Cart",
    "date_created": "2023-12-28T13:02:03.000",
    "date_modified": "2023-12-28T13:02:04.000",
    "request_status": "Pending",
    "responsible_agency": "Department of Sanitation",
    "final_address": "1016 Delaronde St",
    "address_councildis": "C",
    "status": "Pending",
    "rowid": "1057994",
    "final_x": "3688726.69628",
    "final_y": "531184.827202",
    "longitude": "-90.04526298060404",
    "latitude": "29.954352674859955",
    "geocoded_column": {
      "latitude": "29.954352674859955",
      "longitude": "-90.04526298060404"
    }
  },
  {
    "service_request": "2023-1057993",
    "request_type": "Mosquito, Termite & Rodent Control",
    "request_reason": "Mosquito Complaint",
    "date_created": "2023-12-28T13:00:53.000",
    "date_modified": "2023-12-28T13:00:53.000",
    "request_status": "Pending",
    "responsible_agency": "Mosquito, Termite & Rodent Control Board",
    "final_address": "7550 Dune Dr",
    "address_councildis": "E",
    "status": "Pending",
    "rowid": "1057993",
    "final_x": "3715541.93957",
    "final_y": "568690.115109",
    "longitude": "-89.95917180488203",
    "latitude": "30.05662152760415",
    "geocoded_column": {
      "latitude": "30.05662152760415",
      "longitude": "-89.95917180488203"
    }
  },
  {
    "service_request": "2023-1057992",
    "request_type": "Trash/Recycling",
    "request_reason": "Order Trash Cart",
    "date_created": "2023-12-28T12:57:53.000",
    "date_modified": "2023-12-28T12:57:54.000",
    "request_status": "Pending",
    "responsible_agency": "Department of Sanitation",
    "final_address": "5009 St Anthony Ave",
    "address_councildis": "D",
    "status": "Assigned to Contractor",
    "contractor": "IV Waste",
    "rowid": "1057992",
    "final_x": "3682407.63861",
    "final_y": "551091.640021",
    "longitude": "-90.06452000230728",
    "latitude": "30.00928324274304",
    "geocoded_column": {
      "latitude": "30.00928324274304",
      "longitude": "-90.06452000230728"
    }
  },
  {
    "service_request": "2023-1057991",
    "request_type": "Traffic Signals/Signs/Striping/Streetlights",
    "request_reason": "Street Name Sign Damaged or Missing",
    "date_created": "2023-12-28T12:57:11.000",
    "date_modified": "2023-12-28T12:57:11.000",
    "request_status": "Pending",
    "responsible_agency": "Department of Public Works",
    "final_address": "CANAL BLVD & FLORIDA BLVD",
    "address_councildis": "A",
    "status": "Pending",
    "rowid": "1057991",
    "final_x": "3668371.3",
    "final_y": "545343.08",
    "longitude": "-90.10905980065687",
    "latitude": "29.993896598145398",
    "geocoded_column": {
      "latitude": "29.993896598145398",
      "longitude": "-90.10905980065687"
    }
  },
  {
    "service_request": "2023-1057990",
    "request_type": "Trash/Recycling",
    "request_reason": "Replace Recycling Cart",
    "date_created": "2023-12-28T12:45:18.000",
    "date_modified": "2023-12-28T12:45:19.000",
    "request_status": "Pending",
    "responsible_agency": "Department of Sanitation",
    "final_address": "1161 Allen Toussaint Blvd",
    "address_councildis": "D",
    "status": "Pending",
    "rowid": "1057990",
    "final_x": "3675520.13435",
    "final_y": "555185.536665",
    "longitude": "-90.08613923190414",
    "latitude": "30.02074789909579",
    "geocoded_column": {
      "latitude": "30.02074789909579",
      "longitude": "-90.08613923190414"
    }
  },
  {
    "service_request": "2023-1057989",
    "request_type": "Trash/Recycling",
    "request_reason": "Return Trash Cart",
    "date_created": "2023-12-28T12:44:18.000",
    "date_modified": "2023-12-28T12:44:19.000",
    "request_status": "Pending",
    "responsible_agency": "Department of Sanitation",
    "final_address": "1161 Allen Toussaint Blvd",
    "address_councildis": "D",
    "status": "Assigned to Contractor",
    "contractor": "IV Waste",
    "rowid": "1057989",
    "final_x": "3675520.13435",
    "final_y": "555185.536665",
    "longitude": "-90.08613923190414",
    "latitude": "30.02074789909579",
    "geocoded_column": {
      "latitude": "30.02074789909579",
      "longitude": "-90.08613923190414"
    }
  },
  {
    "service_request": "2023-1057988",
    "request_type": "Roads/Drainage",
    "request_reason": "Pothole",
    "date_created": "2023-12-28T12:44:17.000",
    "date_modified": "2023-12-28T12:44:18.000",
    "request_status": "Pending",
    "responsible_agency": "Department of Public Works",
    "final_address": "2022 Bienville Ave",
    "address_councildis": "B",
    "status": "Pending",
    "rowid": "1057988",
    "final_x": "3677815.002",
    "final_y": "534143.839109",
    "longitude": "-90.0796155714666",
    "latitude": "29.962821725852937",
    "geocoded_column": {
      "latitude": "29.962821725852937",
      "longitude": "-90.0796155714666"
    }
  },