[
  {
    "service_request": "2023-979412",
    "request_type": "Roads/Drainage",
    "request_reason": "Unpermitted work in ROW",
    "date_created": "2023-03-01T23:21:27.000",
    "date_modified": "2023-03-01T23:21:27.000",
    "request_status": "Pending",
    "responsible_agency": "Department of Public Works",
    "final_address": "441 Seguin St",
    "address_councildis": "C",
    "status": "Pending",
    "rowid": "979412",
    "final_x": "3686377.16438",
    "final_y": "529968.437697",
    "longitude": "-90.05272478127752",
    "latitude": "29.951080434041458",
    "geocoded_column": {
      "latitude": "29.951080434041458",
      "longitude": "-90.05272478127752"
    }
  },
  {
    "service_request": "2023-979410",
    "request_type": "Trash/Recycling",
    "request_reason": "MIssed Recycling Pick-Up",
    "date_created": "2023-03-01T22:32:29.000",
    "date_modified": "2023-03-01T22:32:29.000",
    "request_status": "Pending",
    "responsible_agency": "Department of Sanitation",
    "final_address": "1706 S Rampart St",
    "address_councildis": "B",
    "status": "Assigned to Contractor",
    "contractor": "Richards Disposal",
    "rowid": "979410",
    "final_x": "3677420.85685",
    "final_y": "525843.496829",
    "longitude": "-90.08114667319602",
    "latitude": "29.940010410237925",
    "geocoded_column": {
      "latitude": "29.940010410237925",
      "longitude": "-90.08114667319602"
    }
  },
  {
    "service_request": "2023-979409",
    "request_type": "Roads/Drainage",
    "request_reason": "Accessibility Ramps, Curbs and Sidewalk Repair",
    "date_created": "2023-03-01T22:31:13.000",
    "date_modified": "2023-03-01T22:31:13.000",
    "request_status": "Pending",
    "responsible_agency": "Department of Public Works",
    "final_address": "1706 S Rampart St",
    "address_councildis": "B",
    "status": "Pending",
    "rowid": "979409",
    "final_x": "3677420.85685",
    "final_y": "525843.496829",
    "longitude": "-90.08114667319602",
    "latitude": "29.940010410237925",
    "geocoded_column": {
      "latitude": "29.940010410237925",
      "longitude": "-90.08114667319602"
    }
  },
  {
    "service_request": "2023-979408",
    "request_type": "Health Related Request",
    "request_reason": "Noise Ordinance Complaint",
    "date_created": "2023-03-01T22:28:41.000",
    "date_modified": "2023-03-01T22:28:42.000",
    "request_status": "Pending",
    "responsible_agency": "Health Department",
    "final_address": "740 Burgundy St",
    "address_councildis": "C",
    "status": "Pending",
    "rowid": "979408",
    "final_x": "3681919.1012",
    "final_y": "533357.792004",
    "longitude": "-90.06668280273463",
    "latitude": "29.96053625365705",
    "geocoded_column": {
      "latitude": "29.96053625365705",
      "longitude": "-90.06668280273463"
    }
  },
  {
    "service_request": "2023-979407",
    "request_type": "Traffic Signals/Signs/Striping/Streetlights",
    "request_reason": "Street Light Outage/Malfunction",
    "date_created": "2023-03-01T22:13:17.000",
    "date_modified": "2023-03-01T22:13:17.000",
    "request_status": "Pending",
    "responsible_agency": "Department of Public Works",
    "final_address": "5725 General Diaz St",
    "address_councildis": "A",
    "status": "Assigned to Contractor",
    "contractor": "Legacy Professional Services",
    "rowid": "979407",
    "final_x": "3669446.8521",
    "final_y": "545532.28456",
    "longitude": "-90.10565587359483",
    "latitude": "29.994385203381093",
    "geocoded_column": {
      "latitude": "29.994385203381093",
      "longitude": "-90.10565587359483"
    }
  },
  {
    "service_request": "2023-979406",
    "request_type": "Abandoned Vehicles",
    "request_reason": "Abandoned/Junk Vehicles",
    "date_created": "2023-03-01T22:04:44.000",
    "date_modified": "2023-03-01T22:04:44.000",
    "request_status": "Pending",
    "responsible_agency": "Department of Public Works",
    "final_address": "1235 Leonidas St",
    "address_councildis": "A",
    "status": "Pending",
    "rowid": "979406",
    "final_x": "3660867.6649",
    "final_y": "529749.815681",
    "longitude": "-90.13327870391055",
    "latitude": "29.95123856460921",
    "geocoded_column": {
      "latitude": "29.95123856460921",
      "longitude": "-90.13327870391055"
    }
  },
  {
    "service_request": "2023-979405",
    "request_type": "Trash/Recycling",
    "request_reason": "Order Recycling Cart",
    "date_created": "2023-03-01T21:38:46.000",
    "date_modified": "2023-03-01T21:38:46.000",
    "request_status": "Pending",
    "responsible_agency": "Department of Sanitation",
    "final_address": "1121 Clouet St",
    "address_councildis": "C",
    "status": "Pending",
    "rowid": "979405",
    "final_x": "3689096.62198",
    "final_y": "536245.193095",
    "longitude": "-90.04391509749694",
    "latitude": "29.968255481885397",
    "geocoded_column": {
      "latitude": "29.968255481885397",
      "longitude": "-90.04391509749694"
    }
  },
  {
    "service_request": "2023-979404",
    "request_type": "Trash/Recycling",
    "request_reason": "Replace Recycling Cart",
    "date_created": "2023-03-01T21:21:43.000",
    "date_modified": "2023-03-01T21:21:43.000",
    "request_status": "Pending",
    "responsible_agency": "Department of Sanitation",
    "final_address": "472 Lowerline St",
    "address_councildis": "A",
    "status": "Pending",
    "rowid": "979404",
    "final_x": "3661986.24282",
    "final_y": "524404.966652",
    "longitude": "-90.12992401339754",
    "latitude": "29.936509673657252",
    "geocoded_column": {
      "latitude": "29.936509673657252",
      "longitude": "-90.12992401339754"
    }
  },
  {
    "service_request": "2023-979403",
    "request_type": "Trash/Recycling",
    "request_reason": "MIssed Recycling Pick-Up",
    "date_created": "2023-03-01T21:13:06.000",
    "date_modified": "2023-03-01T21:13:07.000",
    "request_status": "Pending",
    "responsible_agency": "Department of Sanitation",
    "final_address": "2701 Magazine St",
    "address_councildis": "B",
    "status": "Assigned to Contractor",
    "contractor": "Richards Disposal",
    "rowid": "979403",
    "final_x": "3677260.51387",
    "final_y": "521024.913913",
    "longitude": "-90.0818190602655",
    "latitude": "29.926765701433922",
    "geocoded_column": {
      "latitude": "29.926765701433922",
      "longitude": "-90.0818190602655"
    }
  },
  {
    "service_request": "2023-979402",
    "request_type": "Trash/Recycling",
    "request_reason": "Request a Large Item Pick Up",
    "date_created": "2023-03-01T20:42:44.000",
    "date_modified": "2023-03-01T20:42:44.000",
    "request_status": "Pending",
    "responsible_agency": "Department of Sanitation",
    "final_address": "1816 Lizardi St",
    "address_councildis": "E",
    "status": "Assigned to Contractor",
    "contractor": "Waste Pro",
    "rowid": "979402",
    "final_x": "3697226.95363",
    "final_y": "536916.803912",
    "longitude": "-90.01821495491416",
    "latitude": "29.96984809834802",
    "geocoded_column": {
      "latitude": "29.96984809834802",
      "longitude": "-90.01821495491416"
    }
  },
  {
    "service_request": "2023-979401",
    "request_type": "Trash/Recycling",
    "request_reason": "Request a Large Item Pick Up",
    "date_created": "2023-03-01T20:41:06.000",
    "date_modified": "2023-03-01T20:41:07.000",
    "request_status": "Pending",
    "responsible_agency": "Department of Sanitation",
    "final_address": "1246 Granada Dr",
    "address_councildis": "D",
    "status": "Assigned to Contractor",
    "contractor": "IV Waste",
    "rowid": "979401",
    "final_x": "3677098.1307",
    "final_y": "550421.216724",
    "longitude": "-90.08131771189625",
    "latitude": "30.007600409802276",
    "geocoded_column": {
      "latitude": "30.007600409802276",
      "longitude": "-90.08131771189625"
    }
  },
  {
    "service_request": "2023-979400",
    "request_type": "Trash/Recycling",
    "request_reason": "Order Trash Cart",
    "date_created": "2023-03-01T20:33:17.000",
    "date_modified": "2023-03-01T20:33:18.000",
    "request_status": "Pending",
    "responsible_agency": "Department of Sanitation",
    "final_address": "3218 Jackson Ave",
    "address_councildis": "B",
    "status": "Assigned to Contractor",
    "contractor": "Richards Disposal",
    "rowid": "979400",
    "final_x": "3673788.36449",
    "final_y": "528616.243904",
    "longitude": "-90.09252021950853",
    "latitude": "29.947743206118",
    "geocoded_column": {
      "latitude": "29.947743206118",
      "longitude": "-90.09252021950853"
    }
  },
  {
    "service_request": "2023-979399",
    "request_type": "Traffic Signals/Signs/Striping/Streetlights",
    "request_reason": "Street Light Outage/Malfunction",
    "date_created": "2023-03-01T20:26:00.000",
    "date_modified": "2023-03-01T20:26:01.000",
    "request_status": "Pending",
    "responsible_agency": "Department of Public Works",
    "final_address": "2724 Octavia St",
    "address_councildis": "A",
    "status": "Assigned to Contractor",
    "contractor": "Legacy Professional Services",
    "rowid": "979399",
    "final_x": "3667879.03162",
    "final_y": "525583.159933",
    "longitude": "-90.11128051480009",
    "latitude": "29.93957783801998",
    "geocoded_column": {
      "latitude": "29.93957783801998",
      "longitude": "-90.11128051480009"
    }
  },
  {
    "service_request": "2023-979398",
    "request_type": "Roads/Drainage",
    "request_reason": "Street Subsidence (Sinking)",
    "date_created": "2023-03-01T20:23:33.000",
    "date_modified": "2023-03-01T20:23:33.000",
    "request_status": "Pending",
    "responsible_agency": "Department of Public Works",
    "final_address": "7300 Colapissa St",
    "address_councildis": "B",
    "status": "Pending",
    "rowid": "979398",
    "final_x": "3667646.18593",
    "final_y": "532336.948611",
    "longitude": "-90.11178832868173",
    "latitude": "29.958155386956157",
    "geocoded_column": {
      "latitude": "29.958155386956157",
      "longitude": "-90.11178832868173"
    }
  },
  {
    "service_request": "2023-979397",
    "request_type": "Trash/Recycling",
    "request_reason": "Replace Trash Cart",
    "date_created": "2023-03-01T20:21:41.000",
    "date_modified": "2023-03-01T20:21:42.000",
    "request_status": "Pending",
    "responsible_agency": "Department of Sanitation",
    "final_address": "1706 S Rampart St",
    "address_councildis": "B",
    "status": "Assigned to Contractor",
    "contractor": "Richards Disposal",
    "rowid": "979397",
    "final_x": "3677420.85685",
    "final_y": "525843.496829",
    "longitude": "-90.08114667319602",
    "latitude": "29.940010410237925",
    "geocoded_column": {
      "latitude": "29.940010410237925",
      "longitude": "-90.08114667319602"
    }
  },
  {
    "service_request": "2023-979396",
    "request_type": "Trash/Recycling",
    "request_reason": "MIssed Recycling Pick-Up",
    "date_created": "2023-03-01T20:09:26.000",
    "date_modified": "2023-03-01T20:09:26.000",
    "request_status": "Pending",
    "responsible_agency": "Department of Sanitation",
    "final_address": "2015 Sixth St",
    "address_councildis": "B",
    "status": "Assigned to Contractor",
    "contractor": "Richards Disposal",
    "rowid": "979396",
    "final_x": "3674655.1611",
    "final_y": "523585.780283",
    "longitude": "-90.08995574861271",
    "latitude": "29.933885242539358",
    "geocoded_column": {
      "latitude": "29.933885242539358",
      "longitude": "-90.08995574861271"
    }
  },
  {
    "service_request": "2023-979395",
    "request_type": "Abandoned Vehicles",
    "request_reason": "Abandoned/Junk Vehicles",
    "date_created": "2023-03-01T20:03:08.000",
    "date_modified": "2023-03-01T20:03:08.000",
    "request_status": "Pending",
    "responsible_agency": "Department of Public Works",
    "final_address": "640 Frenchmen St",
    "address_councildis": "C",
    "status": "Pending",
    "rowid": "979395",
    "final_x": "3684674.75036",
    "final_y": "534785.78471",
    "longitude": "-90.0579308381368",
    "latitude": "29.964378694274583",
    "geocoded_column": {
      "latitude": "29.964378694274583",
      "longitude": "-90.0579308381368"
    }
  },
  {
    "service_request": "2023-979394",
    "request_type": "Abandoned Vehicles",
    "request_reason": "Abandoned/Junk Vehicles",
    "date_created": "2023-03-01T19:59:49.000",
    "date_modified": "2023-03-01T19:59:49.000",
    "request_status": "Pending",
    "responsible_agency": "Department of Public Works",
    "final_address": "640 Frenchmen St",
    "address_councildis": "C",
    "status": "Pending",
    "rowid": "979394",
    "final_x": "3684674.75036",
    "final_y": "534785.78471",
    "longitude": "-90.0579308381368",
    "latitude": "29.964378694274583",
    "geocoded_column": {
      "latitude": "29.964378694274583",
      "longitude": "-90.0579308381368"
    }
  },
  {
    "service_request": "2023-979393",
    "request_type": "Trash/Recycling",
    "request_reason": "Missed Trash Pick-Up",
    "date_created": "2023-03-01T19:57:21.000",
    "date_modified": "2023-03-01T19:57:21.000",
    "request_status": "Pending",
    "responsible_agency": "Department of Sanitation",
    "final_address": "2101 S Liberty St",
    "address_councildis": "B",
    "status": "Assigned to Contractor",
    "contractor": "Richards Disposal",
    "rowid": "979393",
    "final_x": "3676260.92437",
    "final_y": "526031.357758",
    "longitude": "-90.08480229468465",
    "latitude": "29.940561769457407",
    "geocoded_column": {
      "latitude": "29.940561769457407",
      "longitude": "-90.08480229468465"
    }
  },
  {
    "service_request": "2023-979392",
    "request_type": "Trash/Recycling",
    "request_reason": "Request a Large Item Pick Up",
    "date_created": "2023-03-01T19:54:16.000",
    "date_modified": "2023-03-01T19:54:16.000",
    "request_status": "Pending",
    "responsible_agency": "Department of Sanitation",
    "final_address": "2018 Shalett St",
    "address_councildis": "C",
    "status": "Assigned to Contractor",
    "contractor": "Richards Disposal",
    "rowid": "979392",
    "final_x": "3694255.69603",
    "final_y": "523034.714683",
    "longitude": "-90.02809781765497",
    "latitude": "29.931770621170113",
    "geocoded_column": {
      "latitude": "29.931770621170113",
      "longitude": "-90.02809781765497"
    }
  },
  {
    "service_request": "2023-979391",
    "request_type": "Trash/Recycling",
    "request_reason": "Replace Trash Cart",
    "date_created": "2023-03-01T19:39:05.000",
    "date_modified": "2023-03-01T19:39:05.000",
    "request_status": "Pending",
    "responsible_agency": "Department of Sanitation",
    "final_address": "3624 Red Oak Ct",
    "address_councildis": "C",
    "status": "Assigned to Contractor",
    "contractor": "Richards Disposal",
    "rowid": "979391",
    "final_x": "3703175.35543",
    "final_y": "513839.625266",
    "longitude": "-90.00027735428428",
    "latitude": "29.90620489853063",
    "geocoded_column": {
      "latitude": "29.90620489853063",
      "longitude": "-90.00027735428428"
    }
  },
  {
    "service_request": "2023-979389",
    "request_type": "Abandoned Vehicles",
    "request_reason": "Abandoned/Junk Vehicles",
    "date_created": "2023-03-01T19:38:51.000",
    "date_modified": "2023-03-01T19:38:51.000",
    "request_status": "Pending",
    "responsible_agency": "Department of Public Works",
    "final_address": "3417 S Liberty St",
    "address_councildis": "B",
    "status": "Pending",
    "rowid": "979389",
    "final_x": "3673032.99528",
    "final_y": "523788.320059",
    "longitude": "-90.09506995481556",
    "latitude": "29.934490462685165",
    "geocoded_column": {
      "latitude": "29.934490462685165",
      "longitude": "-90.09506995481556"
    }
  },
  {
    "service_request": "2023-979388",
    "request_type": "Traffic Signals/Signs/Striping/Streetlights",
    "request_reason": "Street Light Outage/Malfunction",
    "date_created": "2023-03-01T19:35:44.000",
    "date_modified": "2023-03-01T19:35:45.000",
    "request_status": "Pending",
    "responsible_agency": "Department of Public Works",
    "final_address": "6229 St Roch Ave",
    "address_councildis": "D",
    "status": "Assigned to Contractor",
    "contractor": "Legacy Professional Services",
    "rowid": "979388",
    "final_x": "3685026.14754",
    "final_y": "556164.768218",
    "longitude": "-90.05606858926967",
    "latitude": "30.023152497602283",
    "geocoded_column": {
      "latitude": "30.023152497602283",
      "longitude": "-90.05606858926967"
    }
  },
  {
    "service_request": "2023-979387",
    "request_type": "Trash/Recycling",
    "request_reason": "Return Recycling Cart",
    "date_created": "2023-03-01T19:31:31.000",
    "date_modified": "2023-03-01T19:31:31.000",
    "request_status": "Pending",
    "responsible_agency": "Department of Sanitation",
    "final_address": "2023 Burgundy St",
    "address_councildis": "C",
    "status": "Pending",
    "rowid": "979387",
    "final_x": "3684487.05295",
    "final_y": "535569.294278",
    "longitude": "-90.05849604269231",
    "latitude": "29.966538818190216",
    "geocoded_column": {
      "latitude": "29.966538818190216",
      "longitude": "-90.05849604269231"
    }
  },
  {
    "service_request": "2023-979386",
    "request_type": "Trash/Recycling",
    "request_reason": "MIssed Recycling Pick-Up",
    "date_created": "2023-03-01T19:30:16.000",
    "date_modified": "2023-03-01T19:30:17.000",
    "request_status": "Pending",
    "responsible_agency": "Department of Sanitation",
    "final_address": "11137 Winchester Park Dr",
    "address_councildis": "E",
    "status": "Assigned to Contractor",
    "contractor": "Waste Pro",
    "rowid": "979386",
    "final_x": "3715016.478",
    "final_y": "561447.954399",
    "longitude": "-89.96110682674389",
    "latitude": "30.036725848477847",
    "geocoded_column": {
      "latitude": "30.036725848477847",
      "longitude": "-89.96110682674389"
    }
  },
  {
    "service_request": "2023-979385",
    "request_type": "Trash/Recycling",
    "request_reason": "Request a Large Item Pick Up",
    "date_created": "2023-03-01T19:26:15.000",
    "date_modified": "2023-03-01T19:26:15.000",
    "request_status": "Pending",
    "responsible_agency": "Department of Sanitation",
    "final_address": "2808 Jackson Ave",
    "address_councildis": "B",
    "status": "Assigned to Contractor",
    "contractor": "Richards Disposal",
    "rowid": "979385",
    "final_x": "3674746.77569",
    "final_y": "527370.872959",
    "longitude": "-90.08953681587343",
    "latitude": "29.94429027465488",
    "geocoded_column": {
      "latitude": "29.94429027465488",
      "longitude": "-90.08953681587343"
    }
  },
  {
    "service_request": "2023-979384",
    "request_type": "Trash/Recycling",
    "request_reason": "Order Trash Cart",
    "date_created": "2023-03-01T19:23:19.000",
    "date_modified": "2023-03-01T19:23:20.000",
    "request_status": "Pending",
    "responsible_agency": "Department of Sanitation",
    "final_address": "3950 Laurel St",
    "address_councildis": "B",
    "status": "Assigned to Contractor",
    "contractor": "Richards Disposal",
    "rowid": "979384",
    "final_x": "3672819.6763",
    "final_y": "518131.266486",
    "longitude": "-90.09593626090395",
    "latitude": "29.918941719533713",
    "geocoded_column": {
      "latitude": "29.918941719533713",
      "longitude": "-90.09593626090395"
    }
  },
  {
    "service_request": "2023-979383",
    "request_type": "Trash/Recycling",
    "request_reason": "Request a Large Item Pick Up",
    "date_created": "2023-03-01T19:10:28.000",
    "date_modified": "2023-03-01T19:10:29.000",
    "request_status": "Pending",
    "responsible_agency": "Department of Sanitation",
    "final_address": "7703 Hickory St",
    "address_councildis": "A",
    "status": "Assigned to Contractor",
    "contractor": "Richards Disposal",
    "rowid": "979383",
    "final_x": "3664460.51936",
    "final_y": "529003.476544",
    "longitude": "-90.12195911104783",
    "latitude": "29.949082418240362",
    "geocoded_column": {
      "latitude": "29.949082418240362",
      "longitude": "-90.12195911104783"
    }
  },
  {
    "service_request": "2023-979382",
    "request_type": "Trash/Recycling",
    "request_reason": "MIssed Recycling Pick-Up",
    "date_created": "2023-03-01T19:04:50.000",
    "date_modified": "2023-03-01T19:04:50.000",
    "request_status": "Pending",
    "responsible_agency": "Department of Sanitation",
    "final_address": "820 N Prieur St",
    "address_councildis": "D",
    "status": "Assigned to Contractor",
    "contractor": "Richards Disposal",
    "rowid": "979382",
    "final_x": "3679266.60744",
    "final_y": "535661.640966",
    "longitude": "-90.0749789511362",
    "latitude": "29.966951411768832",
    "geocoded_column": {
      "latitude": "29.966951411768832",
      "longitude": "-90.0749789511362"
    }
  },
  {
    "service_request": "2023-979381",
    "request_type": "Trash/Recycling",
    "request_reason": "Order Recycling Cart",
    "date_created": "2023-03-01T18:56:23.000",
    "date_modified": "2023-03-01T18:56:23.000",
    "request_status": "Pending",
    "responsible_agency": "Department of Sanitation",
    "final_address": "3928 Clematis St",
    "address_councildis": "D",
    "status": "Pending",
    "rowid": "979381",
    "final_x": "3685591.71612",
    "final_y": "547327.019601",
    "longitude": "-90.05459316172242",
    "latitude": "29.998834568797065",
    "geocoded_column": {
      "latitude": "29.998834568797065",
      "longitude": "-90.05459316172242"
    }
  },
  {
    "service_request": "2023-979380",
    "request_type": "Roads/Drainage",
    "request_reason": "Pothole",
    "date_created": "2023-03-01T18:55:19.000",
    "date_modified": "2023-03-01T18:55:19.000",
    "request_status": "Pending",
    "responsible_agency": "Department of Public Works",
    "final_address": "7600 Gannon Rd",
    "address_councildis": "E",
    "status": "Pending",
    "rowid": "979380",
    "final_x": "3716469.08671",
    "final_y": "569659.73431",
    "longitude": "-89.95620443875303",
    "latitude": "30.059256974348585",
    "geocoded_column": {
      "latitude": "30.059256974348585",
      "longitude": "-89.95620443875303"
    }
  },
  {
    "service_request": "2023-979379",
    "request_type": "Trash/Recycling",
    "request_reason": "Request a Large Item Pick Up",
    "date_created": "2023-03-01T18:52:29.000",
    "date_modified": "2023-03-01T18:52:30.000",
    "request_status": "Pending",
    "responsible_agency": "Department of Sanitation",
    "final_address": "12500 Morrison Rd",
    "address_councildis": "E",
    "status": "Assigned to Contractor",
    "contractor": "Waste Pro",
    "rowid": "979379",
    "final_x": "3715819.41887",
    "final_y": "568570.992165",
    "longitude": "-89.95829926500231",
    "latitude": "30.056284835798667",
    "geocoded_column": {
      "latitude": "30.056284835798667",
      "longitude": "-89.95829926500231"
    }
  },
  {
    "service_request": "2023-979378",
    "request_type": "Trash/Recycling",
    "request_reason": "MIssed Recycling Pick-Up",
    "date_created": "2023-03-01T18:49:09.000",
    "date_modified": "2023-03-01T18:49:09.000",
    "request_status": "Pending",
    "responsible_agency": "Department of Sanitation",
    "final_address": "4884 Coronado Dr",
    "address_councildis": "E",
    "status": "Assigned to Contractor",
    "contractor": "Waste Pro",
    "rowid": "979378",
    "final_x": "3713984.46642",
    "final_y": "557201.640283",
    "longitude": "-89.96452847046727",
    "latitude": "30.02508412010466",
    "geocoded_column": {
      "latitude": "30.02508412010466",
      "longitude": "-89.96452847046727"
    }
  },
  {
    "service_request": "2023-979377",
    "request_type": "Roads/Drainage",
    "request_reason": "Pothole",
    "date_created": "2023-03-01T18:49:04.000",
    "date_modified": "2023-03-01T18:49:04.000",
    "request_status": "Pending",
    "responsible_agency": "Department of Public Works",
    "final_address": "4603 S Derbigny St",
    "address_councildis": "B",
    "status": "Pending",
    "rowid": "979377",
    "final_x": "3669509.73831",
    "final_y": "526236.717438",
    "longitude": "-90.10611003734729",
    "latitude": "29.94132698755996",
    "geocoded_column": {
      "latitude": "29.94132698755996",
      "longitude": "-90.10611003734729"
    }
  },
  {
    "service_request": "2023-979375",
    "request_type": "Trash/Recycling",
    "request_reason": "Repair Trash Cart",
    "date_created": "2023-03-01T18:38:28.000",
    "date_modified": "2023-03-01T18:38:29.000",
    "request_status": "Pending",
    "responsible_agency": "Department of Sanitation",
    "final_address": "15 Park Timbers Dr",
    "address_councildis": "C",
    "status": "Assigned to Contractor",
    "contractor": "Richards Disposal",
    "rowid": "979375",
    "final_x": "3699186.46333",
    "final_y": "518051.190006",
    "longitude": "-90.01271334803776",
    "latitude": "29.91791227606465",
    "geocoded_column": {
      "latitude": "29.91791227606465",
      "longitude": "-90.01271334803776"
    }
  },
  {
    "service_request": "2023-979374",
    "request_type": "Traffic Signals/Signs/Striping/Streetlights",
    "request_reason": "Street Light Outage/Malfunction",
    "date_created": "2023-03-01T18:31:14.000",
    "date_modified": "2023-03-01T18:31:15.000",
    "request_status": "Pending",
    "responsible_agency": "Department of Public Works",
    "final_address": "2724 Octavia St",
    "address_councildis": "A",
    "status": "Assigned to Contractor",
    "contractor": "Legacy Professional Services",
    "rowid": "979374",
    "final_x": "3667879.03162",
    "final_y": "525583.159933",
    "longitude": "-90.11128051480009",
    "latitude": "29.93957783801998",
    "geocoded_column": {
      "latitude": "29.93957783801998",
      "longitude": "-90.11128051480009"
    }
  },
  {
    "service_request": "2023-979373",
    "request_type": "Trash/Recycling",
    "request_reason": "Repair Recycling Cart",
    "date_created": "2023-03-01T18:23:42.000",
    "date_modified": "2023-03-01T18:23:42.000",
    "request_status": "Pending",
    "responsible_agency": "Department of Sanitation",
    "final_address": "3310 Desaix Blvd",
    "address_councildis": "A",
    "status": "Pending",
    "rowid": "979373",
    "final_x": "3677473.98376",
    "final_y": "543494.953038",
    "longitude": "-90.08036956071709",
    "latitude": "29.98854433077897",
    "geocoded_column": {
      "latitude": "29.98854433077897",
      "longitude": "-90.08036956071709"
    }
  },
  {
    "service_request": "2023-979372",
    "request_type": "Trash/Recycling",
    "request_reason": "Replace Recycling Cart",
    "date_created": "2023-03-01T18:12:29.000",
    "date_modified": "2023-03-01T18:12:29.000",
    "request_status": "Pending",
    "responsible_agency": "Department of Sanitation",
    "final_address": "6237 Annunciation St",
    "address_councildis": "A",
    "status": "Pending",
    "rowid": "979372",
    "final_x": "3662990.75328",
    "final_y": "518408.560822",
    "longitude": "-90.1269520305233",
    "latitude": "29.919992392802666",
    "geocoded_column": {
      "latitude": "29.919992392802666",
      "longitude": "-90.1269520305233"
    }
  },
  {
    "service_request": "2023-979371",
    "request_type": "Trash/Recycling",
    "request_reason": "Missed Trash Pick-Up",
    "date_created": "2023-03-01T18:10:47.000",
    "date_modified": "2023-03-01T18:10:48.000",
    "request_status": "Pending",
    "responsible_agency": "Department of Sanitation",
    "final_address": "1839 Audubon St",
    "address_councildis": "A",
    "status": "Assigned to Contractor",
    "contractor": "Richards Disposal",
    "rowid": "979371",
    "final_x": "3665811.61607",
    "final_y": "528339.35616",
    "longitude": "-90.11771533747023",
    "latitude": "29.947216957374124",
    "geocoded_column": {
      "latitude": "29.947216957374124",
      "longitude": "-90.11771533747023"
    }
  },
  {
    "service_request": "2023-979370",
    "request_type": "Trash/Recycling",
    "request_reason": "Replace Trash Cart",
    "date_created": "2023-03-01T18:04:13.000",
    "date_modified": "2023-03-01T18:04:13.000",
    "request_status": "Pending",
    "responsible_agency": "Department of Sanitation",
    "final_address": "3550 Rue Denise",
    "address_councildis": "C",
    "status": "Assigned to Contractor",
    "contractor": "Richards Disposal",
    "rowid": "979370",
    "final_x": "3704326.07697",
    "final_y": "517483.896182",
    "longitude": "-89.996511426371",
    "latitude": "29.916188534216356",
    "geocoded_column": {
      "latitude": "29.916188534216356",
      "longitude": "-89.996511426371"
    }
  },
  {
    "service_request": "2023-979369",
    "request_type": "Property Maintenance",
    "request_reason": "Property Maintenance",
    "date_created": "2023-03-01T17:48:37.000",
    "date_modified": "2023-03-01T17:48:37.000",
    "request_status": "Pending",
    "responsible_agency": "Department of Code Enforcement",
    "final_address": "3436 S Liberty St",
    "address_councildis": "B",
    "status": "Pending",
    "rowid": "979369",
    "final_x": "3672917.60731",
    "final_y": "523675.839611",
    "longitude": "-90.09543806874913",
    "latitude": "29.934184606106093",
    "geocoded_column": {
      "latitude": "29.934184606106093",
      "longitude": "-90.09543806874913"
    }
  },
  {
    "service_request": "2023-979367",
    "request_type": "Trash/Recycling",
    "request_reason": "Request a Large Item Pick Up",
    "date_created": "2023-03-01T17:45:38.000",
    "date_modified": "2023-03-01T17:45:39.000",
    "request_status": "Pending",
    "responsible_agency": "Department of Sanitation",
    "final_address": "7101 Parkside Ct",
    "address_councildis": "E",
    "status": "Assigned to Contractor",
    "contractor": "Waste Pro",
    "rowid": "979367",
    "final_x": "3704693.77105",
    "final_y": "559940.548893",
    "longitude": "-89.99378420229756",
    "latitude": "30.03291694735075",
    "geocoded_column": {
      "latitude": "30.03291694735075",
      "longitude": "-89.99378420229756"
    }
  },
  {
    "service_request": "2023-979366",
    "request_type": "Trash/Recycling",
    "request_reason": "Request a Large Item Pick Up",
    "date_created": "2023-03-01T17:42:50.000",
    "date_modified": "2023-03-01T17:42:51.000",
    "request_status": "Pending",
    "responsible_agency": "Department of Sanitation",
    "final_address": "8728 Green St",
    "address_councildis": "A",
    "status": "Assigned to Contractor",
    "contractor": "Richards Disposal",
    "rowid": "979366",
    "final_x": "3661361.93062",
    "final_y": "531241.164034",
    "longitude": "-90.13166866545957",
    "latitude": "29.95532504969928",
    "geocoded_column": {
      "latitude": "29.95532504969928",
      "longitude": "-90.13166866545957"
    }
  },
  {
    "service_request": "2023-979365",
    "request_type": "Trash/Recycling",
    "request_reason": "Request a Large Item Pick Up",
    "date_created": "2023-03-01T17:32:52.000",
    "date_modified": "2023-03-01T17:32:53.000",
    "request_status": "Pending",
    "responsible_agency": "Department of Sanitation",
    "final_address": "1219 N Villere St",
    "address_councildis": "C",
    "status": "Assigned to Contractor",
    "contractor": "Richards Disposal",
    "rowid": "979365",
    "final_x": "3681541.12034",
    "final_y": "535869.034951",
    "longitude": "-90.06778880527546",
    "latitude": "29.967452795461046",
    "geocoded_column": {
      "latitude": "29.967452795461046",
      "longitude": "-90.06778880527546"
    }
  },
  {
    "service_request": "2023-979364",
    "request_type": "Trash/Recycling",
    "request_reason": "Request a Large Item Pick Up",
    "date_created": "2023-03-01T17:29:56.000",
    "date_modified": "2023-03-01T17:29:56.000",
    "request_status": "Pending",
    "responsible_agency": "Department of Sanitation",
    "final_address": "13508 St Marie Dr",
    "address_councildis": "E",
    "status": "Assigned to Contractor",
    "contractor": "Waste Pro",
    "rowid": "979364",
    "final_x": "3724177.40089",
    "final_y": "568969.437862",
    "longitude": "-89.9318660626175",
    "latitude": "30.057101965759973",
    "geocoded_column": {
      "latitude": "30.057101965759973",
      "longitude": "-89.9318660626175"
    }
  },
  {
    "service_request": "2023-979363",
    "request_type": "Trash/Recycling",
    "request_reason": "Request a Large Item Pick Up",
    "date_created": "2023-03-01T17:07:28.000",
    "date_modified": "2023-03-01T17:08:53.000",
    "request_status": "Pending",
    "responsible_agency": "Department of Sanitation",
    "final_address": "2822 Martin Luther King, Jr. Blvd",
    "address_councildis": "B",
    "status": "Assigned to Contractor",
    "contractor": "Richards Disposal",
    "rowid": "979363",
    "final_x": "3675441.46734",
    "final_y": "527821.310271",
    "longitude": "-90.0873280088015",
    "latitude": "29.945508075631448",
    "geocoded_column": {
      "latitude": "29.945508075631448",
      "longitude": "-90.0873280088015"
    }
  },
  {
    "service_request": "2023-979362",
    "request_type": "Trash/Recycling",
    "request_reason": "Order Trash Cart",
    "date_created": "2023-03-01T17:06:43.000",
    "date_modified": "2023-03-01T17:06:44.000",
    "request_status": "Pending",
    "responsible_agency": "Department of Sanitation",
    "final_address": "7827 Green Street, New Orleans,LA 70118",
    "address_councildis": "A",
    "status": "Assigned to Contractor",
    "contractor": "Richards Disposal",
    "rowid": "979362",
    "final_x": "3663821.56109",
    "final_y": "529106.595584",
    "longitude": "-90.12397315431738",
    "latitude": "29.949384520977173",
    "geocoded_column": {
      "latitude": "29.949384520977173",
      "longitude": "-90.12397315431738"
    }
  },
  {
    "service_request": "2023-979361",
    "request_type": "Trash/Recycling",
    "request_reason": "Missed Trash Pick-Up",
    "date_created": "2023-03-01T17:04:07.000",
    "date_modified": "2023-03-01T17:04:08.000",
    "request_status": "Pending",
    "responsible_agency": "Department of Sanitation",
    "final_address": "2546 Dumaine St",
    "address_councildis": "D",
    "status": "Assigned to Contractor",
    "contractor": "Richards Disposal",
    "rowid": "979361",
    "final_x": "3677631.4349",
    "final_y": "537108.97012",
    "longitude": "-90.08009284159667",
    "latitude": "29.97098034853283",
    "geocoded_column": {
      "latitude": "29.97098034853283",
      "longitude": "-90.08009284159667"
    }
  },
  {
    "service_request": "2023-979360",
    "request_type": "Trash/Recycling",
    "request_reason": "Replace Trash Cart",
    "date_created": "2023-03-01T17:03:42.000",
    "date_modified": "2023-03-01T17:03:42.000",
    "request_status": "Pending",
    "responsible_agency": "Department of Sanitation",
    "final_address": "1933 Washington Ave Apt 201",
    "address_councildis": "B",
    "status": "Assigned to Contractor",
    "contractor": "Richards Disposal",
    "rowid": "979360",
    "final_x": "3675266.04142",
    "final_y": "523743.627643",
    "longitude": "-90.08802180810359",
    "latitude": "29.93430103017231",
    "geocoded_column": {
      "latitude": "29.93430103017231",
      "longitude": "-90.08802180810359"
    }
  },
  {
    "service_request": "2023-979359",
    "request_type": "Trash/Recycling",
    "request_reason": "Request a Large Item Pick Up",
    "date_created": "2023-03-01T17:03:33.000",
    "date_modified": "2023-03-01T17:03:34.000",
    "request_status": "Pending",
    "responsible_agency": "Department of Sanitation",
    "final_address": "5320 Eastern St",
    "address_councildis": "D",
    "status": "Assigned to Contractor",
    "contractor": "IV Waste",
    "rowid": "979359",
    "final_x": "3687820.43273",
    "final_y": "552476.211222",
    "longitude": "-90.04737008310637",
    "latitude": "30.012924389633355",
    "geocoded_column": {
      "latitude": "30.012924389633355",
      "longitude": "-90.04737008310637"
    }
  },
  {
    "service_request": "2023-979358",
    "request_type": "Trash/Recycling",
    "request_reason": "Order Trash Cart",
    "date_created": "2023-03-01T17:00:11.000",
    "date_modified": "2023-03-01T17:00:12.000",
    "request_status": "Pending",
    "responsible_agency": "Department of Sanitation",
    "final_address": "2259 N Miro St",
    "address_councildis": "D",
    "status": "Assigned to Contractor",
    "contractor": "IV Waste",
    "rowid": "979358",
    "final_x": "3685277.5078",
    "final_y": "540442.095627",
    "longitude": "-90.05582823478989",
    "latitude": "29.97991311504171",
    "geocoded_column": {
      "latitude": "29.97991311504171",
      "longitude": "-90.05582823478989"
    }
  },
  {
    "service_request": "2023-979357",
    "request_type": "Traffic Signals/Signs/Striping/Streetlights",
    "request_reason": "Street Light Outage/Malfunction",
    "date_created": "2023-03-01T16:58:19.000",
    "date_modified": "2023-03-01T16:58:20.000",
    "request_status": "Pending",
    "responsible_agency": "Department of Public Works",
    "final_address": "2736 Octavia St",
    "address_councildis": "A",
    "status": "Assigned to Contractor",
    "contractor": "Legacy Professional Services",
    "rowid": "979357",
    "final_x": "3667901.85767",
    "final_y": "525666.879741",
    "longitude": "-90.11120563047973",
    "latitude": "29.939807371131554",
    "geocoded_column": {
      "latitude": "29.939807371131554",
      "longitude": "-90.11120563047973"
    }
  },
  {
    "service_request": "2023-979356",
    "request_type": "Trash/Recycling",
    "request_reason": "Missed Trash Pick-Up",
    "date_created": "2023-03-01T16:46:05.000",
    "date_modified": "2023-03-01T16:46:05.000",
    "request_status": "Pending",
    "responsible_agency": "Department of Sanitation",
    "final_address": "2532 Dumaine St",
    "address_councildis": "D",
    "status": "Assigned to Contractor",
    "contractor": "Richards Disposal",
    "rowid": "979356",
    "final_x": "3677721.62088",
    "final_y": "537035.348104",
    "longitude": "-90.07981056600879",
    "latitude": "29.97077520061568",
    "geocoded_column": {
      "latitude": "29.97077520061568",
      "longitude": "-90.07981056600879"
    }
  },
  {
    "service_request": "2023-979355",
    "request_type": "Trash/Recycling",
    "request_reason": "Missed Trash Pick-Up",
    "date_created": "2023-03-01T16:40:53.000",
    "date_modified": "2023-03-01T16:41:18.000",
    "request_status": "Pending",
    "responsible_agency": "Department of Sanitation",
    "final_address": "2534 Dumaine St",
    "address_councildis": "D",
    "status": "Assigned to Contractor",
    "contractor": "Richards Disposal",
    "rowid": "979355",
    "final_x": "3677709.72424",
    "final_y": "537051.277384",
    "longitude": "-90.0798475867567",
    "latitude": "29.970819358542503",
    "geocoded_column": {
      "latitude": "29.970819358542503",
      "longitude": "-90.0798475867567"
    }
  },
  {
    "service_request": "2023-979354",
    "request_type": "Trash/Recycling",
    "request_reason": "Missed Trash Pick-Up",
    "date_created": "2023-03-01T16:39:09.000",
    "date_modified": "2023-03-01T16:39:09.000",
    "request_status": "Pending",
    "responsible_agency": "Department of Sanitation",
    "final_address": "764 Conrad St",
    "address_councildis": "A",
    "status": "Assigned to Contractor",
    "contractor": "IV Waste",
    "rowid": "979354",
    "final_x": "3669653.45396",
    "final_y": "554153.017816",
    "longitude": "-90.1047112513387",
    "latitude": "30.01808311567869",
    "geocoded_column": {
      "latitude": "30.01808311567869",
      "longitude": "-90.1047112513387"
    }
  },
  {
    "service_request": "2023-979353",
    "request_type": "Property Maintenance",
    "request_reason": "Property Maintenance",
    "date_created": "2023-03-01T16:38:55.000",
    "date_modified": "2023-03-01T16:38:55.000",
    "request_status": "Pending",
    "responsible_agency": "Department of Code Enforcement",
    "final_address": "2903 Carondelet St",
    "address_councildis": "B",
    "status": "Pending",
    "rowid": "979353",
    "final_x": "3675221.34062",
    "final_y": "522573.384442",
    "longitude": "-90.08820307287161",
    "latitude": "29.931084577860485",
    "geocoded_column": {
      "latitude": "29.931084577860485",
      "longitude": "-90.08820307287161"
    }
  },
  {
    "service_request": "2023-979352",
    "request_type": "Abandoned Vehicles",
    "request_reason": "Abandoned/Junk Vehicles",
    "date_created": "2023-03-01T16:35:12.000",
    "date_modified": "2023-03-01T16:35:12.000",
    "request_status": "Pending",
    "responsible_agency": "Department of Public Works",
    "final_address": "3401 Canal St",
    "address_councildis": "B",
    "status": "Pending",
    "rowid": "979352",
    "final_x": "3673127.277",
    "final_y": "537063.858248",
    "longitude": "-90.09431912401561",
    "latitude": "29.970990994731785",
    "geocoded_column": {
      "latitude": "29.970990994731785",
      "longitude": "-90.09431912401561"
    }
  },
  {
    "service_request": "2023-979351",
    "request_type": "Trash/Recycling",
    "request_reason": "Replace Trash Cart",
    "date_created": "2023-03-01T16:31:45.000",
    "date_modified": "2023-03-01T16:31:45.000",
    "request_status": "Pending",
    "responsible_agency": "Department of Sanitation",
    "final_address": "8240 Forshey St",
    "address_councildis": "A",
    "status": "Assigned to Contractor",
    "contractor": "Richards Disposal",
    "rowid": "979351",
    "final_x": "3666472.8066",
    "final_y": "534345.032453",
    "longitude": "-90.1154261529109",
    "latitude": "29.96371130066002",
    "geocoded_column": {
      "latitude": "29.96371130066002",
      "longitude": "-90.1154261529109"
    }
  },
  {
    "service_request": "2023-979350",
    "request_type": "Roads/Drainage",
    "request_reason": "Accessibility Ramps, Curbs and Sidewalk Repair",
    "date_created": "2023-03-01T16:27:12.000",
    "date_modified": "2023-03-01T16:27:12.000",
    "request_status": "Pending",
    "responsible_agency": "Department of Public Works",
    "final_address": "7641 Wave Dr",
    "address_councildis": "E",
    "status": "Pending",
    "rowid": "979350",
    "final_x": "3714979.39435",
    "final_y": "568876.300325",
    "longitude": "-89.96094285324202",
    "latitude": "30.057151998251086",
    "geocoded_column": {
      "latitude": "30.057151998251086",
      "longitude": "-89.96094285324202"
    }
  },
  {
    "service_request": "2023-979349",
    "request_type": "Trash/Recycling",
    "request_reason": "Repair Trash Cart",
    "date_created": "2023-03-01T16:26:31.000",
    "date_modified": "2023-03-01T16:26:31.000",
    "request_status": "Pending",
    "responsible_agency": "Department of Sanitation",
    "final_address": "10710 Dwyer Rd",
    "address_councildis": "E",
    "status": "Assigned to Contractor",
    "contractor": "Waste Pro",
    "rowid": "979349",
    "final_x": "3715041.3877",
    "final_y": "558231.07478",
    "longitude": "-89.96114984886911",
    "latitude": "30.027879896939474",
    "geocoded_column": {
      "latitude": "30.027879896939474",
      "longitude": "-89.96114984886911"
    }
  },
  {
    "service_request": "2023-979348",
    "request_type": "Trash/Recycling",
    "request_reason": "Missed Trash Pick-Up",
    "date_created": "2023-03-01T16:26:20.000",
    "date_modified": "2023-03-01T16:26:21.000",
    "request_status": "Pending",
    "responsible_agency": "Department of Sanitation",
    "final_address": "1818 Napoleon Ave, New Orleans, Louisiana, 70115",
    "address_councildis": "B",
    "status": "Assigned to Contractor",
    "contractor": "Richards Disposal",
    "rowid": "979348",
    "final_x": "3670650.28308",
    "final_y": "521770.186426",
    "longitude": "-90.10266056691204",
    "latitude": "29.929011829867303",
    "geocoded_column": {
      "latitude": "29.929011829867303",
      "longitude": "-90.10266056691204"
    }
  },
  {
    "service_request": "2023-979347",
    "request_type": "Trash/Recycling",
    "request_reason": "Request a Large Item Pick Up",
    "date_created": "2023-03-01T16:23:42.000",
    "date_modified": "2023-03-01T16:23:43.000",
    "request_status": "Pending",
    "responsible_agency": "Department of Sanitation",
    "final_address": "2635 Myrtle St",
    "address_councildis": "D",
    "status": "Assigned to Contractor",
    "contractor": "IV Waste",
    "rowid": "979347",
    "final_x": "3687453.68854",
    "final_y": "546119.142928",
    "longitude": "-90.04875396070429",
    "latitude": "29.99545607659211",
    "geocoded_column": {
      "latitude": "29.99545607659211",
      "longitude": "-90.04875396070429"
    }
  },
  {
    "service_request": "2023-979346",
    "request_type": "Trash/Recycling",
    "request_reason": "Replace Trash Cart",
    "date_created": "2023-03-01T16:22:02.000",
    "date_modified": "2023-03-01T16:22:02.000",
    "request_status": "Pending",
    "responsible_agency": "Department of Sanitation",
    "final_address": "727 S Salcedo St",
    "address_councildis": "B",
    "status": "Assigned to Contractor",
    "contractor": "Richards Disposal",
    "rowid": "979346",
    "final_x": "3672361.89179",
    "final_y": "533933.631557",
    "longitude": "-90.09684299267069",
    "latitude": "29.96240665728248",
    "geocoded_column": {
      "latitude": "29.96240665728248",
      "longitude": "-90.09684299267069"
    }
  },
  {
    "service_request": "2023-979345",
    "request_type": "Roads/Drainage",
    "request_reason": "Pothole",
    "date_created": "2023-03-01T16:20:05.000",
    "date_modified": "2023-03-01T16:20:36.000",
    "case_close_date": "2023-03-01T10:20:36.000",
    "request_status": "Closed",
    "responsible_agency": "Department of Public Works",
    "final_address": "4667 Lafaye St",
    "address_councildis": "D",
    "status": "Resolved",
    "rowid": "979345",
    "final_x": "3687515.83292",
    "final_y": "550261.661588",
    "longitude": "-90.04841091137331",
    "latitude": "30.00684458530419",
    "geocoded_column": {
      "latitude": "30.00684458530419",
      "longitude": "-90.04841091137331"
    }
  },
  {
    "service_request": "2023-979344",
    "request_type": "Trash/Recycling",
    "request_reason": "MIssed Recycling Pick-Up",
    "date_created": "2023-03-01T16:19:18.000",
    "date_modified": "2023-03-01T16:19:19.000",
    "request_status": "Pending",
    "responsible_agency": "Department of Sanitation",
    "final_address": "2327 Loyola Ave",
    "address_councildis": "B",
    "status": "Assigned to Contractor",
    "contractor": "Richards Disposal",
    "rowid": "979344",
    "final_x": "3675810.44846",
    "final_y": "525061.717693",
    "longitude": "-90.08625784186661",
    "latitude": "29.937909066552734",
    "geocoded_column": {
      "latitude": "29.937909066552734",
      "longitude": "-90.08625784186661"
    }
  },
  {
    "service_request": "2023-979343",
    "request_type": "Trash/Recycling",
    "request_reason": "Request a Large Item Pick Up",
    "date_created": "2023-03-01T16:18:48.000",
    "date_modified": "2023-03-01T16:18:48.000",
    "request_status": "Pending",
    "responsible_agency": "Department of Sanitation",
    "final_address": "11021 Roger Dr Apt B",
    "address_councildis": "E",
    "status": "Assigned to Contractor",
    "contractor": "Waste Pro",
    "rowid": "979343",
    "final_x": "3712214.91237",
    "final_y": "563601.173857",
    "longitude": "-89.96987930726505",
    "latitude": "30.0427382925519",
    "geocoded_column": {
      "latitude": "30.0427382925519",
      "longitude": "-89.96987930726505"
    }
  },
  {
    "service_request": "2023-979342",
    "request_type": "Trash/Recycling",
    "request_reason": "MIssed Recycling Pick-Up",
    "date_created": "2023-03-01T16:09:44.000",
    "date_modified": "2023-03-01T16:09:45.000",
    "request_status": "Pending",
    "responsible_agency": "Department of Sanitation",
    "final_address": "151 E Greenbrier Dr",
    "address_councildis": "E",
    "status": "Assigned to Contractor",
    "contractor": "Waste Pro",
    "rowid": "979342",
    "final_x": "3717500.82546",
    "final_y": "565218.420962",
    "longitude": "-89.95311232998944",
    "latitude": "30.047011057294082",
    "geocoded_column": {
      "latitude": "30.047011057294082",
      "longitude": "-89.95311232998944"
    }
  },
  {
    "service_request": "2023-979341",
    "request_type": "Trash/Recycling",
    "request_reason": "Repair Recycling Cart",
    "date_created": "2023-03-01T16:08:51.000",
    "date_modified": "2023-03-01T16:08:53.000",
    "request_status": "Pending",
    "responsible_agency": "Department of Sanitation",
    "final_address": "2126 Columbus St",
    "address_councildis": "D",
    "status": "Pending",
    "rowid": "979341",
    "final_x": "3680124.72847",
    "final_y": "538388.835337",
    "longitude": "-90.07217421107279",
    "latitude": "29.974424318338926",
    "geocoded_column": {
      "latitude": "29.974424318338926",
      "longitude": "-90.07217421107279"
    }
  },
  {
    "service_request": "2023-979340",
    "request_type": "Trash/Recycling",
    "request_reason": "Request a Large Item Pick Up",
    "date_created": "2023-03-01T16:08:11.000",
    "date_modified": "2023-03-01T16:08:12.000",
    "request_status": "Pending",
    "responsible_agency": "Department of Sanitation",
    "final_address": "2502 Touro St",
    "address_councildis": "D",
    "status": "Assigned to Contractor",
    "contractor": "IV Waste",
    "rowid": "979340",
    "final_x": "3683784.54466",
    "final_y": "541425.135628",
    "longitude": "-90.0605091326418",
    "latitude": "29.9826618137108",
    "geocoded_column": {
      "latitude": "29.9826618137108",
      "longitude": "-90.0605091326418"
    }
  },
  {
    "service_request": "2023-979339",
    "request_type": "Trash/Recycling",
    "request_reason": "Request a Large Item Pick Up",
    "date_created": "2023-03-01T16:06:17.000",
    "date_modified": "2023-03-01T16:06:17.000",
    "request_status": "Pending",
    "responsible_agency": "Department of Sanitation",
    "final_address": "2126 Columbus St",
    "address_councildis": "D",
    "status": "Assigned to Contractor",
    "contractor": "IV Waste",
    "rowid": "979339",
    "final_x": "3680124.72847",
    "final_y": "538388.835337",
    "longitude": "-90.07217421107279",
    "latitude": "29.974424318338926",
    "geocoded_column": {
      "latitude": "29.974424318338926",
      "longitude": "-90.07217421107279"
    }
  },
  {
    "service_request": "2023-979338",
    "request_type": "Trash/Recycling",
    "request_reason": "Request a Large Item Pick Up",
    "date_created": "2023-03-01T16:06:06.000",
    "date_modified": "2023-03-01T16:06:06.000",
    "request_status": "Pending",
    "responsible_agency": "Department of Sanitation",
    "final_address": "1022 Piety St",
    "address_councildis": "C",
    "status": "Assigned to Contractor",
    "contractor": "IV Waste",
    "rowid": "979338",
    "final_x": "3689750.56604",
    "final_y": "535553.750534",
    "longitude": "-90.04187453131154",
    "latitude": "29.966334006769355",
    "geocoded_column": {
      "latitude": "29.966334006769355",
      "longitude": "-90.04187453131154"
    }
  },
  {
    "service_request": "2023-979337",
    "request_type": "Roads/Drainage",
    "request_reason": "Man hole cover issue",
    "date_created": "2023-03-01T16:03:54.000",
    "date_modified": "2023-03-01T16:03:54.000",
    "request_status": "Pending",
    "responsible_agency": "Department of Public Works",
    "final_address": "JEFFERSON AVE & CAMP ST",
    "address_councildis": "B",
    "status": "Pending",
    "rowid": "979337",
    "final_x": "3666870.0",
    "final_y": "519152.18",
    "longitude": "-90.11468211356055",
    "latitude": "29.921924239228343",
    "geocoded_column": {
      "latitude": "29.921924239228343",
      "longitude": "-90.11468211356055"
    }
  },
  {
    "service_request": "2023-979336",
    "request_type": "Trash/Recycling",
    "request_reason": "MIssed Recycling Pick-Up",
    "date_created": "2023-03-01T16:00:36.000",
    "date_modified": "2023-03-01T16:00:37.000",
    "request_status": "Pending",
    "responsible_agency": "Department of Sanitation",
    "final_address": "7300 Weaver Ave",
    "address_councildis": "E",
    "status": "Assigned to Contractor",
    "contractor": "Waste Pro",
    "rowid": "979336",
    "final_x": "3707964.88798",
    "final_y": "563286.932768",
    "longitude": "-89.9833226757682",
    "latitude": "30.0420126227598",
    "geocoded_column": {
      "latitude": "30.0420126227598",
      "longitude": "-89.9833226757682"
    }
  },
  {
    "service_request": "2023-979335",
    "request_type": "Trash/Recycling",
    "request_reason": "Order Recycling Cart",
    "date_created": "2023-03-01T16:00:26.000",
    "date_modified": "2023-03-01T16:00:26.000",
    "request_status": "Pending",
    "responsible_agency": "Department of Sanitation",
    "final_address": "3345 River Oaks Dr",
    "address_councildis": "C",
    "status": "Pending",
    "rowid": "979335",
    "final_x": "3701359.22141",
    "final_y": "518717.993527",
    "longitude": "-90.00583080635589",
    "latitude": "29.91967672189023",
    "geocoded_column": {
      "latitude": "29.91967672189023",
      "longitude": "-90.00583080635589"
    }
  },
  {
    "service_request": "2023-979334",
    "request_type": "Trash/Recycling",
    "request_reason": "Missed Trash Pick-Up",
    "date_created": "2023-03-01T15:59:48.000",
    "date_modified": "2023-03-01T15:59:48.000",
    "request_status": "Pending",
    "responsible_agency": "Department of Sanitation",
    "final_address": "7300 Weaver Ave",
    "address_councildis": "E",
    "status": "Assigned to Contractor",
    "contractor": "Waste Pro",
    "rowid": "979334",
    "final_x": "3707964.88798",
    "final_y": "563286.932768",
    "longitude": "-89.9833226757682",
    "latitude": "30.0420126227598",
    "geocoded_column": {
      "latitude": "30.0420126227598",
      "longitude": "-89.9833226757682"
    }
  },
  {
    "service_request": "2023-979332",
    "request_type": "Trash/Recycling",
    "request_reason": "Order Trash Cart",
    "date_created": "2023-03-01T15:53:03.000",
    "date_modified": "2023-03-01T15:53:04.000",
    "request_status": "Pending",
    "responsible_agency": "Department of Sanitation",
    "final_address": "1618 Magnolia St",
    "address_councildis": "B",
    "status": "Assigned to Contractor",
    "contractor": "Richards Disposal",
    "rowid": "979332",
    "final_x": "3675809.32936",
    "final_y": "527434.145471",
    "longitude": "-90.08617985293704",
    "latitude": "29.94443249601613",
    "geocoded_column": {
      "latitude": "29.94443249601613",
      "longitude": "-90.08617985293704"
    }
  },
  {
    "service_request": "2023-979331",
    "request_type": "Property Maintenance",
    "request_reason": "Property Maintenance",
    "date_created": "2023-03-01T15:52:56.000",
    "date_modified": "2023-03-01T16:18:35.000",
    "request_status": "Pending",
    "responsible_agency": "Department of Code Enforcement",
    "final_address": "416 S Broad St, New Orleans, Louisiana, 70119",
    "address_councildis": "B",
    "rowid": "979331",
    "final_x": "3674590.79611",
    "final_y": "533911.850117",
    "longitude": "-90.08980516471337",
    "latitude": "29.962280441504564",
    "geocoded_column": {
      "latitude": "29.962280441504564",
      "longitude": "-90.08980516471337"
    }
  },
  {
    "service_request": "2023-979330",
    "request_type": "Trash/Recycling",
    "request_reason": "Request a Large Item Pick Up",
    "date_created": "2023-03-01T15:52:40.000",
    "date_modified": "2023-03-01T15:52:41.000",
    "request_status": "Pending",
    "responsible_agency": "Department of Sanitation",
    "final_address": "6858 Mayo Rd",
    "address_councildis": "E",
    "status": "Assigned to Contractor",
    "contractor": "Waste Pro",
    "rowid": "979330",
    "final_x": "3701824.35543",
    "final_y": "557532.396699",
    "longitude": "-90.00294011090502",
    "latitude": "30.026387385486693",
    "geocoded_column": {
      "latitude": "30.026387385486693",
      "longitude": "-90.00294011090502"
    }
  },
  {
    "service_request": "2023-979329",
    "request_type": "Trash/Recycling",
    "request_reason": "Request a Large Item Pick Up",
    "date_created": "2023-03-01T15:52:18.000",
    "date_modified": "2023-03-01T15:52:19.000",
    "request_status": "Pending",
    "responsible_agency": "Department of Sanitation",
    "final_address": "2229 Iberville St",
    "address_councildis": "B",
    "status": "Assigned to Contractor",
    "contractor": "Richards Disposal",
    "rowid": "979329",
    "final_x": "3677039.21243",
    "final_y": "534409.555781",
    "longitude": "-90.08205625390569",
    "latitude": "29.963575673872576",
    "geocoded_column": {
      "latitude": "29.963575673872576",
      "longitude": "-90.08205625390569"
    }
  },
  {
    "service_request": "2023-979328",
    "request_type": "Property Maintenance",
    "request_reason": "Property Maintenance",
    "date_created": "2023-03-01T15:52:10.000",
    "date_modified": "2023-03-01T15:57:30.000",
    "request_status": "Pending",
    "responsible_agency": "Department of Code Enforcement",
    "final_address": "New Orleans,LA",
    "address_councildis": "B",
    "rowid": "979328",
    "final_x": "3674590.79611",
    "final_y": "533911.850117",
    "longitude": "-90.08980516471337",
    "latitude": "29.962280441504564",
    "geocoded_column": {
      "latitude": "29.962280441504564",
      "longitude": "-90.08980516471337"
    }
  },
  {
    "service_request": "2023-979327",
    "request_type": "Trash/Recycling",
    "request_reason": "Order Recycling Cart",
    "date_created": "2023-03-01T15:52:05.000",
    "date_modified": "2023-03-01T15:52:06.000",
    "request_status": "Pending",
    "responsible_agency": "Department of Sanitation",
    "final_address": "4755 Eastern St",
    "address_councildis": "D",
    "status": "Pending",
    "rowid": "979327",
    "final_x": "3688041.25091",
    "final_y": "550839.066325",
    "longitude": "-90.04673049828601",
    "latitude": "30.008416026005538",
    "geocoded_column": {
      "latitude": "30.008416026005538",
      "longitude": "-90.04673049828601"
    }
  },
  {
    "service_request": "2023-979326",
    "request_type": "Roads/Drainage",
    "request_reason": "Pothole",
    "date_created": "2023-03-01T15:51:09.000",
    "date_modified": "2023-03-01T15:51:10.000",
    "request_status": "Pending",
    "responsible_agency": "Department of Public Works",
    "final_address": "3812 Franklin Ave",
    "address_councildis": "D",
    "status": "Pending",
    "rowid": "979326",
    "final_x": "3687006.6991",
    "final_y": "547046.017745",
    "longitude": "-90.05013316546794",
    "latitude": "29.99801841963599",
    "geocoded_column": {
      "latitude": "29.99801841963599",
      "longitude": "-90.05013316546794"
    }
  },
  {
    "service_request": "2023-979325",
    "request_type": "Trash/Recycling",
    "request_reason": "Request a Large Item Pick Up",
    "date_created": "2023-03-01T15:50:10.000",
    "date_modified": "2023-03-01T15:50:11.000",
    "request_status": "Pending",
    "responsible_agency": "Department of Sanitation",
    "final_address": "3901 Tulane Ave",
    "address_councildis": "B",
    "status": "Assigned to Contractor",
    "contractor": "Richards Disposal",
    "rowid": "979325",
    "final_x": "3670228.07636",
    "final_y": "535970.072263",
    "longitude": "-90.10351227689367",
    "latitude": "29.968069331859475",
    "geocoded_column": {
      "latitude": "29.968069331859475",
      "longitude": "-90.10351227689367"
    }
  },
  {
    "service_request": "2023-979324",
    "request_type": "Trash/Recycling",
    "request_reason": "Illegal Dumping",
    "date_created": "2023-03-01T15:47:59.000",
    "date_modified": "2023-03-01T15:47:59.000",
    "request_status": "Pending",
    "responsible_agency": "Department of Sanitation",
    "final_address": "4821 Earhart Blvd",
    "address_councildis": "B",
    "status": "Pending",
    "rowid": "979324",
    "final_x": "3668925.70906",
    "final_y": "532099.622403",
    "longitude": "-90.10775595091583",
    "latitude": "29.95746524900271",
    "geocoded_column": {
      "latitude": "29.95746524900271",
      "longitude": "-90.10775595091583"
    }
  },
  {
    "service_request": "2023-979323",
    "request_type": "Trash/Recycling",
    "request_reason": "Dead Animal Pick Up",
    "date_created": "2023-03-01T15:47:38.000",
    "date_modified": "2023-03-01T15:47:39.000",
    "request_status": "Pending",
    "responsible_agency": "Department of Sanitation",
    "final_address": "6125 Louisville St",
    "address_councildis": "A",
    "status": "Assigned to Contractor",
    "contractor": "IV Waste",
    "rowid": "979323",
    "final_x": "3667906.00833",
    "final_y": "548236.670098",
    "longitude": "-90.11043204309063",
    "latitude": "30.001866634365502",
    "geocoded_column": {
      "latitude": "30.001866634365502",
      "longitude": "-90.11043204309063"
    }
  },
  {
    "service_request": "2023-979322",
    "request_type": "Property Maintenance",
    "request_reason": "Property Maintenance",
    "date_created": "2023-03-01T15:46:05.000",
    "date_modified": "2023-03-01T15:46:05.000",
    "request_status": "Pending",
    "responsible_agency": "Department of Code Enforcement",
    "final_address": "416 S Broad St",
    "address_councildis": "B",
    "status": "Pending",
    "rowid": "979322",
    "final_x": "3674590.79611",
    "final_y": "533911.850117",
    "longitude": "-90.08980516471337",
    "latitude": "29.962280441504564",
    "geocoded_column": {
      "latitude": "29.962280441504564",
      "longitude": "-90.08980516471337"
    }
  },
  {
    "service_request": "2023-979321",
    "request_type": "Abandoned Vehicles",
    "request_reason": "Abandoned/Junk Vehicles",
    "date_created": "2023-03-01T15:44:49.000",
    "date_modified": "2023-03-01T15:44:49.000",
    "request_status": "Pending",
    "responsible_agency": "Department of Public Works",
    "final_address": "3925 Baudin St",
    "address_councildis": "B",
    "status": "Pending",
    "rowid": "979321",
    "final_x": "3670671.32257",
    "final_y": "536696.331463",
    "longitude": "-90.10208783997825",
    "latitude": "29.970053212590106",
    "geocoded_column": {
      "latitude": "29.970053212590106",
      "longitude": "-90.10208783997825"
    }
  },
  {
    "service_request": "2023-979319",
    "request_type": "Trash/Recycling",
    "request_reason": "Request a Large Item Pick Up",
    "date_created": "2023-03-01T15:41:38.000",
    "date_modified": "2023-03-01T15:41:39.000",
    "request_status": "Pending",
    "responsible_agency": "Department of Sanitation",
    "final_address": "4726 Perelli Dr",
    "address_councildis": "E",
    "status": "Assigned to Contractor",
    "contractor": "Waste Pro",
    "rowid": "979319",
    "final_x": "3711640.05637",
    "final_y": "555927.507737",
    "longitude": "-89.97198419574899",
    "latitude": "30.021657554248065",
    "geocoded_column": {
      "latitude": "30.021657554248065",
      "longitude": "-89.97198419574899"
    }
  },
  {
    "service_request": "2023-979318",
    "request_type": "Trash/Recycling",
    "request_reason": "Replace Trash Cart",
    "date_created": "2023-03-01T15:41:19.000",
    "date_modified": "2023-03-01T15:41:19.000",
    "request_status": "Pending",
    "responsible_agency": "Department of Sanitation",
    "final_address": "4452 Cessna Ct",
    "address_councildis": "D",
    "status": "Assigned to Contractor",
    "contractor": "Waste Pro",
    "rowid": "979318",
    "final_x": "3696542.70551",
    "final_y": "552688.555094",
    "longitude": "-90.0198048849489",
    "latitude": "30.013236212390012",
    "geocoded_column": {
      "latitude": "30.013236212390012",
      "longitude": "-90.0198048849489"
    }
  },
  {
    "service_request": "2023-979317",
    "request_type": "Trash/Recycling",
    "request_reason": "Replace Trash Cart",
    "date_created": "2023-03-01T15:38:13.000",
    "date_modified": "2023-03-01T15:38:14.000",
    "request_status": "Pending",
    "responsible_agency": "Department of Sanitation",
    "final_address": "1130 Kerlerec St",
    "address_councildis": "C",
    "status": "Assigned to Contractor",
    "contractor": "IV Waste",
    "rowid": "979317",
    "final_x": "3682895.37263",
    "final_y": "535721.928519",
    "longitude": "-90.06351720486643",
    "latitude": "29.96700710658557",
    "geocoded_column": {
      "latitude": "29.96700710658557",
      "longitude": "-90.06351720486643"
    }
  },
  {
    "service_request": "2023-979316",
    "request_type": "Roads/Drainage",
    "request_reason": "Pothole",
    "date_created": "2023-03-01T15:36:09.000",
    "date_modified": "2023-03-01T15:36:09.000",
    "request_status": "Pending",
    "responsible_agency": "Department of Public Works",
    "final_address": "13110 Dwyer Blvd",
    "address_councildis": "E",
    "status": "Pending",
    "rowid": "979316",
    "final_x": "3724142.07654",
    "final_y": "561217.970014",
    "longitude": "-89.93227730002732",
    "latitude": "30.035789834605033",
    "geocoded_column": {
      "latitude": "30.035789834605033",
      "longitude": "-89.93227730002732"
    }
  },
  {
    "service_request": "2023-979315",
    "request_type": "Trash/Recycling",
    "request_reason": "Request a Large Item Pick Up",
    "date_created": "2023-03-01T15:34:45.000",
    "date_modified": "2023-03-01T15:34:46.000",
    "request_status": "Pending",
    "responsible_agency": "Department of Sanitation",
    "final_address": "3146 Chippewa St",
    "address_councildis": "B",
    "status": "Assigned to Contractor",
    "contractor": "Richards Disposal",
    "rowid": "979315",
    "final_x": "3676616.91899",
    "final_y": "518687.272183",
    "longitude": "-90.08393118039015",
    "latitude": "29.92035725538056",
    "geocoded_column": {
      "latitude": "29.92035725538056",
      "longitude": "-90.08393118039015"
    }
  },
  {
    "service_request": "2023-979314",
    "request_type": "Trash/Recycling",
    "request_reason": "MIssed Recycling Pick-Up",
    "date_created": "2023-03-01T15:34:23.000",
    "date_modified": "2023-03-01T15:34:24.000",
    "request_status": "Pending",
    "responsible_agency": "Department of Sanitation",
    "final_address": "537 Bermuda St",
    "address_councildis": "C",
    "status": "Assigned to Contractor",
    "contractor": "Richards Disposal",
    "rowid": "979314",
    "final_x": "3686871.47318",
    "final_y": "529921.575937",
    "longitude": "-90.05116566049773",
    "latitude": "29.950936380539915",
    "geocoded_column": {
      "latitude": "29.950936380539915",
      "longitude": "-90.05116566049773"
    }
  },
  {
    "service_request": "2023-979313",
    "request_type": "Trash/Recycling",
    "request_reason": "Replace Trash Cart",
    "date_created": "2023-03-01T15:29:40.000",
    "date_modified": "2023-03-01T15:29:41.000",
    "request_status": "Pending",
    "responsible_agency": "Department of Sanitation",
    "final_address": "1924 St Claude Ave",
    "address_councildis": "C",
    "status": "Assigned to Contractor",
    "contractor": "IV Waste",
    "rowid": "979313",
    "final_x": "3684094.58242",
    "final_y": "536133.410247",
    "longitude": "-90.05971565729871",
    "latitude": "29.968101942661107",
    "geocoded_column": {
      "latitude": "29.968101942661107",
      "longitude": "-90.05971565729871"
    }
  },
  {
    "service_request": "2023-979311",
    "request_type": "Trash/Recycling",
    "request_reason": "Missed Trash Pick-Up",
    "date_created": "2023-03-01T15:26:13.000",
    "date_modified": "2023-03-01T15:26:14.000",
    "request_status": "Pending",
    "responsible_agency": "Department of Sanitation",
    "final_address": "2910 Hudson St",
    "address_councildis": "C",
    "status": "Assigned to Contractor",
    "contractor": "Richards Disposal",
    "rowid": "979311",
    "final_x": "3693910.87965",
    "final_y": "520437.200248",
    "longitude": "-90.02927968275317",
    "latitude": "29.92463913399825",
    "geocoded_column": {
      "latitude": "29.92463913399825",
      "longitude": "-90.02927968275317"
    }
  },
  {
    "service_request": "2023-979310",
    "request_type": "Trash/Recycling",
    "request_reason": "Missed Trash Pick-Up",
    "date_created": "2023-03-01T15:25:58.000",
    "date_modified": "2023-03-01T15:25:59.000",
    "request_status": "Pending",
    "responsible_agency": "Department of Sanitation",
    "final_address": "2643 Dumaine St",
    "address_councildis": "D",
    "status": "Assigned to Contractor",
    "contractor": "Richards Disposal",
    "rowid": "979310",
    "final_x": "3677339.67522",
    "final_y": "537429.361224",
    "longitude": "-90.08100319836383",
    "latitude": "29.971870085656683",
    "geocoded_column": {
      "latitude": "29.971870085656683",
      "longitude": "-90.08100319836383"
    }
  },
  {
    "service_request": "2023-979309",
    "request_type": "Traffic Signals/Signs/Striping/Streetlights",
    "request_reason": "Traffic Signal Malfunctioning/Damaged",
    "date_created": "2023-03-01T15:25:34.000",
    "date_modified": "2023-03-01T15:25:34.000",
    "request_status": "Pending",
    "responsible_agency": "Department of Public Works",
    "final_address": "N CLAIBORNE AVE & POLAND AVE",
    "address_councildis": "D",
    "status": "Pending",
    "rowid": "979309",
    "final_x": "3693481.9",
    "final_y": "536875.08",
    "longitude": "-90.0300436334021",
    "latitude": "29.96985102981372",
    "geocoded_column": {
      "latitude": "29.96985102981372",
      "longitude": "-90.0300436334021"
    }
  },
  {
    "service_request": "2023-979308",
    "request_type": "Trash/Recycling",
    "request_reason": "Missed Trash Pick-Up",
    "date_created": "2023-03-01T15:22:06.000",
    "date_modified": "2023-03-01T15:22:07.000",
    "request_status": "Pending",
    "responsible_agency": "Department of Sanitation",
    "final_address": "3983 S Front St",
    "address_councildis": "B",
    "status": "Assigned to Contractor",
    "contractor": "Richards Disposal",
    "rowid": "979308",
    "final_x": "3672779.75105",
    "final_y": "517400.684405",
    "longitude": "-90.09608718486076",
    "latitude": "29.916934036661424",
    "geocoded_column": {
      "latitude": "29.916934036661424",
      "longitude": "-90.09608718486076"
    }
  },
  {
    "service_request": "2023-979307",
    "request_type": "Trash/Recycling",
    "request_reason": "Order Recycling Cart",
    "date_created": "2023-03-01T15:21:02.000",
    "date_modified": "2023-03-01T15:21:02.000",
    "request_status": "Pending",
    "responsible_agency": "Department of Sanitation",
    "final_address": "5432 Grand Bayou Dr",
    "address_councildis": "E",
    "status": "Pending",
    "rowid": "979307",
    "final_x": "3725948.91059",
    "final_y": "563737.593825",
    "longitude": "-89.92646969748021",
    "latitude": "30.04265688805647",
    "geocoded_column": {
      "latitude": "30.04265688805647",
      "longitude": "-89.92646969748021"
    }
  },
  {
    "service_request": "2023-979306",
    "request_type": "Trash/Recycling",
    "request_reason": "Order Trash Cart",
    "date_created": "2023-03-01T15:18:49.000",
    "date_modified": "2023-03-01T15:18:51.000",
    "request_status": "Pending",
    "responsible_agency": "Department of Sanitation",
    "final_address": "200 N Carrollton Ave",
    "address_councildis": "A",
    "status": "Assigned to Contractor",
    "contractor": "Richards Disposal",
    "rowid": "979306",
    "final_x": "3671549.81006",
    "final_y": "538602.259017",
    "longitude": "-90.09924865513575",
    "latitude": "29.975267884933608",
    "geocoded_column": {
      "latitude": "29.975267884933608",
      "longitude": "-90.09924865513575"
    }
  },
  {
    "service_request": "2023-979305",
    "request_type": "Safety & Permits",
    "request_reason": "Licenses & Permits",
    "date_created": "2023-03-01T15:14:33.000",
    "date_modified": "2023-03-01T15:14:33.000",
    "request_status": "Pending",
    "responsible_agency": "Safety and Permits",
    "status": "Pending",
    "rowid": "979305",
    "longitude": "0.0",
    "latitude": "0.0",
    "geocoded_column": {
      "latitude": "0.0",
      "longitude": "0.0"
    }
  },
  {
    "service_request": "2023-979304",
    "request_type": "Trash/Recycling",
    "request_reason": "Missed Trash Pick-Up",
    "date_created": "2023-03-01T15:06:13.000",
    "date_modified": "2023-03-01T15:06:13.000",
    "request_status": "Pending",
    "responsible_agency": "Department of Sanitation",
    "final_address": "2449 Prancer St",
    "address_councildis": "C",
    "status": "Assigned to Contractor",
    "contractor": "Richards Disposal",
    "rowid": "979304",
    "final_x": "3699777.63869",
    "final_y": "522230.803514",
    "longitude": "-90.01069506089787",
    "latitude": "29.92938603175655",
    "geocoded_column": {
      "latitude": "29.92938603175655",
      "longitude": "-90.01069506089787"
    }
  },
  {
    "service_request": "2023-979303",
    "request_type": "Traffic Signals/Signs/Striping/Streetlights",
    "request_reason": "Street Light Outage/Malfunction",
    "date_created": "2023-03-01T15:03:22.000",
    "date_modified": "2023-03-01T15:05:19.000",
    "request_status": "Pending",
    "responsible_agency": "Department of Public Works",
    "final_address": "97 Morrison Ct",
    "address_councildis": "E",
    "status": "Assigned to Contractor",
    "contractor": "Legacy Professional Services",
    "rowid": "979303",
    "final_x": "3704072.28932",
    "final_y": "561611.715999",
    "longitude": "-89.99568647578359",
    "latitude": "30.03753196480607",
    "geocoded_column": {
      "latitude": "30.03753196480607",
      "longitude": "-89.99568647578359"
    }
  },
  {
    "service_request": "2023-979302",
    "request_type": "Trash/Recycling",
    "request_reason": "Order Trash Cart",
    "date_created": "2023-03-01T14:58:17.000",
    "date_modified": "2023-03-01T14:58:18.000",
    "request_status": "Pending",
    "responsible_agency": "Department of Sanitation",
    "final_address": "6956 Louis Xiv St",
    "address_councildis": "A",
    "status": "Assigned to Contractor",
    "contractor": "IV Waste",
    "rowid": "979302",
    "final_x": "3668575.80026",
    "final_y": "553830.878487",
    "longitude": "-90.10812712334284",
    "latitude": "30.01722907483952",
    "geocoded_column": {
      "latitude": "30.01722907483952",
      "longitude": "-90.10812712334284"
    }
  },
  {
    "service_request": "2023-979301",
    "request_type": "Trash/Recycling",
    "request_reason": "Repair Trash Cart",
    "date_created": "2023-03-01T14:58:15.000",
    "date_modified": "2023-03-01T14:58:15.000",
    "request_status": "Pending",
    "responsible_agency": "Department of Sanitation",
    "final_address": "3401 Belfort St Apt D",
    "address_councildis": "A",
    "status": "Assigned to Contractor",
    "contractor": "IV Waste",
    "rowid": "979301",
    "final_x": "3676861.07003",
    "final_y": "542597.512461",
    "longitude": "-90.08233651291363",
    "latitude": "29.986095095676564",
    "geocoded_column": {
      "latitude": "29.986095095676564",
      "longitude": "-90.08233651291363"
    }
  },
  {
    "service_request": "2023-979300",
    "request_type": "Trash/Recycling",
    "request_reason": "Request a Large Item Pick Up",
    "date_created": "2023-03-01T14:57:40.000",
    "date_modified": "2023-03-01T14:57:40.000",
    "request_status": "Pending",
    "responsible_agency": "Department of Sanitation",
    "final_address": "1015 Washington Ave",
    "address_councildis": "B",
    "status": "Assigned to Contractor",
    "contractor": "Richards Disposal",
    "rowid": "979300",
    "final_x": "3677254.5284",
    "final_y": "520645.675449",
    "longitude": "-90.08185103006409",
    "latitude": "29.92572309855425",
    "geocoded_column": {
      "latitude": "29.92572309855425",
      "longitude": "-90.08185103006409"
    }
  },
  {
    "service_request": "2023-979299",
    "request_type": "Trash/Recycling",
    "request_reason": "Request a Large Item Pick Up",
    "date_created": "2023-03-01T14:48:22.000",
    "date_modified": "2023-03-01T14:48:23.000",
    "request_status": "Pending",
    "responsible_agency": "Department of Sanitation",
    "final_address": "4007 Octavia St",
    "address_councildis": "B",
    "status": "Assigned to Contractor",
    "contractor": "Richards Disposal",
    "rowid": "979299",
    "final_x": "3668965.11834",
    "final_y": "530071.426369",
    "longitude": "-90.10770001208161",
    "latitude": "29.951887216968267",
    "geocoded_column": {
      "latitude": "29.951887216968267",
      "longitude": "-90.10770001208161"
    }
  },
  {
    "service_request": "2023-979298",
    "request_type": "Trash/Recycling",
    "request_reason": "Order Trash Cart",
    "date_created": "2023-03-01T14:45:48.000",
    "date_modified": "2023-03-01T14:45:49.000",
    "request_status": "Pending",
    "responsible_agency": "Department of Sanitation",
    "final_address": "3119 State Street Dr",
    "address_councildis": "A",
    "status": "Assigned to Contractor",
    "contractor": "Richards Disposal",
    "rowid": "979298",
    "final_x": "3667456.99194",
    "final_y": "527530.714175",
    "longitude": "-90.11254744759734",
    "latitude": "29.944945353826128",
    "geocoded_column": {
      "latitude": "29.944945353826128",
      "longitude": "-90.11254744759734"
    }
  },
  {
    "service_request": "2023-979297",
    "request_type": "Abandoned Vehicles",
    "request_reason": "Abandoned/Junk Vehicles",
    "date_created": "2023-03-01T14:45:32.000",
    "date_modified": "2023-03-01T14:45:32.000",
    "request_status": "Pending",
    "responsible_agency": "Department of Public Works",
    "final_address": "1449 N Claiborne Ave",
    "address_councildis": "D",
    "status": "Pending",
    "rowid": "979297",
    "final_x": "3681427.3764",
    "final_y": "537013.162568",
    "longitude": "-90.06810811416693",
    "latitude": "29.970602206312922",
    "geocoded_column": {
      "latitude": "29.970602206312922",
      "longitude": "-90.06810811416693"
    }
  },
  {
    "service_request": "2023-979296",
    "request_type": "Property Maintenance",
    "request_reason": "Property Maintenance",
    "date_created": "2023-03-01T14:44:48.000",
    "date_modified": "2023-03-01T14:44:48.000",
    "request_status": "Pending",
    "responsible_agency": "Department of Code Enforcement",
    "final_address": "3101 St Peter St",
    "address_councildis": "A",
    "status": "Pending",
    "rowid": "979296",
    "final_x": "3675182.81461",
    "final_y": "538013.927689",
    "longitude": "-90.08779484553858",
    "latitude": "29.97354208602482",
    "geocoded_column": {
      "latitude": "29.97354208602482",
      "longitude": "-90.08779484553858"
    }
  },
  {
    "service_request": "2023-979295",
    "request_type": "Trash/Recycling",
    "request_reason": "Request a Large Item Pick Up",
    "date_created": "2023-03-01T14:42:24.000",
    "date_modified": "2023-03-01T14:42:25.000",
    "request_status": "Pending",
    "responsible_agency": "Department of Sanitation",
    "final_address": "4560 Shalimar Dr",
    "address_councildis": "D",
    "status": "Assigned to Contractor",
    "contractor": "Waste Pro",
    "rowid": "979295",
    "final_x": "3697181.94877",
    "final_y": "553344.629079",
    "longitude": "-90.01776142873905",
    "latitude": "30.015020004282736",
    "geocoded_column": {
      "latitude": "30.015020004282736",
      "longitude": "-90.01776142873905"
    }
  },
  {
    "service_request": "2023-979294",
    "request_type": "Tax and Revenue",
    "request_reason": "Pay Property Tax",
    "date_created": "2023-03-01T14:40:03.000",
    "date_modified": "2023-03-01T14:40:03.000",
    "request_status": "Pending",
    "responsible_agency": "Bureau of Treasury",
    "final_address": "1621 N Broad St",
    "address_councildis": "D",
    "status": "Pending",
    "rowid": "979294",
    "final_x": "3679171.27259",
    "final_y": "540359.963467",
    "longitude": "-90.07511709431475",
    "latitude": "29.979873060180637",
    "geocoded_column": {
      "latitude": "29.979873060180637",
      "longitude": "-90.07511709431475"
    }
  },
  {
    "service_request": "2023-979293",
    "request_type": "Trash/Recycling",
    "request_reason": "Missed Trash Pick-Up",
    "date_created": "2023-03-01T14:38:53.000",
    "date_modified": "2023-03-01T14:38:54.000",
    "request_status": "Pending",
    "responsible_agency": "Department of Sanitation",
    "final_address": "4227 St Charles Ave",
    "address_councildis": "B",
    "status": "Assigned to Contractor",
    "contractor": "Richards Disposal",
    "rowid": "979293",
    "final_x": "3671358.86478",
    "final_y": "521031.645369",
    "longitude": "-90.10044879479399",
    "latitude": "29.926960133461964",
    "geocoded_column": {
      "latitude": "29.926960133461964",
      "longitude": "-90.10044879479399"
    }
  },
  {
    "service_request": "2023-979292",
    "request_type": "Trash/Recycling",
    "request_reason": "Replace Trash Cart",
    "date_created": "2023-03-01T14:35:49.000",
    "date_modified": "2023-03-01T14:36:49.000",
    "request_status": "Pending",
    "responsible_agency": "Department of Sanitation",
    "final_address": "2118 Treasure St",
    "address_councildis": "D",
    "status": "Assigned to Contractor",
    "contractor": "IV Waste",
    "rowid": "979292",
    "final_x": "3683774.99849",
    "final_y": "543944.867726",
    "longitude": "-90.06045087462878",
    "latitude": "29.989590478767024",
    "geocoded_column": {
      "latitude": "29.989590478767024",
      "longitude": "-90.06045087462878"
    }
  },
  {
    "service_request": "2023-979291",
    "request_type": "Trash/Recycling",
    "request_reason": "Request a Large Item Pick Up",
    "date_created": "2023-03-01T14:34:45.000",
    "date_modified": "2023-03-01T14:34:46.000",
    "request_status": "Pending",
    "responsible_agency": "Department of Sanitation",
    "final_address": "3660 Plymouth Pl",
    "address_councildis": "C",
    "status": "Assigned to Contractor",
    "contractor": "Richards Disposal",
    "rowid": "979291",
    "final_x": "3702809.51876",
    "final_y": "517148.968181",
    "longitude": "-90.00131053985704",
    "latitude": "29.915316160627984",
    "geocoded_column": {
      "latitude": "29.915316160627984",
      "longitude": "-90.00131053985704"
    }
  },
  {
    "service_request": "2023-979290",
    "request_type": "Trash/Recycling",
    "request_reason": "MIssed Recycling Pick-Up",
    "date_created": "2023-03-01T14:32:11.000",
    "date_modified": "2023-03-01T14:32:12.000",
    "request_status": "Pending",
    "responsible_agency": "Department of Sanitation",
    "final_address": "1107 Napoleon Ave",
    "address_councildis": "B",
    "status": "Assigned to Contractor",
    "contractor": "Richards Disposal",
    "rowid": "979290",
    "final_x": "3671051.84206",
    "final_y": "519633.057976",
    "longitude": "-90.10146545166515",
    "latitude": "29.9231235443977",
    "geocoded_column": {
      "latitude": "29.9231235443977",
      "longitude": "-90.10146545166515"
    }
  },
  {
    "service_request": "2023-979289",
    "request_type": "Roads/Drainage",
    "request_reason": "Street Flooding / Drainage",
    "date_created": "2023-03-01T14:31:07.000",
    "date_modified": "2023-03-01T14:50:11.000",
    "case_close_date": "2023-03-01T08:50:11.000",
    "request_status": "Closed",
    "responsible_agency": "Department of Public Works",
    "final_address": "3001 Tulane Ave",
    "address_councildis": "B",
    "status": "Referred to External Agency",
    "rowid": "979289",
    "final_x": "3673197.32155",
    "final_y": "534432.755781",
    "longitude": "-90.09418777376447",
    "latitude": "29.9637542663639",
    "geocoded_column": {
      "latitude": "29.9637542663639",
      "longitude": "-90.09418777376447"
    }
  },
  {
    "service_request": "2023-979288",
    "request_type": "Abandoned Vehicles",
    "request_reason": "Abandoned/Junk Vehicles",
    "date_created": "2023-03-01T14:26:36.000",
    "date_modified": "2023-03-01T14:26:36.000",
    "request_status": "Pending",
    "responsible_agency": "Department of Public Works",
    "final_address": "QUEENSWAY DR & EASTGATE AVE",
    "address_councildis": "E",
    "status": "Pending",
    "rowid": "979288",
    "final_x": "3719115.6",
    "final_y": "569539.18",
    "longitude": "-89.94784371873664",
    "latitude": "30.058837777422134",
    "geocoded_column": {
      "latitude": "30.058837777422134",
      "longitude": "-89.94784371873664"
    }
  },
  {
    "service_request": "2023-979287",
    "request_type": "Property Maintenance",
    "request_reason": "Property Maintenance",
    "date_created": "2023-03-01T14:25:31.000",
    "date_modified": "2023-03-01T14:25:31.000",
    "request_status": "Pending",
    "responsible_agency": "Department of Code Enforcement",
    "final_address": "9431 Morrison Rd",
    "address_councildis": "E",
    "status": "Pending",
    "rowid": "979287",
    "final_x": "3706978.45316",
    "final_y": "562690.793952",
    "longitude": "-89.98646230287514",
    "latitude": "30.040405396933213",
    "geocoded_column": {
      "latitude": "30.040405396933213",
      "longitude": "-89.98646230287514"
    }
  },
  {
    "service_request": "2023-979286",
    "request_type": "Trash/Recycling",
    "request_reason": "Missed Trash Pick-Up",
    "date_created": "2023-03-01T14:18:51.000",
    "date_modified": "2023-03-01T14:18:51.000",
    "request_status": "Pending",
    "responsible_agency": "Department of Sanitation",
    "final_address": "11200 Woodvine Ln",
    "address_councildis": "E",
    "status": "Assigned to Contractor",
    "contractor": "Waste Pro",
    "rowid": "979286",
    "final_x": "3716336.02463",
    "final_y": "559640.956701",
    "longitude": "-89.95700541987898",
    "latitude": "30.0317138148664",
    "geocoded_column": {
      "latitude": "30.0317138148664",
      "longitude": "-89.95700541987898"
    }
  },
  {
    "service_request": "2023-979285",
    "request_type": "Trash/Recycling",
    "request_reason": "Illegal Dumping",
    "date_created": "2023-03-01T14:16:42.000",
    "date_modified": "2023-03-01T14:16:42.000",
    "request_status": "Pending",
    "responsible_agency": "Department of Sanitation",
    "final_address": "10301 N Interstate 10 Service Rd",
    "address_councildis": "E",
    "status": "Pending",
    "rowid": "979285",
    "final_x": "3711275.36338",
    "final_y": "562409.159263",
    "longitude": "-89.97289335832765",
    "latitude": "30.039491437081555",
    "geocoded_column": {
      "latitude": "30.039491437081555",
      "longitude": "-89.97289335832765"
    }
  },
  {
    "service_request": "2023-979284",
    "request_type": "Trash/Recycling",
    "request_reason": "Order Recycling Cart",
    "date_created": "2023-03-01T14:10:49.000",
    "date_modified": "2023-03-01T14:10:49.000",
    "request_status": "Pending",
    "responsible_agency": "Department of Sanitation",
    "final_address": "2916 1st St ",
    "status": "Pending",
    "rowid": "979284",
    "longitude": "0.0",
    "latitude": "0.0",
    "geocoded_column": {
      "latitude": "0.0",
      "longitude": "0.0"
    }
  },
  {
    "service_request": "2023-979283",
    "request_type": "Parks & Parkways",
    "request_reason": "Request Tree Service (Right of Way/Public Property)",
    "date_created": "2023-03-01T14:10:41.000",
    "date_modified": "2023-03-01T16:35:21.000",
    "request_status": "Pending",
    "responsible_agency": "Department of Parks & Parkway",
    "final_address": "1325 Sixth St",
    "address_councildis": "B",
    "status": "Pending",
    "rowid": "979283",
    "final_x": "3676122.15029",
    "final_y": "521361.099833",
    "longitude": "-90.08540101329584",
    "latitude": "29.927724242677368",
    "geocoded_column": {
      "latitude": "29.927724242677368",
      "longitude": "-90.08540101329584"
    }
  },
  {
    "service_request": "2023-979282",
    "request_type": "Abandoned Vehicles",
    "request_reason": "Vehicle Blocking Your Driveway",
    "date_created": "2023-03-01T14:09:41.000",
    "date_modified": "2023-03-01T14:09:41.000",
    "request_status": "Pending",
    "responsible_agency": "Department of Public Works",
    "final_address": "Across the street from 2916 1st St",
    "status": "Pending",
    "rowid": "979282",
    "longitude": "0.0",
    "latitude": "0.0",
    "geocoded_column": {
      "latitude": "0.0",
      "longitude": "0.0"
    }
  },
  {
    "service_request": "2023-979281",
    "request_type": "Abandoned Vehicles",
    "request_reason": "Abandoned/Junk Vehicles",
    "date_created": "2023-03-01T14:09:19.000",
    "date_modified": "2023-03-01T14:11:48.000",
    "request_status": "Pending",
    "responsible_agency": "Department of Public Works",
    "final_address": "815 Milan St",
    "address_councildis": "B",
    "status": "Pending",
    "rowid": "979281",
    "final_x": "3671867.30235",
    "final_y": "518625.574967",
    "longitude": "-90.09892561158783",
    "latitude": "29.920329156017758",
    "geocoded_column": {
      "latitude": "29.920329156017758",
      "longitude": "-90.09892561158783"
    }
  },
  {
    "service_request": "2023-979280",
    "request_type": "Trash/Recycling",
    "request_reason": "Return Trash Cart",
    "date_created": "2023-03-01T14:07:55.000",
    "date_modified": "2023-03-01T14:07:55.000",
    "request_status": "Pending",
    "responsible_agency": "Department of Sanitation",
    "final_address": "KNIGHT DR & GRANT ST",
    "address_councildis": "E",
    "status": "Assigned to Contractor",
    "contractor": "Waste Pro",
    "rowid": "979280",
    "final_x": "3708233.9",
    "final_y": "554554.68",
    "longitude": "-89.98279777494909",
    "latitude": "30.017993643118327",
    "geocoded_column": {
      "latitude": "30.017993643118327",
      "longitude": "-89.98279777494909"
    }
  },
  {
    "service_request": "2023-979279",
    "request_type": "Trash/Recycling",
    "request_reason": "Request a Large Item Pick Up",
    "date_created": "2023-03-01T14:07:04.000",
    "date_modified": "2023-03-01T14:49:51.000",
    "case_close_date": "2023-03-01T08:49:51.000",
    "request_status": "Closed",
    "responsible_agency": "Department of Sanitation",
    "final_address": "423 26Th St",
    "address_councildis": "A",
    "status": "Assigned to Contractor",
    "contractor": "IV Waste",
    "contractor_action": "Completed",
    "rowid": "979279",
    "final_x": "3664658.17197",
    "final_y": "550025.432532",
    "longitude": "-90.1206325463129",
    "latitude": "30.00688002404691",
    "geocoded_column": {
      "latitude": "30.00688002404691",
      "longitude": "-90.1206325463129"
    }
  },
  {
    "service_request": "2023-979278",
    "request_type": "Trash/Recycling",
    "request_reason": "Return Recycling Cart",
    "date_created": "2023-03-01T14:04:37.000",
    "date_modified": "2023-03-01T16:28:40.000",
    "request_status": "Pending",
    "responsible_agency": "Department of Sanitation",
    "final_address": "KNIGHT DR & GRANT ST",
    "address_councildis": "E",
    "status": "Pending",
    "rowid": "979278",
    "final_x": "3708233.9",
    "final_y": "554554.68",
    "longitude": "-89.98279777494909",
    "latitude": "30.017993643118327",
    "geocoded_column": {
      "latitude": "30.017993643118327",
      "longitude": "-89.98279777494909"
    }
  },
  {
    "service_request": "2023-979277",
    "request_type": "Trash/Recycling",
    "request_reason": "MIssed Recycling Pick-Up",
    "date_created": "2023-03-01T14:02:58.000",
    "date_modified": "2023-03-01T15:07:14.000",
    "case_close_date": "2023-03-01T09:07:14.000",
    "request_status": "Closed",
    "responsible_agency": "Department of Sanitation",
    "final_address": "1818 Paul Morphy St Apt A",
    "address_councildis": "D",
    "status": "Assigned to Contractor",
    "contractor": "IV Waste",
    "contractor_action": "Completed",
    "rowid": "979277",
    "final_x": "3679820.75451",
    "final_y": "541666.788236",
    "longitude": "-90.07302036522101",
    "latitude": "29.98344674761432",
    "geocoded_column": {
      "latitude": "29.98344674761432",
      "longitude": "-90.07302036522101"
    }
  },
  {
    "service_request": "2023-979276",
    "request_type": "Trash/Recycling",
    "request_reason": "Illegal Dumping",
    "date_created": "2023-03-01T13:58:56.000",
    "date_modified": "2023-03-01T13:58:56.000",
    "request_status": "Pending",
    "responsible_agency": "Department of Sanitation",
    "final_address": "1008 N Peters St",
    "address_councildis": "C",
    "status": "Pending",
    "rowid": "979276",
    "final_x": "3683959.30101",
    "final_y": "532808.005252",
    "longitude": "-90.06025955923374",
    "latitude": "29.95896235760523",
    "geocoded_column": {
      "latitude": "29.95896235760523",
      "longitude": "-90.06025955923374"
    }
  },
  {
    "service_request": "2023-979275",
    "request_type": "Trash/Recycling",
    "request_reason": "Missed Trash Pick-Up",
    "date_created": "2023-03-01T13:55:56.000",
    "date_modified": "2023-03-01T13:55:57.000",
    "request_status": "Pending",
    "responsible_agency": "Department of Sanitation",
    "final_address": "2730 St Charles Ave",
    "address_councildis": "B",
    "status": "Assigned to Contractor",
    "contractor": "Richards Disposal",
    "rowid": "979275",
    "final_x": "3676081.96635",
    "final_y": "522509.256442",
    "longitude": "-90.08548839340357",
    "latitude": "29.930882503707025",
    "geocoded_column": {
      "latitude": "29.930882503707025",
      "longitude": "-90.08548839340357"
    }
  },
  {
    "service_request": "2023-979274",
    "request_type": "Abandoned Vehicles",
    "request_reason": "Abandoned/Junk Vehicles",
    "date_created": "2023-03-01T13:49:50.000",
    "date_modified": "2023-03-01T14:55:47.000",
    "request_status": "Pending",
    "responsible_agency": "Department of Public Works",
    "final_address": "4404 S Liberty St, New Orleans, Louisiana, 70115",
    "address_councildis": "B",
    "rowid": "979274",
    "final_x": "3670450.91259",
    "final_y": "523294.308859",
    "longitude": "-90.10323829034755",
    "latitude": "29.933208563904657",
    "geocoded_column": {
      "latitude": "29.933208563904657",
      "longitude": "-90.10323829034755"
    }
  },
  {
    "service_request": "2023-979273",
    "request_type": "Abandoned Vehicles",
    "request_reason": "Abandoned/Junk Vehicles",
    "date_created": "2023-03-01T13:47:26.000",
    "date_modified": "2023-03-01T13:47:27.000",
    "request_status": "Pending",
    "responsible_agency": "Department of Public Works",
    "final_address": "7351 Briarheath Dr",
    "address_councildis": "E",
    "status": "Pending",
    "rowid": "979273",
    "final_x": "3714165.53394",
    "final_y": "566569.115811",
    "longitude": "-89.96360249941712",
    "latitude": "30.050834962785252",
    "geocoded_column": {
      "latitude": "30.050834962785252",
      "longitude": "-89.96360249941712"
    }
  },
  {
    "service_request": "2023-979272",
    "request_type": "Trash/Recycling",
    "request_reason": "MIssed Recycling Pick-Up",
    "date_created": "2023-03-01T13:43:54.000",
    "date_modified": "2023-03-01T13:43:55.000",
    "request_status": "Pending",
    "responsible_agency": "Department of Sanitation",
    "final_address": "228 S Hennessey St",
    "address_councildis": "A",
    "status": "Assigned to Contractor",
    "contractor": "Richards Disposal",
    "rowid": "979272",
    "final_x": "3669896.87879",
    "final_y": "538375.697289",
    "longitude": "-90.10447673955322",
    "latitude": "29.974693763200456",
    "geocoded_column": {
      "latitude": "29.974693763200456",
      "longitude": "-90.10447673955322"
    }
  },
  {
    "service_request": "2023-979271",
    "request_type": "Roads/Drainage",
    "request_reason": "Pothole",
    "date_created": "2023-03-01T13:41:24.000",
    "date_modified": "2023-03-01T13:41:24.000",
    "request_status": "Pending",
    "responsible_agency": "Department of Public Works",
    "final_address": "9137 Edinburgh St",
    "address_councildis": "A",
    "status": "Pending",
    "rowid": "979271",
    "final_x": "3664673.91994",
    "final_y": "537041.227848",
    "longitude": "-90.12101679847787",
    "latitude": "29.97117740007026",
    "geocoded_column": {
      "latitude": "29.97117740007026",
      "longitude": "-90.12101679847787"
    }
  },
  {
    "service_request": "2023-979270",
    "request_type": "Trash/Recycling",
    "request_reason": "MIssed Recycling Pick-Up",
    "date_created": "2023-03-01T13:41:13.000",
    "date_modified": "2023-03-01T13:41:14.000",
    "request_status": "Pending",
    "responsible_agency": "Department of Sanitation",
    "final_address": "228 S Hennessey St",
    "address_councildis": "A",
    "status": "Assigned to Contractor",
    "contractor": "Richards Disposal",
    "rowid": "979270",
    "final_x": "3669896.87879",
    "final_y": "538375.697289",
    "longitude": "-90.10447673955322",
    "latitude": "29.974693763200456",
    "geocoded_column": {
      "latitude": "29.974693763200456",
      "longitude": "-90.10447673955322"
    }
  },
  {
    "service_request": "2023-979269",
    "request_type": "Trash/Recycling",
    "request_reason": "Repair Recycling Cart",
    "date_created": "2023-03-01T13:39:46.000",
    "date_modified": "2023-03-01T13:39:47.000",
    "request_status": "Pending",
    "responsible_agency": "Department of Sanitation",
    "final_address": "4759 Western St",
    "address_councildis": "D",
    "status": "Pending",
    "rowid": "979269",
    "final_x": "3684191.63029",
    "final_y": "550533.58114",
    "longitude": "-90.05890337931001",
    "latitude": "30.007694344845454",
    "geocoded_column": {
      "latitude": "30.007694344845454",
      "longitude": "-90.05890337931001"
    }
  },
  {
    "service_request": "2023-979268",
    "request_type": "Trash/Recycling",
    "request_reason": "Request a Large Item Pick Up",
    "date_created": "2023-03-01T13:38:16.000",
    "date_modified": "2023-03-01T13:38:16.000",
    "request_status": "Pending",
    "responsible_agency": "Department of Sanitation",
    "final_address": "1927 Fats Domino Ave",
    "address_councildis": "E",
    "status": "Assigned to Contractor",
    "contractor": "Waste Pro",
    "rowid": "979268",
    "final_x": "3698984.51652",
    "final_y": "536945.684232",
    "longitude": "-90.01266338875695",
    "latitude": "29.969871925482003",
    "geocoded_column": {
      "latitude": "29.969871925482003",
      "longitude": "-90.01266338875695"
    }
  },