[
  {
    "service_request": "2025-1242199",
    "request_type": "Safety & Permits",
    "request_reason": "Zoning Enforcement",
    "date_created": "2025-11-24T23:00:37.000",
    "date_modified": "2025-11-24T23:00:39.000",
    "request_status": "Pending",
    "responsible_agency": "Safety and Permits",
    "final_address": "717 Franklin Ave",
    "address_councildis": "C",
    "status": "Pending",
    "rowid": "1242199",
    "final_x": "3686809.32879",
    "final_y": "535100.793606",
    "longitude": "-90.05117889261335",
    "latitude": "29.96517935656724",
    "geocoded_column": {
      "latitude": "29.96517935656724",
      "longitude": "-90.05117889261335"
    }
  },
  {
    "service_request": "2025-1242198",
    "request_type": "Roads and Streets",
    "request_reason": "Sidewalk Damaged or Missing",
    "date_created": "2025-11-24T22:50:57.000",
    "date_modified": "2025-11-24T22:51:00.000",
    "request_status": "Pending",
    "responsible_agency": "Department of Public Works",
    "final_address": "2910 N Rampart St",
    "address_councildis": "C",
    "status": "Pending",
    "rowid": "1242198",
    "final_x": "3688166.89052",
    "final_y": "535712.937415",
    "longitude": "-90.04687009372843",
    "latitude": "29.96682069969533",
    "geocoded_column": {
      "latitude": "29.96682069969533",
      "longitude": "-90.04687009372843"
    }
  },
  {
    "service_request": "2025-1242197",
    "request_type": "Roads and Streets",
    "request_reason": "Abandoned Service Cut",
    "date_created": "2025-11-24T22:29:56.000",
    "date_modified": "2025-11-24T22:30:00.000",
    "request_status": "Pending",
    "responsible_agency": "Department of Public Works",
    "final_address": "5901 Memphis St",
    "address_councildis": "A",
    "status": "Pending",
    "rowid": "1242197",
    "final_x": "3669218.9515",
    "final_y": "546618.354769",
    "longitude": "-90.10633904689776",
    "latitude": "29.99737823368896",
    "geocoded_column": {
      "latitude": "29.99737823368896",
      "longitude": "-90.10633904689776"
    }
  },
  {
    "service_request": "2025-1242196",
    "request_type": "Trash/Recycling",
    "request_reason": "Request a Large Item Pick Up",
    "date_created": "2025-11-24T22:17:00.000",
    "date_modified": "2025-11-24T22:17:01.000",
    "request_status": "Pending",
    "responsible_agency": "Department of Sanitation",
    "final_address": "4908 Francisco Verrett Dr",
    "address_councildis": "E",
    "status": "Assigned to Contractor",
    "contractor": "Waste Pro",
    "rowid": "1242196",
    "final_x": "3704088.3514",
    "final_y": "555987.811545",
    "longitude": "-89.99584317077064",
    "latitude": "30.02206790165496",
    "geocoded_column": {
      "latitude": "30.02206790165496",
      "longitude": "-89.99584317077064"
    }
  },
  {
    "service_request": "2025-1242195",
    "request_type": "Trash/Recycling",
    "request_reason": "Order Second Trash Cart",
    "date_created": "2025-11-24T22:16:28.000",
    "date_modified": "2025-11-24T22:16:30.000",
    "request_status": "Pending",
    "responsible_agency": "Department of Sanitation",
    "final_address": "5925 Milne St",
    "address_councildis": "A",
    "status": "Assigned to Contractor",
    "contractor": "IV Waste",
    "rowid": "1242195",
    "final_x": "3667058.49441",
    "final_y": "547168.739217",
    "longitude": "-90.11314536680152",
    "latitude": "29.998955036820576",
    "geocoded_column": {
      "latitude": "29.998955036820576",
      "longitude": "-90.11314536680152"
    }
  },
  {
    "service_request": "2025-1242194",
    "request_type": "Trash/Recycling",
    "request_reason": "Request a Large Item Pick Up",
    "date_created": "2025-11-24T21:11:23.000",
    "date_modified": "2025-11-24T21:11:25.000",
    "request_status": "Pending",
    "responsible_agency": "Department of Sanitation",
    "final_address": "1716 N Rampart St",
    "address_councildis": "C",
    "status": "Assigned to Contractor",
    "contractor": "IV Waste",
    "rowid": "1242194",
    "final_x": "3683216.87298",
    "final_y": "535664.106694",
    "longitude": "-90.06250393185428",
    "latitude": "29.966838315966196",
    "geocoded_column": {
      "latitude": "29.966838315966196",
      "longitude": "-90.06250393185428"
    }
  },
  {
    "service_request": "2025-1242193",
    "request_type": "Streetlights",
    "request_reason": "Streetlight Outage/Malfunction",
    "date_created": "2025-11-24T21:02:23.000",
    "date_modified": "2025-11-24T21:02:25.000",
    "request_status": "Pending",
    "responsible_agency": "Department of Public Works",
    "final_address": "749 Baronne St",
    "address_councildis": "B",
    "status": "Pending",
    "rowid": "1242193",
    "final_x": "3679601.84776",
    "final_y": "528380.907648",
    "longitude": "-90.07417292614112",
    "latitude": "29.9469217291182",
    "geocoded_column": {
      "latitude": "29.9469217291182",
      "longitude": "-90.07417292614112"
    }
  },
  {
    "service_request": "2025-1242191",
    "request_type": "Trash/Recycling",
    "request_reason": "Replace Recycling Cart",
    "date_created": "2025-11-24T20:48:42.000",
    "date_modified": "2025-11-24T20:48:43.000",
    "request_status": "Pending",
    "responsible_agency": "Department of Sanitation",
    "final_address": "1016 Cadiz St",
    "address_councildis": "B",
    "status": "Pending",
    "rowid": "1242191",
    "final_x": "3670212.39239",
    "final_y": "519240.059639",
    "longitude": "-90.10412858700975",
    "latitude": "29.922067712225314",
    "geocoded_column": {
      "latitude": "29.922067712225314",
      "longitude": "-90.10412858700975"
    }
  },
  {
    "service_request": "2025-1242190",
    "request_type": "Trash/Recycling",
    "request_reason": "Replace Trash Cart",
    "date_created": "2025-11-24T20:46:42.000",
    "date_modified": "2025-11-24T20:46:44.000",
    "request_status": "Pending",
    "responsible_agency": "Department of Sanitation",
    "final_address": "1016 Cadiz St",
    "address_councildis": "B",
    "status": "Assigned to Contractor",
    "contractor": "IV Waste",
    "rowid": "1242190",
    "final_x": "3670212.39239",
    "final_y": "519240.059639",
    "longitude": "-90.10412858700975",
    "latitude": "29.922067712225314",
    "geocoded_column": {
      "latitude": "29.922067712225314",
      "longitude": "-90.10412858700975"
    }
  },
  {
    "service_request": "2025-1242188",
    "request_type": "Parks & Parkways",
    "request_reason": "General Service Request",
    "date_created": "2025-11-24T20:14:39.000",
    "date_modified": "2025-11-24T20:14:42.000",
    "request_status": "Pending",
    "responsible_agency": "Orleans Parish Communication District",
    "final_address": "4437 Danneel St",
    "address_councildis": "B",
    "status": "Pending",
    "rowid": "1242188",
    "final_x": "3670339.1186",
    "final_y": "522330.99321",
    "longitude": "-90.10362385483613",
    "latitude": "29.93056305468336",
    "geocoded_column": {
      "latitude": "29.93056305468336",
      "longitude": "-90.10362385483613"
    }
  },
  {
    "service_request": "2025-1242187",
    "request_type": "Trash/Recycling",
    "request_reason": "Replace Trash Cart",
    "date_created": "2025-11-24T20:12:56.000",
    "date_modified": "2025-11-24T20:12:58.000",
    "request_status": "Pending",
    "responsible_agency": "Department of Sanitation",
    "final_address": "2733 Pine St",
    "address_councildis": "B",
    "status": "Assigned to Contractor",
    "contractor": "IV Waste",
    "rowid": "1242187",
    "final_x": "3667097.84724",
    "final_y": "531407.145859",
    "longitude": "-90.1135510925084",
    "latitude": "29.955614796400695",
    "geocoded_column": {
      "latitude": "29.955614796400695",
      "longitude": "-90.1135510925084"
    }
  },
  {
    "service_request": "2025-1242186",
    "request_type": "Trash/Recycling",
    "request_reason": "Request a Large Item Pick Up",
    "date_created": "2025-11-24T19:59:25.000",
    "date_modified": "2025-11-24T19:59:29.000",
    "request_status": "Pending",
    "responsible_agency": "Department of Sanitation",
    "final_address": "2659 Republic St",
    "address_councildis": "D",
    "status": "Assigned to Contractor",
    "contractor": "IV Waste",
    "rowid": "1242186",
    "final_x": "3680764.60629",
    "final_y": "542174.781005",
    "longitude": "-90.07002149760126",
    "latitude": "29.984814970910378",
    "geocoded_column": {
      "latitude": "29.984814970910378",
      "longitude": "-90.07002149760126"
    }
  },
  {
    "service_request": "2025-1242185",
    "request_type": "Trash/Recycling",
    "request_reason": "Order Trash Cart",
    "date_created": "2025-11-24T19:44:24.000",
    "date_modified": "2025-11-24T19:44:26.000",
    "request_status": "Pending",
    "responsible_agency": "Department of Sanitation",
    "final_address": "621 Homer St",
    "address_councildis": "C",
    "status": "Assigned to Contractor",
    "contractor": "Richards Disposal",
    "rowid": "1242185",
    "final_x": "3687373.48745",
    "final_y": "528299.948608",
    "longitude": "-90.04963791949879",
    "latitude": "29.94646200353006",
    "geocoded_column": {
      "latitude": "29.94646200353006",
      "longitude": "-90.04963791949879"
    }
  },
  {
    "service_request": "2025-1242184",
    "request_type": "Healthy Homes",
    "request_reason": "Healthy Homes",
    "date_created": "2025-11-24T19:33:54.000",
    "date_modified": "2025-11-24T19:33:56.000",
    "request_status": "Pending",
    "responsible_agency": "Department of Code Enforcement",
    "final_address": "2624 Magazine St",
    "address_councildis": "B",
    "status": "Pending",
    "rowid": "1242184",
    "final_x": "3677399.59458",
    "final_y": "520992.422585",
    "longitude": "-90.08138114026806",
    "latitude": "29.926672183154054",
    "geocoded_column": {
      "latitude": "29.926672183154054",
      "longitude": "-90.08138114026806"
    }
  },
  {
    "service_request": "2025-1242183",
    "request_type": "Trash/Recycling",
    "request_reason": "Request a Large Item Pick Up",
    "date_created": "2025-11-24T19:27:08.000",
    "date_modified": "2025-11-24T19:27:10.000",
    "request_status": "Pending",
    "responsible_agency": "Department of Sanitation",
    "final_address": "8005 Plum St",
    "address_councildis": "A",
    "status": "Assigned to Contractor",
    "contractor": "IV Waste",
    "rowid": "1242183",
    "final_x": "3662504.24909",
    "final_y": "528411.142592",
    "longitude": "-90.1281556128474",
    "latitude": "29.947510412351736",
    "geocoded_column": {
      "latitude": "29.947510412351736",
      "longitude": "-90.1281556128474"
    }
  },
  {
    "service_request": "2025-1242182",
    "request_type": "Street and Traffic Signs",
    "request_reason": "Additional Signage Request",
    "date_created": "2025-11-24T19:20:27.000",
    "date_modified": "2025-11-24T19:20:31.000",
    "request_status": "Pending",
    "responsible_agency": "Department of Public Works",
    "final_address": "1574 N Dorgenois St",
    "address_councildis": "D",
    "status": "Pending",
    "rowid": "1242182",
    "final_x": "3679537.03976",
    "final_y": "539711.817994",
    "longitude": "-90.07398435021742",
    "latitude": "29.9780798360738",
    "geocoded_column": {
      "latitude": "29.9780798360738",
      "longitude": "-90.07398435021742"
    }
  },
  {
    "service_request": "2025-1242181",
    "request_type": "Abandoned Vehicles",
    "request_reason": "Abandoned/Junk Vehicles",
    "date_created": "2025-11-24T19:07:21.000",
    "date_modified": "2025-11-24T19:07:23.000",
    "request_status": "Pending",
    "responsible_agency": "Department of Public Works",
    "final_address": "2309 Delachaise St",
    "address_councildis": "B",
    "status": "Pending",
    "rowid": "1242181",
    "final_x": "3672831.981",
    "final_y": "523780.729211",
    "longitude": "-90.09570481200666",
    "latitude": "29.934475561840387",
    "geocoded_column": {
      "latitude": "29.934475561840387",
      "longitude": "-90.09570481200666"
    }
  },
  {
    "service_request": "2025-1242180",
    "request_type": "Drainage",
    "request_reason": "Drainage Manhole Cover Missing or Damaged",
    "date_created": "2025-11-24T18:50:35.000",
    "date_modified": "2025-11-24T18:50:37.000",
    "request_status": "Pending",
    "responsible_agency": "Sewerage & Water Board",
    "final_address": "714 Baronne St",
    "address_councildis": "B",
    "status": "Pending",
    "rowid": "1242180",
    "final_x": "3679743.82824",
    "final_y": "528616.311936",
    "longitude": "-90.07371647090034",
    "latitude": "29.947564721327556",
    "geocoded_column": {
      "latitude": "29.947564721327556",
      "longitude": "-90.07371647090034"
    }
  },
  {
    "service_request": "2025-1242179",
    "request_type": "Property Maintenance",
    "request_reason": "Property Maintenance",
    "date_created": "2025-11-24T18:47:37.000",
    "date_modified": "2025-11-24T18:47:38.000",
    "request_status": "Pending",
    "responsible_agency": "Department of Code Enforcement",
    "final_address": "6545 Elysian Fields Ave",
    "address_councildis": "D",
    "status": "Pending",
    "rowid": "1242179",
    "final_x": "3683477.50153",
    "final_y": "557289.565787",
    "longitude": "-90.06092249978893",
    "latitude": "30.026292650727807",
    "geocoded_column": {
      "latitude": "30.026292650727807",
      "longitude": "-90.06092249978893"
    }
  },
  {
    "service_request": "2025-1242178",
    "request_type": "General Services",
    "request_reason": "General Service Request",
    "date_created": "2025-11-24T18:41:32.000",
    "date_modified": "2025-11-24T18:41:33.000",
    "request_status": "Pending",
    "responsible_agency": "Orleans Parish Communication District",
    "final_address": "6545 Elysian Fields Ave",
    "address_councildis": "D",
    "status": "Pending",
    "rowid": "1242178",
    "final_x": "3683477.50153",
    "final_y": "557289.565787",
    "longitude": "-90.06092249978893",
    "latitude": "30.026292650727807",
    "geocoded_column": {
      "latitude": "30.026292650727807",
      "longitude": "-90.06092249978893"
    }
  },
  {
    "service_request": "2025-1242177",
    "request_type": "Street and Traffic Signs",
    "request_reason": "Stop Sign Missing or Damaged",
    "date_created": "2025-11-24T18:39:13.000",
    "date_modified": "2025-11-24T18:39:16.000",
    "request_status": "Pending",
    "responsible_agency": "Department of Public Works",
    "final_address": "UNION ST & OKEEFE AVE",
    "address_councildis": "B",
    "status": "Pending",
    "rowid": "1242177",
    "final_x": "3679719.6",
    "final_y": "530287.58",
    "longitude": "-90.07373496163822",
    "latitude": "29.95216088019926",
    "geocoded_column": {
      "latitude": "29.95216088019926",
      "longitude": "-90.07373496163822"
    }
  },
  {
    "service_request": "2025-1242176",
    "request_type": "Streetlights",
    "request_reason": "Streetlight Outage/Malfunction",
    "date_created": "2025-11-24T18:17:44.000",
    "date_modified": "2025-11-24T18:17:46.000",
    "request_status": "Pending",
    "responsible_agency": "Department of Public Works",
    "final_address": "4730 Spain St",
    "address_councildis": "D",
    "status": "Pending",
    "rowid": "1242176",
    "final_x": "3684906.37045",
    "final_y": "550390.091412",
    "longitude": "-90.05665036098979",
    "latitude": "30.007277922541384",
    "geocoded_column": {
      "latitude": "30.007277922541384",
      "longitude": "-90.05665036098979"
    }
  },
  {
    "service_request": "2025-1242175",
    "request_type": "Trash/Recycling",
    "request_reason": "Request a Large Item Pick Up",
    "date_created": "2025-11-24T17:52:51.000",
    "date_modified": "2025-11-24T17:52:53.000",
    "request_status": "Pending",
    "responsible_agency": "Department of Sanitation",
    "final_address": "8000 Windward Ct",
    "address_councildis": "E",
    "status": "Assigned to Contractor",
    "contractor": "Waste Pro",
    "rowid": "1242175",
    "final_x": "3714962.94712",
    "final_y": "570508.440871",
    "longitude": "-89.96093305009403",
    "latitude": "30.061640252845887",
    "geocoded_column": {
      "latitude": "30.061640252845887",
      "longitude": "-89.96093305009403"
    }
  },
  {
    "service_request": "2025-1242174",
    "request_type": "Trash/Recycling",
    "request_reason": "Request a Large Item Pick Up",
    "date_created": "2025-11-24T17:32:35.000",
    "date_modified": "2025-11-24T17:32:36.000",
    "request_status": "Pending",
    "responsible_agency": "Department of Sanitation",
    "final_address": "4934 Sherwood Dr",
    "address_councildis": "E",
    "status": "Assigned to Contractor",
    "contractor": "Waste Pro",
    "rowid": "1242174",
    "final_x": "3717826.55033",
    "final_y": "557984.009947",
    "longitude": "-89.95235844172782",
    "latitude": "30.027108564609208",
    "geocoded_column": {
      "latitude": "30.027108564609208",
      "longitude": "-89.95235844172782"
    }
  },
  {
    "service_request": "2025-1242173",
    "request_type": "Streetlights",
    "request_reason": "Streetlight Outage/Malfunction",
    "date_created": "2025-11-24T17:27:40.000",
    "date_modified": "2025-11-24T17:27:42.000",
    "request_status": "Pending",
    "responsible_agency": "Department of Public Works",
    "final_address": "9761 Andover Dr",
    "address_councildis": "E",
    "status": "Pending",
    "rowid": "1242173",
    "final_x": "3708684.90929",
    "final_y": "561993.540191",
    "longitude": "-89.98109539493595",
    "latitude": "30.038432962958854",
    "geocoded_column": {
      "latitude": "30.038432962958854",
      "longitude": "-89.98109539493595"
    }
  },
  {
    "service_request": "2025-1242172",
    "request_type": "Roads and Streets",
    "request_reason": "Debris in Driving Lanes",
    "date_created": "2025-11-24T16:58:36.000",
    "date_modified": "2025-11-24T16:58:38.000",
    "request_status": "Pending",
    "responsible_agency": "Department of Public Works",
    "final_address": "1029 Burdette St",
    "address_councildis": "A",
    "status": "Pending",
    "rowid": "1242172",
    "final_x": "3662506.69619",
    "final_y": "527239.734975",
    "longitude": "-90.12818678660965",
    "latitude": "29.944289345400932",
    "geocoded_column": {
      "latitude": "29.944289345400932",
      "longitude": "-90.12818678660965"
    }
  },
  {
    "service_request": "2025-1242171",
    "request_type": "Abandoned Vehicles",
    "request_reason": "Abandoned/Junk Vehicles",
    "date_created": "2025-11-24T16:56:47.000",
    "date_modified": "2025-11-24T16:57:34.000",
    "request_status": "Pending",
    "responsible_agency": "Department of Public Works",
    "final_address": "6012 Music St",
    "address_councildis": "D",
    "status": "Pending",
    "rowid": "1242171",
    "final_x": "3685293.41961",
    "final_y": "555268.468377",
    "longitude": "-90.05525565887376",
    "latitude": "30.02067980968064",
    "geocoded_column": {
      "latitude": "30.02067980968064",
      "longitude": "-90.05525565887376"
    }
  },
  {
    "service_request": "2025-1242170",
    "request_type": "Trash/Recycling",
    "request_reason": "Request a Large Item Pick Up",
    "date_created": "2025-11-24T16:50:33.000",
    "date_modified": "2025-11-24T16:50:34.000",
    "request_status": "Pending",
    "responsible_agency": "Department of Sanitation",
    "final_address": "4716 Shalimar Dr",
    "address_councildis": "D",
    "status": "Assigned to Contractor",
    "contractor": "Waste Pro",
    "rowid": "1242170",
    "final_x": "3697096.60778",
    "final_y": "554080.992408",
    "longitude": "-90.01800435729831",
    "latitude": "30.01704741960211",
    "geocoded_column": {
      "latitude": "30.01704741960211",
      "longitude": "-90.01800435729831"
    }
  },
  {
    "service_request": "2025-1242169",
    "request_type": "Abandoned Vehicles",
    "request_reason": "Abandoned/Junk Vehicles",
    "date_created": "2025-11-24T16:49:36.000",
    "date_modified": "2025-11-24T16:49:38.000",
    "request_status": "Pending",
    "responsible_agency": "Department of Public Works",
    "final_address": "2313 Dumaine St",
    "address_councildis": "D",
    "status": "Pending",
    "rowid": "1242169",
    "final_x": "3678429.75707",
    "final_y": "536599.886023",
    "longitude": "-90.07758925548242",
    "latitude": "29.969556508751623",
    "geocoded_column": {
      "latitude": "29.969556508751623",
      "longitude": "-90.07758925548242"
    }
  },
  {
    "service_request": "2025-1242168",
    "request_type": "Roads and Streets",
    "request_reason": "Pothole",
    "date_created": "2025-11-24T16:48:08.000",
    "date_modified": "2025-11-24T16:48:09.000",
    "request_status": "Pending",
    "responsible_agency": "Department of Public Works",
    "final_address": "3319 N Dorgenois St",
    "address_councildis": "D",
    "status": "Pending",
    "rowid": "1242168",
    "final_x": "3691342.61539",
    "final_y": "541069.674508",
    "longitude": "-90.03664976254785",
    "latitude": "29.981451406544444",
    "geocoded_column": {
      "latitude": "29.981451406544444",
      "longitude": "-90.03664976254785"
    }
  },
  {
    "service_request": "2025-1242167",
    "request_type": "Trash/Recycling",
    "request_reason": "Replace Trash Cart",
    "date_created": "2025-11-24T16:42:52.000",
    "date_modified": "2025-11-24T16:42:53.000",
    "request_status": "Pending",
    "responsible_agency": "Department of Sanitation",
    "final_address": "4682 Naples St",
    "address_councildis": "E",
    "status": "Assigned to Contractor",
    "contractor": "Waste Pro",
    "rowid": "1242167",
    "final_x": "3763102.37526",
    "final_y": "572671.121641",
    "longitude": "-89.80867749266544",
    "latitude": "30.065913383424387",
    "geocoded_column": {
      "latitude": "30.065913383424387",
      "longitude": "-89.80867749266544"
    }
  },
  {
    "service_request": "2025-1242166",
    "request_type": "Trash/Recycling",
    "request_reason": "Request a Large Item Pick Up",
    "date_created": "2025-11-24T16:42:22.000",
    "date_modified": "2025-11-24T16:42:24.000",
    "request_status": "Pending",
    "responsible_agency": "Department of Sanitation",
    "final_address": "5500 Annunciation St",
    "address_councildis": "A",
    "status": "Assigned to Contractor",
    "contractor": "IV Waste",
    "rowid": "1242166",
    "final_x": "3666110.76788",
    "final_y": "517515.153078",
    "longitude": "-90.11713354543012",
    "latitude": "29.917445109215052",
    "geocoded_column": {
      "latitude": "29.917445109215052",
      "longitude": "-90.11713354543012"
    }
  },
  {
    "service_request": "2025-1242165",
    "request_type": "Trash/Recycling",
    "request_reason": "Request a Large Item Pick Up",
    "date_created": "2025-11-24T16:40:32.000",
    "date_modified": "2025-11-24T16:40:33.000",
    "request_status": "Pending",
    "responsible_agency": "Department of Sanitation",
    "final_address": "4720 Bright Dr",
    "address_councildis": "E",
    "status": "Assigned to Contractor",
    "contractor": "Waste Pro",
    "rowid": "1242165",
    "final_x": "3715821.86636",
    "final_y": "556833.340186",
    "longitude": "-89.95873660294468",
    "latitude": "30.024010960877675",
    "geocoded_column": {
      "latitude": "30.024010960877675",
      "longitude": "-89.95873660294468"
    }
  },
  {
    "service_request": "2025-1242164",
    "request_type": "Trash/Recycling",
    "request_reason": "Repair Recycling Cart",
    "date_created": "2025-11-24T16:38:25.000",
    "date_modified": "2025-11-24T16:38:28.000",
    "request_status": "Pending",
    "responsible_agency": "Department of Sanitation",
    "final_address": "12430 N Lake Carmel Dr",
    "address_councildis": "E",
    "status": "Pending",
    "rowid": "1242164",
    "final_x": "3715543.59762",
    "final_y": "567699.230052",
    "longitude": "-89.95920412431346",
    "latitude": "30.053896946534916",
    "geocoded_column": {
      "latitude": "30.053896946534916",
      "longitude": "-89.95920412431346"
    }
  },
  {
    "service_request": "2025-1242163",
    "request_type": "Trash/Recycling",
    "request_reason": "Request a Large Item Pick Up",
    "date_created": "2025-11-24T16:37:31.000",
    "date_modified": "2025-11-24T16:37:32.000",
    "request_status": "Pending",
    "responsible_agency": "Department of Sanitation",
    "final_address": "5341 Pasteur Blvd",
    "address_councildis": "D",
    "status": "Assigned to Contractor",
    "contractor": "IV Waste",
    "rowid": "1242163",
    "final_x": "3683004.87029",
    "final_y": "552576.29519",
    "longitude": "-90.06258112630691",
    "latitude": "30.013347307821558",
    "geocoded_column": {
      "latitude": "30.013347307821558",
      "longitude": "-90.06258112630691"
    }
  },
  {
    "service_request": "2025-1242162",
    "request_type": "Trash/Recycling",
    "request_reason": "Illegal Dumping",
    "date_created": "2025-11-24T16:37:07.000",
    "date_modified": "2025-11-24T16:37:08.000",
    "request_status": "Pending",
    "responsible_agency": "Department of Sanitation",
    "final_address": "N ROMAN ST & ST ANTHONY ST",
    "address_councildis": "D",
    "status": "Pending",
    "rowid": "1242162",
    "final_x": "3683309.0",
    "final_y": "538763.78",
    "longitude": "-90.0621043958242",
    "latitude": "29.97535853313437",
    "geocoded_column": {
      "latitude": "29.97535853313437",
      "longitude": "-90.0621043958242"
    }
  },
  {
    "service_request": "2025-1242161",
    "request_type": "Trash/Recycling",
    "request_reason": "Request a Large Item Pick Up",
    "date_created": "2025-11-24T16:36:25.000",
    "date_modified": "2025-11-24T16:36:28.000",
    "request_status": "Pending",
    "responsible_agency": "Department of Sanitation",
    "final_address": "0 BLK Dreyfous Ave",
    "address_councildis": "A",
    "status": "Assigned to Contractor",
    "rowid": "1242161",
    "final_x": "3670700.05095",
    "final_y": "542304.056912",
    "longitude": "-90.1018067714812",
    "latitude": "29.985471708205914",
    "geocoded_column": {
      "latitude": "29.985471708205914",
      "longitude": "-90.1018067714812"
    }
  },
  {
    "service_request": "2025-1242160",
    "request_type": "Trash/Recycling",
    "request_reason": "Request a Large Item Pick Up",
    "date_created": "2025-11-24T16:34:43.000",
    "date_modified": "2025-11-24T16:34:44.000",
    "request_status": "Pending",
    "responsible_agency": "Department of Sanitation",
    "final_address": "6951 Salem Dr",
    "address_councildis": "E",
    "status": "Assigned to Contractor",
    "contractor": "Waste Pro",
    "rowid": "1242160",
    "final_x": "3706843.40292",
    "final_y": "560546.028574",
    "longitude": "-89.98696874566974",
    "latitude": "30.034512503995305",
    "geocoded_column": {
      "latitude": "30.034512503995305",
      "longitude": "-89.98696874566974"
    }
  },
  {
    "service_request": "2025-1242159",
    "request_type": "Trash/Recycling",
    "request_reason": "Request a Large Item Pick Up",
    "date_created": "2025-11-24T16:34:33.000",
    "date_modified": "2025-11-24T16:34:34.000",
    "request_status": "Pending",
    "responsible_agency": "Department of Sanitation",
    "final_address": "4251 Trieste St",
    "address_councildis": "E",
    "status": "Assigned to Contractor",
    "contractor": "Waste Pro",
    "rowid": "1242159",
    "final_x": "3760143.44726",
    "final_y": "573016.603241",
    "longitude": "-89.81801637558632",
    "latitude": "30.0669712226304",
    "geocoded_column": {
      "latitude": "30.0669712226304",
      "longitude": "-89.81801637558632"
    }
  },
  {
    "service_request": "2025-1242158",
    "request_type": "Trash/Recycling",
    "request_reason": "Request a Large Item Pick Up",
    "date_created": "2025-11-24T16:33:58.000",
    "date_modified": "2025-11-24T16:34:00.000",
    "request_status": "Pending",
    "responsible_agency": "Department of Sanitation",
    "final_address": "7541 Symmes Ave",
    "address_councildis": "E",
    "status": "Assigned to Contractor",
    "contractor": "Waste Pro",
    "rowid": "1242158",
    "final_x": "3708007.13585",
    "final_y": "564479.206113",
    "longitude": "-89.98314475754647",
    "latitude": "30.045289529921284",
    "geocoded_column": {
      "latitude": "30.045289529921284",
      "longitude": "-89.98314475754647"
    }
  },
  {
    "service_request": "2025-1242157",
    "request_type": "Trash/Recycling",
    "request_reason": "Request a Large Item Pick Up",
    "date_created": "2025-11-24T16:32:57.000",
    "date_modified": "2025-11-24T16:33:00.000",
    "request_status": "Pending",
    "responsible_agency": "Department of Sanitation",
    "final_address": "79 Fontainebleau Dr",
    "address_councildis": "A",
    "status": "Assigned to Contractor",
    "contractor": "IV Waste",
    "rowid": "1242157",
    "final_x": "3666828.51988",
    "final_y": "530906.959426",
    "longitude": "-90.11441833685356",
    "latitude": "29.954247327921262",
    "geocoded_column": {
      "latitude": "29.954247327921262",
      "longitude": "-90.11441833685356"
    }
  },
  {
    "service_request": "2025-1242156",
    "request_type": "Alley Ways",
    "request_reason": "Alley Way Issues",
    "date_created": "2025-11-24T16:26:27.000",
    "date_modified": "2025-11-24T16:26:28.000",
    "request_status": "Pending",
    "responsible_agency": "Department of Public Works",
    "final_address": "337 10Th St",
    "address_councildis": "A",
    "status": "Pending",
    "rowid": "1242156",
    "final_x": "3664819.62676",
    "final_y": "547610.217938",
    "longitude": "-90.12020324949403",
    "latitude": "30.000234317195524",
    "geocoded_column": {
      "latitude": "30.000234317195524",
      "longitude": "-90.12020324949403"
    }
  },
  {
    "service_request": "2025-1242155",
    "request_type": "Health Related Request",
    "request_reason": "Noise Ordinance Complaint",
    "date_created": "2025-11-24T16:24:24.000",
    "date_modified": "2025-11-24T16:24:27.000",
    "request_status": "Pending",
    "responsible_agency": "Health Department",
    "final_address": "4408 Perlita St",
    "address_councildis": "D",
    "status": "Pending",
    "rowid": "1242155",
    "final_x": "3678709.37666",
    "final_y": "548647.972179",
    "longitude": "-90.07628877765946",
    "latitude": "30.00267611287436",
    "geocoded_column": {
      "latitude": "30.00267611287436",
      "longitude": "-90.07628877765946"
    }
  },
  {
    "service_request": "2025-1242154",
    "request_type": "Roads and Streets",
    "request_reason": "Sidewalk Damaged or Missing",
    "date_created": "2025-11-24T16:21:57.000",
    "date_modified": "2025-11-24T16:21:58.000",
    "request_status": "Pending",
    "responsible_agency": "Department of Public Works",
    "final_address": "1911 Burgundy St",
    "address_councildis": "C",
    "status": "Pending",
    "rowid": "1242154",
    "final_x": "3684035.41365",
    "final_y": "535532.51527",
    "longitude": "-90.05992360348432",
    "latitude": "29.96645149748583",
    "geocoded_column": {
      "latitude": "29.96645149748583",
      "longitude": "-90.05992360348432"
    }
  },
  {
    "service_request": "2025-1242153",
    "request_type": "Trash/Recycling",
    "request_reason": "Repair Trash Cart",
    "date_created": "2025-11-24T16:21:10.000",
    "date_modified": "2025-11-24T16:21:12.000",
    "request_status": "Pending",
    "responsible_agency": "Department of Sanitation",
    "final_address": "8906 Edinburgh St",
    "address_councildis": "A",
    "status": "Assigned to Contractor",
    "contractor": "IV Waste",
    "rowid": "1242153",
    "final_x": "3665310.2368",
    "final_y": "536366.853831",
    "longitude": "-90.11902978507942",
    "latitude": "29.969304568145855",
    "geocoded_column": {
      "latitude": "29.969304568145855",
      "longitude": "-90.11902978507942"
    }
  },
  {
    "service_request": "2025-1242152",
    "request_type": "Trash/Recycling",
    "request_reason": "Repair Trash Cart",
    "date_created": "2025-11-24T16:20:40.000",
    "date_modified": "2025-11-24T16:20:43.000",
    "request_status": "Pending",
    "responsible_agency": "Department of Sanitation",
    "final_address": "8904 Edinburgh St",
    "address_councildis": "A",
    "status": "Assigned to Contractor",
    "contractor": "IV Waste",
    "rowid": "1242152",
    "final_x": "3665320.39956",
    "final_y": "536357.954567",
    "longitude": "-90.11899798801547",
    "latitude": "29.96927980197534",
    "geocoded_column": {
      "latitude": "29.96927980197534",
      "longitude": "-90.11899798801547"
    }
  },
  {
    "service_request": "2025-1242151",
    "request_type": "Trash/Recycling",
    "request_reason": "Replace Recycling Cart",
    "date_created": "2025-11-24T16:18:28.000",
    "date_modified": "2025-11-24T16:18:29.000",
    "request_status": "Pending",
    "responsible_agency": "Department of Sanitation",
    "final_address": "966 Allen Toussaint Blvd",
    "address_councildis": "A",
    "status": "Pending",
    "rowid": "1242151",
    "final_x": "3671261.98299",
    "final_y": "554376.874392",
    "longitude": "-90.09962128090388",
    "latitude": "30.01865111932684",
    "geocoded_column": {
      "latitude": "30.01865111932684",
      "longitude": "-90.09962128090388"
    }
  },
  {
    "service_request": "2025-1242150",
    "request_type": "Trash/Recycling",
    "request_reason": "Request a Large Item Pick Up",
    "date_created": "2025-11-24T16:17:43.000",
    "date_modified": "2025-11-24T16:17:45.000",
    "request_status": "Pending",
    "responsible_agency": "Department of Sanitation",
    "final_address": "806 Opelousas Ave",
    "address_councildis": "C",
    "status": "Assigned to Contractor",
    "contractor": "Richards Disposal",
    "rowid": "1242150",
    "final_x": "3687901.85539",
    "final_y": "529190.67392",
    "longitude": "-90.0479381307274",
    "latitude": "29.94889490713998",
    "geocoded_column": {
      "latitude": "29.94889490713998",
      "longitude": "-90.0479381307274"
    }
  },
  {
    "service_request": "2025-1242149",
    "request_type": "Trash/Recycling",
    "request_reason": "Request a Large Item Pick Up",
    "date_created": "2025-11-24T16:12:20.000",
    "date_modified": "2025-11-24T16:12:23.000",
    "request_status": "Pending",
    "responsible_agency": "Department of Sanitation",
    "final_address": "7231 W Renaissance Ct",
    "address_councildis": "E",
    "status": "Assigned to Contractor",
    "contractor": "Waste Pro",
    "rowid": "1242149",
    "final_x": "3716460.56709",
    "final_y": "567929.624165",
    "longitude": "-89.9562970898601",
    "latitude": "30.054500167272174",
    "geocoded_column": {
      "latitude": "30.054500167272174",
      "longitude": "-89.9562970898601"
    }
  },
  {
    "service_request": "2025-1242148",
    "request_type": "Mosquito, Termite & Rodent Control",
    "request_reason": "Rodent Complaint (Mice & Rats)",
    "date_created": "2025-11-24T16:10:37.000",
    "date_modified": "2025-11-24T16:11:50.000",
    "request_status": "Pending",
    "responsible_agency": "Mosquito, Termite & Rodent Control Board",
    "final_address": "3517 General Taylor St",
    "address_councildis": "B",
    "status": "Pending",
    "rowid": "1242148",
    "final_x": "3671090.31259",
    "final_y": "527769.614591",
    "longitude": "-90.10106780247271",
    "latitude": "29.945495313155128",
    "geocoded_column": {
      "latitude": "29.945495313155128",
      "longitude": "-90.10106780247271"
    }
  },
  {
    "service_request": "2025-1242147",
    "request_type": "Trash/Recycling",
    "request_reason": "Request a Large Item Pick Up",
    "date_created": "2025-11-24T16:10:32.000",
    "date_modified": "2025-11-24T16:10:34.000",
    "request_status": "Pending",
    "responsible_agency": "Department of Sanitation",
    "final_address": "4750 Knight Dr",
    "address_councildis": "E",
    "status": "Assigned to Contractor",
    "contractor": "Waste Pro",
    "rowid": "1242147",
    "final_x": "3708054.22692",
    "final_y": "555615.101081",
    "longitude": "-89.98332599307837",
    "latitude": "30.020915210999327",
    "geocoded_column": {
      "latitude": "30.020915210999327",
      "longitude": "-89.98332599307837"
    }
  },
  {
    "service_request": "2025-1242146",
    "request_type": "Trash/Recycling",
    "request_reason": "Request a Large Item Pick Up",
    "date_created": "2025-11-24T16:07:38.000",
    "date_modified": "2025-11-24T16:07:41.000",
    "request_status": "Pending",
    "responsible_agency": "Department of Sanitation",
    "final_address": "1323 Lizardi St",
    "address_councildis": "E",
    "status": "Assigned to Contractor",
    "contractor": "Waste Pro",
    "rowid": "1242146",
    "final_x": "3696821.45245",
    "final_y": "535003.703238",
    "longitude": "-90.01956483067706",
    "latitude": "29.96460054475019",
    "geocoded_column": {
      "latitude": "29.96460054475019",
      "longitude": "-90.01956483067706"
    }
  },
  {
    "service_request": "2025-1242145",
    "request_type": "Trash/Recycling",
    "request_reason": "Request a Large Item Pick Up",
    "date_created": "2025-11-24T16:06:20.000",
    "date_modified": "2025-11-24T16:06:21.000",
    "request_status": "Pending",
    "responsible_agency": "Department of Sanitation",
    "final_address": "3145 Marais St",
    "address_councildis": "C",
    "status": "Assigned to Contractor",
    "contractor": "IV Waste",
    "rowid": "1242145",
    "final_x": "3689448.55721",
    "final_y": "536296.716999",
    "longitude": "-90.04280184154193",
    "latitude": "29.968386260287485",
    "geocoded_column": {
      "latitude": "29.968386260287485",
      "longitude": "-90.04280184154193"
    }
  },
  {
    "service_request": "2025-1242144",
    "request_type": "Property Maintenance",
    "request_reason": "Property Maintenance",
    "date_created": "2025-11-24T15:55:37.000",
    "date_modified": "2025-11-24T15:55:39.000",
    "request_status": "Pending",
    "responsible_agency": "Department of Code Enforcement",
    "final_address": "4818 Dauphine St",
    "address_councildis": "E",
    "status": "Pending",
    "rowid": "1242144",
    "final_x": "3694875.13046",
    "final_y": "533299.817604",
    "longitude": "-90.02577254733839",
    "latitude": "29.95997667766691",
    "geocoded_column": {
      "latitude": "29.95997667766691",
      "longitude": "-90.02577254733839"
    }
  },
  {
    "service_request": "2025-1242143",
    "request_type": "Trash/Recycling",
    "request_reason": "Request a Large Item Pick Up",
    "date_created": "2025-11-24T15:53:27.000",
    "date_modified": "2025-11-24T15:53:28.000",
    "request_status": "Pending",
    "responsible_agency": "Department of Sanitation",
    "final_address": "1220 Poland Ave",
    "address_councildis": "D",
    "status": "Assigned to Contractor",
    "contractor": "IV Waste",
    "rowid": "1242143",
    "final_x": "3693114.81257",
    "final_y": "535558.014406",
    "longitude": "-90.0312501908566",
    "latitude": "29.96624104092285",
    "geocoded_column": {
      "latitude": "29.96624104092285",
      "longitude": "-90.0312501908566"
    }
  },
  {
    "service_request": "2025-1242142",
    "request_type": "Trash/Recycling",
    "request_reason": "Request a Large Item Pick Up",
    "date_created": "2025-11-24T15:49:16.000",
    "date_modified": "2025-11-24T15:49:18.000",
    "request_status": "Pending",
    "responsible_agency": "Department of Sanitation",
    "final_address": "4813 Bienville Ave",
    "address_councildis": "A",
    "status": "Assigned to Contractor",
    "contractor": "IV Waste",
    "rowid": "1242142",
    "final_x": "3669248.28833",
    "final_y": "540810.127627",
    "longitude": "-90.10644283097724",
    "latitude": "29.98140673432305",
    "geocoded_column": {
      "latitude": "29.98140673432305",
      "longitude": "-90.10644283097724"
    }
  },
  {
    "service_request": "2025-1242141",
    "request_type": "Trash/Recycling",
    "request_reason": "Request a Large Item Pick Up",
    "date_created": "2025-11-24T15:47:40.000",
    "date_modified": "2025-11-24T15:47:42.000",
    "request_status": "Pending",
    "responsible_agency": "Department of Sanitation",
    "final_address": "4444 Wellington Ave",
    "address_councildis": "D",
    "status": "Assigned to Contractor",
    "contractor": "IV Waste",
    "rowid": "1242141",
    "final_x": "3677125.38376",
    "final_y": "548772.192339",
    "longitude": "-90.08128853775284",
    "latitude": "30.003065360281095",
    "geocoded_column": {
      "latitude": "30.003065360281095",
      "longitude": "-90.08128853775284"
    }
  },
  {
    "service_request": "2025-1242140",
    "request_type": "Trash/Recycling",
    "request_reason": "Order Recycling Cart",
    "date_created": "2025-11-24T15:46:33.000",
    "date_modified": "2025-11-24T15:46:34.000",
    "request_status": "Pending",
    "responsible_agency": "Department of Sanitation",
    "final_address": "124 26Th St",
    "address_councildis": "A",
    "status": "Pending",
    "rowid": "1242140",
    "final_x": "3665984.86183",
    "final_y": "549844.856276",
    "longitude": "-90.11644722145161",
    "latitude": "30.006344827430983",
    "geocoded_column": {
      "latitude": "30.006344827430983",
      "longitude": "-90.11644722145161"
    }
  },
  {
    "service_request": "2025-1242139",
    "request_type": "Trash/Recycling",
    "request_reason": "Repair Trash Cart",
    "date_created": "2025-11-24T15:46:19.000",
    "date_modified": "2025-11-24T15:46:21.000",
    "request_status": "Pending",
    "responsible_agency": "Department of Sanitation",
    "final_address": "342 Verret St",
    "address_councildis": "C",
    "status": "Assigned to Contractor",
    "contractor": "Richards Disposal",
    "rowid": "1242139",
    "final_x": "3686952.29692",
    "final_y": "530416.675394",
    "longitude": "-90.05089296412758",
    "latitude": "29.95229524759016",
    "geocoded_column": {
      "latitude": "29.95229524759016",
      "longitude": "-90.05089296412758"
    }
  },
  {
    "service_request": "2025-1242138",
    "request_type": "Trash/Recycling",
    "request_reason": "Request a Large Item Pick Up",
    "date_created": "2025-11-24T15:44:04.000",
    "date_modified": "2025-11-24T15:44:57.000",
    "request_status": "Pending",
    "responsible_agency": "Department of Sanitation",
    "final_address": "11214 Will Stutley Dr",
    "address_councildis": "E",
    "status": "Assigned to Contractor",
    "contractor": "Waste Pro",
    "rowid": "1242138",
    "final_x": "3716686.1356",
    "final_y": "558190.135131",
    "longitude": "-89.95595417439367",
    "latitude": "30.027713068980624",
    "geocoded_column": {
      "latitude": "30.027713068980624",
      "longitude": "-89.95595417439367"
    }
  },
  {
    "service_request": "2025-1242137",
    "request_type": "Property Maintenance",
    "request_reason": "Property Maintenance",
    "date_created": "2025-11-24T15:38:55.000",
    "date_modified": "2025-11-24T15:38:57.000",
    "request_status": "Pending",
    "responsible_agency": "Department of Code Enforcement",
    "final_address": "3324 Coliseum St",
    "address_councildis": "B",
    "status": "Pending",
    "rowid": "1242137",
    "final_x": "3674813.35022",
    "final_y": "520609.6686",
    "longitude": "-90.08955833665881",
    "latitude": "29.925697178677435",
    "geocoded_column": {
      "latitude": "29.925697178677435",
      "longitude": "-90.08955833665881"
    }
  },
  {
    "service_request": "2025-1242136",
    "request_type": "Trash/Recycling",
    "request_reason": "Repair Trash Cart",
    "date_created": "2025-11-24T15:36:27.000",
    "date_modified": "2025-11-24T15:36:29.000",
    "request_status": "Pending",
    "responsible_agency": "Department of Sanitation",
    "final_address": "2926 Kabel Dr",
    "address_councildis": "C",
    "status": "Assigned to Contractor",
    "contractor": "Richards Disposal",
    "rowid": "1242136",
    "final_x": "3700759.11767",
    "final_y": "520387.030136",
    "longitude": "-90.00766407404073",
    "latitude": "29.924285103029217",
    "geocoded_column": {
      "latitude": "29.924285103029217",
      "longitude": "-90.00766407404073"
    }
  },
  {
    "service_request": "2025-1242135",
    "request_type": "Trash/Recycling",
    "request_reason": "Replace Trash Cart",
    "date_created": "2025-11-24T15:34:36.000",
    "date_modified": "2025-11-24T15:34:38.000",
    "request_status": "Pending",
    "responsible_agency": "Department of Sanitation",
    "final_address": "3206 Hollygrove St",
    "address_councildis": "A",
    "status": "Assigned to Contractor",
    "contractor": "IV Waste",
    "rowid": "1242135",
    "final_x": "3664452.04935",
    "final_y": "535876.217223",
    "longitude": "-90.12175640254485",
    "latitude": "29.967980458756955",
    "geocoded_column": {
      "latitude": "29.967980458756955",
      "longitude": "-90.12175640254485"
    }
  },
  {
    "service_request": "2025-1242134",
    "request_type": "Trash/Recycling",
    "request_reason": "Request a Large Item Pick Up",
    "date_created": "2025-11-24T15:33:26.000",
    "date_modified": "2025-11-24T15:33:28.000",
    "request_status": "Pending",
    "responsible_agency": "Department of Sanitation",
    "final_address": "7929 Lamb Rd",
    "address_councildis": "E",
    "status": "Assigned to Contractor",
    "contractor": "Waste Pro",
    "rowid": "1242134",
    "final_x": "3696737.83632",
    "final_y": "560274.077149",
    "longitude": "-90.01891345732791",
    "latitude": "30.034087362110494",
    "geocoded_column": {
      "latitude": "30.034087362110494",
      "longitude": "-90.01891345732791"
    }
  },
  {
    "service_request": "2025-1242133",
    "request_type": "General Services",
    "request_reason": "General Service Request",
    "date_created": "2025-11-24T15:33:04.000",
    "date_modified": "2025-11-24T16:02:17.000",
    "case_close_date": "2025-11-24T10:02:16.000",
    "request_status": "Closed",
    "responsible_agency": "Orleans Parish Communication District",
    "final_address": "8535 Spruce St",
    "address_councildis": "A",
    "status": "Question Answered.",
    "rowid": "1242133",
    "final_x": "3662614.20787",
    "final_y": "531634.090115",
    "longitude": "-90.12770135756159",
    "latitude": "29.95636929876156",
    "geocoded_column": {
      "latitude": "29.95636929876156",
      "longitude": "-90.12770135756159"
    }
  },
  {
    "service_request": "2025-1242132",
    "request_type": "Trash/Recycling",
    "request_reason": "Return Recycling Cart",
    "date_created": "2025-11-24T15:32:09.000",
    "date_modified": "2025-11-24T15:32:11.000",
    "request_status": "Pending",
    "responsible_agency": "Department of Sanitation",
    "final_address": "1317 Allen Toussaint Blvd",
    "address_councildis": "D",
    "status": "Pending",
    "rowid": "1242132",
    "final_x": "3677222.40539",
    "final_y": "555356.356953",
    "longitude": "-90.08075465260326",
    "latitude": "30.021166536672734",
    "geocoded_column": {
      "latitude": "30.021166536672734",
      "longitude": "-90.08075465260326"
    }
  },
  {
    "service_request": "2025-1242131",
    "request_type": "Trash/Recycling",
    "request_reason": "Illegal Dumping",
    "date_created": "2025-11-24T15:31:14.000",
    "date_modified": "2025-11-24T15:31:16.000",
    "request_status": "Pending",
    "responsible_agency": "Department of Sanitation",
    "final_address": "2100 BLK N Tonti St",
    "address_councildis": "D",
    "status": "Pending",
    "rowid": "1242131",
    "final_x": "3684291.64549",
    "final_y": "540696.848184",
    "longitude": "-90.05893304110458",
    "latitude": "29.98064378091789",
    "geocoded_column": {
      "latitude": "29.98064378091789",
      "longitude": "-90.05893304110458"
    }
  },
  {
    "service_request": "2025-1242130",
    "request_type": "Streetlights",
    "request_reason": "Streetlight Outage/Malfunction",
    "date_created": "2025-11-24T15:26:50.000",
    "date_modified": "2025-11-24T15:28:21.000",
    "request_status": "Pending",
    "responsible_agency": "Department of Public Works",
    "final_address": "4200 Canal St",
    "address_councildis": "A",
    "status": "Pending",
    "rowid": "1242130",
    "final_x": "3670407.5922",
    "final_y": "538680.089417",
    "longitude": "-90.10285345239316",
    "latitude": "29.9755156686292",
    "geocoded_column": {
      "latitude": "29.9755156686292",
      "longitude": "-90.10285345239316"
    }
  },
  {
    "service_request": "2025-1242129",
    "request_type": "Abandoned Vehicles",
    "request_reason": "Abandoned/Junk Vehicles",
    "date_created": "2025-11-24T15:25:27.000",
    "date_modified": "2025-11-24T15:25:28.000",
    "request_status": "Pending",
    "responsible_agency": "Department of Public Works",
    "final_address": "337 10Th St",
    "address_councildis": "A",
    "status": "Pending",
    "rowid": "1242129",
    "final_x": "3664819.62676",
    "final_y": "547610.217938",
    "longitude": "-90.12020324949403",
    "latitude": "30.000234317195524",
    "geocoded_column": {
      "latitude": "30.000234317195524",
      "longitude": "-90.12020324949403"
    }
  },
  {
    "service_request": "2025-1242128",
    "request_type": "Trash/Recycling",
    "request_reason": "Request a Large Item Pick Up",
    "date_created": "2025-11-24T15:20:49.000",
    "date_modified": "2025-11-24T15:20:51.000",
    "request_status": "Pending",
    "responsible_agency": "Department of Sanitation",
    "final_address": "4818 Lancelot Dr",
    "address_councildis": "E",
    "status": "Assigned to Contractor",
    "contractor": "Waste Pro",
    "rowid": "1242128",
    "final_x": "3707318.23428",
    "final_y": "556089.75401",
    "longitude": "-89.98563385706647",
    "latitude": "30.022244144493765",
    "geocoded_column": {
      "latitude": "30.022244144493765",
      "longitude": "-89.98563385706647"
    }
  },
  {
    "service_request": "2025-1242127",
    "request_type": "Trash/Recycling",
    "request_reason": "Request a Large Item Pick Up",
    "date_created": "2025-11-24T15:19:11.000",
    "date_modified": "2025-11-24T15:19:12.000",
    "request_status": "Pending",
    "responsible_agency": "Department of Sanitation",
    "final_address": "6738 Manchester St",
    "address_councildis": "E",
    "status": "Assigned to Contractor",
    "contractor": "Waste Pro",
    "rowid": "1242127",
    "final_x": "3698132.18883",
    "final_y": "559715.793757",
    "longitude": "-90.01452745551975",
    "latitude": "30.032508244294124",
    "geocoded_column": {
      "latitude": "30.032508244294124",
      "longitude": "-90.01452745551975"
    }
  },
  {
    "service_request": "2025-1242126",
    "request_type": "Property Maintenance",
    "request_reason": "Property Maintenance",
    "date_created": "2025-11-24T15:18:30.000",
    "date_modified": "2025-11-24T15:18:32.000",
    "request_status": "Pending",
    "responsible_agency": "Department of Code Enforcement",
    "final_address": "2749 Carver Rams Way",
    "address_councildis": "D",
    "status": "Pending",
    "rowid": "1242126",
    "final_x": "3689812.23952",
    "final_y": "545197.399247",
    "longitude": "-90.0413363778655",
    "latitude": "29.992848699837275",
    "geocoded_column": {
      "latitude": "29.992848699837275",
      "longitude": "-90.0413363778655"
    }
  },
  {
    "service_request": "2025-1242125",
    "request_type": "Trash/Recycling",
    "request_reason": "Repair Trash Cart",
    "date_created": "2025-11-24T15:17:04.000",
    "date_modified": "2025-11-24T15:17:06.000",
    "request_status": "Pending",
    "responsible_agency": "Department of Sanitation",
    "final_address": "7020 Salem Dr",
    "address_councildis": "E",
    "status": "Assigned to Contractor",
    "contractor": "Waste Pro",
    "rowid": "1242125",
    "final_x": "3706628.37195",
    "final_y": "560751.973342",
    "longitude": "-89.98764062499659",
    "latitude": "30.03508571648842",
    "geocoded_column": {
      "latitude": "30.03508571648842",
      "longitude": "-89.98764062499659"
    }
  },
  {
    "service_request": "2025-1242124",
    "request_type": "Trash/Recycling",
    "request_reason": "Request a Large Item Pick Up",
    "date_created": "2025-11-24T15:16:28.000",
    "date_modified": "2025-11-24T15:16:29.000",
    "request_status": "Pending",
    "responsible_agency": "Department of Sanitation",
    "final_address": "1220 Joliet St",
    "address_councildis": "A",
    "status": "Assigned to Contractor",
    "contractor": "IV Waste",
    "rowid": "1242124",
    "final_x": "3661002.43578",
    "final_y": "529493.895553",
    "longitude": "-90.13286162784152",
    "latitude": "29.95053098453264",
    "geocoded_column": {
      "latitude": "29.95053098453264",
      "longitude": "-90.13286162784152"
    }
  },
  {
    "service_request": "2025-1242123",
    "request_type": "Trash/Recycling",
    "request_reason": "Request a Large Item Pick Up",
    "date_created": "2025-11-24T15:16:20.000",
    "date_modified": "2025-11-24T15:16:21.000",
    "request_status": "Pending",
    "responsible_agency": "Department of Sanitation",
    "final_address": "7020 Salem Dr",
    "address_councildis": "E",
    "status": "Assigned to Contractor",
    "contractor": "Waste Pro",
    "rowid": "1242123",
    "final_x": "3706628.37195",
    "final_y": "560751.973342",
    "longitude": "-89.98764062499659",
    "latitude": "30.03508571648842",
    "geocoded_column": {
      "latitude": "30.03508571648842",
      "longitude": "-89.98764062499659"
    }
  },
  {
    "service_request": "2025-1242122",
    "request_type": "Trash/Recycling",
    "request_reason": "Request a Large Item Pick Up",
    "date_created": "2025-11-24T15:14:51.000",
    "date_modified": "2025-11-24T15:14:53.000",
    "request_status": "Pending",
    "responsible_agency": "Department of Sanitation",
    "final_address": "337 39Th St",
    "address_councildis": "A",
    "status": "Assigned to Contractor",
    "contractor": "IV Waste",
    "rowid": "1242122",
    "final_x": "3665201.43725",
    "final_y": "553091.676439",
    "longitude": "-90.11881354211772",
    "latitude": "30.015295306094735",
    "geocoded_column": {
      "latitude": "30.015295306094735",
      "longitude": "-90.11881354211772"
    }
  },
  {
    "service_request": "2025-1242121",
    "request_type": "Property Maintenance",
    "request_reason": "Property Maintenance",
    "date_created": "2025-11-24T15:14:25.000",
    "date_modified": "2025-11-24T15:14:28.000",
    "request_status": "Pending",
    "responsible_agency": "Department of Code Enforcement",
    "final_address": "1628 Numa St",
    "address_councildis": "C",
    "status": "Pending",
    "rowid": "1242121",
    "final_x": "3691784.25616",
    "final_y": "525267.148349",
    "longitude": "-90.03582004569495",
    "latitude": "29.937986232802643",
    "geocoded_column": {
      "latitude": "29.937986232802643",
      "longitude": "-90.03582004569495"
    }
  },
  {
    "service_request": "2025-1242120",
    "request_type": "Trash/Recycling",
    "request_reason": "Request a Large Item Pick Up",
    "date_created": "2025-11-24T15:11:54.000",
    "date_modified": "2025-11-24T15:11:55.000",
    "request_status": "Pending",
    "responsible_agency": "Department of Sanitation",
    "final_address": "8720 Hickory St",
    "address_councildis": "A",
    "status": "Assigned to Contractor",
    "contractor": "IV Waste",
    "rowid": "1242120",
    "final_x": "3661646.9481",
    "final_y": "531455.816195",
    "longitude": "-90.13076156623289",
    "latitude": "29.955907051901747",
    "geocoded_column": {
      "latitude": "29.955907051901747",
      "longitude": "-90.13076156623289"
    }
  },
  {
    "service_request": "2025-1242119",
    "request_type": "Trash/Recycling",
    "request_reason": "Request a Large Item Pick Up",
    "date_created": "2025-11-24T15:11:27.000",
    "date_modified": "2025-11-24T15:11:28.000",
    "request_status": "Pending",
    "responsible_agency": "Department of Sanitation",
    "final_address": "4611 Francis Dr",
    "address_councildis": "D",
    "status": "Assigned to Contractor",
    "contractor": "Waste Pro",
    "rowid": "1242119",
    "final_x": "3698354.28586",
    "final_y": "553593.507991",
    "longitude": "-90.01404836940182",
    "latitude": "30.015667265245394",
    "geocoded_column": {
      "latitude": "30.015667265245394",
      "longitude": "-90.01404836940182"
    }
  },
  {
    "service_request": "2025-1242118",
    "request_type": "Trash/Recycling",
    "request_reason": "Request a Large Item Pick Up",
    "date_created": "2025-11-24T15:10:26.000",
    "date_modified": "2025-11-24T15:10:29.000",
    "request_status": "Pending",
    "responsible_agency": "Department of Sanitation",
    "final_address": "428 Pacific Ave",
    "address_councildis": "C",
    "status": "Assigned to Contractor",
    "contractor": "Richards Disposal",
    "rowid": "1242118",
    "final_x": "3688564.3967",
    "final_y": "530053.611841",
    "longitude": "-90.04581559266526",
    "latitude": "29.95124723740326",
    "geocoded_column": {
      "latitude": "29.95124723740326",
      "longitude": "-90.04581559266526"
    }
  },
  {
    "service_request": "2025-1242117",
    "request_type": "Abandoned Vehicles",
    "request_reason": "Abandoned/Junk Vehicles",
    "date_created": "2025-11-24T15:07:08.000",
    "date_modified": "2025-11-24T15:07:10.000",
    "request_status": "Pending",
    "responsible_agency": "Department of Public Works",
    "final_address": "4380 LaSalle St",
    "address_councildis": "B",
    "status": "Pending",
    "rowid": "1242117",
    "final_x": "3670679.13473",
    "final_y": "523676.018363",
    "longitude": "-90.1025048619643",
    "latitude": "29.93425140335746",
    "geocoded_column": {
      "latitude": "29.93425140335746",
      "longitude": "-90.1025048619643"
    }
  },
  {
    "service_request": "2025-1242116",
    "request_type": "Trash/Recycling",
    "request_reason": "Request a Large Item Pick Up",
    "date_created": "2025-11-24T15:01:55.000",
    "date_modified": "2025-11-24T15:02:02.000",
    "request_status": "Pending",
    "responsible_agency": "Department of Sanitation",
    "final_address": "6738 Pontchartrain Blvd",
    "address_councildis": "A",
    "status": "Assigned to Contractor",
    "contractor": "IV Waste",
    "rowid": "1242116",
    "final_x": "3666336.61946",
    "final_y": "552951.498583",
    "longitude": "-90.11523159079213",
    "latitude": "30.014876733014418",
    "geocoded_column": {
      "latitude": "30.014876733014418",
      "longitude": "-90.11523159079213"
    }
  },
  {
    "service_request": "2025-1242115",
    "request_type": "Trash/Recycling",
    "request_reason": "Request a Large Item Pick Up",
    "date_created": "2025-11-24T14:55:03.000",
    "date_modified": "2025-11-24T14:55:04.000",
    "request_status": "Pending",
    "responsible_agency": "Department of Sanitation",
    "final_address": "8549 Fordham Ct",
    "address_councildis": "E",
    "status": "Assigned to Contractor",
    "contractor": "Waste Pro",
    "rowid": "1242115",
    "final_x": "3705127.11742",
    "final_y": "560495.786462",
    "longitude": "-89.9923942657572",
    "latitude": "30.034429696158455",
    "geocoded_column": {
      "latitude": "30.034429696158455",
      "longitude": "-89.9923942657572"
    }
  },
  {
    "service_request": "2025-1242113",
    "request_type": "Street and Traffic Signs",
    "request_reason": "Street Name Sign Damaged or Missing",
    "date_created": "2025-11-24T14:49:20.000",
    "date_modified": "2025-11-24T14:49:21.000",
    "request_status": "Pending",
    "responsible_agency": "Department of Public Works",
    "final_address": "N BROAD ST & A P TUREAUD AVE",
    "address_councildis": "D",
    "status": "Pending",
    "rowid": "1242113",
    "final_x": "3681468.0",
    "final_y": "543203.08",
    "longitude": "-90.06776390906029",
    "latitude": "29.987621089542067",
    "geocoded_column": {
      "latitude": "29.987621089542067",
      "longitude": "-90.06776390906029"
    }
  },
  {
    "service_request": "2025-1242112",
    "request_type": "Safety & Permits",
    "request_reason": "Licenses & Permits",
    "date_created": "2025-11-24T14:48:35.000",
    "date_modified": "2025-11-24T14:48:37.000",
    "request_status": "Pending",
    "responsible_agency": "Safety and Permits",
    "final_address": "1155 N Broad St",
    "address_councildis": "A",
    "status": "Pending",
    "rowid": "1242112",
    "final_x": "3677796.86664",
    "final_y": "538573.247689",
    "longitude": "-90.07951978507798",
    "latitude": "29.97500163364654",
    "geocoded_column": {
      "latitude": "29.97500163364654",
      "longitude": "-90.07951978507798"
    }
  },
  {
    "service_request": "2025-1242108",
    "request_type": "Trash/Recycling",
    "request_reason": "Damaged Caused By Contractor",
    "date_created": "2025-11-24T14:47:26.000",
    "date_modified": "2025-11-24T14:47:28.000",
    "request_status": "Pending",
    "responsible_agency": "Department of Sanitation",
    "final_address": "318 14Th St",
    "address_councildis": "A",
    "status": "Assigned to Contractor",
    "contractor": "IV Waste",
    "rowid": "1242108",
    "final_x": "3664988.42074",
    "final_y": "548096.414866",
    "longitude": "-90.11965374898845",
    "latitude": "30.00156627671159",
    "geocoded_column": {
      "latitude": "30.00156627671159",
      "longitude": "-90.11965374898845"
    }
  },
  {
    "service_request": "2025-1242107",
    "request_type": "Trash/Recycling",
    "request_reason": "Damaged Caused By Contractor",
    "date_created": "2025-11-24T14:47:26.000",
    "date_modified": "2025-11-24T14:47:28.000",
    "request_status": "Pending",
    "responsible_agency": "Department of Sanitation",
    "final_address": "318 14Th St",
    "address_councildis": "A",
    "status": "Assigned to Contractor",
    "contractor": "IV Waste",
    "rowid": "1242107",
    "final_x": "3664988.42074",
    "final_y": "548096.414866",
    "longitude": "-90.11965374898845",
    "latitude": "30.00156627671159",
    "geocoded_column": {
      "latitude": "30.00156627671159",
      "longitude": "-90.11965374898845"
    }
  },
  {
    "service_request": "2025-1242111",
    "request_type": "Trash/Recycling",
    "request_reason": "Damaged Caused By Contractor",
    "date_created": "2025-11-24T14:47:26.000",
    "date_modified": "2025-11-24T14:47:28.000",
    "request_status": "Pending",
    "responsible_agency": "Department of Sanitation",
    "final_address": "318 14Th St",
    "address_councildis": "A",
    "status": "Assigned to Contractor",
    "contractor": "IV Waste",
    "rowid": "1242111",
    "final_x": "3664988.42074",
    "final_y": "548096.414866",
    "longitude": "-90.11965374898845",
    "latitude": "30.00156627671159",
    "geocoded_column": {
      "latitude": "30.00156627671159",
      "longitude": "-90.11965374898845"
    }
  },
  {
    "service_request": "2025-1242110",
    "request_type": "Trash/Recycling",
    "request_reason": "Damaged Caused By Contractor",
    "date_created": "2025-11-24T14:47:26.000",
    "date_modified": "2025-11-24T14:47:28.000",
    "request_status": "Pending",
    "responsible_agency": "Department of Sanitation",
    "final_address": "318 14Th St",
    "address_councildis": "A",
    "status": "Assigned to Contractor",
    "contractor": "IV Waste",
    "rowid": "1242110",
    "final_x": "3664988.42074",
    "final_y": "548096.414866",
    "longitude": "-90.11965374898845",
    "latitude": "30.00156627671159",
    "geocoded_column": {
      "latitude": "30.00156627671159",
      "longitude": "-90.11965374898845"
    }
  },
  {
    "service_request": "2025-1242109",
    "request_type": "Trash/Recycling",
    "request_reason": "Damaged Caused By Contractor",
    "date_created": "2025-11-24T14:47:26.000",
    "date_modified": "2025-11-24T14:47:28.000",
    "request_status": "Pending",
    "responsible_agency": "Department of Sanitation",
    "final_address": "318 14Th St",
    "address_councildis": "A",
    "status": "Assigned to Contractor",
    "contractor": "IV Waste",
    "rowid": "1242109",
    "final_x": "3664988.42074",
    "final_y": "548096.414866",
    "longitude": "-90.11965374898845",
    "latitude": "30.00156627671159",
    "geocoded_column": {
      "latitude": "30.00156627671159",
      "longitude": "-90.11965374898845"
    }
  },
  {
    "service_request": "2025-1242106",
    "request_type": "Trash/Recycling",
    "request_reason": "Request a Large Item Pick Up",
    "date_created": "2025-11-24T14:46:37.000",
    "date_modified": "2025-11-24T14:46:39.000",
    "request_status": "Pending",
    "responsible_agency": "Department of Sanitation",
    "final_address": "7108 Olive St",
    "address_councildis": "B",
    "status": "Assigned to Contractor",
    "contractor": "IV Waste",
    "rowid": "1242106",
    "final_x": "3668641.23156",
    "final_y": "532815.244292",
    "longitude": "-90.1086300964886",
    "latitude": "29.959441336748082",
    "geocoded_column": {
      "latitude": "29.959441336748082",
      "longitude": "-90.1086300964886"
    }
  },
  {
    "service_request": "2025-1242105",
    "request_type": "Street and Traffic Signs",
    "request_reason": "Street Name Sign Damaged or Missing",
    "date_created": "2025-11-24T14:45:49.000",
    "date_modified": "2025-11-24T14:45:50.000",
    "request_status": "Pending",
    "responsible_agency": "Department of Public Works",
    "final_address": "N BROAD ST & REPUBLIC ST",
    "address_councildis": "D",
    "status": "Pending",
    "rowid": "1242105",
    "final_x": "3680722.6",
    "final_y": "542336.18",
    "longitude": "-90.07014855729182",
    "latitude": "29.985260035010125",
    "geocoded_column": {
      "latitude": "29.985260035010125",
      "longitude": "-90.07014855729182"
    }
  },
  {
    "service_request": "2025-1242104",
    "request_type": "Trash/Recycling",
    "request_reason": "Request a Large Item Pick Up",
    "date_created": "2025-11-24T14:45:18.000",
    "date_modified": "2025-11-24T14:45:20.000",
    "request_status": "Pending",
    "responsible_agency": "Department of Sanitation",
    "final_address": "566 Abalon Ct",
    "address_councildis": "C",
    "status": "Assigned to Contractor",
    "contractor": "Richards Disposal",
    "rowid": "1242104",
    "final_x": "3688970.14236",
    "final_y": "530652.615298",
    "longitude": "-90.04451317874492",
    "latitude": "29.95288174847581",
    "geocoded_column": {
      "latitude": "29.95288174847581",
      "longitude": "-90.04451317874492"
    }
  },
  {
    "service_request": "2025-1242103",
    "request_type": "Street and Traffic Signs",
    "request_reason": "Street Name Sign Damaged or Missing",
    "date_created": "2025-11-24T14:44:33.000",
    "date_modified": "2025-11-24T14:44:35.000",
    "request_status": "Pending",
    "responsible_agency": "Department of Public Works",
    "final_address": "N BROAD ST & DUELS ST",
    "address_councildis": "D",
    "status": "Pending",
    "rowid": "1242103",
    "final_x": "3680662.0",
    "final_y": "542256.08",
    "longitude": "-90.07034275596625",
    "latitude": "29.985041624846367",
    "geocoded_column": {
      "latitude": "29.985041624846367",
      "longitude": "-90.07034275596625"
    }
  },
  {
    "service_request": "2025-1242102",
    "request_type": "Roads and Streets",
    "request_reason": "Pothole",
    "date_created": "2025-11-24T14:43:54.000",
    "date_modified": "2025-11-24T14:43:55.000",
    "request_status": "Pending",
    "responsible_agency": "Department of Public Works",
    "final_address": "I 610 W & ST BERNARD AVE",
    "address_councildis": "D",
    "status": "Pending",
    "rowid": "1242102",
    "final_x": "3678448.4",
    "final_y": "545129.68",
    "longitude": "-90.07723508061775",
    "latitude": "29.9930099229569",
    "geocoded_column": {
      "latitude": "29.9930099229569",
      "longitude": "-90.07723508061775"
    }
  },
  {
    "service_request": "2025-1242101",
    "request_type": "Roads and Streets",
    "request_reason": "Pothole",
    "date_created": "2025-11-24T14:41:42.000",
    "date_modified": "2025-11-24T14:42:41.000",
    "request_status": "Pending",
    "responsible_agency": "Department of Public Works",
    "final_address": "N DORGENOIS ST & LOUISA ST",
    "address_councildis": "D",
    "status": "Pending",
    "rowid": "1242101",
    "final_x": "3690882.5",
    "final_y": "541133.98",
    "longitude": "-90.03810071815946",
    "latitude": "29.981642532710527",
    "geocoded_column": {
      "latitude": "29.981642532710527",
      "longitude": "-90.03810071815946"
    }
  },
  {
    "service_request": "2025-1242100",
    "request_type": "Trash/Recycling",
    "request_reason": "Return Recycling Cart",
    "date_created": "2025-11-24T14:38:08.000",
    "date_modified": "2025-11-24T14:54:10.000",
    "request_status": "Pending",
    "responsible_agency": "Department of Sanitation",
    "final_address": "1122 N Dupre St",
    "address_councildis": "A",
    "status": "Assigned to Contractor",
    "contractor": "IV Waste",
    "rowid": "1242100",
    "final_x": "3677044.10971",
    "final_y": "539043.48929",
    "longitude": "-90.08188096633172",
    "latitude": "29.97631726378183",
    "geocoded_column": {
      "latitude": "29.97631726378183",
      "longitude": "-90.08188096633172"
    }
  },
  {
    "service_request": "2025-1242099",
    "request_type": "Trash/Recycling",
    "request_reason": "Return Trash Cart",
    "date_created": "2025-11-24T14:36:09.000",
    "date_modified": "2025-11-24T14:36:11.000",
    "request_status": "Pending",
    "responsible_agency": "Department of Sanitation",
    "final_address": "1122 N Dupre St",
    "address_councildis": "A",
    "status": "Assigned to Contractor",
    "contractor": "IV Waste",
    "rowid": "1242099",
    "final_x": "3677044.10971",
    "final_y": "539043.48929",
    "longitude": "-90.08188096633172",
    "latitude": "29.97631726378183",
    "geocoded_column": {
      "latitude": "29.97631726378183",
      "longitude": "-90.08188096633172"
    }
  },
  {
    "service_request": "2025-1242098",
    "request_type": "Trash/Recycling",
    "request_reason": "Missed Trash Pick-Up",
    "date_created": "2025-11-24T14:35:51.000",
    "date_modified": "2025-11-24T14:35:52.000",
    "request_status": "Pending",
    "responsible_agency": "Department of Sanitation",
    "final_address": "524 Fats Domino Ave",
    "address_councildis": "E",
    "status": "Assigned to Contractor",
    "contractor": "Waste Pro",
    "rowid": "1242098",
    "final_x": "3697431.66039",
    "final_y": "531793.297923",
    "longitude": "-90.01775424907306",
    "latitude": "29.95575381646557",
    "geocoded_column": {
      "latitude": "29.95575381646557",
      "longitude": "-90.01775424907306"
    }
  },
  {
    "service_request": "2025-1242097",
    "request_type": "Trash/Recycling",
    "request_reason": "Request a Large Item Pick Up",
    "date_created": "2025-11-24T14:32:51.000",
    "date_modified": "2025-11-24T14:32:53.000",
    "request_status": "Pending",
    "responsible_agency": "Department of Sanitation",
    "final_address": "8713 Edinburgh St",
    "address_councildis": "A",
    "status": "Assigned to Contractor",
    "contractor": "IV Waste",
    "rowid": "1242097",
    "final_x": "3665845.661",
    "final_y": "535977.197447",
    "longitude": "-90.11735192649994",
    "latitude": "29.968217529354426",
    "geocoded_column": {
      "latitude": "29.968217529354426",
      "longitude": "-90.11735192649994"
    }
  },
  {
    "service_request": "2025-1242096",
    "request_type": "Trash/Recycling",
    "request_reason": "Request a Large Item Pick Up",
    "date_created": "2025-11-24T14:32:15.000",
    "date_modified": "2025-11-24T14:32:43.000",
    "request_status": "Pending",
    "responsible_agency": "Department of Sanitation",
    "final_address": "9132 Bunker Hill Rd",
    "address_councildis": "E",
    "status": "Assigned to Contractor",
    "contractor": "Waste Pro",
    "rowid": "1242096",
    "final_x": "3707144.9411",
    "final_y": "560298.379933",
    "longitude": "-89.98602505257027",
    "latitude": "30.03382182223394",
    "geocoded_column": {
      "latitude": "30.03382182223394",
      "longitude": "-89.98602505257027"
    }
  },
  {
    "service_request": "2025-1242095",
    "request_type": "Property Maintenance",
    "request_reason": "Property Maintenance",
    "date_created": "2025-11-24T14:31:58.000",
    "date_modified": "2025-11-24T14:31:59.000",
    "request_status": "Pending",
    "responsible_agency": "Department of Code Enforcement",
    "final_address": "2212 Governor Nicholls St",
    "address_councildis": "D",
    "status": "Pending",
    "rowid": "1242095",
    "final_x": "3679326.51451",
    "final_y": "537183.334728",
    "longitude": "-90.07473698050525",
    "latitude": "29.9711337392553",
    "geocoded_column": {
      "latitude": "29.9711337392553",
      "longitude": "-90.07473698050525"
    }
  },
  {
    "service_request": "2025-1242094",
    "request_type": "Trash/Recycling",
    "request_reason": "Request a Large Item Pick Up",
    "date_created": "2025-11-24T14:30:54.000",
    "date_modified": "2025-11-24T14:30:56.000",
    "request_status": "Pending",
    "responsible_agency": "Department of Sanitation",
    "final_address": "11417 Maxine Dr",
    "address_councildis": "E",
    "status": "Assigned to Contractor",
    "contractor": "Waste Pro",
    "rowid": "1242094",
    "final_x": "3718528.07161",
    "final_y": "560695.49731",
    "longitude": "-89.95003829136114",
    "latitude": "30.034540796553486",
    "geocoded_column": {
      "latitude": "30.034540796553486",
      "longitude": "-89.95003829136114"
    }
  },
  {
    "service_request": "2025-1242093",
    "request_type": "Trash/Recycling",
    "request_reason": "Request a Large Item Pick Up",
    "date_created": "2025-11-24T14:30:29.000",
    "date_modified": "2025-11-24T14:31:16.000",
    "request_status": "Pending",
    "responsible_agency": "Department of Sanitation",
    "final_address": "10953 Chaucer St",
    "address_councildis": "E",
    "status": "Assigned to Contractor",
    "contractor": "Waste Pro",
    "rowid": "1242093",
    "final_x": "3712954.05144",
    "final_y": "562080.602847",
    "longitude": "-89.96760063315784",
    "latitude": "30.03853312981531",
    "geocoded_column": {
      "latitude": "30.03853312981531",
      "longitude": "-89.96760063315784"
    }
  },
  {
    "service_request": "2025-1242092",
    "request_type": "Trash/Recycling",
    "request_reason": "Return Trash Cart",
    "date_created": "2025-11-24T14:30:23.000",
    "date_modified": "2025-11-24T14:30:25.000",
    "request_status": "Pending",
    "responsible_agency": "Department of Sanitation",
    "final_address": "36 Warbler St",
    "address_councildis": "D",
    "status": "Assigned to Contractor",
    "contractor": "IV Waste",
    "rowid": "1242092",
    "final_x": "3673722.27048",
    "final_y": "556865.949978",
    "longitude": "-90.09176243022723",
    "latitude": "30.025422114848777",
    "geocoded_column": {
      "latitude": "30.025422114848777",
      "longitude": "-90.09176243022723"
    }
  },
  {
    "service_request": "2025-1242091",
    "request_type": "Roads and Streets",
    "request_reason": "Pothole",
    "date_created": "2025-11-24T14:22:34.000",
    "date_modified": "2025-11-24T14:23:09.000",
    "request_status": "Pending",
    "responsible_agency": "Department of Public Works",
    "final_address": "7454 Burke Ave",
    "address_councildis": "E",
    "status": "Pending",
    "rowid": "1242091",
    "final_x": "3705670.76939",
    "final_y": "562431.556767",
    "longitude": "-89.99060457983593",
    "latitude": "30.039734796975",
    "geocoded_column": {
      "latitude": "30.039734796975",
      "longitude": "-89.99060457983593"
    }
  },
  {
    "service_request": "2025-1242090",
    "request_type": "Trash/Recycling",
    "request_reason": "Illegal Dumping",
    "date_created": "2025-11-24T14:21:25.000",
    "date_modified": "2025-11-24T14:21:26.000",
    "request_status": "Pending",
    "responsible_agency": "Department of Sanitation",
    "final_address": "1332 First St",
    "address_councildis": "B",
    "status": "Pending",
    "rowid": "1242090",
    "final_x": "3677502.26146",
    "final_y": "522305.525882",
    "longitude": "-90.08101174557932",
    "latitude": "29.930279704703533",
    "geocoded_column": {
      "latitude": "29.930279704703533",
      "longitude": "-90.08101174557932"
    }
  },
  {
    "service_request": "2025-1242089",
    "request_type": "Trash/Recycling",
    "request_reason": "Repair Trash Cart",
    "date_created": "2025-11-24T14:20:32.000",
    "date_modified": "2025-11-24T14:20:34.000",
    "request_status": "Pending",
    "responsible_agency": "Department of Sanitation",
    "final_address": "3118 Grand-Route St John St",
    "address_councildis": "A",
    "status": "Assigned to Contractor",
    "contractor": "IV Waste",
    "rowid": "1242089",
    "final_x": "3676234.01704",
    "final_y": "540281.455563",
    "longitude": "-90.08439686681123",
    "latitude": "29.979745548668774",
    "geocoded_column": {
      "latitude": "29.979745548668774",
      "longitude": "-90.08439686681123"
    }
  },
  {
    "service_request": "2025-1242088",
    "request_type": "Trash/Recycling",
    "request_reason": "Request a Large Item Pick Up",
    "date_created": "2025-11-24T14:17:49.000",
    "date_modified": "2025-11-24T14:17:50.000",
    "request_status": "Pending",
    "responsible_agency": "Department of Sanitation",
    "final_address": "7601 Woodbine Dr",
    "address_councildis": "E",
    "status": "Assigned to Contractor",
    "contractor": "Waste Pro",
    "rowid": "1242088",
    "final_x": "3702053.45636",
    "final_y": "561268.877726",
    "longitude": "-90.0020790101809",
    "latitude": "30.036653941350295",
    "geocoded_column": {
      "latitude": "30.036653941350295",
      "longitude": "-90.0020790101809"
    }
  },
  {
    "service_request": "2025-1242087",
    "request_type": "Abandoned Vehicles",
    "request_reason": "Abandoned/Junk Vehicles",
    "date_created": "2025-11-24T14:12:22.000",
    "date_modified": "2025-11-24T14:13:07.000",
    "request_status": "Pending",
    "responsible_agency": "Department of Public Works",
    "final_address": "334 N Lopez St",
    "address_councildis": "B",
    "status": "Pending",
    "rowid": "1242087",
    "final_x": "3674571.01467",
    "final_y": "537078.949256",
    "longitude": "-90.08975908877841",
    "latitude": "29.970989485025694",
    "geocoded_column": {
      "latitude": "29.970989485025694",
      "longitude": "-90.08975908877841"
    }
  },
  {
    "service_request": "2025-1242086",
    "request_type": "Trash/Recycling",
    "request_reason": "Repair Trash Cart",
    "date_created": "2025-11-24T14:12:21.000",
    "date_modified": "2025-11-24T14:12:23.000",
    "request_status": "Pending",
    "responsible_agency": "Department of Sanitation",
    "final_address": "2520 Touro St",
    "address_councildis": "D",
    "status": "Assigned to Contractor",
    "contractor": "IV Waste",
    "rowid": "1242086",
    "final_x": "3683774.0477",
    "final_y": "541596.95342",
    "longitude": "-90.06053625909428",
    "latitude": "29.983134572803795",
    "geocoded_column": {
      "latitude": "29.983134572803795",
      "longitude": "-90.06053625909428"
    }
  },
  {
    "service_request": "2025-1242085",
    "request_type": "Trash/Recycling",
    "request_reason": "Request a Large Item Pick Up",
    "date_created": "2025-11-24T14:05:13.000",
    "date_modified": "2025-11-24T14:25:23.000",
    "request_status": "Pending",
    "responsible_agency": "Department of Sanitation",
    "final_address": "1301 Napoleon Ave",
    "address_councildis": "B",
    "status": "Assigned to Contractor",
    "contractor": "IV Waste",
    "rowid": "1242085",
    "final_x": "3671027.78068",
    "final_y": "520108.26348",
    "longitude": "-90.10152527854346",
    "latitude": "29.92443091934351",
    "geocoded_column": {
      "latitude": "29.92443091934351",
      "longitude": "-90.10152527854346"
    }
  },
  {
    "service_request": "2025-1242084",
    "request_type": "Trash/Recycling",
    "request_reason": "Replace Trash Cart",
    "date_created": "2025-11-24T14:02:35.000",
    "date_modified": "2025-11-24T14:02:37.000",
    "request_status": "Pending",
    "responsible_agency": "Department of Sanitation",
    "final_address": "2807 Conti St B",
    "address_councildis": "B",
    "status": "Assigned to Contractor",
    "contractor": "IV Waste",
    "rowid": "1242084",
    "final_x": "3675565.84942",
    "final_y": "536465.207879",
    "longitude": "-90.08663835642916",
    "latitude": "29.969272179569984",
    "geocoded_column": {
      "latitude": "29.969272179569984",
      "longitude": "-90.08663835642916"
    }
  },
  {
    "service_request": "2025-1242083",
    "request_type": "Trash/Recycling",
    "request_reason": "Repair Trash Cart",
    "date_created": "2025-11-24T14:01:46.000",
    "date_modified": "2025-11-24T14:01:48.000",
    "request_status": "Pending",
    "responsible_agency": "Department of Sanitation",
    "final_address": "4116 General Ogden St",
    "address_councildis": "A",
    "status": "Assigned to Contractor",
    "contractor": "IV Waste",
    "rowid": "1242083",
    "final_x": "3666877.20833",
    "final_y": "538037.726601",
    "longitude": "-90.11402499954056",
    "latitude": "29.97385315748706",
    "geocoded_column": {
      "latitude": "29.97385315748706",
      "longitude": "-90.11402499954056"
    }
  },
  {
    "service_request": "2025-1242082",
    "request_type": "Safety & Permits",
    "request_reason": "Zoning Enforcement",
    "date_created": "2025-11-24T13:56:03.000",
    "date_modified": "2025-11-24T13:56:05.000",
    "request_status": "Pending",
    "responsible_agency": "Safety and Permits",
    "final_address": "3900 BLK Johnny Jackson Jr Blvd",
    "address_councildis": "D",
    "status": "Pending",
    "rowid": "1242082",
    "final_x": "3691725.89735",
    "final_y": "548157.613446",
    "longitude": "-90.03518555927366",
    "latitude": "30.000928741070155",
    "geocoded_column": {
      "latitude": "30.000928741070155",
      "longitude": "-90.03518555927366"
    }
  },
  {
    "service_request": "2025-1242081",
    "request_type": "Roads and Streets",
    "request_reason": "Abandoned Service Cut",
    "date_created": "2025-11-24T13:54:32.000",
    "date_modified": "2025-11-24T13:56:07.000",
    "request_status": "Pending",
    "responsible_agency": "Department of Public Works",
    "final_address": "1316 Governor Nicholls St",
    "address_councildis": "C",
    "status": "Pending",
    "rowid": "1242081",
    "final_x": "3681796.02248",
    "final_y": "535358.542278",
    "longitude": "-90.06700163699267",
    "latitude": "29.966041372453233",
    "geocoded_column": {
      "latitude": "29.966041372453233",
      "longitude": "-90.06700163699267"
    }
  },
  {
    "service_request": "2025-1242080",
    "request_type": "Streetlights",
    "request_reason": "Streetlight Outage/Malfunction",
    "date_created": "2025-11-24T13:54:16.000",
    "date_modified": "2025-11-24T13:55:10.000",
    "request_status": "Pending",
    "responsible_agency": "Department of Public Works",
    "final_address": "4600 BLK Danneel St",
    "address_councildis": "B",
    "status": "Pending",
    "rowid": "1242080",
    "final_x": "3669779.04131",
    "final_y": "522198.690627",
    "longitude": "-90.10539641632641",
    "latitude": "29.930215780561724",
    "geocoded_column": {
      "latitude": "29.930215780561724",
      "longitude": "-90.10539641632641"
    }
  },
  {
    "service_request": "2025-1242079",
    "request_type": "Trash/Recycling",
    "request_reason": "Request a Large Item Pick Up",
    "date_created": "2025-11-24T13:51:50.000",
    "date_modified": "2025-11-24T13:51:52.000",
    "request_status": "Pending",
    "responsible_agency": "Department of Sanitation",
    "final_address": "1323 Lizardi St",
    "address_councildis": "E",
    "status": "Assigned to Contractor",
    "contractor": "Waste Pro",
    "rowid": "1242079",
    "final_x": "3696821.45245",
    "final_y": "535003.703238",
    "longitude": "-90.01956483067706",
    "latitude": "29.96460054475019",
    "geocoded_column": {
      "latitude": "29.96460054475019",
      "longitude": "-90.01956483067706"
    }
  },
  {
    "service_request": "2025-1242078",
    "request_type": "Trash/Recycling",
    "request_reason": "Return Recycling Cart",
    "date_created": "2025-11-24T13:49:57.000",
    "date_modified": "2025-11-24T13:52:44.000",
    "request_status": "Pending",
    "responsible_agency": "Department of Sanitation",
    "final_address": "7810 Mullet St",
    "address_councildis": "E",
    "status": "Pending",
    "rowid": "1242078",
    "final_x": "3698836.76746",
    "final_y": "560690.299678",
    "longitude": "-90.01226544085215",
    "latitude": "30.035165442398764",
    "geocoded_column": {
      "latitude": "30.035165442398764",
      "longitude": "-90.01226544085215"
    }
  },
  {
    "service_request": "2025-1242077",
    "request_type": "Trash/Recycling",
    "request_reason": "Request a Large Item Pick Up",
    "date_created": "2025-11-24T13:47:19.000",
    "date_modified": "2025-11-24T13:47:20.000",
    "request_status": "Pending",
    "responsible_agency": "Department of Sanitation",
    "final_address": "7700 Branch Dr",
    "address_councildis": "E",
    "status": "Assigned to Contractor",
    "contractor": "Waste Pro",
    "rowid": "1242077",
    "final_x": "3714486.69842",
    "final_y": "568955.348581",
    "longitude": "-89.96249718935007",
    "latitude": "30.05738556494383",
    "geocoded_column": {
      "latitude": "30.05738556494383",
      "longitude": "-89.96249718935007"
    }
  },
  {
    "service_request": "2025-1242076",
    "request_type": "Trash/Recycling",
    "request_reason": "Request a Large Item Pick Up",
    "date_created": "2025-11-24T13:46:52.000",
    "date_modified": "2025-11-24T13:46:55.000",
    "request_status": "Pending",
    "responsible_agency": "Department of Sanitation",
    "final_address": "4932 Major Dr",
    "address_councildis": "E",
    "status": "Assigned to Contractor",
    "contractor": "Waste Pro",
    "rowid": "1242076",
    "final_x": "3718070.29938",
    "final_y": "558051.631195",
    "longitude": "-89.95158565012238",
    "latitude": "30.02728641617718",
    "geocoded_column": {
      "latitude": "30.02728641617718",
      "longitude": "-89.95158565012238"
    }
  },
  {
    "service_request": "2025-1242075",
    "request_type": "Traffic Signals",
    "request_reason": "Traffic Signal Malfunctioning or Damaged",
    "date_created": "2025-11-24T13:41:00.000",
    "date_modified": "2025-11-24T13:51:31.000",
    "request_status": "Pending",
    "responsible_agency": "Department of Public Works",
    "final_address": "N ROBERTSON ST & POLAND AVE",
    "address_councildis": "D",
    "status": "Pending",
    "rowid": "1242075",
    "final_x": "3693387.9",
    "final_y": "536500.58",
    "longitude": "-90.03035394194877",
    "latitude": "29.968824227096107",
    "geocoded_column": {
      "latitude": "29.968824227096107",
      "longitude": "-90.03035394194877"
    }
  },
  {
    "service_request": "2025-1242074",
    "request_type": "Trash/Recycling",
    "request_reason": "Request a Large Item Pick Up",
    "date_created": "2025-11-24T13:39:13.000",
    "date_modified": "2025-11-24T13:39:19.000",
    "request_status": "Pending",
    "responsible_agency": "Department of Sanitation",
    "final_address": "1523 Tupelo St",
    "address_councildis": "E",
    "status": "Assigned to Contractor",
    "contractor": "Waste Pro",
    "rowid": "1242074",
    "final_x": "3700165.82557",
    "final_y": "534885.41159",
    "longitude": "-90.00900792727796",
    "latitude": "29.964169425691715",
    "geocoded_column": {
      "latitude": "29.964169425691715",
      "longitude": "-90.00900792727796"
    }
  },
  {
    "service_request": "2025-1242073",
    "request_type": "Trash/Recycling",
    "request_reason": "Request a Large Item Pick Up",
    "date_created": "2025-11-24T13:39:04.000",
    "date_modified": "2025-11-24T13:39:06.000",
    "request_status": "Pending",
    "responsible_agency": "Department of Sanitation",
    "final_address": "3924 Buchanan St",
    "address_councildis": "D",
    "status": "Assigned to Contractor",
    "contractor": "IV Waste",
    "rowid": "1242073",
    "final_x": "3677284.2187",
    "final_y": "546628.281041",
    "longitude": "-90.08086078692466",
    "latitude": "29.99716558894755",
    "geocoded_column": {
      "latitude": "29.99716558894755",
      "longitude": "-90.08086078692466"
    }
  },
  {
    "service_request": "2025-1242071",
    "request_type": "Trash/Recycling",
    "request_reason": "Request a Large Item Pick Up",
    "date_created": "2025-11-24T13:35:31.000",
    "date_modified": "2025-11-24T13:35:32.000",
    "request_status": "Pending",
    "responsible_agency": "Department of Sanitation",
    "final_address": "2418 Dubreuil St",
    "address_councildis": "E",
    "status": "Assigned to Contractor",
    "contractor": "Waste Pro",
    "rowid": "1242071",
    "final_x": "3702628.31185",
    "final_y": "537645.693064",
    "longitude": "-90.00113031907412",
    "latitude": "29.97168071380009",
    "geocoded_column": {
      "latitude": "29.97168071380009",
      "longitude": "-90.00113031907412"
    }
  },
  {
    "service_request": "2025-1242072",
    "request_type": "Trash/Recycling",
    "request_reason": "Request a Large Item Pick Up",
    "date_created": "2025-11-24T13:35:31.000",
    "date_modified": "2025-11-24T13:35:33.000",
    "request_status": "Pending",
    "responsible_agency": "Department of Sanitation",
    "final_address": "6125 Lafaye St",
    "address_councildis": "D",
    "status": "Assigned to Contractor",
    "contractor": "IV Waste",
    "rowid": "1242072",
    "final_x": "3687139.94607",
    "final_y": "555822.376409",
    "longitude": "-90.04940158537502",
    "latitude": "30.022146089833804",
    "geocoded_column": {
      "latitude": "30.022146089833804",
      "longitude": "-90.04940158537502"
    }
  },
  {
    "service_request": "2025-1242070",
    "request_type": "Trash/Recycling",
    "request_reason": "Request a Large Item Pick Up",
    "date_created": "2025-11-24T13:34:44.000",
    "date_modified": "2025-11-24T13:34:45.000",
    "request_status": "Pending",
    "responsible_agency": "Department of Sanitation",
    "final_address": "5411 Royal St",
    "address_councildis": "E",
    "status": "Assigned to Contractor",
    "contractor": "Waste Pro",
    "rowid": "1242070",
    "final_x": "3696897.33898",
    "final_y": "532498.415428",
    "longitude": "-90.01941590777422",
    "latitude": "29.957709498503405",
    "geocoded_column": {
      "latitude": "29.957709498503405",
      "longitude": "-90.01941590777422"
    }
  },
  {
    "service_request": "2025-1242069",
    "request_type": "Trash/Recycling",
    "request_reason": "Order Recycling Cart",
    "date_created": "2025-11-24T13:31:12.000",
    "date_modified": "2025-11-24T13:31:13.000",
    "request_status": "Pending",
    "responsible_agency": "Department of Sanitation",
    "final_address": "6945 Milne Blvd",
    "address_councildis": "A",
    "status": "Pending",
    "rowid": "1242069",
    "final_x": "3667756.49293",
    "final_y": "553802.171223",
    "longitude": "-90.1107167788804",
    "latitude": "30.017174202942872",
    "geocoded_column": {
      "latitude": "30.017174202942872",
      "longitude": "-90.1107167788804"
    }
  },
  {
    "service_request": "2025-1242068",
    "request_type": "Trash/Recycling",
    "request_reason": "Illegal Dumping",
    "date_created": "2025-11-24T13:30:17.000",
    "date_modified": "2025-11-24T13:30:19.000",
    "request_status": "Pending",
    "responsible_agency": "Department of Sanitation",
    "final_address": "2017 Marais St A",
    "address_councildis": "C",
    "status": "Pending",
    "rowid": "1242068",
    "final_x": "3684308.51119",
    "final_y": "536640.726215",
    "longitude": "-90.05902224547503",
    "latitude": "29.969490345732055",
    "geocoded_column": {
      "latitude": "29.969490345732055",
      "longitude": "-90.05902224547503"
    }
  },
  {
    "service_request": "2025-1242067",
    "request_type": "Street and Traffic Signs",
    "request_reason": "Street Name Sign Damaged or Missing",
    "date_created": "2025-11-24T13:29:24.000",
    "date_modified": "2025-11-24T13:29:25.000",
    "request_status": "Pending",
    "responsible_agency": "Department of Public Works",
    "final_address": "S LIBERTY ST & SONIAT ST",
    "address_councildis": "B",
    "status": "Pending",
    "rowid": "1242067",
    "final_x": "3668496.0",
    "final_y": "523217.48",
    "longitude": "-90.10941243251115",
    "latitude": "29.933054870642938",
    "geocoded_column": {
      "latitude": "29.933054870642938",
      "longitude": "-90.10941243251115"
    }
  },
  {
    "service_request": "2025-1242066",
    "request_type": "Trash/Recycling",
    "request_reason": "Request a Large Item Pick Up",
    "date_created": "2025-11-24T13:29:05.000",
    "date_modified": "2025-11-24T13:29:07.000",
    "request_status": "Pending",
    "responsible_agency": "Department of Sanitation",
    "final_address": "7120 E Renaissance Ct",
    "address_councildis": "E",
    "status": "Assigned to Contractor",
    "contractor": "Waste Pro",
    "rowid": "1242066",
    "final_x": "3717255.39698",
    "final_y": "567805.111972",
    "longitude": "-89.95378957948357",
    "latitude": "30.054131521787703",
    "geocoded_column": {
      "latitude": "30.054131521787703",
      "longitude": "-89.95378957948357"
    }
  },
  {
    "service_request": "2025-1242065",
    "request_type": "Streetlights",
    "request_reason": "Streetlight Outage/Malfunction",
    "date_created": "2025-11-24T13:28:46.000",
    "date_modified": "2025-11-24T13:28:49.000",
    "request_status": "Pending",
    "responsible_agency": "Department of Public Works",
    "final_address": "2100 BLK Soniat St",
    "address_councildis": "B",
    "status": "Pending",
    "rowid": "1242065",
    "final_x": "3668496.61015",
    "final_y": "523395.051095",
    "longitude": "-90.1094045184711",
    "latitude": "29.933543116396454",
    "geocoded_column": {
      "latitude": "29.933543116396454",
      "longitude": "-90.1094045184711"
    }
  },
  {
    "service_request": "2025-1242064",
    "request_type": "Mosquito, Termite & Rodent Control",
    "request_reason": "Non-Rodent Complaint (Possums & Snakes)",
    "date_created": "2025-11-24T13:27:24.000",
    "date_modified": "2025-11-24T13:27:26.000",
    "request_status": "Pending",
    "responsible_agency": "Mosquito, Termite & Rodent Control Board",
    "final_address": "1315 Lowerline St",
    "address_councildis": "A",
    "status": "Pending",
    "rowid": "1242064",
    "final_x": "3663980.84564",
    "final_y": "527191.961215",
    "longitude": "-90.1235340476542",
    "latitude": "29.944115268320427",
    "geocoded_column": {
      "latitude": "29.944115268320427",
      "longitude": "-90.1235340476542"
    }
  },
  {
    "service_request": "2025-1242063",
    "request_type": "Abandoned Vehicles",
    "request_reason": "Abandoned/Junk Vehicles",
    "date_created": "2025-11-24T13:27:16.000",
    "date_modified": "2025-11-24T13:27:17.000",
    "request_status": "Pending",
    "responsible_agency": "Department of Public Works",
    "final_address": "3522 Dauphine St",
    "address_councildis": "C",
    "status": "Pending",
    "rowid": "1242063",
    "final_x": "3690358.46627",
    "final_y": "534413.655685",
    "longitude": "-90.03999543789917",
    "latitude": "29.963180291749747",
    "geocoded_column": {
      "latitude": "29.963180291749747",
      "longitude": "-90.03999543789917"
    }
  },
  {
    "service_request": "2025-1242062",
    "request_type": "Trash/Recycling",
    "request_reason": "Request a Large Item Pick Up",
    "date_created": "2025-11-24T13:26:55.000",
    "date_modified": "2025-11-24T13:26:57.000",
    "request_status": "Pending",
    "responsible_agency": "Department of Sanitation",
    "final_address": "1021 Henriette Delille St",
    "address_councildis": "C",
    "status": "Assigned to Contractor",
    "contractor": "IV Waste",
    "rowid": "1242062",
    "final_x": "3681824.74773",
    "final_y": "534664.913734",
    "longitude": "-90.06693513274057",
    "latitude": "29.964133258984884",
    "geocoded_column": {
      "latitude": "29.964133258984884",
      "longitude": "-90.06693513274057"
    }
  },
  {
    "service_request": "2025-1242061",
    "request_type": "Streetlights",
    "request_reason": "Streetlight Outage/Malfunction",
    "date_created": "2025-11-24T13:19:52.000",
    "date_modified": "2025-11-24T13:19:54.000",
    "request_status": "Pending",
    "responsible_agency": "Department of Public Works",
    "final_address": "MARTIN LUTHER KING JR BLVD & FRERET ST",
    "address_councildis": "B",
    "status": "Pending",
    "rowid": "1242061",
    "final_x": "3676381.4",
    "final_y": "527272.28",
    "longitude": "-90.0843792290119",
    "latitude": "29.94397028621499",
    "geocoded_column": {
      "latitude": "29.94397028621499",
      "longitude": "-90.0843792290119"
    }
  },
  {
    "service_request": "2025-1242060",
    "request_type": "Trash/Recycling",
    "request_reason": "Illegal Dumping",
    "date_created": "2025-11-24T13:17:54.000",
    "date_modified": "2025-11-24T13:17:55.000",
    "request_status": "Pending",
    "responsible_agency": "Department of Sanitation",
    "final_address": "GALLIER ST & LAUSSAT PL",
    "address_councildis": "D",
    "status": "Pending",
    "rowid": "1242060",
    "final_x": "3691928.4",
    "final_y": "541560.03",
    "longitude": "-90.03478203994717",
    "latitude": "29.98278146797363",
    "geocoded_column": {
      "latitude": "29.98278146797363",
      "longitude": "-90.03478203994717"
    }
  },
  {
    "service_request": "2025-1242059",
    "request_type": "Trash/Recycling",
    "request_reason": "Request a Large Item Pick Up",
    "date_created": "2025-11-24T13:17:33.000",
    "date_modified": "2025-11-24T13:17:36.000",
    "request_status": "Pending",
    "responsible_agency": "Department of Sanitation",
    "final_address": "6321 S Prieur St",
    "address_councildis": "A",
    "status": "Assigned to Contractor",
    "contractor": "IV Waste",
    "rowid": "1242059",
    "final_x": "3666564.57434",
    "final_y": "527356.284991",
    "longitude": "-90.11537094765691",
    "latitude": "29.944491843215697",
    "geocoded_column": {
      "latitude": "29.944491843215697",
      "longitude": "-90.11537094765691"
    }
  },