[
  {
    "service_request": "2022-942718",
    "request_type": "Traffic Signals/Signs/Striping/Streetlights",
    "request_reason": "Traffic Signal Malfunctioning/Damaged",
    "date_created": "2022-11-13T00:31:21.000",
    "date_modified": "2022-11-13T00:31:21.000",
    "request_status": "Pending",
    "responsible_agency": "Department of Public Works",
    "status": "Pending",
    "rowid": "942718",
    "longitude": "0.0",
    "latitude": "0.0",
    "geocoded_column": {
      "latitude": "0.0",
      "longitude": "0.0"
    }
  },
  {
    "service_request": "2022-942716",
    "request_type": "Abandoned Vehicles",
    "request_reason": "Vehicle Blocking Your Driveway",
    "date_created": "2022-11-13T00:09:38.000",
    "date_modified": "2022-11-13T00:09:38.000",
    "request_status": "Pending",
    "responsible_agency": "Department of Public Works",
    "final_address": "1732 Paul Morphy St",
    "address_councildis": "D",
    "status": "Pending",
    "rowid": "942716",
    "final_x": "3679446.12699",
    "final_y": "541163.271948",
    "longitude": "-90.0742211111972",
    "latitude": "29.982073577837294",
    "geocoded_column": {
      "latitude": "29.982073577837294",
      "longitude": "-90.0742211111972"
    }
  },
  {
    "service_request": "2022-942715",
    "request_type": "Abandoned Vehicles",
    "request_reason": "Vehicle Blocking Your Driveway",
    "date_created": "2022-11-13T00:05:05.000",
    "date_modified": "2022-11-13T00:05:05.000",
    "request_status": "Pending",
    "responsible_agency": "Department of Public Works",
    "final_address": "1732 Paul Morphy St",
    "address_councildis": "D",
    "status": "Pending",
    "rowid": "942715",
    "final_x": "3679446.12699",
    "final_y": "541163.271948",
    "longitude": "-90.0742211111972",
    "latitude": "29.982073577837294",
    "geocoded_column": {
      "latitude": "29.982073577837294",
      "longitude": "-90.0742211111972"
    }
  },
  {
    "service_request": "2022-942714",
    "request_type": "Trash/Recycling",
    "request_reason": "Replace Trash Cart",
    "date_created": "2022-11-12T22:08:56.000",
    "date_modified": "2022-11-12T22:08:57.000",
    "request_status": "Pending",
    "responsible_agency": "Department of Sanitation",
    "final_address": "6448 Canal Blvd",
    "address_councildis": "A",
    "status": "Assigned to Contractor",
    "contractor": "IV Waste",
    "rowid": "942714",
    "final_x": "3668604.4994",
    "final_y": "550468.96226",
    "longitude": "-90.10815002377947",
    "latitude": "30.007984143839057",
    "geocoded_column": {
      "latitude": "30.007984143839057",
      "longitude": "-90.10815002377947"
    }
  },
  {
    "service_request": "2022-942713",
    "request_type": "Trash/Recycling",
    "request_reason": "Missed Trash Pick-Up",
    "date_created": "2022-11-12T22:06:37.000",
    "date_modified": "2022-11-12T22:06:38.000",
    "request_status": "Pending",
    "responsible_agency": "Department of Sanitation",
    "final_address": "6448 Canal Blvd",
    "address_councildis": "A",
    "status": "Assigned to Contractor",
    "contractor": "IV Waste",
    "rowid": "942713",
    "final_x": "3668604.4994",
    "final_y": "550468.96226",
    "longitude": "-90.10815002377947",
    "latitude": "30.007984143839057",
    "geocoded_column": {
      "latitude": "30.007984143839057",
      "longitude": "-90.10815002377947"
    }
  },
  {
    "service_request": "2022-942712",
    "request_type": "Abandoned Vehicles",
    "request_reason": "Abandoned/Junk Vehicles",
    "date_created": "2022-11-12T21:51:32.000",
    "date_modified": "2022-11-12T21:51:32.000",
    "request_status": "Pending",
    "responsible_agency": "Department of Public Works",
    "final_address": "925 Eighth St",
    "address_councildis": "B",
    "status": "Pending",
    "rowid": "942712",
    "final_x": "3676454.62433",
    "final_y": "519817.874424",
    "longitude": "-90.0844045700003",
    "latitude": "29.923470911840795",
    "geocoded_column": {
      "latitude": "29.923470911840795",
      "longitude": "-90.0844045700003"
    }
  },
  {
    "service_request": "2022-942711",
    "request_type": "Health Related Questions",
    "request_reason": "Noise Ordinance Complaint",
    "date_created": "2022-11-12T21:06:19.000",
    "date_modified": "2022-11-12T21:06:19.000",
    "request_status": "Pending",
    "responsible_agency": "Health Department",
    "final_address": "316 Chartres St, New Orleans, Louisiana, 70130",
    "address_councildis": "C",
    "status": "Pending",
    "rowid": "942711",
    "final_x": "3682048.77532",
    "final_y": "531162.123394",
    "longitude": "-90.06634998337161",
    "latitude": "29.954494970034958",
    "geocoded_column": {
      "latitude": "29.954494970034958",
      "longitude": "-90.06634998337161"
    }
  },
  {
    "service_request": "2022-942710",
    "request_type": "Abandoned Vehicles",
    "request_reason": "Abandoned/Junk Vehicles",
    "date_created": "2022-11-12T20:59:44.000",
    "date_modified": "2022-11-12T20:59:44.000",
    "request_status": "Pending",
    "responsible_agency": "Department of Public Works",
    "final_address": "1816 Annette St",
    "address_councildis": "D",
    "status": "Pending",
    "rowid": "942710",
    "final_x": "3682849.69071",
    "final_y": "538881.104841",
    "longitude": "-90.06355091004589",
    "latitude": "29.975695139060434",
    "geocoded_column": {
      "latitude": "29.975695139060434",
      "longitude": "-90.06355091004589"
    }
  },
  {
    "service_request": "2022-942709",
    "request_type": "Abandoned Vehicles",
    "request_reason": "Abandoned/Junk Vehicles",
    "date_created": "2022-11-12T20:57:51.000",
    "date_modified": "2022-11-12T20:57:51.000",
    "request_status": "Pending",
    "responsible_agency": "Department of Public Works",
    "final_address": "1955 N Johnson St",
    "address_councildis": "D",
    "status": "Pending",
    "rowid": "942709",
    "final_x": "3683385.12066",
    "final_y": "539550.40097",
    "longitude": "-90.06183641862906",
    "latitude": "29.977519144054806",
    "geocoded_column": {
      "latitude": "29.977519144054806",
      "longitude": "-90.06183641862906"
    }
  },
  {
    "service_request": "2022-942708",
    "request_type": "Trash/Recycling",
    "request_reason": "Order Recycling Cart",
    "date_created": "2022-11-12T20:43:42.000",
    "date_modified": "2022-11-12T20:43:42.000",
    "request_status": "Pending",
    "responsible_agency": "Department of Sanitation",
    "final_address": "3535 Buchanan St",
    "address_councildis": "D",
    "status": "Pending",
    "rowid": "942708",
    "final_x": "3677471.10971",
    "final_y": "545246.365647",
    "longitude": "-90.08031814286996",
    "latitude": "29.99336018914856",
    "geocoded_column": {
      "latitude": "29.99336018914856",
      "longitude": "-90.08031814286996"
    }
  },
  {
    "service_request": "2022-942707",
    "request_type": "Trash/Recycling",
    "request_reason": "Order Recycling Cart",
    "date_created": "2022-11-12T20:22:10.000",
    "date_modified": "2022-11-12T20:22:11.000",
    "request_status": "Pending",
    "responsible_agency": "Department of Sanitation",
    "final_address": "6628 Hayne Blvd",
    "address_councildis": "E",
    "status": "Pending",
    "rowid": "942707",
    "final_x": "3697129.83395",
    "final_y": "560679.75715",
    "longitude": "-90.01765998116193",
    "latitude": "30.035190455712396",
    "geocoded_column": {
      "latitude": "30.035190455712396",
      "longitude": "-90.01765998116193"
    }
  },
  {
    "service_request": "2022-942706",
    "request_type": "Trash/Recycling",
    "request_reason": "Replace Trash Cart",
    "date_created": "2022-11-12T20:18:22.000",
    "date_modified": "2022-11-12T20:18:23.000",
    "request_status": "Pending",
    "responsible_agency": "Department of Sanitation",
    "final_address": "2026 France St",
    "address_councildis": "D",
    "status": "Assigned to Contractor",
    "contractor": "IV Waste",
    "rowid": "942706",
    "final_x": "3693245.35497",
    "final_y": "538760.533513",
    "longitude": "-90.0307229706933",
    "latitude": "29.975042752144244",
    "geocoded_column": {
      "latitude": "29.975042752144244",
      "longitude": "-90.0307229706933"
    }
  },
  {
    "service_request": "2022-942704",
    "request_type": "Trash/Recycling",
    "request_reason": "Order Recycling Cart",
    "date_created": "2022-11-12T19:47:13.000",
    "date_modified": "2022-11-12T19:47:13.000",
    "request_status": "Pending",
    "responsible_agency": "Department of Sanitation",
    "final_address": "1417 L. B. Landry Ave",
    "address_councildis": "C",
    "status": "Pending",
    "rowid": "942704",
    "final_x": "3690010.25584",
    "final_y": "526184.84947",
    "longitude": "-90.04138803182393",
    "latitude": "29.94056471537336",
    "geocoded_column": {
      "latitude": "29.94056471537336",
      "longitude": "-90.04138803182393"
    }
  },
  {
    "service_request": "2022-942703",
    "request_type": "Traffic Signals/Signs/Striping/Streetlights",
    "request_reason": "Traffic Signal Malfunctioning/Damaged",
    "date_created": "2022-11-12T19:36:36.000",
    "date_modified": "2022-11-12T19:36:36.000",
    "request_status": "Pending",
    "responsible_agency": "Department of Public Works",
    "final_address": "1600 Magazine St",
    "address_councildis": "B",
    "status": "Pending",
    "rowid": "942703",
    "final_x": "3680051.53442",
    "final_y": "523064.898363",
    "longitude": "-90.0729377262837",
    "latitude": "29.932290872545426",
    "geocoded_column": {
      "latitude": "29.932290872545426",
      "longitude": "-90.0729377262837"
    }
  },
  {
    "service_request": "2022-942702",
    "request_type": "Trash/Recycling",
    "request_reason": "Order Recycling Cart",
    "date_created": "2022-11-12T19:33:57.000",
    "date_modified": "2022-11-12T19:33:57.000",
    "request_status": "Pending",
    "responsible_agency": "Department of Sanitation",
    "final_address": "5540 Holley Ln",
    "address_councildis": "E",
    "status": "Pending",
    "rowid": "942702",
    "final_x": "3703390.50327",
    "final_y": "556426.153754",
    "longitude": "-89.9980320375656",
    "latitude": "30.02329555284748",
    "geocoded_column": {
      "latitude": "30.02329555284748",
      "longitude": "-89.9980320375656"
    }
  },
  {
    "service_request": "2022-942701",
    "request_type": "Trash/Recycling",
    "request_reason": "Order Recycling Cart",
    "date_created": "2022-11-12T19:27:15.000",
    "date_modified": "2022-11-12T19:27:15.000",
    "request_status": "Pending",
    "responsible_agency": "Department of Sanitation",
    "final_address": "3508 Banks St",
    "address_councildis": "B",
    "status": "Pending",
    "rowid": "942701",
    "final_x": "3672004.40276",
    "final_y": "536037.232199",
    "longitude": "-90.09790027209536",
    "latitude": "29.968201456826456",
    "geocoded_column": {
      "latitude": "29.968201456826456",
      "longitude": "-90.09790027209536"
    }
  },
  {
    "service_request": "2022-942700",
    "request_type": "Trash/Recycling",
    "request_reason": "Order Recycling Cart",
    "date_created": "2022-11-12T19:27:04.000",
    "date_modified": "2022-11-12T19:27:04.000",
    "request_status": "Pending",
    "responsible_agency": "Department of Sanitation",
    "final_address": "3508 Banks St",
    "address_councildis": "B",
    "status": "Pending",
    "rowid": "942700",
    "final_x": "3672004.40276",
    "final_y": "536037.232199",
    "longitude": "-90.09790027209536",
    "latitude": "29.968201456826456",
    "geocoded_column": {
      "latitude": "29.968201456826456",
      "longitude": "-90.09790027209536"
    }
  },
  {
    "service_request": "2022-942699",
    "request_type": "Traffic Signals/Signs/Striping/Streetlights",
    "request_reason": "Street Light Outage/Malfunction",
    "date_created": "2022-11-12T18:48:17.000",
    "date_modified": "2022-11-12T18:48:17.000",
    "request_status": "Pending",
    "responsible_agency": "Department of Public Works",
    "final_address": "2200 Washington Ave",
    "address_councildis": "B",
    "status": "Pending",
    "contractor": "Legacy Professional Services",
    "rowid": "942699",
    "final_x": "3674607.6866",
    "final_y": "524437.817212",
    "longitude": "-90.0900764384579",
    "latitude": "29.93622948300412",
    "geocoded_column": {
      "latitude": "29.93622948300412",
      "longitude": "-90.0900764384579"
    }
  },
  {
    "service_request": "2022-942698",
    "request_type": "Health Related Questions",
    "request_reason": "Noise Ordinance Complaint",
    "date_created": "2022-11-12T18:31:26.000",
    "date_modified": "2022-11-12T18:31:26.000",
    "request_status": "Pending",
    "responsible_agency": "Health Department",
    "final_address": "316 Chartres St, New Orleans, Louisiana, 70130",
    "address_councildis": "C",
    "status": "Pending",
    "rowid": "942698",
    "final_x": "3682048.77532",
    "final_y": "531162.123394",
    "longitude": "-90.06634998337161",
    "latitude": "29.954494970034958",
    "geocoded_column": {
      "latitude": "29.954494970034958",
      "longitude": "-90.06634998337161"
    }
  },
  {
    "service_request": "2022-942697",
    "request_type": "Trash/Recycling",
    "request_reason": "Missed Trash Pick-Up",
    "date_created": "2022-11-12T18:27:21.000",
    "date_modified": "2022-11-12T18:27:22.000",
    "request_status": "Pending",
    "responsible_agency": "Department of Sanitation",
    "final_address": "4666 Redwood St",
    "address_councildis": "E",
    "status": "Assigned to Contractor",
    "contractor": "Waste Pro",
    "rowid": "942697",
    "final_x": "3712453.69278",
    "final_y": "555743.528473",
    "longitude": "-89.96942026709158",
    "latitude": "30.021125078836622",
    "geocoded_column": {
      "latitude": "30.021125078836622",
      "longitude": "-89.96942026709158"
    }
  },
  {
    "service_request": "2022-942696",
    "request_type": "Abandoned Vehicles",
    "request_reason": "Abandoned/Junk Vehicles",
    "date_created": "2022-11-12T18:18:33.000",
    "date_modified": "2022-11-12T18:18:33.000",
    "request_status": "Pending",
    "responsible_agency": "Department of Public Works",
    "final_address": "6910 Ridgefield Dr",
    "address_councildis": "E",
    "status": "Pending",
    "rowid": "942696",
    "final_x": "3719791.38969",
    "final_y": "568925.193765",
    "longitude": "-89.94573113611278",
    "latitude": "30.057127085788366",
    "geocoded_column": {
      "latitude": "30.057127085788366",
      "longitude": "-89.94573113611278"
    }
  },
  {
    "service_request": "2022-942695",
    "request_type": "Trash/Recycling",
    "request_reason": "Order Recycling Cart",
    "date_created": "2022-11-12T18:15:03.000",
    "date_modified": "2022-11-12T18:15:03.000",
    "request_status": "Pending",
    "responsible_agency": "Department of Sanitation",
    "final_address": "601 Clare Ct",
    "address_councildis": "A",
    "status": "Pending",
    "rowid": "942695",
    "final_x": "3667805.44679",
    "final_y": "543520.424398",
    "longitude": "-90.11090867848152",
    "latitude": "29.98890153066711",
    "geocoded_column": {
      "latitude": "29.98890153066711",
      "longitude": "-90.11090867848152"
    }
  },
  {
    "service_request": "2022-942694",
    "request_type": "Abandoned Vehicles",
    "request_reason": "Abandoned/Junk Vehicles",
    "date_created": "2022-11-12T18:13:10.000",
    "date_modified": "2022-11-12T18:13:10.000",
    "request_status": "Pending",
    "responsible_agency": "Department of Public Works",
    "final_address": "6910 Ridgefield Dr",
    "address_councildis": "E",
    "status": "Pending",
    "rowid": "942694",
    "final_x": "3719791.38969",
    "final_y": "568925.193765",
    "longitude": "-89.94573113611278",
    "latitude": "30.057127085788366",
    "geocoded_column": {
      "latitude": "30.057127085788366",
      "longitude": "-89.94573113611278"
    }
  },
  {
    "service_request": "2022-942693",
    "request_type": "Trash/Recycling",
    "request_reason": "Order Recycling Cart",
    "date_created": "2022-11-12T17:43:16.000",
    "date_modified": "2022-11-12T17:43:16.000",
    "request_status": "Pending",
    "responsible_agency": "Department of Sanitation",
    "final_address": "1923 Clouet St",
    "address_councildis": "D",
    "status": "Pending",
    "rowid": "942693",
    "final_x": "3689839.10179",
    "final_y": "539177.491082",
    "longitude": "-90.04146591691",
    "latitude": "29.976295272512164",
    "geocoded_column": {
      "latitude": "29.976295272512164",
      "longitude": "-90.04146591691"
    }
  },
  {
    "service_request": "2022-942692",
    "request_type": "Trash/Recycling",
    "request_reason": "Order Recycling Cart",
    "date_created": "2022-11-12T17:41:17.000",
    "date_modified": "2022-11-12T17:41:17.000",
    "request_status": "Pending",
    "responsible_agency": "Department of Sanitation",
    "final_address": "37 Maryland Dr",
    "address_councildis": "A",
    "status": "Pending",
    "rowid": "942692",
    "final_x": "3663711.09671",
    "final_y": "541127.905612",
    "longitude": "-90.12392131578643",
    "latitude": "29.982442378666516",
    "geocoded_column": {
      "latitude": "29.982442378666516",
      "longitude": "-90.12392131578643"
    }
  },
  {
    "service_request": "2022-942691",
    "request_type": "Trash/Recycling",
    "request_reason": "Replace Trash Cart",
    "date_created": "2022-11-12T17:39:40.000",
    "date_modified": "2022-11-12T17:39:41.000",
    "request_status": "Pending",
    "responsible_agency": "Department of Sanitation",
    "final_address": "37 Maryland Dr",
    "address_councildis": "A",
    "status": "Assigned to Contractor",
    "contractor": "IV Waste",
    "rowid": "942691",
    "final_x": "3663711.09671",
    "final_y": "541127.905612",
    "longitude": "-90.12392131578643",
    "latitude": "29.982442378666516",
    "geocoded_column": {
      "latitude": "29.982442378666516",
      "longitude": "-90.12392131578643"
    }
  },
  {
    "service_request": "2022-942689",
    "request_type": "Trash/Recycling",
    "request_reason": "Illegal Dumping",
    "date_created": "2022-11-12T17:25:09.000",
    "date_modified": "2022-11-12T17:25:09.000",
    "request_status": "Pending",
    "responsible_agency": "Department of Sanitation",
    "final_address": "2501 Gravier St",
    "address_councildis": "B",
    "status": "Pending",
    "rowid": "942689",
    "final_x": "3674902.39278",
    "final_y": "532927.285124",
    "longitude": "-90.0888549540379",
    "latitude": "29.959563916310575",
    "geocoded_column": {
      "latitude": "29.959563916310575",
      "longitude": "-90.0888549540379"
    }
  },
  {
    "service_request": "2022-942688",
    "request_type": "Trash/Recycling",
    "request_reason": "Order Recycling Cart",
    "date_created": "2022-11-12T17:24:32.000",
    "date_modified": "2022-11-12T17:24:32.000",
    "request_status": "Pending",
    "responsible_agency": "Department of Sanitation",
    "final_address": "4910 Treves St",
    "address_councildis": "E",
    "status": "Pending",
    "rowid": "942688",
    "final_x": "3729875.77862",
    "final_y": "562745.694432",
    "longitude": "-89.91409825292742",
    "latitude": "30.039796424520997",
    "geocoded_column": {
      "latitude": "30.039796424520997",
      "longitude": "-89.91409825292742"
    }
  },
  {
    "service_request": "2022-942687",
    "request_type": "Trash/Recycling",
    "request_reason": "Missed Trash Pick-Up",
    "date_created": "2022-11-12T17:11:44.000",
    "date_modified": "2022-11-12T17:11:45.000",
    "request_status": "Pending",
    "responsible_agency": "Department of Sanitation",
    "final_address": "2929 Leonidas St",
    "address_councildis": "A",
    "status": "Assigned to Contractor",
    "contractor": "Richards Disposal",
    "rowid": "942687",
    "final_x": "3664935.98637",
    "final_y": "534213.600645",
    "longitude": "-90.1202836918441",
    "latitude": "29.963394732017424",
    "geocoded_column": {
      "latitude": "29.963394732017424",
      "longitude": "-90.1202836918441"
    }
  },
  {
    "service_request": "2022-942686",
    "request_type": "Trash/Recycling",
    "request_reason": "Missed Trash Pick-Up",
    "date_created": "2022-11-12T17:01:21.000",
    "date_modified": "2022-11-12T17:01:22.000",
    "request_status": "Pending",
    "responsible_agency": "Department of Sanitation",
    "final_address": "3334 Monroe St",
    "address_councildis": "A",
    "status": "Assigned to Contractor",
    "contractor": "Richards Disposal",
    "rowid": "942686",
    "final_x": "3665593.38132",
    "final_y": "535571.11431",
    "longitude": "-90.11816223992167",
    "latitude": "29.967108294097415",
    "geocoded_column": {
      "latitude": "29.967108294097415",
      "longitude": "-90.11816223992167"
    }
  },
  {
    "service_request": "2022-942685",
    "request_type": "Trash/Recycling",
    "request_reason": "Illegal Dumping",
    "date_created": "2022-11-12T16:55:47.000",
    "date_modified": "2022-11-12T16:55:47.000",
    "request_status": "Pending",
    "responsible_agency": "Department of Sanitation",
    "final_address": "2501 Gravier St",
    "address_councildis": "B",
    "status": "Pending",
    "rowid": "942685",
    "final_x": "3674902.39278",
    "final_y": "532927.285124",
    "longitude": "-90.0888549540379",
    "latitude": "29.959563916310575",
    "geocoded_column": {
      "latitude": "29.959563916310575",
      "longitude": "-90.0888549540379"
    }
  },
  {
    "service_request": "2022-942684",
    "request_type": "Trash/Recycling",
    "request_reason": "Missed Trash Pick-Up",
    "date_created": "2022-11-12T16:23:42.000",
    "date_modified": "2022-11-12T16:23:42.000",
    "request_status": "Pending",
    "responsible_agency": "Department of Sanitation",
    "final_address": "3400 BLK Annette St",
    "address_councildis": "D",
    "status": "Assigned to Contractor",
    "contractor": "IV Waste",
    "rowid": "942684",
    "final_x": "3682395.63944",
    "final_y": "545493.901254",
    "longitude": "-90.06475370731457",
    "latitude": "29.9938918326952",
    "geocoded_column": {
      "latitude": "29.9938918326952",
      "longitude": "-90.06475370731457"
    }
  },
  {
    "service_request": "2022-942683",
    "request_type": "Trash/Recycling",
    "request_reason": "MIssed Recycling Pick-Up",
    "date_created": "2022-11-12T16:21:26.000",
    "date_modified": "2022-11-12T16:21:26.000",
    "request_status": "Pending",
    "responsible_agency": "Department of Sanitation",
    "final_address": "3122 Hamilton St",
    "address_councildis": "A",
    "status": "Assigned to Contractor",
    "contractor": "Richards Disposal",
    "rowid": "942683",
    "final_x": "3664036.48359",
    "final_y": "535942.806919",
    "longitude": "-90.12306655849386",
    "latitude": "29.96817563412154",
    "geocoded_column": {
      "latitude": "29.96817563412154",
      "longitude": "-90.12306655849386"
    }
  },
  {
    "service_request": "2022-942682",
    "request_type": "Trash/Recycling",
    "request_reason": "Request a Large Item Pick Up",
    "date_created": "2022-11-12T16:19:01.000",
    "date_modified": "2022-11-12T16:19:01.000",
    "request_status": "Pending",
    "responsible_agency": "Department of Sanitation",
    "final_address": "5523 Bellaire Dr",
    "address_councildis": "A",
    "status": "Assigned to Contractor",
    "contractor": "IV Waste",
    "rowid": "942682",
    "final_x": "3664121.15712",
    "final_y": "544525.137871",
    "longitude": "-90.12251275064466",
    "latitude": "29.991771714036673",
    "geocoded_column": {
      "latitude": "29.991771714036673",
      "longitude": "-90.12251275064466"
    }
  },
  {
    "service_request": "2022-942681",
    "request_type": "Trash/Recycling",
    "request_reason": "Request a Large Item Pick Up",
    "date_created": "2022-11-12T16:06:03.000",
    "date_modified": "2022-11-12T16:06:04.000",
    "request_status": "Pending",
    "responsible_agency": "Department of Sanitation",
    "final_address": "1535 Louisa St",
    "address_councildis": "D",
    "status": "Assigned to Contractor",
    "contractor": "IV Waste",
    "rowid": "942681",
    "final_x": "3690034.48956",
    "final_y": "537624.598792",
    "longitude": "-90.04090414541103",
    "latitude": "29.97201930921248",
    "geocoded_column": {
      "latitude": "29.97201930921248",
      "longitude": "-90.04090414541103"
    }
  },
  {
    "service_request": "2022-942680",
    "request_type": "Trash/Recycling",
    "request_reason": "Missed Trash Pick-Up",
    "date_created": "2022-11-12T15:55:32.000",
    "date_modified": "2022-11-12T15:55:32.000",
    "request_status": "Pending",
    "responsible_agency": "Department of Sanitation",
    "final_address": "6746 Deanne St",
    "address_councildis": "D",
    "status": "Assigned to Contractor",
    "contractor": "Waste Pro",
    "rowid": "942680",
    "final_x": "3695858.9343",
    "final_y": "555542.895705",
    "longitude": "-90.02186200943933",
    "latitude": "30.021106109156342",
    "geocoded_column": {
      "latitude": "30.021106109156342",
      "longitude": "-90.02186200943933"
    }
  },
  {
    "service_request": "2022-942679",
    "request_type": "Trash/Recycling",
    "request_reason": "Request a Large Item Pick Up",
    "date_created": "2022-11-12T15:31:24.000",
    "date_modified": "2022-11-12T15:31:24.000",
    "request_status": "Pending",
    "responsible_agency": "Department of Sanitation",
    "final_address": "1644 N Dorgenois St, New Orleans, Louisiana, 70119",
    "address_councildis": "D",
    "status": "Assigned to Contractor",
    "contractor": "IV Waste",
    "rowid": "942679",
    "final_x": "3679837.00827",
    "final_y": "540096.662091",
    "longitude": "-90.0730235744633",
    "latitude": "29.979128955314525",
    "geocoded_column": {
      "latitude": "29.979128955314525",
      "longitude": "-90.0730235744633"
    }
  },
  {
    "service_request": "2022-942678",
    "request_type": "Trash/Recycling",
    "request_reason": "Order Recycling Cart",
    "date_created": "2022-11-12T15:30:11.000",
    "date_modified": "2022-11-12T15:30:11.000",
    "request_status": "Pending",
    "responsible_agency": "Department of Sanitation",
    "final_address": "7433 Onyx St",
    "address_councildis": "D",
    "status": "Pending",
    "rowid": "942678",
    "final_x": "3669029.05274",
    "final_y": "556247.424282",
    "longitude": "-90.10661328244117",
    "latitude": "30.023860382855094",
    "geocoded_column": {
      "latitude": "30.023860382855094",
      "longitude": "-90.10661328244117"
    }
  },
  {
    "service_request": "2022-942677",
    "request_type": "Trash/Recycling",
    "request_reason": "Repair Trash Cart",
    "date_created": "2022-11-12T15:26:31.000",
    "date_modified": "2022-11-12T15:26:32.000",
    "request_status": "Pending",
    "responsible_agency": "Department of Sanitation",
    "final_address": "8404 Palm St",
    "address_councildis": "A",
    "status": "Assigned to Contractor",
    "contractor": "Richards Disposal",
    "rowid": "942677",
    "final_x": "3666851.93895",
    "final_y": "535422.500038",
    "longitude": "-90.1141926844918",
    "latitude": "29.966662894122965",
    "geocoded_column": {
      "latitude": "29.966662894122965",
      "longitude": "-90.1141926844918"
    }
  },
  {
    "service_request": "2022-942676",
    "request_type": "Trash/Recycling",
    "request_reason": "Request a Large Item Pick Up",
    "date_created": "2022-11-12T15:24:58.000",
    "date_modified": "2022-11-12T15:24:58.000",
    "request_status": "Pending",
    "responsible_agency": "Department of Sanitation",
    "final_address": "7532 Horizon Dr",
    "address_councildis": "E",
    "status": "Assigned to Contractor",
    "contractor": "Waste Pro",
    "rowid": "942676",
    "final_x": "3725273.33702",
    "final_y": "569708.616998",
    "longitude": "-89.92837336730125",
    "latitude": "30.059097494703302",
    "geocoded_column": {
      "latitude": "30.059097494703302",
      "longitude": "-89.92837336730125"
    }
  },
  {
    "service_request": "2022-942675",
    "request_type": "Trash/Recycling",
    "request_reason": "Request a Large Item Pick Up",
    "date_created": "2022-11-12T15:10:23.000",
    "date_modified": "2022-11-12T15:10:23.000",
    "request_status": "Pending",
    "responsible_agency": "Department of Sanitation",
    "final_address": "3517 Constance St",
    "address_councildis": "B",
    "status": "Assigned to Contractor",
    "contractor": "Richards Disposal",
    "rowid": "942675",
    "final_x": "3674435.98836",
    "final_y": "519045.944823",
    "longitude": "-90.09080308292806",
    "latitude": "29.92140869858024",
    "geocoded_column": {
      "latitude": "29.92140869858024",
      "longitude": "-90.09080308292806"
    }
  },
  {
    "service_request": "2022-942674",
    "request_type": "Trash/Recycling",
    "request_reason": "Missed Trash Pick-Up",
    "date_created": "2022-11-12T15:06:49.000",
    "date_modified": "2022-11-12T15:06:50.000",
    "request_status": "Pending",
    "responsible_agency": "Department of Sanitation",
    "final_address": "1924 Wildair Dr",
    "address_councildis": "D",
    "status": "Assigned to Contractor",
    "contractor": "IV Waste",
    "rowid": "942674",
    "final_x": "3681324.23362",
    "final_y": "551078.377877",
    "longitude": "-90.06794331048923",
    "latitude": "30.00927971894664",
    "geocoded_column": {
      "latitude": "30.00927971894664",
      "longitude": "-90.06794331048923"
    }
  },
  {
    "service_request": "2022-942673",
    "request_type": "Traffic Signals/Signs/Striping/Streetlights",
    "request_reason": "Street Light Outage/Malfunction",
    "date_created": "2022-11-12T15:04:42.000",
    "date_modified": "2022-11-12T15:04:43.000",
    "request_status": "Pending",
    "responsible_agency": "Department of Public Works",
    "final_address": "7919 Jeannette St",
    "address_councildis": "A",
    "status": "Pending",
    "contractor": "Legacy Professional Services",
    "rowid": "942673",
    "final_x": "3663158.81843",
    "final_y": "528766.001216",
    "longitude": "-90.12607706930883",
    "latitude": "29.948467212795027",
    "geocoded_column": {
      "latitude": "29.948467212795027",
      "longitude": "-90.12607706930883"
    }
  },
  {
    "service_request": "2022-942672",
    "request_type": "Trash/Recycling",
    "request_reason": "Request a Large Item Pick Up",
    "date_created": "2022-11-12T14:56:41.000",
    "date_modified": "2022-11-12T14:56:42.000",
    "request_status": "Pending",
    "responsible_agency": "Department of Sanitation",
    "final_address": "3625 Silver Maple Ct",
    "address_councildis": "C",
    "status": "Assigned to Contractor",
    "contractor": "Richards Disposal",
    "rowid": "942672",
    "final_x": "3702995.5875",
    "final_y": "512627.194097",
    "longitude": "-90.0008892090669",
    "latitude": "29.902876873383974",
    "geocoded_column": {
      "latitude": "29.902876873383974",
      "longitude": "-90.0008892090669"
    }
  },
  {
    "service_request": "2022-942670",
    "request_type": "Traffic Signals/Signs/Striping/Streetlights",
    "request_reason": "Street Light Outage/Malfunction",
    "date_created": "2022-11-12T14:38:44.000",
    "date_modified": "2022-11-12T14:38:45.000",
    "request_status": "Pending",
    "responsible_agency": "Department of Public Works",
    "final_address": "PASTEUR BLVD & RAPIDES DR",
    "address_councildis": "D",
    "status": "Pending",
    "contractor": "Legacy Professional Services",
    "rowid": "942670",
    "final_x": "3682877.1",
    "final_y": "552971.98",
    "longitude": "-90.06297095231525",
    "latitude": "30.01443919258813",
    "geocoded_column": {
      "latitude": "30.01443919258813",
      "longitude": "-90.06297095231525"
    }
  },
  {
    "service_request": "2022-942669",
    "request_type": "Trash/Recycling",
    "request_reason": "Order Trash Cart",
    "date_created": "2022-11-12T14:36:23.000",
    "date_modified": "2022-11-12T14:36:24.000",
    "request_status": "Pending",
    "responsible_agency": "Department of Sanitation",
    "final_address": "1030 Kerlerec St Apt 2",
    "address_councildis": "C",
    "status": "Assigned to Contractor",
    "contractor": "IV Waste",
    "rowid": "942669",
    "final_x": "3683163.38856",
    "final_y": "535486.288326",
    "longitude": "-90.06267906257057",
    "latitude": "29.966351007710752",
    "geocoded_column": {
      "latitude": "29.966351007710752",
      "longitude": "-90.06267906257057"
    }
  },
  {
    "service_request": "2022-942668",
    "request_type": "Trash/Recycling",
    "request_reason": "Order Trash Cart",
    "date_created": "2022-11-12T14:34:40.000",
    "date_modified": "2022-11-12T14:34:41.000",
    "request_status": "Pending",
    "responsible_agency": "Department of Sanitation",
    "final_address": "3314 Carondelet St Apt A",
    "address_councildis": "B",
    "status": "Assigned to Contractor",
    "contractor": "Richards Disposal",
    "rowid": "942668",
    "final_x": "3674321.93044",
    "final_y": "521952.420602",
    "longitude": "-90.09106364871369",
    "latitude": "29.929403971508417",
    "geocoded_column": {
      "latitude": "29.929403971508417",
      "longitude": "-90.09106364871369"
    }
  },
  {
    "service_request": "2022-942667",
    "request_type": "Trash/Recycling",
    "request_reason": "Order Trash Cart",
    "date_created": "2022-11-12T14:33:24.000",
    "date_modified": "2022-11-12T14:33:24.000",
    "request_status": "Pending",
    "responsible_agency": "Department of Sanitation",
    "final_address": "3314 Carondelet St",
    "address_councildis": "B",
    "status": "Assigned to Contractor",
    "contractor": "Richards Disposal",
    "rowid": "942667",
    "final_x": "3674314.37396",
    "final_y": "521970.988602",
    "longitude": "-90.0910868676804",
    "latitude": "29.929455252765287",
    "geocoded_column": {
      "latitude": "29.929455252765287",
      "longitude": "-90.0910868676804"
    }
  },
  {
    "service_request": "2022-942666",
    "request_type": "Trash/Recycling",
    "request_reason": "Order Trash Cart",
    "date_created": "2022-11-12T14:30:58.000",
    "date_modified": "2022-11-12T14:30:59.000",
    "request_status": "Pending",
    "responsible_agency": "Department of Sanitation",
    "final_address": "4517 Banks St",
    "address_councildis": "A",
    "status": "Assigned to Contractor",
    "contractor": "Richards Disposal",
    "rowid": "942666",
    "final_x": "3668873.03022",
    "final_y": "538595.267977",
    "longitude": "-90.1077028992071",
    "latitude": "29.975327660993408",
    "geocoded_column": {
      "latitude": "29.975327660993408",
      "longitude": "-90.1077028992071"
    }
  },
  {
    "service_request": "2022-942665",
    "request_type": "Trash/Recycling",
    "request_reason": "Order Trash Cart",
    "date_created": "2022-11-12T14:29:53.000",
    "date_modified": "2022-11-12T14:29:54.000",
    "request_status": "Pending",
    "responsible_agency": "Department of Sanitation",
    "final_address": "5133 Elysian Fields Ave",
    "address_councildis": "D",
    "status": "Assigned to Contractor",
    "contractor": "IV Waste",
    "rowid": "942665",
    "final_x": "3683891.82421",
    "final_y": "551653.032085",
    "longitude": "-90.05981124537769",
    "latitude": "30.010781593991144",
    "geocoded_column": {
      "latitude": "30.010781593991144",
      "longitude": "-90.05981124537769"
    }
  },
  {
    "service_request": "2022-942664",
    "request_type": "Trash/Recycling",
    "request_reason": "Order Trash Cart",
    "date_created": "2022-11-12T14:29:01.000",
    "date_modified": "2022-11-12T14:29:02.000",
    "request_status": "Pending",
    "responsible_agency": "Department of Sanitation",
    "final_address": "4615 Dart St",
    "address_councildis": "B",
    "status": "Assigned to Contractor",
    "contractor": "Richards Disposal",
    "rowid": "942664",
    "final_x": "3669294.57345",
    "final_y": "531635.963907",
    "longitude": "-90.10660685805027",
    "latitude": "29.956179487438707",
    "geocoded_column": {
      "latitude": "29.956179487438707",
      "longitude": "-90.10660685805027"
    }
  },
  {
    "service_request": "2022-942663",
    "request_type": "Trash/Recycling",
    "request_reason": "Order Trash Cart",
    "date_created": "2022-11-12T14:28:05.000",
    "date_modified": "2022-11-12T14:28:05.000",
    "request_status": "Pending",
    "responsible_agency": "Department of Sanitation",
    "final_address": "1515 St Charles Ave Apt 202",
    "address_councildis": "B",
    "status": "Assigned to Contractor",
    "contractor": "Richards Disposal",
    "rowid": "942663",
    "final_x": "3679028.61826",
    "final_y": "525463.559805",
    "longitude": "-90.07608389043243",
    "latitude": "29.93891730015402",
    "geocoded_column": {
      "latitude": "29.93891730015402",
      "longitude": "-90.07608389043243"
    }
  },
  {
    "service_request": "2022-942662",
    "request_type": "Trash/Recycling",
    "request_reason": "Order Trash Cart",
    "date_created": "2022-11-12T14:27:04.000",
    "date_modified": "2022-11-12T14:27:04.000",
    "request_status": "Pending",
    "responsible_agency": "Department of Sanitation",
    "final_address": "1515 St Charles Ave Apt 201",
    "address_councildis": "B",
    "status": "Assigned to Contractor",
    "contractor": "Richards Disposal",
    "rowid": "942662",
    "final_x": "3679038.62658",
    "final_y": "525458.176317",
    "longitude": "-90.07605247950227",
    "latitude": "29.938902195386337",
    "geocoded_column": {
      "latitude": "29.938902195386337",
      "longitude": "-90.07605247950227"
    }
  },
  {
    "service_request": "2022-942661",
    "request_type": "Trash/Recycling",
    "request_reason": "Order Trash Cart",
    "date_created": "2022-11-12T14:25:35.000",
    "date_modified": "2022-11-12T14:25:36.000",
    "request_status": "Pending",
    "responsible_agency": "Department of Sanitation",
    "final_address": "1913 N Robertson St",
    "address_councildis": "C",
    "status": "Assigned to Contractor",
    "contractor": "IV Waste",
    "rowid": "942661",
    "final_x": "3683888.19189",
    "final_y": "537722.809736",
    "longitude": "-90.0603116806403",
    "latitude": "29.97247854623437",
    "geocoded_column": {
      "latitude": "29.97247854623437",
      "longitude": "-90.0603116806403"
    }
  },
  {
    "service_request": "2022-942660",
    "request_type": "Trash/Recycling",
    "request_reason": "Order Trash Cart",
    "date_created": "2022-11-12T14:22:00.000",
    "date_modified": "2022-11-12T14:22:01.000",
    "request_status": "Pending",
    "responsible_agency": "Department of Sanitation",
    "final_address": "2505 Constance St",
    "address_councildis": "B",
    "status": "Assigned to Contractor",
    "contractor": "Richards Disposal",
    "rowid": "942660",
    "final_x": "3677950.11509",
    "final_y": "521017.616121",
    "longitude": "-90.07964242586662",
    "latitude": "29.926724906355943",
    "geocoded_column": {
      "latitude": "29.926724906355943",
      "longitude": "-90.07964242586662"
    }
  },
  {
    "service_request": "2022-942659",
    "request_type": "Trash/Recycling",
    "request_reason": "Order Trash Cart",
    "date_created": "2022-11-12T14:20:45.000",
    "date_modified": "2022-11-12T14:20:45.000",
    "request_status": "Pending",
    "responsible_agency": "Department of Sanitation",
    "final_address": "5515 Tchoupitoulas St",
    "address_councildis": "A",
    "status": "Assigned to Contractor",
    "contractor": "Richards Disposal",
    "rowid": "942659",
    "final_x": "3665931.25044",
    "final_y": "517191.681909",
    "longitude": "-90.117711015025",
    "latitude": "29.916560902519905",
    "geocoded_column": {
      "latitude": "29.916560902519905",
      "longitude": "-90.117711015025"
    }
  },
  {
    "service_request": "2022-942658",
    "request_type": "Trash/Recycling",
    "request_reason": "Order Trash Cart",
    "date_created": "2022-11-12T14:19:34.000",
    "date_modified": "2022-11-12T14:19:35.000",
    "request_status": "Pending",
    "responsible_agency": "Department of Sanitation",
    "final_address": "1506 Governor Nicholls St",
    "address_councildis": "C",
    "status": "Assigned to Contractor",
    "contractor": "Richards Disposal",
    "rowid": "942658",
    "final_x": "3681373.27528",
    "final_y": "535731.803207",
    "longitude": "-90.06832364722015",
    "latitude": "29.967080551545966",
    "geocoded_column": {
      "latitude": "29.967080551545966",
      "longitude": "-90.06832364722015"
    }
  },
  {
    "service_request": "2022-942657",
    "request_type": "Trash/Recycling",
    "request_reason": "Order Trash Cart",
    "date_created": "2022-11-12T14:18:24.000",
    "date_modified": "2022-11-12T14:18:24.000",
    "request_status": "Pending",
    "responsible_agency": "Department of Sanitation",
    "final_address": "1502 Governor Nicholls St",
    "address_councildis": "C",
    "status": "Assigned to Contractor",
    "contractor": "Richards Disposal",
    "rowid": "942657",
    "final_x": "3681394.54664",
    "final_y": "535699.699783",
    "longitude": "-90.06825759149775",
    "latitude": "29.966991632420417",
    "geocoded_column": {
      "latitude": "29.966991632420417",
      "longitude": "-90.06825759149775"
    }
  },
  {
    "service_request": "2022-942656",
    "request_type": "Abandoned Vehicles",
    "request_reason": "Abandoned/Junk Vehicles",
    "date_created": "2022-11-12T14:17:31.000",
    "date_modified": "2022-11-12T14:17:31.000",
    "request_status": "Pending",
    "responsible_agency": "Department of Public Works",
    "final_address": "428 S Alexander St",
    "address_councildis": "A",
    "status": "Pending",
    "rowid": "942656",
    "final_x": "3669112.17838",
    "final_y": "537958.845385",
    "longitude": "-90.10696911552718",
    "latitude": "29.973570677062423",
    "geocoded_column": {
      "latitude": "29.973570677062423",
      "longitude": "-90.10696911552718"
    }
  },
  {
    "service_request": "2022-942655",
    "request_type": "Trash/Recycling",
    "request_reason": "Order Trash Cart",
    "date_created": "2022-11-12T14:15:39.000",
    "date_modified": "2022-11-12T14:15:40.000",
    "request_status": "Pending",
    "responsible_agency": "Department of Sanitation",
    "final_address": "114 Atlantic Ave",
    "address_councildis": "C",
    "status": "Assigned to Contractor",
    "contractor": "Richards Disposal",
    "rowid": "942655",
    "final_x": "3688910.2031",
    "final_y": "531136.04109",
    "longitude": "-90.04468527296723",
    "latitude": "29.95421285646406",
    "geocoded_column": {
      "latitude": "29.95421285646406",
      "longitude": "-90.04468527296723"
    }
  },
  {
    "service_request": "2022-942654",
    "request_type": "Trash/Recycling",
    "request_reason": "Order Recycling Cart",
    "date_created": "2022-11-12T13:59:06.000",
    "date_modified": "2022-11-12T13:59:06.000",
    "request_status": "Pending",
    "responsible_agency": "Department of Sanitation",
    "final_address": "6424 Pines Blvd",
    "address_councildis": "D",
    "status": "Pending",
    "rowid": "942654",
    "final_x": "3697820.75901",
    "final_y": "556558.976346",
    "longitude": "-90.01562631310127",
    "latitude": "30.02383805793618",
    "geocoded_column": {
      "latitude": "30.02383805793618",
      "longitude": "-90.01562631310127"
    }
  },
  {
    "service_request": "2022-942653",
    "request_type": "Trash/Recycling",
    "request_reason": "Order Recycling Cart",
    "date_created": "2022-11-12T13:59:04.000",
    "date_modified": "2022-11-12T13:59:04.000",
    "request_status": "Pending",
    "responsible_agency": "Department of Sanitation",
    "final_address": "6424 Pines Blvd",
    "address_councildis": "D",
    "status": "Pending",
    "rowid": "942653",
    "final_x": "3697820.75901",
    "final_y": "556558.976346",
    "longitude": "-90.01562631310127",
    "latitude": "30.02383805793618",
    "geocoded_column": {
      "latitude": "30.02383805793618",
      "longitude": "-90.01562631310127"
    }
  },
  {
    "service_request": "2022-942652",
    "request_type": "Trash/Recycling",
    "request_reason": "Order Recycling Cart",
    "date_created": "2022-11-12T13:56:30.000",
    "date_modified": "2022-11-12T13:56:30.000",
    "request_status": "Pending",
    "responsible_agency": "Department of Sanitation",
    "final_address": "2900 Paris Ave",
    "address_councildis": "D",
    "status": "Pending",
    "rowid": "942652",
    "final_x": "3679791.00386",
    "final_y": "542969.430797",
    "longitude": "-90.07306908040523",
    "latitude": "29.987029459211346",
    "geocoded_column": {
      "latitude": "29.987029459211346",
      "longitude": "-90.07306908040523"
    }
  },
  {
    "service_request": "2022-942651",
    "request_type": "Trash/Recycling",
    "request_reason": "Order Recycling Cart",
    "date_created": "2022-11-12T13:53:41.000",
    "date_modified": "2022-11-12T13:53:41.000",
    "request_status": "Pending",
    "responsible_agency": "Department of Sanitation",
    "final_address": "3584 Gentilly Blvd",
    "address_councildis": "D",
    "status": "Pending",
    "rowid": "942651",
    "final_x": "3686162.18204",
    "final_y": "548680.727251",
    "longitude": "-90.05274326426564",
    "latitude": "30.002539258475135",
    "geocoded_column": {
      "latitude": "30.002539258475135",
      "longitude": "-90.05274326426564"
    }
  },
  {
    "service_request": "2022-942650",
    "request_type": "Trash/Recycling",
    "request_reason": "Request a Large Item Pick Up",
    "date_created": "2022-11-12T13:51:02.000",
    "date_modified": "2022-11-12T13:51:02.000",
    "request_status": "Pending",
    "responsible_agency": "Department of Sanitation",
    "final_address": "1805 Second St",
    "address_councildis": "B",
    "status": "Assigned to Contractor",
    "contractor": "Richards Disposal",
    "rowid": "942650",
    "final_x": "3676285.44078",
    "final_y": "523724.287227",
    "longitude": "-90.08480425795253",
    "latitude": "29.934217347538617",
    "geocoded_column": {
      "latitude": "29.934217347538617",
      "longitude": "-90.08480425795253"
    }
  },
  {
    "service_request": "2022-942649",
    "request_type": "Trash/Recycling",
    "request_reason": "Order Recycling Cart",
    "date_created": "2022-11-12T13:33:44.000",
    "date_modified": "2022-11-12T13:33:44.000",
    "request_status": "Pending",
    "responsible_agency": "Department of Sanitation",
    "final_address": "4429 Duplessis St",
    "address_councildis": "D",
    "status": "Pending",
    "rowid": "942649",
    "final_x": "3678338.54158",
    "final_y": "548817.680275",
    "longitude": "-90.07745441930514",
    "latitude": "30.003153930815156",
    "geocoded_column": {
      "latitude": "30.003153930815156",
      "longitude": "-90.07745441930514"
    }
  },
  {
    "service_request": "2022-942648",
    "request_type": "Trash/Recycling",
    "request_reason": "Order Recycling Cart",
    "date_created": "2022-11-12T13:26:14.000",
    "date_modified": "2022-11-12T13:26:14.000",
    "request_status": "Pending",
    "responsible_agency": "Department of Sanitation",
    "final_address": "7525 Edward St",
    "address_councildis": "E",
    "status": "Pending",
    "rowid": "942648",
    "final_x": "3701215.26545",
    "final_y": "560710.253726",
    "longitude": "-90.00474832042549",
    "latitude": "30.035144692770455",
    "geocoded_column": {
      "latitude": "30.035144692770455",
      "longitude": "-90.00474832042549"
    }
  },
  {
    "service_request": "2022-942646",
    "request_type": "Roads/Drainage",
    "request_reason": "Accessibility Ramps, Curbs and Sidewalk Repair",
    "date_created": "2022-11-12T13:08:56.000",
    "date_modified": "2022-11-12T13:08:56.000",
    "request_status": "Pending",
    "responsible_agency": "Department of Public Works",
    "final_address": "814 Lowerline St",
    "address_councildis": "A",
    "status": "Pending",
    "rowid": "942646",
    "final_x": "3662949.70874",
    "final_y": "525804.269565",
    "longitude": "-90.12683578382857",
    "latitude": "29.94032945404512",
    "geocoded_column": {
      "latitude": "29.94032945404512",
      "longitude": "-90.12683578382857"
    }
  },
  {
    "service_request": "2022-942645",
    "request_type": "Abandoned Vehicles",
    "request_reason": "Abandoned/Junk Vehicles",
    "date_created": "2022-11-12T13:06:57.000",
    "date_modified": "2022-11-12T13:06:57.000",
    "request_status": "Pending",
    "responsible_agency": "Department of Public Works",
    "final_address": "2441 N Galvez St",
    "address_councildis": "D",
    "status": "Pending",
    "rowid": "942645",
    "final_x": "3686591.64226",
    "final_y": "540163.671499",
    "longitude": "-90.05168750121912",
    "latitude": "29.97910719531107",
    "geocoded_column": {
      "latitude": "29.97910719531107",
      "longitude": "-90.05168750121912"
    }
  },
  {
    "service_request": "2022-942644",
    "request_type": "Trash/Recycling",
    "request_reason": "Illegal Dumping",
    "date_created": "2022-11-12T12:54:30.000",
    "date_modified": "2022-11-12T12:54:30.000",
    "request_status": "Pending",
    "responsible_agency": "Department of Sanitation",
    "final_address": "1571 N Dorgenois St",
    "address_councildis": "D",
    "status": "Pending",
    "rowid": "942644",
    "final_x": "3679457.75029",
    "final_y": "539750.899402",
    "longitude": "-90.07423341812915",
    "latitude": "29.978189692333125",
    "geocoded_column": {
      "latitude": "29.978189692333125",
      "longitude": "-90.07423341812915"
    }
  },
  {
    "service_request": "2022-942643",
    "request_type": "Trash/Recycling",
    "request_reason": "Request a Large Item Pick Up",
    "date_created": "2022-11-12T12:51:41.000",
    "date_modified": "2022-11-12T12:51:42.000",
    "request_status": "Pending",
    "responsible_agency": "Department of Sanitation",
    "final_address": "2628 Magazine St",
    "address_councildis": "B",
    "status": "Assigned to Contractor",
    "contractor": "Richards Disposal",
    "rowid": "942643",
    "final_x": "3677376.12142",
    "final_y": "520975.293369",
    "longitude": "-90.08145582945592",
    "latitude": "29.926625788561815",
    "geocoded_column": {
      "latitude": "29.926625788561815",
      "longitude": "-90.08145582945592"
    }
  },
  {
    "service_request": "2022-942642",
    "request_type": "Trash/Recycling",
    "request_reason": "Request a Large Item Pick Up",
    "date_created": "2022-11-12T12:49:35.000",
    "date_modified": "2022-11-12T12:49:36.000",
    "request_status": "Pending",
    "responsible_agency": "Department of Sanitation",
    "final_address": "7411 Sheffield St",
    "address_councildis": "E",
    "status": "Assigned to Contractor",
    "contractor": "Waste Pro",
    "rowid": "942642",
    "final_x": "3699518.33642",
    "final_y": "559648.509213",
    "longitude": "-90.01014960320985",
    "latitude": "30.032279297770074",
    "geocoded_column": {
      "latitude": "30.032279297770074",
      "longitude": "-90.01014960320985"
    }
  },
  {
    "service_request": "2022-942641",
    "request_type": "Property Maintenance",
    "request_reason": "Property Maintenance",
    "date_created": "2022-11-12T12:48:24.000",
    "date_modified": "2022-11-12T12:48:24.000",
    "request_status": "Pending",
    "responsible_agency": "Department of Code Enforcement",
    "final_address": "1571 N Dorgenois St",
    "address_councildis": "D",
    "status": "Pending",
    "rowid": "942641",
    "final_x": "3679457.75029",
    "final_y": "539750.899402",
    "longitude": "-90.07423341812915",
    "latitude": "29.978189692333125",
    "geocoded_column": {
      "latitude": "29.978189692333125",
      "longitude": "-90.07423341812915"
    }
  },
  {
    "service_request": "2022-942640",
    "request_type": "Traffic Signals/Signs/Striping/Streetlights",
    "request_reason": "Street Name Sign Damaged or Missing",
    "date_created": "2022-11-12T12:44:49.000",
    "date_modified": "2022-11-12T12:44:49.000",
    "request_status": "Pending",
    "responsible_agency": "Department of Public Works",
    "final_address": "1639 N Johnson St",
    "address_councildis": "D",
    "status": "Pending",
    "rowid": "942640",
    "final_x": "3681185.48636",
    "final_y": "538938.51329",
    "longitude": "-90.06880492788837",
    "latitude": "29.975903597000382",
    "geocoded_column": {
      "latitude": "29.975903597000382",
      "longitude": "-90.06880492788837"
    }
  },
  {
    "service_request": "2022-942639",
    "request_type": "Roads/Drainage",
    "request_reason": "Pothole",
    "date_created": "2022-11-12T12:36:48.000",
    "date_modified": "2022-11-12T12:36:48.000",
    "request_status": "Pending",
    "responsible_agency": "Department of Public Works",
    "final_address": "1139 Arabella St",
    "address_councildis": "A",
    "status": "Pending",
    "rowid": "942639",
    "final_x": "3666152.53025",
    "final_y": "520220.218232",
    "longitude": "-90.11691108139415",
    "latitude": "29.924881970538088",
    "geocoded_column": {
      "latitude": "29.924881970538088",
      "longitude": "-90.11691108139415"
    }
  },
  {
    "service_request": "2022-942638",
    "request_type": "Property Maintenance",
    "request_reason": "Property Maintenance",
    "date_created": "2022-11-12T12:31:40.000",
    "date_modified": "2022-11-12T12:31:40.000",
    "request_status": "Pending",
    "responsible_agency": "Department of Code Enforcement",
    "final_address": "1563 N Johnson St",
    "address_councildis": "D",
    "status": "Pending",
    "rowid": "942638",
    "final_x": "3680901.73019",
    "final_y": "538506.849545",
    "longitude": "-90.06971614497652",
    "latitude": "29.97472527864403",
    "geocoded_column": {
      "latitude": "29.97472527864403",
      "longitude": "-90.06971614497652"
    }
  },
  {
    "service_request": "2022-942637",
    "request_type": "Traffic Signals/Signs/Striping/Streetlights",
    "request_reason": "Traffic Sign Missing/Damaged",
    "date_created": "2022-11-12T12:26:55.000",
    "date_modified": "2022-11-12T12:26:55.000",
    "request_status": "Pending",
    "responsible_agency": "Department of Public Works",
    "final_address": "1639 N Johnson St",
    "address_councildis": "D",
    "status": "Pending",
    "rowid": "942637",
    "final_x": "3681185.48636",
    "final_y": "538938.51329",
    "longitude": "-90.06880492788837",
    "latitude": "29.975903597000382",
    "geocoded_column": {
      "latitude": "29.975903597000382",
      "longitude": "-90.06880492788837"
    }
  },
  {
    "service_request": "2022-942636",
    "request_type": "Trash/Recycling",
    "request_reason": "Request a Large Item Pick Up",
    "date_created": "2022-11-12T12:23:58.000",
    "date_modified": "2022-11-12T12:23:58.000",
    "request_status": "Pending",
    "responsible_agency": "Department of Sanitation",
    "final_address": "1017 N Galvez St",
    "address_councildis": "D",
    "status": "Assigned to Contractor",
    "contractor": "Richards Disposal",
    "rowid": "942636",
    "final_x": "3679100.6845",
    "final_y": "536739.366599",
    "longitude": "-90.07546557407653",
    "latitude": "29.969919797818687",
    "geocoded_column": {
      "latitude": "29.969919797818687",
      "longitude": "-90.07546557407653"
    }
  },
  {
    "service_request": "2022-942635",
    "request_type": "Abandoned Vehicles",
    "request_reason": "Abandoned/Junk Vehicles",
    "date_created": "2022-11-12T12:22:10.000",
    "date_modified": "2022-11-12T12:22:10.000",
    "request_status": "Pending",
    "responsible_agency": "Department of Public Works",
    "final_address": "2501 Columbus St",
    "address_councildis": "D",
    "status": "Pending",
    "rowid": "942635",
    "final_x": "3679102.43029",
    "final_y": "539281.388682",
    "longitude": "-90.07537192581368",
    "latitude": "29.976909431180086",
    "geocoded_column": {
      "latitude": "29.976909431180086",
      "longitude": "-90.07537192581368"
    }
  },
  {
    "service_request": "2022-942634",
    "request_type": "Trash/Recycling",
    "request_reason": "Repair Recycling Cart",
    "date_created": "2022-11-12T12:19:59.000",
    "date_modified": "2022-11-12T12:19:59.000",
    "request_status": "Pending",
    "responsible_agency": "Department of Sanitation",
    "final_address": "6830 Louisville St",
    "address_councildis": "A",
    "status": "Pending",
    "rowid": "942634",
    "final_x": "3668158.60666",
    "final_y": "553009.600215",
    "longitude": "-90.10947300622882",
    "latitude": "30.014983108672837",
    "geocoded_column": {
      "latitude": "30.014983108672837",
      "longitude": "-90.10947300622882"
    }
  },
  {
    "service_request": "2022-942633",
    "request_type": "Traffic Signals/Signs/Striping/Streetlights",
    "request_reason": "Traffic Sign Missing/Damaged",
    "date_created": "2022-11-12T12:17:54.000",
    "date_modified": "2022-11-12T12:17:54.000",
    "request_status": "Pending",
    "responsible_agency": "Department of Public Works",
    "final_address": "3036 S Carrollton Ave",
    "address_councildis": "A",
    "status": "Pending",
    "rowid": "942633",
    "final_x": "3666480.86477",
    "final_y": "533378.239364",
    "longitude": "-90.1154331563149",
    "latitude": "29.961052702622894",
    "geocoded_column": {
      "latitude": "29.961052702622894",
      "longitude": "-90.1154331563149"
    }
  },
  {
    "service_request": "2022-942632",
    "request_type": "Property Maintenance",
    "request_reason": "Property Maintenance",
    "date_created": "2022-11-12T12:17:38.000",
    "date_modified": "2022-11-12T12:17:38.000",
    "request_status": "Pending",
    "responsible_agency": "Department of Code Enforcement",
    "final_address": "1107 N Dorgenois St",
    "address_councildis": "D",
    "status": "Pending",
    "rowid": "942632",
    "final_x": "3678081.37819",
    "final_y": "537906.574857",
    "longitude": "-90.0786442794946",
    "latitude": "29.973159949031086",
    "geocoded_column": {
      "latitude": "29.973159949031086",
      "longitude": "-90.0786442794946"
    }
  },
  {
    "service_request": "2022-942631",
    "request_type": "Trash/Recycling",
    "request_reason": "Order Recycling Cart",
    "date_created": "2022-11-12T12:15:42.000",
    "date_modified": "2022-11-12T12:15:43.000",
    "request_status": "Pending",
    "responsible_agency": "Department of Sanitation",
    "final_address": "13520 Trappers Ct",
    "address_councildis": "E",
    "status": "Pending",
    "rowid": "942631",
    "final_x": "3724468.7774",
    "final_y": "569107.39159",
    "longitude": "-89.93093973934774",
    "latitude": "30.057471478246814",
    "geocoded_column": {
      "latitude": "30.057471478246814",
      "longitude": "-89.93093973934774"
    }
  },
  {
    "service_request": "2022-942630",
    "request_type": "Trash/Recycling",
    "request_reason": "Illegal Dumping",
    "date_created": "2022-11-12T12:15:34.000",
    "date_modified": "2022-11-12T12:15:34.000",
    "request_status": "Pending",
    "responsible_agency": "Department of Sanitation",
    "final_address": "1107 N Dorgenois St",
    "address_councildis": "D",
    "status": "Pending",
    "rowid": "942630",
    "final_x": "3678081.37819",
    "final_y": "537906.574857",
    "longitude": "-90.0786442794946",
    "latitude": "29.973159949031086",
    "geocoded_column": {
      "latitude": "29.973159949031086",
      "longitude": "-90.0786442794946"
    }
  },
  {
    "service_request": "2022-942628",
    "request_type": "Trash/Recycling",
    "request_reason": "Order Trash Cart",
    "date_created": "2022-11-12T12:11:22.000",
    "date_modified": "2022-11-12T12:11:23.000",
    "request_status": "Pending",
    "responsible_agency": "Department of Sanitation",
    "final_address": "6545 Canal Blvd Nola 70124",
    "status": "Assigned to Contractor",
    "rowid": "942628",
    "longitude": "0.0",
    "latitude": "0.0",
    "geocoded_column": {
      "latitude": "0.0",
      "longitude": "0.0"
    }
  },
  {
    "service_request": "2022-942627",
    "request_type": "Trash/Recycling",
    "request_reason": "Order Recycling Cart",
    "date_created": "2022-11-12T12:11:07.000",
    "date_modified": "2022-11-12T12:11:07.000",
    "request_status": "Pending",
    "responsible_agency": "Department of Sanitation",
    "final_address": "4559 America St",
    "address_councildis": "E",
    "status": "Pending",
    "rowid": "942627",
    "final_x": "3699846.65258",
    "final_y": "554105.594456",
    "longitude": "-90.00931450442448",
    "latitude": "30.017027978206922",
    "geocoded_column": {
      "latitude": "30.017027978206922",
      "longitude": "-90.00931450442448"
    }
  },
  {
    "service_request": "2022-942626",
    "request_type": "Roads/Drainage",
    "request_reason": "Damaged Sidewalk",
    "date_created": "2022-11-12T12:10:49.000",
    "date_modified": "2022-11-12T12:10:50.000",
    "request_status": "Pending",
    "responsible_agency": "Department of Public Works",
    "final_address": "6318 Pandora St",
    "address_councildis": "D",
    "status": "Pending",
    "rowid": "942626",
    "final_x": "3696890.41763",
    "final_y": "557285.858907",
    "longitude": "-90.01853963860286",
    "latitude": "30.025866093212738",
    "geocoded_column": {
      "latitude": "30.025866093212738",
      "longitude": "-90.01853963860286"
    }
  },
  {
    "service_request": "2022-942623",
    "request_type": "Parks & Parkways",
    "request_reason": "Request Tree Service (Right of Way/Public Property)",
    "date_created": "2022-11-12T12:09:49.000",
    "date_modified": "2022-11-12T12:11:23.000",
    "request_status": "Pending",
    "responsible_agency": "Department of Parks & Parkway",
    "final_address": "6318 Pandora St",
    "address_councildis": "D",
    "status": "Pending",
    "rowid": "942623",
    "final_x": "3696890.41763",
    "final_y": "557285.858907",
    "longitude": "-90.01853963860286",
    "latitude": "30.025866093212738",
    "geocoded_column": {
      "latitude": "30.025866093212738",
      "longitude": "-90.01853963860286"
    }
  },
  {
    "service_request": "2022-942622",
    "request_type": "Trash/Recycling",
    "request_reason": "Illegal Dumping",
    "date_created": "2022-11-12T12:07:38.000",
    "date_modified": "2022-11-12T12:07:39.000",
    "request_status": "Pending",
    "responsible_agency": "Department of Code Enforcement",
    "final_address": "6327 Pandora St",
    "address_councildis": "D",
    "status": "Pending",
    "rowid": "942622",
    "final_x": "3696895.12029",
    "final_y": "557458.501275",
    "longitude": "-90.01851851916332",
    "latitude": "30.02634064550857",
    "geocoded_column": {
      "latitude": "30.02634064550857",
      "longitude": "-90.01851851916332"
    }
  },
  {
    "service_request": "2022-942621",
    "request_type": "Traffic Signals/Signs/Striping/Streetlights",
    "request_reason": "Street Light Outage/Malfunction",
    "date_created": "2022-11-12T12:03:16.000",
    "date_modified": "2022-11-12T12:03:17.000",
    "request_status": "Pending",
    "responsible_agency": "Department of Public Works",
    "final_address": "5061 Read Blvd",
    "address_councildis": "E",
    "status": "Pending",
    "contractor": "Legacy Professional Services",
    "rowid": "942621",
    "final_x": "3712720.86661",
    "final_y": "557762.301915",
    "longitude": "-89.96850010376605",
    "latitude": "30.02666716240219",
    "geocoded_column": {
      "latitude": "30.02666716240219",
      "longitude": "-89.96850010376605"
    }
  },
  {
    "service_request": "2022-942620",
    "request_type": "Trash/Recycling",
    "request_reason": "Missed Trash Pick-Up",
    "date_created": "2022-11-12T12:01:25.000",
    "date_modified": "2022-11-12T12:11:49.000",
    "request_status": "Pending",
    "responsible_agency": "Department of Sanitation",
    "final_address": "6318 Pandora St",
    "address_councildis": "D",
    "contractor": "Waste Pro",
    "rowid": "942620",
    "final_x": "3696890.41763",
    "final_y": "557285.858907",
    "longitude": "-90.01853963860286",
    "latitude": "30.025866093212738",
    "geocoded_column": {
      "latitude": "30.025866093212738",
      "longitude": "-90.01853963860286"
    }
  },
  {
    "service_request": "2022-942619",
    "request_type": "Trash/Recycling",
    "request_reason": "Order Recycling Cart",
    "date_created": "2022-11-12T11:59:10.000",
    "date_modified": "2022-11-12T11:59:10.000",
    "request_status": "Pending",
    "responsible_agency": "Department of Sanitation",
    "final_address": "11417 S St Andrews Cir",
    "address_councildis": "E",
    "status": "Pending",
    "rowid": "942619",
    "final_x": "3719549.47461",
    "final_y": "559519.532637",
    "longitude": "-89.94685551967636",
    "latitude": "30.031273425293886",
    "geocoded_column": {
      "latitude": "30.031273425293886",
      "longitude": "-89.94685551967636"
    }
  },
  {
    "service_request": "2022-942618",
    "request_type": "Trash/Recycling",
    "request_reason": "Order Recycling Cart",
    "date_created": "2022-11-12T11:58:51.000",
    "date_modified": "2022-11-12T11:58:51.000",
    "request_status": "Pending",
    "responsible_agency": "Department of Sanitation",
    "final_address": "5201 Chamberlain Dr",
    "address_councildis": "D",
    "status": "Pending",
    "rowid": "942618",
    "final_x": "3679635.20239",
    "final_y": "551399.034645",
    "longitude": "-90.07326839759706",
    "latitude": "30.01021258939849",
    "geocoded_column": {
      "latitude": "30.01021258939849",
      "longitude": "-90.07326839759706"
    }
  },
  {
    "service_request": "2022-942617",
    "request_type": "Trash/Recycling",
    "request_reason": "Missed Trash Pick-Up",
    "date_created": "2022-11-12T11:55:16.000",
    "date_modified": "2022-11-12T11:55:16.000",
    "request_status": "Pending",
    "responsible_agency": "Department of Sanitation",
    "final_address": "5401 St Charles Ave",
    "address_councildis": "A",
    "status": "Assigned to Contractor",
    "contractor": "Richards Disposal",
    "rowid": "942617",
    "final_x": "3667325.47348",
    "final_y": "521705.714745",
    "longitude": "-90.11315853743315",
    "latitude": "29.928932324373637",
    "geocoded_column": {
      "latitude": "29.928932324373637",
      "longitude": "-90.11315853743315"
    }
  },
  {
    "service_request": "2022-942616",
    "request_type": "Abandoned Vehicles",
    "request_reason": "Abandoned/Junk Vehicles",
    "date_created": "2022-11-12T11:42:45.000",
    "date_modified": "2022-11-12T11:43:58.000",
    "request_status": "Pending",
    "responsible_agency": "Department of Public Works",
    "final_address": "13761 Explorers Ave",
    "address_councildis": "E",
    "status": "Pending",
    "rowid": "942616",
    "final_x": "3725961.55494",
    "final_y": "569672.449126",
    "longitude": "-89.92619940112404",
    "latitude": "30.058974827806747",
    "geocoded_column": {
      "latitude": "30.058974827806747",
      "longitude": "-89.92619940112404"
    }
  },
  {
    "service_request": "2022-942615",
    "request_type": "Roads/Drainage",
    "request_reason": "Street Subsidence (Sinking)",
    "date_created": "2022-11-12T11:30:00.000",
    "date_modified": "2022-11-12T11:30:00.000",
    "request_status": "Pending",
    "responsible_agency": "Department of Public Works",
    "final_address": "5535 Annunciation St",
    "address_councildis": "A",
    "status": "Pending",
    "rowid": "942615",
    "final_x": "3665873.1088",
    "final_y": "517589.000182",
    "longitude": "-90.117881231626",
    "latitude": "29.91765509967947",
    "geocoded_column": {
      "latitude": "29.91765509967947",
      "longitude": "-90.117881231626"
    }
  },
  {
    "service_request": "2022-942614",
    "request_type": "Abandoned Vehicles",
    "request_reason": "Abandoned/Junk Vehicles",
    "date_created": "2022-11-12T11:26:50.000",
    "date_modified": "2022-11-12T11:26:50.000",
    "request_status": "Pending",
    "responsible_agency": "Department of Public Works",
    "final_address": "3400 Mansfield Ave",
    "address_councildis": "C",
    "status": "Pending",
    "rowid": "942614",
    "final_x": "3709142.75371",
    "final_y": "518308.082102",
    "longitude": "-89.98127753043126",
    "latitude": "29.91829936189579",
    "geocoded_column": {
      "latitude": "29.91829936189579",
      "longitude": "-89.98127753043126"
    }
  },
  {
    "service_request": "2022-942613",
    "request_type": "Abandoned Vehicles",
    "request_reason": "Abandoned/Junk Vehicles",
    "date_created": "2022-11-12T11:24:30.000",
    "date_modified": "2022-11-12T11:24:30.000",
    "request_status": "Pending",
    "responsible_agency": "Department of Public Works",
    "final_address": "3400 Mansfield Ave",
    "address_councildis": "C",
    "status": "Pending",
    "rowid": "942613",
    "final_x": "3709142.75371",
    "final_y": "518308.082102",
    "longitude": "-89.98127753043126",
    "latitude": "29.91829936189579",
    "geocoded_column": {
      "latitude": "29.91829936189579",
      "longitude": "-89.98127753043126"
    }
  },
  {
    "service_request": "2022-942612",
    "request_type": "Property Maintenance",
    "request_reason": "Property Maintenance",
    "date_created": "2022-11-12T11:23:01.000",
    "date_modified": "2022-11-12T11:23:01.000",
    "request_status": "Pending",
    "responsible_agency": "Department of Code Enforcement",
    "final_address": "1025 Henry Clay Ave",
    "address_councildis": "A",
    "status": "Pending",
    "rowid": "942612",
    "final_x": "3664171.48122",
    "final_y": "520367.721336",
    "longitude": "-90.12315971277809",
    "latitude": "29.925345237040823",
    "geocoded_column": {
      "latitude": "29.925345237040823",
      "longitude": "-90.12315971277809"
    }
  },
  {
    "service_request": "2022-942611",
    "request_type": "Trash/Recycling",
    "request_reason": "MIssed Recycling Pick-Up",
    "date_created": "2022-11-12T11:22:31.000",
    "date_modified": "2022-11-12T11:22:32.000",
    "request_status": "Pending",
    "responsible_agency": "Department of Sanitation",
    "final_address": "4400 BLK S Saratoga St",
    "address_councildis": "B",
    "status": "Assigned to Contractor",
    "contractor": "Richards Disposal",
    "rowid": "942611",
    "final_x": "3670452.72467",
    "final_y": "522625.09102",
    "longitude": "-90.10325524966053",
    "latitude": "29.931368376377996",
    "geocoded_column": {
      "latitude": "29.931368376377996",
      "longitude": "-90.10325524966053"
    }
  },
  {
    "service_request": "2022-942610",
    "request_type": "Trash/Recycling",
    "request_reason": "MIssed Recycling Pick-Up",
    "date_created": "2022-11-12T11:21:20.000",
    "date_modified": "2022-11-12T11:22:56.000",
    "request_status": "Pending",
    "responsible_agency": "Department of Sanitation",
    "final_address": "4618 S Saratoga St",
    "address_councildis": "B",
    "status": "Assigned to Contractor",
    "contractor": "Richards Disposal",
    "rowid": "942610",
    "final_x": "3669739.8043",
    "final_y": "522466.45017",
    "longitude": "-90.105511224129",
    "latitude": "29.930953189725493",
    "geocoded_column": {
      "latitude": "29.930953189725493",
      "longitude": "-90.105511224129"
    }
  },
  {
    "service_request": "2022-942609",
    "request_type": "Trash/Recycling",
    "request_reason": "Request a Large Item Pick Up",
    "date_created": "2022-11-12T11:16:30.000",
    "date_modified": "2022-11-12T11:16:31.000",
    "request_status": "Pending",
    "responsible_agency": "Department of Sanitation",
    "final_address": "4305 S Carrollton Ave, New Orleans, Louisiana, 70119",
    "address_councildis": "A",
    "status": "Assigned to Contractor",
    "contractor": "Richards Disposal",
    "rowid": "942609",
    "final_x": "3669742.43098",
    "final_y": "536962.314376",
    "longitude": "-90.10501237668194",
    "latitude": "29.970811988824202",
    "geocoded_column": {
      "latitude": "29.970811988824202",
      "longitude": "-90.10501237668194"
    }
  },
  {
    "service_request": "2022-942608",
    "request_type": "Trash/Recycling",
    "request_reason": "Order Recycling Cart",
    "date_created": "2022-11-12T11:16:08.000",
    "date_modified": "2022-11-12T11:16:08.000",
    "request_status": "Pending",
    "responsible_agency": "Department of Sanitation",
    "final_address": "4739 Dauphine St",
    "address_councildis": "E",
    "status": "Pending",
    "rowid": "942608",
    "final_x": "3694648.04022",
    "final_y": "533420.658884",
    "longitude": "-90.02648529323626",
    "latitude": "29.96031607217896",
    "geocoded_column": {
      "latitude": "29.96031607217896",
      "longitude": "-90.02648529323626"
    }
  },
  {
    "service_request": "2022-942607",
    "request_type": "Trash/Recycling",
    "request_reason": "Request a Large Item Pick Up",
    "date_created": "2022-11-12T11:12:13.000",
    "date_modified": "2022-11-12T11:12:14.000",
    "request_status": "Pending",
    "responsible_agency": "Department of Sanitation",
    "final_address": "4305 S Carrollton Ave, New Orleans, Louisiana, 70119",
    "address_councildis": "A",
    "status": "Assigned to Contractor",
    "contractor": "Richards Disposal",
    "rowid": "942607",
    "final_x": "3669742.43098",
    "final_y": "536962.314376",
    "longitude": "-90.10501237668194",
    "latitude": "29.970811988824202",
    "geocoded_column": {
      "latitude": "29.970811988824202",
      "longitude": "-90.10501237668194"
    }
  },
  {
    "service_request": "2022-942606",
    "request_type": "Trash/Recycling",
    "request_reason": "Order Recycling Cart",
    "date_created": "2022-11-12T11:08:45.000",
    "date_modified": "2022-11-12T11:09:13.000",
    "request_status": "Pending",
    "responsible_agency": "Department of Sanitation",
    "final_address": "4346 Paris Ave",
    "address_councildis": "D",
    "status": "Pending",
    "rowid": "942606",
    "final_x": "3679302.12642",
    "final_y": "548498.25013",
    "longitude": "-90.0744213987844",
    "latitude": "30.002246536966055",
    "geocoded_column": {
      "latitude": "30.002246536966055",
      "longitude": "-90.0744213987844"
    }
  },
  {
    "service_request": "2022-942605",
    "request_type": "Trash/Recycling",
    "request_reason": "Order Recycling Cart",
    "date_created": "2022-11-12T11:05:28.000",
    "date_modified": "2022-11-12T11:05:28.000",
    "request_status": "Pending",
    "responsible_agency": "Department of Sanitation",
    "final_address": "205 Warrington Dr",
    "address_councildis": "D",
    "status": "Pending",
    "rowid": "942605",
    "final_x": "3682684.43516",
    "final_y": "547035.171985",
    "longitude": "-90.0637875016947",
    "latitude": "29.998120983441552",
    "geocoded_column": {
      "latitude": "29.998120983441552",
      "longitude": "-90.0637875016947"
    }
  },
  {
    "service_request": "2022-942604",
    "request_type": "Trash/Recycling",
    "request_reason": "Missed Trash Pick-Up",
    "date_created": "2022-11-12T11:01:48.000",
    "date_modified": "2022-11-12T11:01:48.000",
    "request_status": "Pending",
    "responsible_agency": "Department of Sanitation",
    "final_address": "1730 Joliet St",
    "address_councildis": "A",
    "status": "Assigned to Contractor",
    "contractor": "Richards Disposal",
    "rowid": "942604",
    "final_x": "3662238.74848",
    "final_y": "530845.76621",
    "longitude": "-90.12891310475061",
    "latitude": "29.954212520124766",
    "geocoded_column": {
      "latitude": "29.954212520124766",
      "longitude": "-90.12891310475061"
    }
  },
  {
    "service_request": "2022-942603",
    "request_type": "Trash/Recycling",
    "request_reason": "Request a Large Item Pick Up",
    "date_created": "2022-11-12T10:59:20.000",
    "date_modified": "2022-11-12T10:59:21.000",
    "request_status": "Pending",
    "responsible_agency": "Department of Sanitation",
    "final_address": "414 Delaronde St",
    "address_councildis": "C",
    "status": "Assigned to Contractor",
    "contractor": "Richards Disposal",
    "rowid": "942603",
    "final_x": "3686658.76073",
    "final_y": "531097.757122",
    "longitude": "-90.05179576168031",
    "latitude": "29.9541770192208",
    "geocoded_column": {
      "latitude": "29.9541770192208",
      "longitude": "-90.05179576168031"
    }
  },
  {
    "service_request": "2022-942602",
    "request_type": "Trash/Recycling",
    "request_reason": "Order Recycling Cart",
    "date_created": "2022-11-12T10:58:21.000",
    "date_modified": "2022-11-12T10:58:21.000",
    "request_status": "Pending",
    "responsible_agency": "Department of Sanitation",
    "final_address": "8133 Maple St",
    "address_councildis": "A",
    "status": "Pending",
    "rowid": "942602",
    "final_x": "3660857.70874",
    "final_y": "527525.716159",
    "longitude": "-90.1333836831327",
    "latitude": "29.945123288181318",
    "geocoded_column": {
      "latitude": "29.945123288181318",
      "longitude": "-90.1333836831327"
    }
  },
  {
    "service_request": "2022-942601",
    "request_type": "Trash/Recycling",
    "request_reason": "Order Recycling Cart",
    "date_created": "2022-11-12T10:55:43.000",
    "date_modified": "2022-11-12T10:55:43.000",
    "request_status": "Pending",
    "responsible_agency": "Department of Sanitation",
    "final_address": "22 Warbler St",
    "address_councildis": "D",
    "status": "Pending",
    "rowid": "942601",
    "final_x": "3673376.52968",
    "final_y": "556808.35817",
    "longitude": "-90.09285689271616",
    "latitude": "30.025274054497434",
    "geocoded_column": {
      "latitude": "30.025274054497434",
      "longitude": "-90.09285689271616"
    }
  },
  {
    "service_request": "2022-942600",
    "request_type": "Trash/Recycling",
    "request_reason": "Order Recycling Cart",
    "date_created": "2022-11-12T10:28:44.000",
    "date_modified": "2022-11-12T10:28:44.000",
    "request_status": "Pending",
    "responsible_agency": "Department of Sanitation",
    "final_address": "7621 Pebble Dr",
    "address_councildis": "E",
    "status": "Pending",
    "rowid": "942600",
    "final_x": "3715251.46891",
    "final_y": "568927.562149",
    "longitude": "-89.96008093166088",
    "latitude": "30.0572839842525",
    "geocoded_column": {
      "latitude": "30.0572839842525",
      "longitude": "-89.96008093166088"
    }
  },
  {
    "service_request": "2022-942599",
    "request_type": "Trash/Recycling",
    "request_reason": "MIssed Recycling Pick-Up",
    "date_created": "2022-11-12T10:26:21.000",
    "date_modified": "2022-11-12T10:26:22.000",
    "request_status": "Pending",
    "responsible_agency": "Department of Sanitation",
    "final_address": "8727 Apricot St",
    "address_councildis": "A",
    "status": "Assigned to Contractor",
    "contractor": "Richards Disposal",
    "rowid": "942599",
    "final_x": "3664110.13172",
    "final_y": "534242.916101",
    "longitude": "-90.12289068360873",
    "latitude": "29.963499354241172",
    "geocoded_column": {
      "latitude": "29.963499354241172",
      "longitude": "-90.12289068360873"
    }
  },
  {
    "service_request": "2022-942598",
    "request_type": "Property Maintenance",
    "request_reason": "Property Maintenance",
    "date_created": "2022-11-12T10:24:45.000",
    "date_modified": "2022-11-12T10:24:45.000",
    "request_status": "Pending",
    "responsible_agency": "Department of Code Enforcement",
    "final_address": "1623 Choctaw St",
    "address_councildis": "E",
    "status": "Pending",
    "rowid": "942598",
    "final_x": "3698034.14871",
    "final_y": "535971.573895",
    "longitude": "-90.01570009846617",
    "latitude": "29.96722355577218",
    "geocoded_column": {
      "latitude": "29.96722355577218",
      "longitude": "-90.01570009846617"
    }
  },
  {
    "service_request": "2022-942597",
    "request_type": "Safety & Permits",
    "request_reason": "Licenses & Permits",
    "date_created": "2022-11-12T10:19:31.000",
    "date_modified": "2022-11-12T10:19:31.000",
    "request_status": "Pending",
    "responsible_agency": "Safety and Permits",
    "final_address": "8215 Zimple St",
    "address_councildis": "A",
    "status": "Pending",
    "rowid": "942597",
    "final_x": "3661391.23955",
    "final_y": "528469.662848",
    "longitude": "-90.13166789576867",
    "latitude": "29.94770346634277",
    "geocoded_column": {
      "latitude": "29.94770346634277",
      "longitude": "-90.13166789576867"
    }
  },
  {
    "service_request": "2022-942596",
    "request_type": "Trash/Recycling",
    "request_reason": "Missed Trash Pick-Up",
    "date_created": "2022-11-12T10:15:07.000",
    "date_modified": "2022-11-12T10:15:08.000",
    "request_status": "Pending",
    "responsible_agency": "Department of Sanitation",
    "final_address": "4610 Hauck Dr",
    "address_councildis": "E",
    "status": "Assigned to Contractor",
    "contractor": "Waste Pro",
    "rowid": "942596",
    "final_x": "3714568.4556",
    "final_y": "555977.686873",
    "longitude": "-89.96272943798138",
    "latitude": "30.021699537776662",
    "geocoded_column": {
      "latitude": "30.021699537776662",
      "longitude": "-89.96272943798138"
    }
  },
  {
    "service_request": "2022-942595",
    "request_type": "Trash/Recycling",
    "request_reason": "MIssed Recycling Pick-Up",
    "date_created": "2022-11-12T10:14:51.000",
    "date_modified": "2022-11-12T10:14:52.000",
    "request_status": "Pending",
    "responsible_agency": "Department of Sanitation",
    "final_address": "4516 S Miro St",
    "address_councildis": "B",
    "status": "Assigned to Contractor",
    "contractor": "Richards Disposal",
    "rowid": "942595",
    "final_x": "3669595.28154",
    "final_y": "527722.034239",
    "longitude": "-90.1057897220994",
    "latitude": "29.94540860700847",
    "geocoded_column": {
      "latitude": "29.94540860700847",
      "longitude": "-90.1057897220994"
    }
  },
  {
    "service_request": "2022-942594",
    "request_type": "Traffic Signals/Signs/Striping/Streetlights",
    "request_reason": "Street Light Outage/Malfunction",
    "date_created": "2022-11-12T10:10:58.000",
    "date_modified": "2022-11-12T10:10:59.000",
    "request_status": "Pending",
    "responsible_agency": "Department of Public Works",
    "final_address": "412 39Th St",
    "address_councildis": "A",
    "status": "Pending",
    "contractor": "Legacy Professional Services",
    "rowid": "942594",
    "final_x": "3664948.18516",
    "final_y": "552978.735703",
    "longitude": "-90.11961748367543",
    "latitude": "30.014992137059053",
    "geocoded_column": {
      "latitude": "30.014992137059053",
      "longitude": "-90.11961748367543"
    }
  },
  {
    "service_request": "2022-942593",
    "request_type": "Trash/Recycling",
    "request_reason": "Order Trash Cart",
    "date_created": "2022-11-12T10:05:03.000",
    "date_modified": "2022-11-12T10:05:03.000",
    "request_status": "Pending",
    "responsible_agency": "Department of Sanitation",
    "final_address": "5871 Memphis St",
    "address_councildis": "A",
    "status": "Assigned to Contractor",
    "contractor": "IV Waste",
    "rowid": "942593",
    "final_x": "3669202.78842",
    "final_y": "546446.848401",
    "longitude": "-90.10639590694583",
    "latitude": "29.99690712634951",
    "geocoded_column": {
      "latitude": "29.99690712634951",
      "longitude": "-90.10639590694583"
    }
  },
  {
    "service_request": "2022-942592",
    "request_type": "Trash/Recycling",
    "request_reason": "Request a Large Item Pick Up",
    "date_created": "2022-11-12T09:58:49.000",
    "date_modified": "2022-11-12T09:58:50.000",
    "request_status": "Pending",
    "responsible_agency": "Department of Sanitation",
    "final_address": "6229 Carlson Dr",
    "address_councildis": "D",
    "status": "Assigned to Contractor",
    "contractor": "IV Waste",
    "rowid": "942592",
    "final_x": "3679791.05755",
    "final_y": "556168.055194",
    "longitude": "-90.0726102157595",
    "latitude": "30.023320952514844",
    "geocoded_column": {
      "latitude": "30.023320952514844",
      "longitude": "-90.0726102157595"
    }
  },
  {
    "service_request": "2022-942591",
    "request_type": "Trash/Recycling",
    "request_reason": "Order Recycling Cart",
    "date_created": "2022-11-12T09:58:27.000",
    "date_modified": "2022-11-12T09:58:27.000",
    "request_status": "Pending",
    "responsible_agency": "Department of Sanitation",
    "final_address": "3099 Ridgeway Blvd",
    "address_councildis": "E",
    "status": "Pending",
    "rowid": "942591",
    "final_x": "3744430.91963",
    "final_y": "597191.564864",
    "longitude": "-89.86670714548117",
    "latitude": "30.1340032036044",
    "geocoded_column": {
      "latitude": "30.1340032036044",
      "longitude": "-89.86670714548117"
    }
  },
  {
    "service_request": "2022-942590",
    "request_type": "Traffic Signals/Signs/Striping/Streetlights",
    "request_reason": "Street Light Outage/Malfunction",
    "date_created": "2022-11-12T09:58:16.000",
    "date_modified": "2022-11-12T09:58:17.000",
    "request_status": "Pending",
    "responsible_agency": "Department of Public Works",
    "final_address": "9921 N Interstate 10 Service Rd",
    "address_councildis": "E",
    "status": "Pending",
    "contractor": "Legacy Professional Services",
    "rowid": "942590",
    "final_x": "3709695.51301",
    "final_y": "561811.227103",
    "longitude": "-89.97790846407092",
    "latitude": "30.037898842718608",
    "geocoded_column": {
      "latitude": "30.037898842718608",
      "longitude": "-89.97790846407092"
    }
  },
  {
    "service_request": "2022-942589",
    "request_type": "Abandoned Vehicles",
    "request_reason": "Vehicle Blocking Your Driveway",
    "date_created": "2022-11-12T09:46:57.000",
    "date_modified": "2022-11-12T09:57:29.000",
    "request_status": "Pending",
    "responsible_agency": "Department of Public Works",
    "final_address": "822 Touro St, New Orleans, Louisiana, 70116",
    "address_councildis": "C",
    "rowid": "942589",
    "final_x": "3684269.67458",
    "final_y": "535337.265158",
    "longitude": "-90.05919066813446",
    "latitude": "29.965907466560253",
    "geocoded_column": {
      "latitude": "29.965907466560253",
      "longitude": "-90.05919066813446"
    }
  },
  {
    "service_request": "2022-942588",
    "request_type": "Trash/Recycling",
    "request_reason": "Order Recycling Cart",
    "date_created": "2022-11-12T09:45:28.000",
    "date_modified": "2022-11-12T09:45:28.000",
    "request_status": "Pending",
    "responsible_agency": "Department of Sanitation",
    "final_address": "7260 Voyageur Dr",
    "address_councildis": "E",
    "status": "Pending",
    "rowid": "942588",
    "final_x": "3726404.52569",
    "final_y": "569052.781734",
    "longitude": "-89.92482330551087",
    "latitude": "30.057256039490074",
    "geocoded_column": {
      "latitude": "30.057256039490074",
      "longitude": "-89.92482330551087"
    }
  },
  {
    "service_request": "2022-942587",
    "request_type": "Trash/Recycling",
    "request_reason": "Repair Trash Cart",
    "date_created": "2022-11-12T09:44:55.000",
    "date_modified": "2022-11-12T09:44:56.000",
    "request_status": "Pending",
    "responsible_agency": "Department of Sanitation",
    "final_address": "6051 Wright Rd",
    "address_councildis": "E",
    "status": "Assigned to Contractor",
    "contractor": "Waste Pro",
    "rowid": "942587",
    "final_x": "3713180.83122",
    "final_y": "562987.884064",
    "longitude": "-89.96684976203687",
    "latitude": "30.04102035429289",
    "geocoded_column": {
      "latitude": "30.04102035429289",
      "longitude": "-89.96684976203687"
    }
  },
  {
    "service_request": "2022-942586",
    "request_type": "Trash/Recycling",
    "request_reason": "MIssed Recycling Pick-Up",
    "date_created": "2022-11-12T09:43:38.000",
    "date_modified": "2022-11-12T09:43:38.000",
    "request_status": "Pending",
    "responsible_agency": "Department of Sanitation",
    "final_address": "7300 BLK Ebbtide Dr",
    "address_councildis": "E",
    "status": "Assigned to Contractor",
    "contractor": "Waste Pro",
    "rowid": "942586",
    "final_x": "3702378.86456",
    "final_y": "561001.175029",
    "longitude": "-90.001060495794",
    "latitude": "30.035907464186856",
    "geocoded_column": {
      "latitude": "30.035907464186856",
      "longitude": "-90.001060495794"
    }
  },
  {
    "service_request": "2022-942585",
    "request_type": "Abandoned Vehicles",
    "request_reason": "Abandoned/Junk Vehicles",
    "date_created": "2022-11-12T09:37:33.000",
    "date_modified": "2022-11-12T09:37:33.000",
    "request_status": "Pending",
    "responsible_agency": "Department of Public Works",
    "final_address": "8817 Plum St",
    "address_councildis": "A",
    "status": "Pending",
    "rowid": "942585",
    "final_x": "3660280.96326",
    "final_y": "530433.171842",
    "longitude": "-90.13510866426407",
    "latitude": "29.95313445761062",
    "geocoded_column": {
      "latitude": "29.95313445761062",
      "longitude": "-90.13510866426407"
    }
  },
  {
    "service_request": "2022-942584",
    "request_type": "Trash/Recycling",
    "request_reason": "MIssed Recycling Pick-Up",
    "date_created": "2022-11-12T09:31:47.000",
    "date_modified": "2022-11-12T09:31:48.000",
    "request_status": "Pending",
    "responsible_agency": "Department of Sanitation",
    "final_address": "2505 Gallier St",
    "address_councildis": "D",
    "status": "Assigned to Contractor",
    "contractor": "IV Waste",
    "rowid": "942584",
    "final_x": "3691828.40227",
    "final_y": "540972.779659",
    "longitude": "-90.03511889675443",
    "latitude": "29.981169855593937",
    "geocoded_column": {
      "latitude": "29.981169855593937",
      "longitude": "-90.03511889675443"
    }
  },
  {
    "service_request": "2022-942583",
    "request_type": "Trash/Recycling",
    "request_reason": "Order Recycling Cart",
    "date_created": "2022-11-12T09:29:08.000",
    "date_modified": "2022-11-12T09:29:08.000",
    "request_status": "Pending",
    "responsible_agency": "Department of Sanitation",
    "final_address": "500 S Hennessey St",
    "address_councildis": "A",
    "status": "Pending",
    "rowid": "942583",
    "final_x": "3669328.40948",
    "final_y": "537625.285896",
    "longitude": "-90.10629749088581",
    "latitude": "29.972647135303404",
    "geocoded_column": {
      "latitude": "29.972647135303404",
      "longitude": "-90.10629749088581"
    }
  },
  {
    "service_request": "2022-942582",
    "request_type": "Trash/Recycling",
    "request_reason": "Replace Trash Cart",
    "date_created": "2022-11-12T09:09:11.000",
    "date_modified": "2022-11-12T09:09:11.000",
    "request_status": "Pending",
    "responsible_agency": "Department of Sanitation",
    "final_address": "3050 Hudson Pl",
    "address_councildis": "C",
    "status": "Assigned to Contractor",
    "contractor": "Richards Disposal",
    "rowid": "942582",
    "final_x": "3703160.74052",
    "final_y": "519460.045431",
    "longitude": "-90.00011708805918",
    "latitude": "29.921659596573797",
    "geocoded_column": {
      "latitude": "29.921659596573797",
      "longitude": "-90.00011708805918"
    }
  },
  {
    "service_request": "2022-942580",
    "request_type": "Trash/Recycling",
    "request_reason": "Order Recycling Cart",
    "date_created": "2022-11-12T09:08:45.000",
    "date_modified": "2022-11-12T09:08:45.000",
    "request_status": "Pending",
    "responsible_agency": "Department of Sanitation",
    "final_address": "6600 BLK Orleans Ave",
    "address_councildis": "A",
    "status": "Pending",
    "rowid": "942580",
    "final_x": "3671284.32964",
    "final_y": "551448.235474",
    "longitude": "-90.09965030177945",
    "latitude": "30.010597739692415",
    "geocoded_column": {
      "latitude": "30.010597739692415",
      "longitude": "-90.09965030177945"
    }
  },
  {
    "service_request": "2022-942579",
    "request_type": "Trash/Recycling",
    "request_reason": "Order Recycling Cart",
    "date_created": "2022-11-12T09:04:51.000",
    "date_modified": "2022-11-12T09:04:52.000",
    "request_status": "Pending",
    "responsible_agency": "Department of Sanitation",
    "final_address": "2121 Humanity St",
    "address_councildis": "D",
    "status": "Pending",
    "rowid": "942579",
    "final_x": "3683712.48713",
    "final_y": "544793.612687",
    "longitude": "-90.0606185522213",
    "latitude": "29.99192613539116",
    "geocoded_column": {
      "latitude": "29.99192613539116",
      "longitude": "-90.0606185522213"
    }
  },
  {
    "service_request": "2022-942578",
    "request_type": "Roads/Drainage",
    "request_reason": "Pothole",
    "date_created": "2022-11-12T09:04:35.000",
    "date_modified": "2022-11-12T09:04:35.000",
    "request_status": "Pending",
    "responsible_agency": "Department of Public Works",
    "final_address": "4901 Franklin Ave",
    "address_councildis": "D",
    "status": "Pending",
    "rowid": "942578",
    "final_x": "3686871.25506",
    "final_y": "551004.348437",
    "longitude": "-90.05042102891811",
    "latitude": "30.008906562279577",
    "geocoded_column": {
      "latitude": "30.008906562279577",
      "longitude": "-90.05042102891811"
    }
  },
  {
    "service_request": "2022-942577",
    "request_type": "Trash/Recycling",
    "request_reason": "Order Trash Cart",
    "date_created": "2022-11-12T09:03:35.000",
    "date_modified": "2022-11-12T09:03:35.000",
    "request_status": "Pending",
    "responsible_agency": "Department of Sanitation",
    "final_address": "1919 W Homestead Dr",
    "address_councildis": "C",
    "status": "Assigned to Contractor",
    "contractor": "Richards Disposal",
    "rowid": "942577",
    "final_x": "3696852.75242",
    "final_y": "524842.35302",
    "longitude": "-90.01983382787844",
    "latitude": "29.936659404824603",
    "geocoded_column": {
      "latitude": "29.936659404824603",
      "longitude": "-90.01983382787844"
    }
  },
  {
    "service_request": "2022-942576",
    "request_type": "Abandoned Vehicles",
    "request_reason": "Abandoned/Junk Vehicles",
    "date_created": "2022-11-12T09:02:00.000",
    "date_modified": "2022-11-12T09:02:00.000",
    "request_status": "Pending",
    "responsible_agency": "Department of Public Works",
    "final_address": "21995 Chef Menteur Hwy",
    "address_councildis": "E",
    "status": "Pending",
    "rowid": "942576",
    "final_x": "3769003.42628",
    "final_y": "579757.638512",
    "longitude": "-89.78972224793858",
    "latitude": "30.085180739438176",
    "geocoded_column": {
      "latitude": "30.085180739438176",
      "longitude": "-89.78972224793858"
    }
  },
  {
    "service_request": "2022-942575",
    "request_type": "Trash/Recycling",
    "request_reason": "Order Recycling Cart",
    "date_created": "2022-11-12T08:59:45.000",
    "date_modified": "2022-11-12T08:59:45.000",
    "request_status": "Pending",
    "responsible_agency": "Department of Sanitation",
    "final_address": "7074 General Meyer Ave",
    "address_councildis": "C",
    "status": "Pending",
    "contractor": "Richards Disposal",
    "rowid": "942575",
    "final_x": "3710322.93957",
    "final_y": "519275.591671",
    "longitude": "-89.97751621808749",
    "latitude": "29.92092132964261",
    "geocoded_column": {
      "latitude": "29.92092132964261",
      "longitude": "-89.97751621808749"
    }
  },
  {
    "service_request": "2022-942574",
    "request_type": "Trash/Recycling",
    "request_reason": "Repair Trash Cart",
    "date_created": "2022-11-12T08:59:27.000",
    "date_modified": "2022-11-12T08:59:27.000",
    "request_status": "Pending",
    "responsible_agency": "Department of Sanitation",
    "final_address": "7074 General Meyer Ave",
    "address_councildis": "C",
    "status": "Assigned to Contractor",
    "contractor": "Richards Disposal",
    "rowid": "942574",
    "final_x": "3710322.93957",
    "final_y": "519275.591671",
    "longitude": "-89.97751621808749",
    "latitude": "29.92092132964261",
    "geocoded_column": {
      "latitude": "29.92092132964261",
      "longitude": "-89.97751621808749"
    }
  },
  {
    "service_request": "2022-942573",
    "request_type": "Trash/Recycling",
    "request_reason": "Illegal Dumping",
    "date_created": "2022-11-12T08:56:19.000",
    "date_modified": "2022-11-12T08:56:19.000",
    "request_status": "Pending",
    "responsible_agency": "Department of Sanitation",
    "final_address": "1921 Onzaga St",
    "address_councildis": "D",
    "status": "Pending",
    "rowid": "942573",
    "final_x": "3681451.43228",
    "final_y": "538847.880521",
    "longitude": "-90.06796815627551",
    "latitude": "29.9756463156104",
    "geocoded_column": {
      "latitude": "29.9756463156104",
      "longitude": "-90.06796815627551"
    }
  },
  {
    "service_request": "2022-942572",
    "request_type": "Abandoned Vehicles",
    "request_reason": "Vehicle Blocking Your Driveway",
    "date_created": "2022-11-12T08:54:40.000",
    "date_modified": "2022-11-12T08:54:40.000",
    "request_status": "Pending",
    "responsible_agency": "Department of Public Works",
    "final_address": "1618 Lesseps St",
    "address_councildis": "D",
    "status": "Pending",
    "rowid": "942572",
    "final_x": "3693172.60022",
    "final_y": "537146.87636",
    "longitude": "-90.03101067124436",
    "latitude": "29.9706080430566",
    "geocoded_column": {
      "latitude": "29.9706080430566",
      "longitude": "-90.03101067124436"
    }
  },
  {
    "service_request": "2022-942571",
    "request_type": "Abandoned Vehicles",
    "request_reason": "Abandoned/Junk Vehicles",
    "date_created": "2022-11-12T08:52:24.000",
    "date_modified": "2022-11-12T08:52:24.000",
    "request_status": "Pending",
    "responsible_agency": "Department of Public Works",
    "final_address": "3509 Delachaise St",
    "address_councildis": "B",
    "status": "Pending",
    "rowid": "942571",
    "final_x": "3671408.18023",
    "final_y": "527790.325247",
    "longitude": "-90.10006348535902",
    "latitude": "29.945542857314557",
    "geocoded_column": {
      "latitude": "29.945542857314557",
      "longitude": "-90.10006348535902"
    }
  },
  {
    "service_request": "2022-942569",
    "request_type": "Abandoned Vehicles",
    "request_reason": "Vehicle Blocking Your Driveway",
    "date_created": "2022-11-12T08:49:21.000",
    "date_modified": "2022-11-12T08:49:21.000",
    "request_status": "Pending",
    "responsible_agency": "Department of Public Works",
    "final_address": "1618 Lesseps St",
    "address_councildis": "D",
    "status": "Pending",
    "rowid": "942569",
    "final_x": "3693172.60022",
    "final_y": "537146.87636",
    "longitude": "-90.03101067124436",
    "latitude": "29.9706080430566",
    "geocoded_column": {
      "latitude": "29.9706080430566",
      "longitude": "-90.03101067124436"
    }
  },