[
  {
    "service_request": "2025-1193503",
    "request_type": "Streetlights",
    "request_reason": "Streetlight Outage/Malfunction",
    "date_created": "2025-05-19T23:02:11.000",
    "date_modified": "2025-05-19T23:02:13.000",
    "request_status": "Pending",
    "responsible_agency": "Department of Public Works",
    "final_address": "834 Ursulines Ave",
    "address_councildis": "C",
    "status": "Pending",
    "contractor": "Legacy Professional Services",
    "rowid": "1193503",
    "final_x": "3682915.16629",
    "final_y": "534004.666501",
    "longitude": "-90.06351479538789",
    "latitude": "29.96228462328931",
    "geocoded_column": {
      "latitude": "29.96228462328931",
      "longitude": "-90.06351479538789"
    }
  },
  {
    "service_request": "2025-1193502",
    "request_type": "General Services",
    "request_reason": "General Service Request",
    "date_created": "2025-05-19T22:47:29.000",
    "date_modified": "2025-05-19T22:47:32.000",
    "request_status": "Pending",
    "responsible_agency": "Orleans Parish Communication District",
    "final_address": "New Orleans,LA",
    "status": "Pending",
    "rowid": "1193502",
    "longitude": "0.0",
    "latitude": "0.0",
    "geocoded_column": {
      "latitude": "0.0",
      "longitude": "0.0"
    }
  },
  {
    "service_request": "2025-1193501",
    "request_type": "Abandoned Vehicles",
    "request_reason": "Abandoned/Junk Vehicles",
    "date_created": "2025-05-19T22:46:21.000",
    "date_modified": "2025-05-19T22:46:24.000",
    "request_status": "Pending",
    "responsible_agency": "Department of Public Works",
    "final_address": "1001 Dufossat St",
    "address_councildis": "B",
    "status": "Pending",
    "rowid": "1193501",
    "final_x": "3668102.4962",
    "final_y": "519083.448311",
    "longitude": "-90.11079394505757",
    "latitude": "29.921699148092983",
    "geocoded_column": {
      "latitude": "29.921699148092983",
      "longitude": "-90.11079394505757"
    }
  },
  {
    "service_request": "2025-1193500",
    "request_type": "Abandoned Vehicles",
    "request_reason": "Abandoned/Junk Vehicles",
    "date_created": "2025-05-19T22:45:04.000",
    "date_modified": "2025-05-19T22:45:06.000",
    "request_status": "Pending",
    "responsible_agency": "Department of Public Works",
    "final_address": "1001 Dufossat St",
    "address_councildis": "B",
    "status": "Pending",
    "rowid": "1193500",
    "final_x": "3668102.4962",
    "final_y": "519083.448311",
    "longitude": "-90.11079394505757",
    "latitude": "29.921699148092983",
    "geocoded_column": {
      "latitude": "29.921699148092983",
      "longitude": "-90.11079394505757"
    }
  },
  {
    "service_request": "2025-1193499",
    "request_type": "Abandoned Vehicles",
    "request_reason": "Abandoned/Junk Vehicles",
    "date_created": "2025-05-19T22:43:29.000",
    "date_modified": "2025-05-19T22:43:30.000",
    "request_status": "Pending",
    "responsible_agency": "Department of Public Works",
    "final_address": "1001 Dufossat St",
    "address_councildis": "B",
    "status": "Pending",
    "rowid": "1193499",
    "final_x": "3668102.4962",
    "final_y": "519083.448311",
    "longitude": "-90.11079394505757",
    "latitude": "29.921699148092983",
    "geocoded_column": {
      "latitude": "29.921699148092983",
      "longitude": "-90.11079394505757"
    }
  },
  {
    "service_request": "2025-1193498",
    "request_type": "Abandoned Vehicles",
    "request_reason": "Abandoned/Junk Vehicles",
    "date_created": "2025-05-19T22:40:35.000",
    "date_modified": "2025-05-19T22:40:38.000",
    "request_status": "Pending",
    "responsible_agency": "Department of Public Works",
    "final_address": "1001 Dufossat St",
    "address_councildis": "B",
    "status": "Pending",
    "rowid": "1193498",
    "final_x": "3668102.4962",
    "final_y": "519083.448311",
    "longitude": "-90.11079394505757",
    "latitude": "29.921699148092983",
    "geocoded_column": {
      "latitude": "29.921699148092983",
      "longitude": "-90.11079394505757"
    }
  },
  {
    "service_request": "2025-1193497",
    "request_type": "Trash/Recycling",
    "request_reason": "Request a Large Item Pick Up",
    "date_created": "2025-05-19T22:28:27.000",
    "date_modified": "2025-05-19T22:28:29.000",
    "request_status": "Pending",
    "responsible_agency": "Department of Sanitation",
    "final_address": "2124 Calhoun St, New Orleans, Louisiana, 70118",
    "address_councildis": "A",
    "status": "Assigned to Contractor",
    "contractor": "IV Waste",
    "rowid": "1193497",
    "final_x": "3665666.75104",
    "final_y": "524959.463997",
    "longitude": "-90.11828589457117",
    "latitude": "29.937927564694842",
    "geocoded_column": {
      "latitude": "29.937927564694842",
      "longitude": "-90.11828589457117"
    }
  },
  {
    "service_request": "2025-1193496",
    "request_type": "Trash/Recycling",
    "request_reason": "Request a Large Item Pick Up",
    "date_created": "2025-05-19T21:58:36.000",
    "date_modified": "2025-05-19T21:58:39.000",
    "request_status": "Pending",
    "responsible_agency": "Department of Sanitation",
    "final_address": "5415 Burgundy St",
    "address_councildis": "E",
    "status": "Assigned to Contractor",
    "contractor": "Waste Pro",
    "rowid": "1193496",
    "final_x": "3697082.16797",
    "final_y": "533198.77082",
    "longitude": "-90.01880690380933",
    "latitude": "29.959629399258237",
    "geocoded_column": {
      "latitude": "29.959629399258237",
      "longitude": "-90.01880690380933"
    }
  },
  {
    "service_request": "2025-1193495",
    "request_type": "Property Maintenance",
    "request_reason": "Property Maintenance",
    "date_created": "2025-05-19T21:53:20.000",
    "date_modified": "2025-05-19T21:53:23.000",
    "request_status": "Pending",
    "responsible_agency": "Department of Code Enforcement",
    "final_address": "6840 Catina St",
    "address_councildis": "A",
    "status": "Pending",
    "rowid": "1193495",
    "final_x": "3667039.66273",
    "final_y": "553327.209943",
    "longitude": "-90.11299766107732",
    "latitude": "30.015889238126242",
    "geocoded_column": {
      "latitude": "30.015889238126242",
      "longitude": "-90.11299766107732"
    }
  },
  {
    "service_request": "2025-1193494",
    "request_type": "Streetlights",
    "request_reason": "Streetlight Outage/Malfunction",
    "date_created": "2025-05-19T21:22:09.000",
    "date_modified": "2025-05-19T21:22:41.000",
    "request_status": "Pending",
    "responsible_agency": "Department of Public Works",
    "final_address": "4337 Wellington Ave",
    "address_councildis": "D",
    "status": "Pending",
    "contractor": "Legacy Professional Services",
    "rowid": "1193494",
    "final_x": "3677311.27003",
    "final_y": "548340.332562",
    "longitude": "-90.08071621002189",
    "latitude": "30.001872312734655",
    "geocoded_column": {
      "latitude": "30.001872312734655",
      "longitude": "-90.08071621002189"
    }
  },
  {
    "service_request": "2025-1193493",
    "request_type": "Property Maintenance",
    "request_reason": "Property Maintenance",
    "date_created": "2025-05-19T21:19:12.000",
    "date_modified": "2025-05-19T21:19:15.000",
    "request_status": "Pending",
    "responsible_agency": "Department of Code Enforcement",
    "final_address": "5829 Clara St",
    "address_councildis": "A",
    "status": "Pending",
    "rowid": "1193493",
    "final_x": "3666892.03597",
    "final_y": "525337.986749",
    "longitude": "-90.11440484023751",
    "latitude": "29.938932597783428",
    "geocoded_column": {
      "latitude": "29.938932597783428",
      "longitude": "-90.11440484023751"
    }
  },
  {
    "service_request": "2025-1193492",
    "request_type": "Roads and Streets",
    "request_reason": "Debris in Driving Lanes",
    "date_created": "2025-05-19T21:12:53.000",
    "date_modified": "2025-05-19T21:12:55.000",
    "request_status": "Pending",
    "responsible_agency": "Department of Public Works",
    "final_address": "1100 BLK Saint Ferdinand St",
    "address_councildis": "C",
    "status": "Pending",
    "rowid": "1193492",
    "final_x": "3687770.52239",
    "final_y": "536525.845043",
    "longitude": "-90.04809302559524",
    "latitude": "29.969068142150054",
    "geocoded_column": {
      "latitude": "29.969068142150054",
      "longitude": "-90.04809302559524"
    }
  },
  {
    "service_request": "2025-1193491",
    "request_type": "Trash/Recycling",
    "request_reason": "Request a Large Item Pick Up",
    "date_created": "2025-05-19T20:41:33.000",
    "date_modified": "2025-05-19T20:41:37.000",
    "request_status": "Pending",
    "responsible_agency": "Department of Sanitation",
    "final_address": "7727 Oak St",
    "address_councildis": "A",
    "status": "Assigned to Contractor",
    "contractor": "IV Waste",
    "rowid": "1193491",
    "final_x": "3662912.46189",
    "final_y": "527561.567103",
    "longitude": "-90.12689496377165",
    "latitude": "29.945162539893953",
    "geocoded_column": {
      "latitude": "29.945162539893953",
      "longitude": "-90.12689496377165"
    }
  },
  {
    "service_request": "2025-1193490",
    "request_type": "Roads and Streets",
    "request_reason": "Curb Damage",
    "date_created": "2025-05-19T20:38:01.000",
    "date_modified": "2025-05-19T20:38:04.000",
    "request_status": "Pending",
    "responsible_agency": "Department of Public Works",
    "final_address": "6209 Perlita Dr",
    "address_councildis": "D",
    "status": "Pending",
    "rowid": "1193490",
    "final_x": "3678623.10427",
    "final_y": "555553.499737",
    "longitude": "-90.07632200319058",
    "latitude": "30.021666431411926",
    "geocoded_column": {
      "latitude": "30.021666431411926",
      "longitude": "-90.07632200319058"
    }
  },
  {
    "service_request": "2025-1193489",
    "request_type": "Trash/Recycling",
    "request_reason": "Request a Large Item Pick Up",
    "date_created": "2025-05-19T20:25:37.000",
    "date_modified": "2025-05-19T20:25:38.000",
    "request_status": "Pending",
    "responsible_agency": "Department of Sanitation",
    "final_address": "2517 Wisteria St",
    "address_councildis": "D",
    "status": "Assigned to Contractor",
    "contractor": "IV Waste",
    "rowid": "1193489",
    "final_x": "3686406.59702",
    "final_y": "548382.400914",
    "longitude": "-90.05198166656719",
    "latitude": "30.00171145591333",
    "geocoded_column": {
      "latitude": "30.00171145591333",
      "longitude": "-90.05198166656719"
    }
  },
  {
    "service_request": "2025-1193488",
    "request_type": "Trash/Recycling",
    "request_reason": "Repair Trash Cart",
    "date_created": "2025-05-19T20:22:53.000",
    "date_modified": "2025-05-19T20:22:55.000",
    "request_status": "Pending",
    "responsible_agency": "Department of Sanitation",
    "final_address": "4937 Alsace St",
    "address_councildis": "E",
    "status": "Assigned to Contractor",
    "contractor": "Waste Pro",
    "rowid": "1193488",
    "final_x": "3730485.76634",
    "final_y": "563089.08304",
    "longitude": "-89.91215707506072",
    "latitude": "30.040719811367495",
    "geocoded_column": {
      "latitude": "30.040719811367495",
      "longitude": "-89.91215707506072"
    }
  },
  {
    "service_request": "2025-1193487",
    "request_type": "Health Related Request",
    "request_reason": "Homeless Encampment Complaint",
    "date_created": "2025-05-19T20:14:41.000",
    "date_modified": "2025-05-19T20:14:43.000",
    "request_status": "Pending",
    "responsible_agency": "Health Department",
    "final_address": "2021 Danneel St",
    "address_councildis": "B",
    "status": "Pending",
    "rowid": "1193487",
    "final_x": "3677065.18658",
    "final_y": "525335.063613",
    "longitude": "-90.0822871041411",
    "latitude": "29.93862306895212",
    "geocoded_column": {
      "latitude": "29.93862306895212",
      "longitude": "-90.0822871041411"
    }
  },
  {
    "service_request": "2025-1193486",
    "request_type": "Trash/Recycling",
    "request_reason": "Repair Recycling Cart",
    "date_created": "2025-05-19T20:08:59.000",
    "date_modified": "2025-05-19T20:09:00.000",
    "request_status": "Pending",
    "responsible_agency": "Department of Sanitation",
    "final_address": "1012 Harding Dr",
    "address_councildis": "A",
    "status": "Pending",
    "rowid": "1193486",
    "final_x": "3674607.56756",
    "final_y": "540346.413323",
    "longitude": "-90.0895316369324",
    "latitude": "29.979972805522312",
    "geocoded_column": {
      "latitude": "29.979972805522312",
      "longitude": "-90.0895316369324"
    }
  },
  {
    "service_request": "2025-1193485",
    "request_type": "Street and Traffic Signs",
    "request_reason": "Street Name Sign Damaged or Missing",
    "date_created": "2025-05-19T20:08:49.000",
    "date_modified": "2025-05-19T20:08:51.000",
    "request_status": "Pending",
    "responsible_agency": "Department of Public Works",
    "final_address": "CHARTRES ST & MAZANT ST",
    "address_councildis": "C",
    "status": "Pending",
    "rowid": "1193485",
    "final_x": "3691649.9",
    "final_y": "533373.68",
    "longitude": "-90.03595444121906",
    "latitude": "29.960280578511494",
    "geocoded_column": {
      "latitude": "29.960280578511494",
      "longitude": "-90.03595444121906"
    }
  },
  {
    "service_request": "2025-1193484",
    "request_type": "Trash/Recycling",
    "request_reason": "Request a Large Item Pick Up",
    "date_created": "2025-05-19T20:06:55.000",
    "date_modified": "2025-05-19T20:06:57.000",
    "request_status": "Pending",
    "responsible_agency": "Department of Sanitation",
    "final_address": "1012 Harding Dr",
    "address_councildis": "A",
    "status": "Assigned to Contractor",
    "contractor": "IV Waste",
    "rowid": "1193484",
    "final_x": "3674607.56756",
    "final_y": "540346.413323",
    "longitude": "-90.0895316369324",
    "latitude": "29.979972805522312",
    "geocoded_column": {
      "latitude": "29.979972805522312",
      "longitude": "-90.0895316369324"
    }
  },
  {
    "service_request": "2025-1193483",
    "request_type": "Street and Traffic Signs",
    "request_reason": "Street Name Sign Damaged or Missing",
    "date_created": "2025-05-19T20:06:52.000",
    "date_modified": "2025-05-19T20:06:54.000",
    "request_status": "Pending",
    "responsible_agency": "Department of Public Works",
    "final_address": "CHARTRES ST & ALVAR ST",
    "address_councildis": "C",
    "status": "Pending",
    "rowid": "1193483",
    "final_x": "3691037.2",
    "final_y": "533534.48",
    "longitude": "-90.03788347221503",
    "latitude": "29.960741783356635",
    "geocoded_column": {
      "latitude": "29.960741783356635",
      "longitude": "-90.03788347221503"
    }
  },
  {
    "service_request": "2025-1193482",
    "request_type": "Street and Traffic Signs",
    "request_reason": "Street Name Sign Damaged or Missing",
    "date_created": "2025-05-19T20:05:33.000",
    "date_modified": "2025-05-19T20:05:35.000",
    "request_status": "Pending",
    "responsible_agency": "Department of Public Works",
    "final_address": "ELYSIAN FIELDS AVE & CHARTRES ST",
    "address_councildis": "C",
    "status": "Pending",
    "rowid": "1193482",
    "final_x": "3685194.1",
    "final_y": "534516.38",
    "longitude": "-90.05630025765369",
    "latitude": "29.963622019135773",
    "geocoded_column": {
      "latitude": "29.963622019135773",
      "longitude": "-90.05630025765369"
    }
  },
  {
    "service_request": "2025-1193481",
    "request_type": "Street and Traffic Signs",
    "request_reason": "Street Name Sign Damaged or Missing",
    "date_created": "2025-05-19T20:04:50.000",
    "date_modified": "2025-05-19T20:04:51.000",
    "request_status": "Pending",
    "responsible_agency": "Department of Public Works",
    "final_address": "ROYAL ST & ELYSIAN FIELDS AVE",
    "address_councildis": "C",
    "status": "Pending",
    "rowid": "1193481",
    "final_x": "3685165.7",
    "final_y": "534872.88",
    "longitude": "-90.05637739565954",
    "latitude": "29.964603141247608",
    "geocoded_column": {
      "latitude": "29.964603141247608",
      "longitude": "-90.05637739565954"
    }
  },
  {
    "service_request": "2025-1193480",
    "request_type": "Street and Traffic Signs",
    "request_reason": "Street Name Sign Damaged or Missing",
    "date_created": "2025-05-19T20:03:53.000",
    "date_modified": "2025-05-19T20:03:56.000",
    "request_status": "Pending",
    "responsible_agency": "Department of Public Works",
    "final_address": "ELYSIAN FIELDS AVE & DAUPHINE ST",
    "address_councildis": "C",
    "status": "Pending",
    "rowid": "1193480",
    "final_x": "3685045.4",
    "final_y": "535225.08",
    "longitude": "-90.05674490239838",
    "latitude": "29.965575255261587",
    "geocoded_column": {
      "latitude": "29.965575255261587",
      "longitude": "-90.05674490239838"
    }
  },
  {
    "service_request": "2025-1193479",
    "request_type": "Street and Traffic Signs",
    "request_reason": "Street Name Sign Damaged or Missing",
    "date_created": "2025-05-19T20:03:09.000",
    "date_modified": "2025-05-19T20:03:11.000",
    "request_status": "Pending",
    "responsible_agency": "Department of Public Works",
    "final_address": "ELYSIAN FIELDS AVE & BURGUNDY ST",
    "address_councildis": "C",
    "status": "Pending",
    "rowid": "1193479",
    "final_x": "3685021.3",
    "final_y": "535583.78",
    "longitude": "-90.05680838955475",
    "latitude": "29.966562294361047",
    "geocoded_column": {
      "latitude": "29.966562294361047",
      "longitude": "-90.05680838955475"
    }
  },
  {
    "service_request": "2025-1193478",
    "request_type": "Abandoned Vehicles",
    "request_reason": "Abandoned/Junk Vehicles",
    "date_created": "2025-05-19T20:02:49.000",
    "date_modified": "2025-05-19T20:02:51.000",
    "request_status": "Pending",
    "responsible_agency": "Department of Public Works",
    "final_address": "1677 Agriculture St",
    "address_councildis": "D",
    "status": "Pending",
    "rowid": "1193478",
    "final_x": "3680615.50664",
    "final_y": "543032.336141",
    "longitude": "-90.0704625858327",
    "latitude": "29.987177466207093",
    "geocoded_column": {
      "latitude": "29.987177466207093",
      "longitude": "-90.0704625858327"
    }
  },
  {
    "service_request": "2025-1193477",
    "request_type": "Street and Traffic Signs",
    "request_reason": "Street Name Sign Damaged or Missing",
    "date_created": "2025-05-19T20:02:11.000",
    "date_modified": "2025-05-19T20:02:13.000",
    "request_status": "Pending",
    "responsible_agency": "Department of Public Works",
    "final_address": "N RAMPART ST & ELYSIAN FIELDS AVE",
    "address_councildis": "C",
    "status": "Pending",
    "rowid": "1193477",
    "final_x": "3684990.7",
    "final_y": "535940.48",
    "longitude": "-90.05689247542902",
    "latitude": "29.96754403308566",
    "geocoded_column": {
      "latitude": "29.96754403308566",
      "longitude": "-90.05689247542902"
    }
  },
  {
    "service_request": "2025-1193476",
    "request_type": "General Services",
    "request_reason": "General Service Request",
    "date_created": "2025-05-19T20:00:16.000",
    "date_modified": "2025-05-19T20:00:18.000",
    "request_status": "Pending",
    "responsible_agency": "Orleans Parish Communication District",
    "final_address": "1677 Agriculture St",
    "address_councildis": "D",
    "status": "Pending",
    "rowid": "1193476",
    "final_x": "3680615.50664",
    "final_y": "543032.336141",
    "longitude": "-90.0704625858327",
    "latitude": "29.987177466207093",
    "geocoded_column": {
      "latitude": "29.987177466207093",
      "longitude": "-90.0704625858327"
    }
  },
  {
    "service_request": "2025-1193475",
    "request_type": "Property Maintenance",
    "request_reason": "Property Maintenance",
    "date_created": "2025-05-19T19:58:43.000",
    "date_modified": "2025-05-19T19:58:45.000",
    "request_status": "Pending",
    "responsible_agency": "Department of Code Enforcement",
    "final_address": "1405 Arts St",
    "address_councildis": "C",
    "status": "Pending",
    "rowid": "1193475",
    "final_x": "3687146.95196",
    "final_y": "537643.741064",
    "longitude": "-90.05002276008075",
    "latitude": "29.97216118248314",
    "geocoded_column": {
      "latitude": "29.97216118248314",
      "longitude": "-90.05002276008075"
    }
  },
  {
    "service_request": "2025-1193474",
    "request_type": "Trash/Recycling",
    "request_reason": "Request a Large Item Pick Up",
    "date_created": "2025-05-19T19:54:11.000",
    "date_modified": "2025-05-19T19:54:13.000",
    "request_status": "Pending",
    "responsible_agency": "Department of Sanitation",
    "final_address": "2521 N Tonti St",
    "address_councildis": "D",
    "status": "Assigned to Contractor",
    "contractor": "IV Waste",
    "rowid": "1193474",
    "final_x": "3686681.5933",
    "final_y": "540922.282443",
    "longitude": "-90.05137659557474",
    "latitude": "29.981190340715244",
    "geocoded_column": {
      "latitude": "29.981190340715244",
      "longitude": "-90.05137659557474"
    }
  },
  {
    "service_request": "2025-1193473",
    "request_type": "Trash/Recycling",
    "request_reason": "Request a Large Item Pick Up",
    "date_created": "2025-05-19T19:51:28.000",
    "date_modified": "2025-05-19T19:51:30.000",
    "request_status": "Pending",
    "responsible_agency": "Department of Sanitation",
    "final_address": "4719 Warren Dr",
    "address_councildis": "E",
    "status": "Assigned to Contractor",
    "contractor": "Waste Pro",
    "rowid": "1193473",
    "final_x": "3713543.73035",
    "final_y": "556140.061466",
    "longitude": "-89.96596114165543",
    "latitude": "30.022179667088412",
    "geocoded_column": {
      "latitude": "30.022179667088412",
      "longitude": "-89.96596114165543"
    }
  },
  {
    "service_request": "2025-1193472",
    "request_type": "Trash/Recycling",
    "request_reason": "Order Second Trash Cart",
    "date_created": "2025-05-19T19:46:00.000",
    "date_modified": "2025-05-19T19:46:02.000",
    "request_status": "Pending",
    "responsible_agency": "Department of Sanitation",
    "final_address": "4617 Tulip St",
    "address_councildis": "E",
    "status": "Assigned to Contractor",
    "contractor": "Waste Pro",
    "rowid": "1193472",
    "final_x": "3702230.53162",
    "final_y": "553579.134807",
    "longitude": "-90.00180181226108",
    "latitude": "30.015504459103028",
    "geocoded_column": {
      "latitude": "30.015504459103028",
      "longitude": "-90.00180181226108"
    }
  },
  {
    "service_request": "2025-1193471",
    "request_type": "Trash/Recycling",
    "request_reason": "Order Recycling Cart",
    "date_created": "2025-05-19T19:43:16.000",
    "date_modified": "2025-05-19T19:43:17.000",
    "request_status": "Pending",
    "responsible_agency": "Department of Sanitation",
    "final_address": "4617 Tulip St",
    "address_councildis": "E",
    "status": "Pending",
    "rowid": "1193471",
    "final_x": "3702230.53162",
    "final_y": "553579.134807",
    "longitude": "-90.00180181226108",
    "latitude": "30.015504459103028",
    "geocoded_column": {
      "latitude": "30.015504459103028",
      "longitude": "-90.00180181226108"
    }
  },
  {
    "service_request": "2025-1193470",
    "request_type": "Trash/Recycling",
    "request_reason": "Request a Large Item Pick Up",
    "date_created": "2025-05-19T19:41:01.000",
    "date_modified": "2025-05-19T19:41:02.000",
    "request_status": "Pending",
    "responsible_agency": "Department of Sanitation",
    "final_address": "5412 York St",
    "address_councildis": "A",
    "status": "Assigned to Contractor",
    "contractor": "IV Waste",
    "rowid": "1193470",
    "final_x": "3668861.31015",
    "final_y": "528597.22432",
    "longitude": "-90.10807756463196",
    "latitude": "29.94783669544483",
    "geocoded_column": {
      "latitude": "29.94783669544483",
      "longitude": "-90.10807756463196"
    }
  },
  {
    "service_request": "2025-1193469",
    "request_type": "Trash/Recycling",
    "request_reason": "Request a Large Item Pick Up",
    "date_created": "2025-05-19T19:39:43.000",
    "date_modified": "2025-05-19T19:39:45.000",
    "request_status": "Pending",
    "responsible_agency": "Department of Sanitation",
    "final_address": "2008 Broadway St",
    "address_councildis": "A",
    "status": "Assigned to Contractor",
    "contractor": "IV Waste",
    "rowid": "1193469",
    "final_x": "3665754.91892",
    "final_y": "528959.224192",
    "longitude": "-90.1178735917795",
    "latitude": "29.948923047830057",
    "geocoded_column": {
      "latitude": "29.948923047830057",
      "longitude": "-90.1178735917795"
    }
  },
  {
    "service_request": "2025-1193468",
    "request_type": "Trash/Recycling",
    "request_reason": "Request a Large Item Pick Up",
    "date_created": "2025-05-19T19:27:59.000",
    "date_modified": "2025-05-19T19:28:01.000",
    "request_status": "Pending",
    "responsible_agency": "Department of Sanitation",
    "final_address": "5412 York St",
    "address_councildis": "A",
    "status": "Assigned to Contractor",
    "contractor": "IV Waste",
    "rowid": "1193468",
    "final_x": "3668861.31015",
    "final_y": "528597.22432",
    "longitude": "-90.10807756463196",
    "latitude": "29.94783669544483",
    "geocoded_column": {
      "latitude": "29.94783669544483",
      "longitude": "-90.10807756463196"
    }
  },
  {
    "service_request": "2025-1193467",
    "request_type": "Trash/Recycling",
    "request_reason": "Request a Large Item Pick Up",
    "date_created": "2025-05-19T19:26:26.000",
    "date_modified": "2025-05-19T19:26:28.000",
    "request_status": "Pending",
    "responsible_agency": "Department of Sanitation",
    "final_address": "5412 York St",
    "address_councildis": "A",
    "status": "Assigned to Contractor",
    "contractor": "IV Waste",
    "rowid": "1193467",
    "final_x": "3668861.31015",
    "final_y": "528597.22432",
    "longitude": "-90.10807756463196",
    "latitude": "29.94783669544483",
    "geocoded_column": {
      "latitude": "29.94783669544483",
      "longitude": "-90.10807756463196"
    }
  },
  {
    "service_request": "2025-1193466",
    "request_type": "Trash/Recycling",
    "request_reason": "Request a Large Item Pick Up",
    "date_created": "2025-05-19T19:25:04.000",
    "date_modified": "2025-05-19T19:25:06.000",
    "request_status": "Pending",
    "responsible_agency": "Department of Sanitation",
    "final_address": "5412 York St",
    "address_councildis": "A",
    "status": "Assigned to Contractor",
    "contractor": "IV Waste",
    "rowid": "1193466",
    "final_x": "3668861.31015",
    "final_y": "528597.22432",
    "longitude": "-90.10807756463196",
    "latitude": "29.94783669544483",
    "geocoded_column": {
      "latitude": "29.94783669544483",
      "longitude": "-90.10807756463196"
    }
  },
  {
    "service_request": "2025-1193465",
    "request_type": "Trash/Recycling",
    "request_reason": "Order Recycling Cart",
    "date_created": "2025-05-19T19:24:37.000",
    "date_modified": "2025-05-19T19:24:40.000",
    "request_status": "Pending",
    "responsible_agency": "Department of Sanitation",
    "final_address": "3610 Kent Dr",
    "address_councildis": "C",
    "status": "Pending",
    "rowid": "1193465",
    "final_x": "3708804.76715",
    "final_y": "517572.790326",
    "longitude": "-89.9823717266393",
    "latitude": "29.916288527603985",
    "geocoded_column": {
      "latitude": "29.916288527603985",
      "longitude": "-89.9823717266393"
    }
  },
  {
    "service_request": "2025-1193464",
    "request_type": "Drainage",
    "request_reason": "Catch Basin Clogged",
    "date_created": "2025-05-19T19:10:33.000",
    "date_modified": "2025-05-19T19:10:34.000",
    "request_status": "Pending",
    "responsible_agency": "Sewerage & Water Board",
    "final_address": "4301 Iberville St",
    "address_councildis": "A",
    "status": "Pending",
    "rowid": "1193464",
    "final_x": "3670545.52846",
    "final_y": "539351.30273",
    "longitude": "-90.10239503769802",
    "latitude": "29.97735720454978",
    "geocoded_column": {
      "latitude": "29.97735720454978",
      "longitude": "-90.10239503769802"
    }
  },
  {
    "service_request": "2025-1193463",
    "request_type": "Street and Traffic Signs",
    "request_reason": "Traffic or Parking Sign Damaged or Missing",
    "date_created": "2025-05-19T18:58:44.000",
    "date_modified": "2025-05-19T18:58:46.000",
    "request_status": "Pending",
    "responsible_agency": "Department of Public Works",
    "final_address": "8400 Morrison Rd",
    "address_councildis": "E",
    "status": "Pending",
    "rowid": "1193463",
    "final_x": "3703975.33988",
    "final_y": "560798.307998",
    "longitude": "-89.9960228576583",
    "latitude": "30.03529852344912",
    "geocoded_column": {
      "latitude": "30.03529852344912",
      "longitude": "-89.9960228576583"
    }
  },
  {
    "service_request": "2025-1193462",
    "request_type": "Trash/Recycling",
    "request_reason": "Request a Large Item Pick Up",
    "date_created": "2025-05-19T18:50:35.000",
    "date_modified": "2025-05-19T18:50:38.000",
    "request_status": "Pending",
    "responsible_agency": "Department of Sanitation",
    "final_address": "5610 Chamberlain Dr",
    "address_councildis": "D",
    "status": "Assigned to Contractor",
    "contractor": "IV Waste",
    "rowid": "1193462",
    "final_x": "3679326.19707",
    "final_y": "553068.697879",
    "longitude": "-90.07418669322648",
    "latitude": "30.014812901303078",
    "geocoded_column": {
      "latitude": "30.014812901303078",
      "longitude": "-90.07418669322648"
    }
  },
  {
    "service_request": "2025-1193461",
    "request_type": "Mosquito, Termite & Rodent Control",
    "request_reason": "Rodent Complaint (Mice & Rats)",
    "date_created": "2025-05-19T18:32:52.000",
    "date_modified": "2025-05-19T18:32:53.000",
    "request_status": "Pending",
    "responsible_agency": "Mosquito, Termite & Rodent Control Board",
    "final_address": "1932 Ap Tureaud Ave",
    "address_councildis": "D",
    "status": "Pending",
    "rowid": "1193461",
    "final_x": "3681657.0278",
    "final_y": "539365.763914",
    "longitude": "-90.0673007571682",
    "latitude": "29.97706407057423",
    "geocoded_column": {
      "latitude": "29.97706407057423",
      "longitude": "-90.0673007571682"
    }
  },
  {
    "service_request": "2025-1193460",
    "request_type": "General Services",
    "request_reason": "General Service Request",
    "date_created": "2025-05-19T18:32:13.000",
    "date_modified": "2025-05-19T18:32:16.000",
    "request_status": "Pending",
    "responsible_agency": "Orleans Parish Communication District",
    "final_address": "2421 Monroe St",
    "address_councildis": "A",
    "status": "Pending",
    "rowid": "1193460",
    "final_x": "3663491.24845",
    "final_y": "533155.20794",
    "longitude": "-90.12488128558995",
    "latitude": "29.960526474458952",
    "geocoded_column": {
      "latitude": "29.960526474458952",
      "longitude": "-90.12488128558995"
    }
  },
  {
    "service_request": "2025-1193459",
    "request_type": "Street and Traffic Signs",
    "request_reason": "Traffic or Parking Sign Damaged or Missing",
    "date_created": "2025-05-19T18:25:06.000",
    "date_modified": "2025-05-19T18:25:08.000",
    "request_status": "Pending",
    "responsible_agency": "Department of Public Works",
    "final_address": "1413 Poland Ave",
    "address_councildis": "D",
    "status": "Pending",
    "rowid": "1193459",
    "final_x": "3693411.44003",
    "final_y": "536219.274951",
    "longitude": "-90.03028970398736",
    "latitude": "29.968050001801966",
    "geocoded_column": {
      "latitude": "29.968050001801966",
      "longitude": "-90.03028970398736"
    }
  },
  {
    "service_request": "2025-1193458",
    "request_type": "Healthy Homes",
    "request_reason": "Healthy Homes",
    "date_created": "2025-05-19T18:16:11.000",
    "date_modified": "2025-05-19T18:16:13.000",
    "request_status": "Pending",
    "responsible_agency": "Department of Code Enforcement",
    "final_address": "2421 Monroe St",
    "address_councildis": "A",
    "status": "Pending",
    "rowid": "1193458",
    "final_x": "3663491.24845",
    "final_y": "533155.20794",
    "longitude": "-90.12488128558995",
    "latitude": "29.960526474458952",
    "geocoded_column": {
      "latitude": "29.960526474458952",
      "longitude": "-90.12488128558995"
    }
  },
  {
    "service_request": "2025-1193457",
    "request_type": "Trash/Recycling",
    "request_reason": "Request a Large Item Pick Up",
    "date_created": "2025-05-19T18:15:57.000",
    "date_modified": "2025-05-19T18:15:59.000",
    "request_status": "Pending",
    "responsible_agency": "Department of Sanitation",
    "final_address": "7601 Symmes Ave",
    "address_councildis": "E",
    "status": "Assigned to Contractor",
    "contractor": "Waste Pro",
    "rowid": "1193457",
    "final_x": "3707925.82545",
    "final_y": "564564.493537",
    "longitude": "-89.98339855981801",
    "latitude": "30.045526670428046",
    "geocoded_column": {
      "latitude": "30.045526670428046",
      "longitude": "-89.98339855981801"
    }
  },
  {
    "service_request": "2025-1193456",
    "request_type": "Trash/Recycling",
    "request_reason": "Order Recycling Cart",
    "date_created": "2025-05-19T18:15:41.000",
    "date_modified": "2025-05-19T18:15:43.000",
    "request_status": "Pending",
    "responsible_agency": "Department of Sanitation",
    "final_address": "2531 N Claiborne Ave",
    "address_councildis": "D",
    "status": "Pending",
    "rowid": "1193456",
    "final_x": "3687337.88918",
    "final_y": "538381.171465",
    "longitude": "-90.0493936537559",
    "latitude": "29.974182975948104",
    "geocoded_column": {
      "latitude": "29.974182975948104",
      "longitude": "-90.0493936537559"
    }
  },
  {
    "service_request": "2025-1193455",
    "request_type": "Trash/Recycling",
    "request_reason": "Order Recycling Cart",
    "date_created": "2025-05-19T18:14:39.000",
    "date_modified": "2025-05-19T18:14:40.000",
    "request_status": "Pending",
    "responsible_agency": "Department of Sanitation",
    "final_address": "2527 N Claiborne Ave",
    "address_councildis": "D",
    "status": "Pending",
    "rowid": "1193455",
    "final_x": "3687317.62063",
    "final_y": "538383.356425",
    "longitude": "-90.0494575890472",
    "latitude": "29.974189608288608",
    "geocoded_column": {
      "latitude": "29.974189608288608",
      "longitude": "-90.0494575890472"
    }
  },
  {
    "service_request": "2025-1193454",
    "request_type": "Trash/Recycling",
    "request_reason": "Order Trash Cart",
    "date_created": "2025-05-19T18:13:33.000",
    "date_modified": "2025-05-19T18:13:34.000",
    "request_status": "Pending",
    "responsible_agency": "Department of Sanitation",
    "final_address": "2531 N Claiborne Ave",
    "address_councildis": "D",
    "status": "Assigned to Contractor",
    "contractor": "IV Waste",
    "rowid": "1193454",
    "final_x": "3687337.88918",
    "final_y": "538381.171465",
    "longitude": "-90.0493936537559",
    "latitude": "29.974182975948104",
    "geocoded_column": {
      "latitude": "29.974182975948104",
      "longitude": "-90.0493936537559"
    }
  },
  {
    "service_request": "2025-1193453",
    "request_type": "Trash/Recycling",
    "request_reason": "Order Trash Cart",
    "date_created": "2025-05-19T18:12:43.000",
    "date_modified": "2025-05-19T18:12:45.000",
    "request_status": "Pending",
    "responsible_agency": "Department of Sanitation",
    "final_address": "2527 N Claiborne Ave",
    "address_councildis": "D",
    "status": "Assigned to Contractor",
    "contractor": "IV Waste",
    "rowid": "1193453",
    "final_x": "3687317.62063",
    "final_y": "538383.356425",
    "longitude": "-90.0494575890472",
    "latitude": "29.974189608288608",
    "geocoded_column": {
      "latitude": "29.974189608288608",
      "longitude": "-90.0494575890472"
    }
  },
  {
    "service_request": "2025-1193452",
    "request_type": "Trash/Recycling",
    "request_reason": "Order Trash Cart",
    "date_created": "2025-05-19T17:59:41.000",
    "date_modified": "2025-05-19T17:59:43.000",
    "request_status": "Pending",
    "responsible_agency": "Department of Sanitation",
    "final_address": "3717 Magazine St",
    "address_councildis": "B",
    "status": "Assigned to Contractor",
    "contractor": "IV Waste",
    "rowid": "1193452",
    "final_x": "3673482.57774",
    "final_y": "519121.852535",
    "longitude": "-90.09380999558991",
    "latitude": "29.921645813954882",
    "geocoded_column": {
      "latitude": "29.921645813954882",
      "longitude": "-90.09380999558991"
    }
  },
  {
    "service_request": "2025-1193451",
    "request_type": "Trash/Recycling",
    "request_reason": "Replace Trash Cart",
    "date_created": "2025-05-19T17:49:56.000",
    "date_modified": "2025-05-19T17:49:59.000",
    "request_status": "Pending",
    "responsible_agency": "Department of Sanitation",
    "final_address": "3728 Banks St",
    "address_councildis": "B",
    "status": "Assigned to Contractor",
    "contractor": "IV Waste",
    "rowid": "1193451",
    "final_x": "3671374.57537",
    "final_y": "536529.662087",
    "longitude": "-90.09987255777324",
    "latitude": "29.969574130772617",
    "geocoded_column": {
      "latitude": "29.969574130772617",
      "longitude": "-90.09987255777324"
    }
  },
  {
    "service_request": "2025-1193450",
    "request_type": "Trash/Recycling",
    "request_reason": "Order Trash Cart",
    "date_created": "2025-05-19T17:42:15.000",
    "date_modified": "2025-05-19T17:42:16.000",
    "request_status": "Pending",
    "responsible_agency": "Department of Sanitation",
    "final_address": "615 N Rendon St",
    "address_councildis": "A",
    "status": "Assigned to Contractor",
    "contractor": "IV Waste",
    "rowid": "1193450",
    "final_x": "3674734.73281",
    "final_y": "537998.351689",
    "longitude": "-90.08921051843556",
    "latitude": "29.97351264244146",
    "geocoded_column": {
      "latitude": "29.97351264244146",
      "longitude": "-90.08921051843556"
    }
  },
  {
    "service_request": "2025-1193449",
    "request_type": "Trash/Recycling",
    "request_reason": "Request a Large Item Pick Up",
    "date_created": "2025-05-19T17:35:38.000",
    "date_modified": "2025-05-19T17:35:39.000",
    "request_status": "Pending",
    "responsible_agency": "Department of Sanitation",
    "final_address": "6321 S Prieur St",
    "address_councildis": "A",
    "status": "Assigned to Contractor",
    "contractor": "IV Waste",
    "rowid": "1193449",
    "final_x": "3666564.57434",
    "final_y": "527356.284991",
    "longitude": "-90.11537094765691",
    "latitude": "29.944491843215697",
    "geocoded_column": {
      "latitude": "29.944491843215697",
      "longitude": "-90.11537094765691"
    }
  },
  {
    "service_request": "2025-1193448",
    "request_type": "Trash/Recycling",
    "request_reason": "Request a Large Item Pick Up",
    "date_created": "2025-05-19T17:34:50.000",
    "date_modified": "2025-05-19T17:34:51.000",
    "request_status": "Pending",
    "responsible_agency": "Department of Sanitation",
    "final_address": "3011 Calhoun St",
    "address_councildis": "A",
    "status": "Assigned to Contractor",
    "contractor": "IV Waste",
    "rowid": "1193448",
    "final_x": "3666943.23783",
    "final_y": "527644.834175",
    "longitude": "-90.11416569881195",
    "latitude": "29.94527418745526",
    "geocoded_column": {
      "latitude": "29.94527418745526",
      "longitude": "-90.11416569881195"
    }
  },
  {
    "service_request": "2025-1193447",
    "request_type": "Trash/Recycling",
    "request_reason": "Order Recycling Cart",
    "date_created": "2025-05-19T17:30:16.000",
    "date_modified": "2025-05-19T17:30:25.000",
    "request_status": "Pending",
    "responsible_agency": "Department of Sanitation",
    "final_address": "4710 Hickerson Dr",
    "address_councildis": "E",
    "status": "Pending",
    "rowid": "1193447",
    "final_x": "3710254.45259",
    "final_y": "555504.965529",
    "longitude": "-89.97637810440813",
    "latitude": "30.020540920148896",
    "geocoded_column": {
      "latitude": "30.020540920148896",
      "longitude": "-89.97637810440813"
    }
  },
  {
    "service_request": "2025-1193446",
    "request_type": "Property Maintenance",
    "request_reason": "Property Maintenance",
    "date_created": "2025-05-19T17:28:31.000",
    "date_modified": "2025-05-19T17:28:33.000",
    "request_status": "Pending",
    "responsible_agency": "Department of Code Enforcement",
    "final_address": "7617 Oak St",
    "address_councildis": "A",
    "status": "Pending",
    "rowid": "1193446",
    "final_x": "3663217.64551",
    "final_y": "527288.093887",
    "longitude": "-90.12594049724188",
    "latitude": "29.944401737220215",
    "geocoded_column": {
      "latitude": "29.944401737220215",
      "longitude": "-90.12594049724188"
    }
  },
  {
    "service_request": "2025-1193445",
    "request_type": "General Services",
    "request_reason": "General Service Request",
    "date_created": "2025-05-19T17:25:50.000",
    "date_modified": "2025-05-19T17:25:52.000",
    "request_status": "Pending",
    "responsible_agency": "Orleans Parish Communication District",
    "final_address": "New Orleans,LA",
    "status": "Pending",
    "rowid": "1193445",
    "longitude": "0.0",
    "latitude": "0.0",
    "geocoded_column": {
      "latitude": "0.0",
      "longitude": "0.0"
    }
  },
  {
    "service_request": "2025-1193444",
    "request_type": "Trash/Recycling",
    "request_reason": "Request a Large Item Pick Up",
    "date_created": "2025-05-19T17:17:59.000",
    "date_modified": "2025-05-19T17:18:01.000",
    "request_status": "Pending",
    "responsible_agency": "Department of Sanitation",
    "final_address": "520 S Murat St",
    "address_councildis": "A",
    "status": "Assigned to Contractor",
    "contractor": "IV Waste",
    "rowid": "1193444",
    "final_x": "3668662.35156",
    "final_y": "537971.812041",
    "longitude": "-90.108389330639",
    "latitude": "29.973619561257895",
    "geocoded_column": {
      "latitude": "29.973619561257895",
      "longitude": "-90.108389330639"
    }
  },
  {
    "service_request": "2025-1193443",
    "request_type": "Traffic Signals",
    "request_reason": "Traffic Signal Malfunctioning or Damaged",
    "date_created": "2025-05-19T17:09:41.000",
    "date_modified": "2025-05-19T17:09:43.000",
    "request_status": "Pending",
    "responsible_agency": "Department of Public Works",
    "final_address": "1501 Elysian Fields Ave",
    "address_councildis": "C",
    "status": "Pending",
    "rowid": "1193443",
    "final_x": "3684995.32988",
    "final_y": "537819.510024",
    "longitude": "-90.05681174642541",
    "latitude": "29.972710570462148",
    "geocoded_column": {
      "latitude": "29.972710570462148",
      "longitude": "-90.05681174642541"
    }
  },
  {
    "service_request": "2025-1193442",
    "request_type": "Trash/Recycling",
    "request_reason": "Request a Large Item Pick Up",
    "date_created": "2025-05-19T17:05:11.000",
    "date_modified": "2025-05-19T17:05:12.000",
    "request_status": "Pending",
    "responsible_agency": "Department of Sanitation",
    "final_address": "3200 Banks St",
    "address_councildis": "B",
    "status": "Assigned to Contractor",
    "contractor": "IV Waste",
    "rowid": "1193442",
    "final_x": "3673077.26459",
    "final_y": "535245.009734",
    "longitude": "-90.09453917147644",
    "latitude": "29.965991261455468",
    "geocoded_column": {
      "latitude": "29.965991261455468",
      "longitude": "-90.09453917147644"
    }
  },
  {
    "service_request": "2025-1193441",
    "request_type": "Trash/Recycling",
    "request_reason": "Request a Large Item Pick Up",
    "date_created": "2025-05-19T16:55:25.000",
    "date_modified": "2025-05-19T16:55:27.000",
    "request_status": "Pending",
    "responsible_agency": "Department of Sanitation",
    "final_address": "2312 Valmont St",
    "address_councildis": "B",
    "status": "Assigned to Contractor",
    "contractor": "IV Waste",
    "rowid": "1193441",
    "final_x": "3668146.05421",
    "final_y": "524074.27174",
    "longitude": "-90.11048832442884",
    "latitude": "29.935421047054277",
    "geocoded_column": {
      "latitude": "29.935421047054277",
      "longitude": "-90.11048832442884"
    }
  },
  {
    "service_request": "2025-1193440",
    "request_type": "Trash/Recycling",
    "request_reason": "Request a Large Item Pick Up",
    "date_created": "2025-05-19T16:50:05.000",
    "date_modified": "2025-05-19T16:50:07.000",
    "request_status": "Pending",
    "responsible_agency": "Department of Sanitation",
    "final_address": "3128 St Ann St",
    "address_councildis": "A",
    "status": "Assigned to Contractor",
    "contractor": "IV Waste",
    "rowid": "1193440",
    "final_x": "3675263.49045",
    "final_y": "538426.621961",
    "longitude": "-90.08752588303952",
    "latitude": "29.97467444290237",
    "geocoded_column": {
      "latitude": "29.97467444290237",
      "longitude": "-90.08752588303952"
    }
  },
  {
    "service_request": "2025-1193439",
    "request_type": "Streetlights",
    "request_reason": "Streetlight Outage/Malfunction",
    "date_created": "2025-05-19T16:49:22.000",
    "date_modified": "2025-05-19T16:49:24.000",
    "request_status": "Pending",
    "responsible_agency": "Department of Public Works",
    "final_address": "6100 BLK General Diaz St",
    "address_councildis": "A",
    "status": "Pending",
    "contractor": "Legacy Professional Services",
    "rowid": "1193439",
    "final_x": "3669593.34549",
    "final_y": "548168.694789",
    "longitude": "-90.10510384956578",
    "latitude": "30.001630101934843",
    "geocoded_column": {
      "latitude": "30.001630101934843",
      "longitude": "-90.10510384956578"
    }
  },
  {
    "service_request": "2025-1193437",
    "request_type": "Trash/Recycling",
    "request_reason": "Missed Trash Pick-Up",
    "date_created": "2025-05-19T16:45:01.000",
    "date_modified": "2025-05-19T16:45:03.000",
    "request_status": "Pending",
    "responsible_agency": "Department of Sanitation",
    "final_address": "104 Brunswick Ct",
    "address_councildis": "C",
    "status": "Assigned to Contractor",
    "contractor": "Richards Disposal",
    "rowid": "1193437",
    "final_x": "3705729.46455",
    "final_y": "517245.753525",
    "longitude": "-89.99209061372714",
    "latitude": "29.915488629362798",
    "geocoded_column": {
      "latitude": "29.915488629362798",
      "longitude": "-89.99209061372714"
    }
  },
  {
    "service_request": "2025-1193436",
    "request_type": "Trash/Recycling",
    "request_reason": "Repair Trash Cart",
    "date_created": "2025-05-19T16:42:25.000",
    "date_modified": "2025-05-19T16:42:26.000",
    "request_status": "Pending",
    "responsible_agency": "Department of Sanitation",
    "final_address": "7220 Pritchard Pl",
    "address_councildis": "B",
    "status": "Assigned to Contractor",
    "contractor": "IV Waste",
    "rowid": "1193436",
    "final_x": "3667386.1906",
    "final_y": "531632.738051",
    "longitude": "-90.11263301492471",
    "latitude": "29.956226657756552",
    "geocoded_column": {
      "latitude": "29.956226657756552",
      "longitude": "-90.11263301492471"
    }
  },
  {
    "service_request": "2025-1193435",
    "request_type": "Parks & Parkways",
    "request_reason": "Request Tree Service (Right of Way/Public Property)",
    "date_created": "2025-05-19T16:42:04.000",
    "date_modified": "2025-05-19T16:42:05.000",
    "request_status": "Pending",
    "responsible_agency": "Department of Parks & Parkway",
    "final_address": "201 N Carrollton Ave",
    "address_councildis": "A",
    "status": "Pending",
    "rowid": "1193435",
    "final_x": "3671360.0299",
    "final_y": "538763.288905",
    "longitude": "-90.09984255791619",
    "latitude": "29.975716281426166",
    "geocoded_column": {
      "latitude": "29.975716281426166",
      "longitude": "-90.09984255791619"
    }
  },
  {
    "service_request": "2025-1193434",
    "request_type": "Roads and Streets",
    "request_reason": "Sidewalk Damaged or Missing",
    "date_created": "2025-05-19T16:40:47.000",
    "date_modified": "2025-05-19T16:40:49.000",
    "request_status": "Pending",
    "responsible_agency": "Department of Public Works",
    "final_address": "6457 Debore Dr",
    "address_councildis": "D",
    "status": "Pending",
    "rowid": "1193434",
    "final_x": "3690936.02211",
    "final_y": "557387.876827",
    "longitude": "-90.03735102913892",
    "latitude": "30.026333124681948",
    "geocoded_column": {
      "latitude": "30.026333124681948",
      "longitude": "-90.03735102913892"
    }
  },
  {
    "service_request": "2025-1193433",
    "request_type": "Trash/Recycling",
    "request_reason": "Order Recycling Cart",
    "date_created": "2025-05-19T16:39:48.000",
    "date_modified": "2025-05-19T16:39:49.000",
    "request_status": "Pending",
    "responsible_agency": "Department of Sanitation",
    "final_address": "414 Wallace Dr",
    "address_councildis": "D",
    "status": "Pending",
    "rowid": "1193433",
    "final_x": "3681679.81647",
    "final_y": "548382.086482",
    "longitude": "-90.06691405251344",
    "latitude": "30.001855084725396",
    "geocoded_column": {
      "latitude": "30.001855084725396",
      "longitude": "-90.06691405251344"
    }
  },
  {
    "service_request": "2025-1193432",
    "request_type": "Trash/Recycling",
    "request_reason": "Repair Trash Cart",
    "date_created": "2025-05-19T16:39:13.000",
    "date_modified": "2025-05-19T16:39:14.000",
    "request_status": "Pending",
    "responsible_agency": "Department of Sanitation",
    "final_address": "414 Wallace Dr",
    "address_councildis": "D",
    "status": "Assigned to Contractor",
    "contractor": "IV Waste",
    "rowid": "1193432",
    "final_x": "3681679.81647",
    "final_y": "548382.086482",
    "longitude": "-90.06691405251344",
    "latitude": "30.001855084725396",
    "geocoded_column": {
      "latitude": "30.001855084725396",
      "longitude": "-90.06691405251344"
    }
  },
  {
    "service_request": "2025-1193431",
    "request_type": "Trash/Recycling",
    "request_reason": "Request a Large Item Pick Up",
    "date_created": "2025-05-19T16:38:02.000",
    "date_modified": "2025-05-19T16:38:04.000",
    "request_status": "Pending",
    "responsible_agency": "Department of Sanitation",
    "final_address": "7062 Boston Dr",
    "address_councildis": "E",
    "status": "Assigned to Contractor",
    "contractor": "Waste Pro",
    "rowid": "1193431",
    "final_x": "3706288.38161",
    "final_y": "560810.434718",
    "longitude": "-89.98871287186734",
    "latitude": "30.035257436835675",
    "geocoded_column": {
      "latitude": "30.035257436835675",
      "longitude": "-89.98871287186734"
    }
  },
  {
    "service_request": "2025-1193430",
    "request_type": "Parks & Parkways",
    "request_reason": "Request Tree Service (Right of Way/Public Property)",
    "date_created": "2025-05-19T16:35:41.000",
    "date_modified": "2025-05-19T16:35:43.000",
    "request_status": "Pending",
    "responsible_agency": "Department of Parks & Parkway",
    "final_address": "5109 Montegut Dr",
    "address_councildis": "D",
    "status": "Pending",
    "rowid": "1193430",
    "final_x": "3689763.02128",
    "final_y": "552121.320726",
    "longitude": "-90.04124521963536",
    "latitude": "30.0118884827057",
    "geocoded_column": {
      "latitude": "30.0118884827057",
      "longitude": "-90.04124521963536"
    }
  },
  {
    "service_request": "2025-1193429",
    "request_type": "Trash/Recycling",
    "request_reason": "Request a Large Item Pick Up",
    "date_created": "2025-05-19T16:33:34.000",
    "date_modified": "2025-05-19T16:33:35.000",
    "request_status": "Pending",
    "responsible_agency": "Department of Sanitation",
    "final_address": "7716 Maple St",
    "address_councildis": "A",
    "status": "Assigned to Contractor",
    "contractor": "IV Waste",
    "rowid": "1193429",
    "final_x": "3661972.9481",
    "final_y": "526417.91827",
    "longitude": "-90.12989924156842",
    "latitude": "29.942045036339444",
    "geocoded_column": {
      "latitude": "29.942045036339444",
      "longitude": "-90.12989924156842"
    }
  },
  {
    "service_request": "2025-1193428",
    "request_type": "Trash/Recycling",
    "request_reason": "Request a Large Item Pick Up",
    "date_created": "2025-05-19T16:33:02.000",
    "date_modified": "2025-05-19T16:33:04.000",
    "request_status": "Pending",
    "responsible_agency": "Department of Sanitation",
    "final_address": "2818 General Ogden St",
    "address_councildis": "A",
    "status": "Assigned to Contractor",
    "contractor": "IV Waste",
    "rowid": "1193428",
    "final_x": "3663809.82016",
    "final_y": "534659.044806",
    "longitude": "-90.12382516867922",
    "latitude": "29.96465229142167",
    "geocoded_column": {
      "latitude": "29.96465229142167",
      "longitude": "-90.12382516867922"
    }
  },
  {
    "service_request": "2025-1193427",
    "request_type": "Trash/Recycling",
    "request_reason": "Repair Trash Cart",
    "date_created": "2025-05-19T16:32:26.000",
    "date_modified": "2025-05-19T16:32:27.000",
    "request_status": "Pending",
    "responsible_agency": "Department of Sanitation",
    "final_address": "3716 Inwood Ave",
    "address_councildis": "C",
    "status": "Assigned to Contractor",
    "contractor": "Richards Disposal",
    "rowid": "1193427",
    "final_x": "3704511.4506",
    "final_y": "514822.171251",
    "longitude": "-89.99602437134435",
    "latitude": "29.908863756087023",
    "geocoded_column": {
      "latitude": "29.908863756087023",
      "longitude": "-89.99602437134435"
    }
  },
  {
    "service_request": "2025-1193426",
    "request_type": "Trash/Recycling",
    "request_reason": "Request a Large Item Pick Up",
    "date_created": "2025-05-19T16:32:09.000",
    "date_modified": "2025-05-19T16:32:46.000",
    "request_status": "Pending",
    "responsible_agency": "Department of Sanitation",
    "final_address": "7326 Devine Ave",
    "address_councildis": "E",
    "status": "Assigned to Contractor",
    "contractor": "Waste Pro",
    "rowid": "1193426",
    "final_x": "3705978.47236",
    "final_y": "562331.757599",
    "longitude": "-89.98963585051845",
    "latitude": "30.039450470688916",
    "geocoded_column": {
      "latitude": "30.039450470688916",
      "longitude": "-89.98963585051845"
    }
  },
  {
    "service_request": "2025-1193425",
    "request_type": "Trash/Recycling",
    "request_reason": "Order Trash Cart",
    "date_created": "2025-05-19T16:27:27.000",
    "date_modified": "2025-05-19T16:27:28.000",
    "request_status": "Pending",
    "responsible_agency": "Department of Sanitation",
    "final_address": "8421 S Claiborne Ave",
    "address_councildis": "A",
    "status": "Assigned to Contractor",
    "contractor": "IV Waste",
    "rowid": "1193425",
    "final_x": "3663961.81959",
    "final_y": "532479.56666",
    "longitude": "-90.12341783824274",
    "latitude": "29.958655026853723",
    "geocoded_column": {
      "latitude": "29.958655026853723",
      "longitude": "-90.12341783824274"
    }
  },
  {
    "service_request": "2025-1193424",
    "request_type": "Trash/Recycling",
    "request_reason": "Request a Large Item Pick Up",
    "date_created": "2025-05-19T16:20:25.000",
    "date_modified": "2025-05-19T16:20:27.000",
    "request_status": "Pending",
    "responsible_agency": "Department of Sanitation",
    "final_address": "7221 E Renaissance Ct",
    "address_councildis": "E",
    "status": "Assigned to Contractor",
    "contractor": "Waste Pro",
    "rowid": "1193424",
    "final_x": "3717025.27852",
    "final_y": "568356.158245",
    "longitude": "-89.95449596203733",
    "latitude": "30.055654287632233",
    "geocoded_column": {
      "latitude": "30.055654287632233",
      "longitude": "-89.95449596203733"
    }
  },
  {
    "service_request": "2025-1193423",
    "request_type": "Trash/Recycling",
    "request_reason": "Request a Large Item Pick Up",
    "date_created": "2025-05-19T16:16:40.000",
    "date_modified": "2025-05-19T16:16:43.000",
    "request_status": "Pending",
    "responsible_agency": "Department of Sanitation",
    "final_address": "10721 Willowbrae Dr",
    "address_councildis": "E",
    "status": "Assigned to Contractor",
    "contractor": "Waste Pro",
    "rowid": "1193423",
    "final_x": "3710785.62981",
    "final_y": "564175.988577",
    "longitude": "-89.97437482566951",
    "latitude": "30.04436548821462",
    "geocoded_column": {
      "latitude": "30.04436548821462",
      "longitude": "-89.97437482566951"
    }
  },
  {
    "service_request": "2025-1193422",
    "request_type": "Safety & Permits",
    "request_reason": "Zoning Enforcement",
    "date_created": "2025-05-19T16:16:05.000",
    "date_modified": "2025-05-19T16:16:08.000",
    "request_status": "Pending",
    "responsible_agency": "Safety and Permits",
    "final_address": "819 Valence St",
    "address_councildis": "B",
    "status": "Pending",
    "rowid": "1193422",
    "final_x": "3670020.77441",
    "final_y": "518475.377206",
    "longitude": "-90.10475932733337",
    "latitude": "29.91997072868572",
    "geocoded_column": {
      "latitude": "29.91997072868572",
      "longitude": "-90.10475932733337"
    }
  },
  {
    "service_request": "2025-1193421",
    "request_type": "Trash/Recycling",
    "request_reason": "Request a Large Item Pick Up",
    "date_created": "2025-05-19T16:13:01.000",
    "date_modified": "2025-05-19T16:13:05.000",
    "request_status": "Pending",
    "responsible_agency": "Department of Sanitation",
    "final_address": "4746 Friar Tuck Dr",
    "address_councildis": "E",
    "status": "Assigned to Contractor",
    "contractor": "Waste Pro",
    "rowid": "1193421",
    "final_x": "3717674.38322",
    "final_y": "557003.804826",
    "longitude": "-89.95287658525032",
    "latitude": "30.024418434116864",
    "geocoded_column": {
      "latitude": "30.024418434116864",
      "longitude": "-89.95287658525032"
    }
  },
  {
    "service_request": "2025-1193420",
    "request_type": "Trash/Recycling",
    "request_reason": "Repair Trash Cart",
    "date_created": "2025-05-19T16:11:51.000",
    "date_modified": "2025-05-19T16:11:54.000",
    "request_status": "Pending",
    "responsible_agency": "Department of Sanitation",
    "final_address": "324 S Murat St",
    "address_councildis": "A",
    "status": "Assigned to Contractor",
    "contractor": "IV Waste",
    "rowid": "1193420",
    "final_x": "3669121.0235",
    "final_y": "538567.125833",
    "longitude": "-90.10692061902527",
    "latitude": "29.975242983438484",
    "geocoded_column": {
      "latitude": "29.975242983438484",
      "longitude": "-90.10692061902527"
    }
  },
  {
    "service_request": "2025-1193419",
    "request_type": "Trash/Recycling",
    "request_reason": "Request a Large Item Pick Up",
    "date_created": "2025-05-19T16:11:28.000",
    "date_modified": "2025-05-19T16:11:30.000",
    "request_status": "Pending",
    "responsible_agency": "Department of Sanitation",
    "final_address": "10940 Harrow Rd",
    "address_councildis": "E",
    "status": "Assigned to Contractor",
    "contractor": "Waste Pro",
    "rowid": "1193419",
    "final_x": "3711778.88235",
    "final_y": "563817.623201",
    "longitude": "-89.97124919197346",
    "latitude": "30.043347700071017",
    "geocoded_column": {
      "latitude": "30.043347700071017",
      "longitude": "-89.97124919197346"
    }
  },
  {
    "service_request": "2025-1193418",
    "request_type": "Streetlights",
    "request_reason": "Streetlight Outage/Malfunction",
    "date_created": "2025-05-19T16:10:39.000",
    "date_modified": "2025-05-19T16:10:42.000",
    "request_status": "Pending",
    "responsible_agency": "Department of Public Works",
    "final_address": "4724 Crowder Blvd",
    "address_councildis": "E",
    "status": "Pending",
    "contractor": "Legacy Professional Services",
    "rowid": "1193418",
    "final_x": "3706335.09406",
    "final_y": "555549.775961",
    "longitude": "-89.98876033236083",
    "latitude": "30.02079117251032",
    "geocoded_column": {
      "latitude": "30.02079117251032",
      "longitude": "-89.98876033236083"
    }
  },
  {
    "service_request": "2025-1193417",
    "request_type": "Trash/Recycling",
    "request_reason": "Illegal Dumping",
    "date_created": "2025-05-19T16:08:10.000",
    "date_modified": "2025-05-19T16:08:12.000",
    "request_status": "Pending",
    "responsible_agency": "Department of Sanitation",
    "final_address": "239 Westpark Ct",
    "address_councildis": "C",
    "status": "Pending",
    "rowid": "1193417",
    "final_x": "3695979.49398",
    "final_y": "522412.29561",
    "longitude": "-90.02267848167332",
    "latitude": "29.93000507695074",
    "geocoded_column": {
      "latitude": "29.93000507695074",
      "longitude": "-90.02267848167332"
    }
  },
  {
    "service_request": "2025-1193416",
    "request_type": "Trash/Recycling",
    "request_reason": "Request a Large Item Pick Up",
    "date_created": "2025-05-19T16:03:26.000",
    "date_modified": "2025-05-19T16:03:28.000",
    "request_status": "Pending",
    "responsible_agency": "Department of Sanitation",
    "final_address": "5352 Camp St",
    "address_councildis": "B",
    "status": "Assigned to Contractor",
    "contractor": "IV Waste",
    "rowid": "1193416",
    "final_x": "3667071.17146",
    "final_y": "519056.889015",
    "longitude": "-90.11405029858787",
    "latitude": "29.921656334419975",
    "geocoded_column": {
      "latitude": "29.921656334419975",
      "longitude": "-90.11405029858787"
    }
  },
  {
    "service_request": "2025-1193415",
    "request_type": "Abandoned Vehicles",
    "request_reason": "Abandoned/Junk Vehicles",
    "date_created": "2025-05-19T16:02:49.000",
    "date_modified": "2025-05-19T16:02:50.000",
    "request_status": "Pending",
    "responsible_agency": "Department of Public Works",
    "final_address": "239 Westpark Ct",
    "address_councildis": "C",
    "status": "Pending",
    "rowid": "1193415",
    "final_x": "3695979.49398",
    "final_y": "522412.29561",
    "longitude": "-90.02267848167332",
    "latitude": "29.93000507695074",
    "geocoded_column": {
      "latitude": "29.93000507695074",
      "longitude": "-90.02267848167332"
    }
  },
  {
    "service_request": "2025-1193414",
    "request_type": "Property Maintenance",
    "request_reason": "Property Maintenance",
    "date_created": "2025-05-19T15:59:13.000",
    "date_modified": "2025-05-19T15:59:15.000",
    "request_status": "Pending",
    "responsible_agency": "Department of Code Enforcement",
    "final_address": "5800 BLK E Deer Park Blvd",
    "address_councildis": "E",
    "status": "Pending",
    "rowid": "1193414",
    "final_x": "3712267.35463",
    "final_y": "561326.657974",
    "longitude": "-89.96979911083497",
    "latitude": "30.036482570208314",
    "geocoded_column": {
      "latitude": "30.036482570208314",
      "longitude": "-89.96979911083497"
    }
  },
  {
    "service_request": "2025-1193413",
    "request_type": "Trash/Recycling",
    "request_reason": "Replace Trash Cart",
    "date_created": "2025-05-19T15:58:41.000",
    "date_modified": "2025-05-19T15:58:42.000",
    "request_status": "Pending",
    "responsible_agency": "Department of Sanitation",
    "final_address": "5495 Patio Way",
    "address_councildis": "E",
    "status": "Assigned to Contractor",
    "contractor": "Waste Pro",
    "rowid": "1193413",
    "final_x": "3725424.53011",
    "final_y": "563828.765729",
    "longitude": "-89.92812339148801",
    "latitude": "30.042925265527668",
    "geocoded_column": {
      "latitude": "30.042925265527668",
      "longitude": "-89.92812339148801"
    }
  },
  {
    "service_request": "2025-1193412",
    "request_type": "Trash/Recycling",
    "request_reason": "Request a Large Item Pick Up",
    "date_created": "2025-05-19T15:56:52.000",
    "date_modified": "2025-05-19T15:56:55.000",
    "request_status": "Pending",
    "responsible_agency": "Department of Sanitation",
    "final_address": "7124 Barrington Ct",
    "address_councildis": "E",
    "status": "Assigned to Contractor",
    "contractor": "Waste Pro",
    "rowid": "1193412",
    "final_x": "3713912.04037",
    "final_y": "565250.662562",
    "longitude": "-89.96445348058509",
    "latitude": "30.047218082373497",
    "geocoded_column": {
      "latitude": "30.047218082373497",
      "longitude": "-89.96445348058509"
    }
  },
  {
    "service_request": "2025-1193411",
    "request_type": "Trash/Recycling",
    "request_reason": "Request a Large Item Pick Up",
    "date_created": "2025-05-19T15:51:48.000",
    "date_modified": "2025-05-19T15:51:50.000",
    "request_status": "Pending",
    "responsible_agency": "Department of Sanitation",
    "final_address": "10336 Brookfield Dr",
    "address_councildis": "E",
    "status": "Assigned to Contractor",
    "contractor": "Waste Pro",
    "rowid": "1193411",
    "final_x": "3710622.45976",
    "final_y": "563225.570784",
    "longitude": "-89.97492612177898",
    "latitude": "30.04175754056776",
    "geocoded_column": {
      "latitude": "30.04175754056776",
      "longitude": "-89.97492612177898"
    }
  },
  {
    "service_request": "2025-1193410",
    "request_type": "Property Maintenance",
    "request_reason": "Property Maintenance",
    "date_created": "2025-05-19T15:50:54.000",
    "date_modified": "2025-05-19T15:50:56.000",
    "request_status": "Pending",
    "responsible_agency": "Department of Code Enforcement",
    "final_address": "10300 BLK E Deer Park Blvd",
    "address_councildis": "E",
    "status": "Pending",
    "rowid": "1193410",
    "final_x": "3712492.64584",
    "final_y": "560906.679483",
    "longitude": "-89.96910295373576",
    "latitude": "30.03532042370625",
    "geocoded_column": {
      "latitude": "30.03532042370625",
      "longitude": "-89.96910295373576"
    }
  },
  {
    "service_request": "2025-1193409",
    "request_type": "Trash/Recycling",
    "request_reason": "Request a Large Item Pick Up",
    "date_created": "2025-05-19T15:50:20.000",
    "date_modified": "2025-05-19T15:50:22.000",
    "request_status": "Pending",
    "responsible_agency": "Department of Sanitation",
    "final_address": "5225 Forest Park Ln",
    "address_councildis": "C",
    "status": "Assigned to Contractor",
    "contractor": "Richards Disposal",
    "rowid": "1193409",
    "final_x": "3703847.27377",
    "final_y": "510447.332975",
    "longitude": "-89.99828148424258",
    "latitude": "29.896855732797285",
    "geocoded_column": {
      "latitude": "29.896855732797285",
      "longitude": "-89.99828148424258"
    }
  },
  {
    "service_request": "2025-1193408",
    "request_type": "Trash/Recycling",
    "request_reason": "Request a Large Item Pick Up",
    "date_created": "2025-05-19T15:49:50.000",
    "date_modified": "2025-05-19T15:49:52.000",
    "request_status": "Pending",
    "responsible_agency": "Department of Sanitation",
    "final_address": "6391 Eastover Dr",
    "address_councildis": "E",
    "status": "Assigned to Contractor",
    "contractor": "Waste Pro",
    "rowid": "1193408",
    "final_x": "3718334.99129",
    "final_y": "563527.49296",
    "longitude": "-89.95054044349781",
    "latitude": "30.042334042378123",
    "geocoded_column": {
      "latitude": "30.042334042378123",
      "longitude": "-89.95054044349781"
    }
  },
  {
    "service_request": "2025-1193407",
    "request_type": "Trash/Recycling",
    "request_reason": "Request a Large Item Pick Up",
    "date_created": "2025-05-19T15:47:05.000",
    "date_modified": "2025-05-19T15:47:07.000",
    "request_status": "Pending",
    "responsible_agency": "Department of Sanitation",
    "final_address": "5126 Piety Dr",
    "address_councildis": "D",
    "status": "Assigned to Contractor",
    "contractor": "IV Waste",
    "rowid": "1193407",
    "final_x": "3691115.03875",
    "final_y": "552805.570518",
    "longitude": "-90.03694917854254",
    "latitude": "30.013727926357994",
    "geocoded_column": {
      "latitude": "30.013727926357994",
      "longitude": "-90.03694917854254"
    }
  },
  {
    "service_request": "2025-1193406",
    "request_type": "Trash/Recycling",
    "request_reason": "Request a Large Item Pick Up",
    "date_created": "2025-05-19T15:46:41.000",
    "date_modified": "2025-05-19T15:46:42.000",
    "request_status": "Pending",
    "responsible_agency": "Department of Sanitation",
    "final_address": "5901 Oxford Pl",
    "address_councildis": "C",
    "status": "Assigned to Contractor",
    "contractor": "Richards Disposal",
    "rowid": "1193406",
    "final_x": "3705625.83243",
    "final_y": "519685.61708",
    "longitude": "-89.99232758489102",
    "latitude": "29.922200744083344",
    "geocoded_column": {
      "latitude": "29.922200744083344",
      "longitude": "-89.99232758489102"
    }
  },
  {
    "service_request": "2025-1193405",
    "request_type": "Streetlights",
    "request_reason": "Streetlight Outage/Malfunction",
    "date_created": "2025-05-19T15:46:29.000",
    "date_modified": "2025-05-19T15:46:31.000",
    "request_status": "Pending",
    "responsible_agency": "Department of Public Works",
    "final_address": "2021 Wagner St",
    "address_councildis": "C",
    "status": "Pending",
    "contractor": "Legacy Professional Services",
    "rowid": "1193405",
    "final_x": "3690265.71177",
    "final_y": "523241.203771",
    "longitude": "-90.0406863601417",
    "latitude": "29.932462766389584",
    "geocoded_column": {
      "latitude": "29.932462766389584",
      "longitude": "-90.0406863601417"
    }
  },
  {
    "service_request": "2025-1193404",
    "request_type": "Trash/Recycling",
    "request_reason": "Order Trash Cart",
    "date_created": "2025-05-19T15:46:10.000",
    "date_modified": "2025-05-19T15:46:12.000",
    "request_status": "Pending",
    "responsible_agency": "Department of Sanitation",
    "final_address": "2223 Orleans Ave",
    "address_councildis": "D",
    "status": "Assigned to Contractor",
    "contractor": "IV Waste",
    "rowid": "1193404",
    "final_x": "3678319.80021",
    "final_y": "535934.045447",
    "longitude": "-90.07795954657716",
    "latitude": "29.967728987553034",
    "geocoded_column": {
      "latitude": "29.967728987553034",
      "longitude": "-90.07795954657716"
    }
  },
  {
    "service_request": "2025-1193403",
    "request_type": "Trash/Recycling",
    "request_reason": "Order Trash Cart",
    "date_created": "2025-05-19T15:44:53.000",
    "date_modified": "2025-05-19T15:45:21.000",
    "request_status": "Pending",
    "responsible_agency": "Department of Sanitation",
    "final_address": "2225 Orleans Ave",
    "address_councildis": "D",
    "status": "Assigned to Contractor",
    "contractor": "IV Waste",
    "rowid": "1193403",
    "final_x": "3678307.60782",
    "final_y": "535942.275847",
    "longitude": "-90.07799776572897",
    "latitude": "29.96775198563562",
    "geocoded_column": {
      "latitude": "29.96775198563562",
      "longitude": "-90.07799776572897"
    }
  },
  {
    "service_request": "2025-1193402",
    "request_type": "Trash/Recycling",
    "request_reason": "Request a Large Item Pick Up",
    "date_created": "2025-05-19T15:44:03.000",
    "date_modified": "2025-05-19T15:44:05.000",
    "request_status": "Pending",
    "responsible_agency": "Department of Sanitation",
    "final_address": "4667 Gabriel Dr",
    "address_councildis": "E",
    "status": "Assigned to Contractor",
    "contractor": "Waste Pro",
    "rowid": "1193402",
    "final_x": "3708993.91953",
    "final_y": "555295.024217",
    "longitude": "-89.98036880519642",
    "latitude": "30.02000464894663",
    "geocoded_column": {
      "latitude": "30.02000464894663",
      "longitude": "-89.98036880519642"
    }
  },
  {
    "service_request": "2025-1193401",
    "request_type": "Trash/Recycling",
    "request_reason": "Order Trash Cart",
    "date_created": "2025-05-19T15:44:01.000",
    "date_modified": "2025-05-19T15:44:04.000",
    "request_status": "Pending",
    "responsible_agency": "Department of Sanitation",
    "final_address": "2226 St Ann St",
    "address_councildis": "D",
    "status": "Assigned to Contractor",
    "contractor": "IV Waste",
    "rowid": "1193401",
    "final_x": "3678360.03758",
    "final_y": "536048.345159",
    "longitude": "-90.07782852076315",
    "latitude": "29.968042060539542",
    "geocoded_column": {
      "latitude": "29.968042060539542",
      "longitude": "-90.07782852076315"
    }
  },
  {
    "service_request": "2025-1193400",
    "request_type": "Trash/Recycling",
    "request_reason": "Request a Large Item Pick Up",
    "date_created": "2025-05-19T15:42:38.000",
    "date_modified": "2025-05-19T17:08:32.000",
    "case_close_date": "2025-05-19T12:08:30.000",
    "request_status": "Closed",
    "responsible_agency": "Department of Sanitation",
    "final_address": "4667 Gabriel Dr",
    "address_councildis": "E",
    "status": "Duplicate Request",
    "contractor": "Waste Pro",
    "contractor_action": "Duplicate",
    "rowid": "1193400",
    "final_x": "3708993.91953",
    "final_y": "555295.024217",
    "longitude": "-89.98036880519642",
    "latitude": "30.02000464894663",
    "geocoded_column": {
      "latitude": "30.02000464894663",
      "longitude": "-89.98036880519642"
    }
  },
  {
    "service_request": "2025-1193399",
    "request_type": "Streetlights",
    "request_reason": "Streetlight Outage/Malfunction",
    "date_created": "2025-05-19T15:36:38.000",
    "date_modified": "2025-05-19T15:36:41.000",
    "request_status": "Pending",
    "responsible_agency": "Department of Public Works",
    "final_address": "2041 Wagner St",
    "address_councildis": "C",
    "status": "Pending",
    "contractor": "Legacy Professional Services",
    "rowid": "1193399",
    "final_x": "3690251.57385",
    "final_y": "523047.877435",
    "longitude": "-90.04073787695035",
    "latitude": "29.931931622812375",
    "geocoded_column": {
      "latitude": "29.931931622812375",
      "longitude": "-90.04073787695035"
    }
  },
  {
    "service_request": "2025-1193398",
    "request_type": "Trash/Recycling",
    "request_reason": "Request a Large Item Pick Up",
    "date_created": "2025-05-19T15:35:20.000",
    "date_modified": "2025-05-19T15:35:21.000",
    "request_status": "Pending",
    "responsible_agency": "Department of Sanitation",
    "final_address": "1718 N Robertson St",
    "address_councildis": "C",
    "status": "Assigned to Contractor",
    "contractor": "IV Waste",
    "rowid": "1193398",
    "final_x": "3683193.61762",
    "final_y": "537611.050824",
    "longitude": "-90.06250918123902",
    "latitude": "29.97219244793451",
    "geocoded_column": {
      "latitude": "29.97219244793451",
      "longitude": "-90.06250918123902"
    }
  },
  {
    "service_request": "2025-1193397",
    "request_type": "Trash/Recycling",
    "request_reason": "Request a Large Item Pick Up",
    "date_created": "2025-05-19T15:34:19.000",
    "date_modified": "2025-05-19T15:34:21.000",
    "request_status": "Pending",
    "responsible_agency": "Department of Sanitation",
    "final_address": "2223 Lowerline St",
    "address_councildis": "A",
    "status": "Assigned to Contractor",
    "contractor": "IV Waste",
    "rowid": "1193397",
    "final_x": "3665791.24346",
    "final_y": "529907.816641",
    "longitude": "-90.11772712424708",
    "latitude": "29.951530310002216",
    "geocoded_column": {
      "latitude": "29.951530310002216",
      "longitude": "-90.11772712424708"
    }
  },
  {
    "service_request": "2025-1193396",
    "request_type": "Streetlights",
    "request_reason": "Streetlight Outage/Malfunction",
    "date_created": "2025-05-19T15:33:30.000",
    "date_modified": "2025-05-19T15:33:32.000",
    "request_status": "Pending",
    "responsible_agency": "Department of Public Works",
    "final_address": "1700 Vespasian St",
    "address_councildis": "C",
    "status": "Pending",
    "contractor": "Legacy Professional Services",
    "rowid": "1193396",
    "final_x": "3690346.15785",
    "final_y": "523163.780219",
    "longitude": "-90.04043515775017",
    "latitude": "29.932247382134715",
    "geocoded_column": {
      "latitude": "29.932247382134715",
      "longitude": "-90.04043515775017"
    }
  },
  {
    "service_request": "2025-1193395",
    "request_type": "Property Maintenance",
    "request_reason": "Property Maintenance",
    "date_created": "2025-05-19T15:31:52.000",
    "date_modified": "2025-05-19T15:31:54.000",
    "request_status": "Pending",
    "responsible_agency": "Department of Code Enforcement",
    "final_address": "4669 Werner Dr",
    "address_councildis": "E",
    "status": "Pending",
    "rowid": "1193395",
    "final_x": "3704848.04311",
    "final_y": "554883.475224",
    "longitude": "-89.993483558143",
    "latitude": "30.019006998596033",
    "geocoded_column": {
      "latitude": "30.019006998596033",
      "longitude": "-89.993483558143"
    }
  },
  {
    "service_request": "2025-1193394",
    "request_type": "Trash/Recycling",
    "request_reason": "Repair Recycling Cart",
    "date_created": "2025-05-19T15:29:34.000",
    "date_modified": "2025-05-19T15:29:36.000",
    "request_status": "Pending",
    "responsible_agency": "Department of Sanitation",
    "final_address": "7555 Mercier St",
    "address_councildis": "E",
    "status": "Pending",
    "rowid": "1193394",
    "final_x": "3711826.78008",
    "final_y": "565996.400291",
    "longitude": "-89.97101594916865",
    "latitude": "30.049336891735546",
    "geocoded_column": {
      "latitude": "30.049336891735546",
      "longitude": "-89.97101594916865"
    }
  },
  {
    "service_request": "2025-1193393",
    "request_type": "Parks & Parkways",
    "request_reason": "Request Tree Service (Right of Way/Public Property)",
    "date_created": "2025-05-19T15:28:45.000",
    "date_modified": "2025-05-19T15:30:00.000",
    "request_status": "Pending",
    "responsible_agency": "Department of Parks & Parkway",
    "final_address": "5935 Franklin Ave",
    "address_councildis": "D",
    "status": "Pending",
    "rowid": "1193393",
    "final_x": "3686500.71241",
    "final_y": "555140.186841",
    "longitude": "-90.05144551435318",
    "latitude": "30.020290000479136",
    "geocoded_column": {
      "latitude": "30.020290000479136",
      "longitude": "-90.05144551435318"
    }
  },
  {
    "service_request": "2025-1193392",
    "request_type": "Trash/Recycling",
    "request_reason": "Illegal Dumping",
    "date_created": "2025-05-19T15:27:11.000",
    "date_modified": "2025-05-19T15:27:12.000",
    "request_status": "Pending",
    "responsible_agency": "Department of Sanitation",
    "final_address": "6335 Dwyer Rd",
    "address_councildis": "D",
    "status": "Pending",
    "rowid": "1193392",
    "final_x": "3697743.5208",
    "final_y": "555258.136153",
    "longitude": "-90.0159176280092",
    "latitude": "30.020263684251645",
    "geocoded_column": {
      "latitude": "30.020263684251645",
      "longitude": "-90.0159176280092"
    }
  },
  {
    "service_request": "2025-1193391",
    "request_type": "Streetlights",
    "request_reason": "Streetlight Outage/Malfunction",
    "date_created": "2025-05-19T15:26:47.000",
    "date_modified": "2025-05-19T15:26:48.000",
    "request_status": "Pending",
    "responsible_agency": "Department of Public Works",
    "final_address": "2053 Wagner St",
    "address_councildis": "C",
    "status": "Pending",
    "contractor": "Legacy Professional Services",
    "rowid": "1193391",
    "final_x": "3690227.12796",
    "final_y": "522998.627579",
    "longitude": "-90.04081680357041",
    "latitude": "29.931796960585753",
    "geocoded_column": {
      "latitude": "29.931796960585753",
      "longitude": "-90.04081680357041"
    }
  },
  {
    "service_request": "2025-1193390",
    "request_type": "Trash/Recycling",
    "request_reason": "Request a Large Item Pick Up",
    "date_created": "2025-05-19T15:26:23.000",
    "date_modified": "2025-05-19T15:26:25.000",
    "request_status": "Pending",
    "responsible_agency": "Department of Sanitation",
    "final_address": "7430 Camberley Dr",
    "address_councildis": "E",
    "status": "Assigned to Contractor",
    "contractor": "Waste Pro",
    "rowid": "1193390",
    "final_x": "3712692.96523",
    "final_y": "565553.582626",
    "longitude": "-89.96829497604182",
    "latitude": "30.04809097801865",
    "geocoded_column": {
      "latitude": "30.04809097801865",
      "longitude": "-89.96829497604182"
    }
  },
  {
    "service_request": "2025-1193389",
    "request_type": "Roads and Streets",
    "request_reason": "Pothole",
    "date_created": "2025-05-19T15:26:13.000",
    "date_modified": "2025-05-19T15:26:14.000",
    "request_status": "Pending",
    "responsible_agency": "Department of Public Works",
    "final_address": "8736 Birch St",
    "address_councildis": "A",
    "status": "Pending",
    "rowid": "1193389",
    "final_x": "3661117.12058",
    "final_y": "531000.965186",
    "longitude": "-90.13244963918423",
    "latitude": "29.95467163741844",
    "geocoded_column": {
      "latitude": "29.95467163741844",
      "longitude": "-90.13244963918423"
    }
  },
  {
    "service_request": "2025-1193388",
    "request_type": "Trash/Recycling",
    "request_reason": "Replace Trash Cart",
    "date_created": "2025-05-19T15:25:57.000",
    "date_modified": "2025-05-19T15:26:00.000",
    "request_status": "Pending",
    "responsible_agency": "Department of Sanitation",
    "final_address": "8732 Palm St",
    "address_councildis": "A",
    "status": "Assigned to Contractor",
    "contractor": "IV Waste",
    "rowid": "1193388",
    "final_x": "3665931.85664",
    "final_y": "536270.682311",
    "longitude": "-90.11706987791042",
    "latitude": "29.969022000016494",
    "geocoded_column": {
      "latitude": "29.969022000016494",
      "longitude": "-90.11706987791042"
    }
  },
  {
    "service_request": "2025-1193387",
    "request_type": "Health Related Request",
    "request_reason": "Noise Ordinance Complaint",
    "date_created": "2025-05-19T15:20:37.000",
    "date_modified": "2025-05-19T15:20:41.000",
    "request_status": "Pending",
    "responsible_agency": "Health Department",
    "final_address": "525 Frenchmen St",
    "address_councildis": "C",
    "status": "Pending",
    "rowid": "1193387",
    "final_x": "3684776.90357",
    "final_y": "534376.138501",
    "longitude": "-90.05762264942118",
    "latitude": "29.96324918168695",
    "geocoded_column": {
      "latitude": "29.96324918168695",
      "longitude": "-90.05762264942118"
    }
  },
  {
    "service_request": "2025-1193386",
    "request_type": "Trash/Recycling",
    "request_reason": "Request a Large Item Pick Up",
    "date_created": "2025-05-19T15:16:02.000",
    "date_modified": "2025-05-19T15:16:04.000",
    "request_status": "Pending",
    "responsible_agency": "Department of Sanitation",
    "final_address": "5910 Doral Ct",
    "address_councildis": "E",
    "status": "Assigned to Contractor",
    "contractor": "Waste Pro",
    "rowid": "1193386",
    "final_x": "3719948.61791",
    "final_y": "564872.616994",
    "longitude": "-89.94538932724157",
    "latitude": "30.04597893941798",
    "geocoded_column": {
      "latitude": "30.04597893941798",
      "longitude": "-89.94538932724157"
    }
  },
  {
    "service_request": "2025-1193385",
    "request_type": "Trash/Recycling",
    "request_reason": "Request a Large Item Pick Up",
    "date_created": "2025-05-19T15:14:32.000",
    "date_modified": "2025-05-19T15:14:35.000",
    "request_status": "Pending",
    "responsible_agency": "Department of Sanitation",
    "final_address": "6014 Kuebel Dr",
    "address_councildis": "E",
    "status": "Assigned to Contractor",
    "contractor": "Waste Pro",
    "rowid": "1193385",
    "final_x": "3694998.35088",
    "final_y": "559657.036829",
    "longitude": "-90.0244327023045",
    "latitude": "30.032445488926125",
    "geocoded_column": {
      "latitude": "30.032445488926125",
      "longitude": "-90.0244327023045"
    }
  },
  {
    "service_request": "2025-1193384",
    "request_type": "Trash/Recycling",
    "request_reason": "Request a Large Item Pick Up",
    "date_created": "2025-05-19T15:09:27.000",
    "date_modified": "2025-05-19T15:09:28.000",
    "request_status": "Pending",
    "responsible_agency": "Department of Sanitation",
    "final_address": "7301 Edward St",
    "address_councildis": "E",
    "status": "Assigned to Contractor",
    "contractor": "Waste Pro",
    "rowid": "1193384",
    "final_x": "3701471.24055",
    "final_y": "559947.994717",
    "longitude": "-90.00396734997452",
    "latitude": "30.033040613632416",
    "geocoded_column": {
      "latitude": "30.033040613632416",
      "longitude": "-90.00396734997452"
    }
  },
  {
    "service_request": "2025-1193383",
    "request_type": "Trash/Recycling",
    "request_reason": "Illegal Dumping",
    "date_created": "2025-05-19T15:08:59.000",
    "date_modified": "2025-05-19T15:09:00.000",
    "request_status": "Pending",
    "responsible_agency": "Department of Sanitation",
    "final_address": "6329 Baccich St",
    "address_councildis": "D",
    "status": "Pending",
    "rowid": "1193383",
    "final_x": "3687425.00553",
    "final_y": "556702.679386",
    "longitude": "-90.04846968080403",
    "latitude": "30.024557809746646",
    "geocoded_column": {
      "latitude": "30.024557809746646",
      "longitude": "-90.04846968080403"
    }
  },
  {
    "service_request": "2025-1193382",
    "request_type": "Trash/Recycling",
    "request_reason": "Order Recycling Cart",
    "date_created": "2025-05-19T15:05:41.000",
    "date_modified": "2025-05-19T15:05:43.000",
    "request_status": "Pending",
    "responsible_agency": "Department of Sanitation",
    "final_address": "822 Valence St",
    "address_councildis": "B",
    "status": "Pending",
    "rowid": "1193382",
    "final_x": "3669915.20174",
    "final_y": "518488.322806",
    "longitude": "-90.10509213209127",
    "latitude": "29.920009437075507",
    "geocoded_column": {
      "latitude": "29.920009437075507",
      "longitude": "-90.10509213209127"
    }
  },
  {
    "service_request": "2025-1193381",
    "request_type": "Trash/Recycling",
    "request_reason": "Replace Trash Cart",
    "date_created": "2025-05-19T15:05:23.000",
    "date_modified": "2025-05-19T15:05:25.000",
    "request_status": "Pending",
    "responsible_agency": "Department of Sanitation",
    "final_address": "7800 Hickman St",
    "address_councildis": "E",
    "status": "Assigned to Contractor",
    "contractor": "Waste Pro",
    "rowid": "1193381",
    "final_x": "3705835.78033",
    "final_y": "563723.445281",
    "longitude": "-89.99003523569277",
    "latitude": "30.04328166075023",
    "geocoded_column": {
      "latitude": "30.04328166075023",
      "longitude": "-89.99003523569277"
    }
  },
  {
    "service_request": "2025-1193380",
    "request_type": "Streetlights",
    "request_reason": "Streetlight Outage/Malfunction",
    "date_created": "2025-05-19T15:05:04.000",
    "date_modified": "2025-05-19T15:05:06.000",
    "request_status": "Pending",
    "responsible_agency": "Department of Public Works",
    "final_address": "2000 BLK L. B. Landry Ave",
    "address_councildis": "C",
    "status": "Pending",
    "contractor": "Legacy Professional Services",
    "rowid": "1193380",
    "final_x": "3689987.03502",
    "final_y": "523278.342995",
    "longitude": "-90.04156479324244",
    "latitude": "29.9325735282122",
    "geocoded_column": {
      "latitude": "29.9325735282122",
      "longitude": "-90.04156479324244"
    }
  },
  {
    "service_request": "2025-1193379",
    "request_type": "Trash/Recycling",
    "request_reason": "Request a Large Item Pick Up",
    "date_created": "2025-05-19T15:00:58.000",
    "date_modified": "2025-05-19T15:01:00.000",
    "request_status": "Pending",
    "responsible_agency": "Department of Sanitation",
    "final_address": "1439 Broadway St",
    "address_councildis": "A",
    "status": "Assigned to Contractor",
    "contractor": "IV Waste",
    "rowid": "1193379",
    "final_x": "3664782.31821",
    "final_y": "527301.472127",
    "longitude": "-90.12099990540243",
    "latitude": "29.944393095852185",
    "geocoded_column": {
      "latitude": "29.944393095852185",
      "longitude": "-90.12099990540243"
    }
  },
  {
    "service_request": "2025-1193378",
    "request_type": "Trash/Recycling",
    "request_reason": "Request a Large Item Pick Up",
    "date_created": "2025-05-19T14:59:36.000",
    "date_modified": "2025-05-19T14:59:38.000",
    "request_status": "Pending",
    "responsible_agency": "Department of Sanitation",
    "final_address": "7712 Plum St",
    "address_councildis": "A",
    "status": "Assigned to Contractor",
    "contractor": "IV Waste",
    "rowid": "1193378",
    "final_x": "3663178.95699",
    "final_y": "527691.281407",
    "longitude": "-90.12604923622912",
    "latitude": "29.94551149473105",
    "geocoded_column": {
      "latitude": "29.94551149473105",
      "longitude": "-90.12604923622912"
    }
  },
  {
    "service_request": "2025-1193377",
    "request_type": "Trash/Recycling",
    "request_reason": "Illegal Dumping",
    "date_created": "2025-05-19T14:56:59.000",
    "date_modified": "2025-05-19T15:44:29.000",
    "request_status": "Pending",
    "responsible_agency": "Department of Code Enforcement",
    "final_address": "9400 Lincoln Beach Blvd",
    "address_councildis": "E",
    "status": "Pending",
    "rowid": "1193377",
    "final_x": "3705709.5802",
    "final_y": "564715.030818",
    "longitude": "-89.99039734914645",
    "latitude": "30.046012194212324",
    "geocoded_column": {
      "latitude": "30.046012194212324",
      "longitude": "-89.99039734914645"
    }
  },
  {
    "service_request": "2025-1193376",
    "request_type": "Trash/Recycling",
    "request_reason": "Repair Trash Cart",
    "date_created": "2025-05-19T14:53:44.000",
    "date_modified": "2025-05-19T14:53:47.000",
    "request_status": "Pending",
    "responsible_agency": "Department of Sanitation",
    "final_address": "7800 Hickman St",
    "address_councildis": "E",
    "status": "Assigned to Contractor",
    "contractor": "Waste Pro",
    "rowid": "1193376",
    "final_x": "3705835.78033",
    "final_y": "563723.445281",
    "longitude": "-89.99003523569277",
    "latitude": "30.04328166075023",
    "geocoded_column": {
      "latitude": "30.04328166075023",
      "longitude": "-89.99003523569277"
    }
  },
  {
    "service_request": "2025-1193375",
    "request_type": "Streetlights",
    "request_reason": "Streetlight Outage/Malfunction",
    "date_created": "2025-05-19T14:53:32.000",
    "date_modified": "2025-05-19T14:53:34.000",
    "request_status": "Pending",
    "responsible_agency": "Department of Public Works",
    "final_address": "2029 L. B. Landry Ave",
    "address_councildis": "C",
    "status": "Pending",
    "contractor": "Legacy Professional Services",
    "rowid": "1193375",
    "final_x": "3689880.47017",
    "final_y": "523096.616251",
    "longitude": "-90.04190767415531",
    "latitude": "29.932077143922633",
    "geocoded_column": {
      "latitude": "29.932077143922633",
      "longitude": "-90.04190767415531"
    }
  },
  {
    "service_request": "2025-1193374",
    "request_type": "Trash/Recycling",
    "request_reason": "Order Recycling Cart",
    "date_created": "2025-05-19T14:53:20.000",
    "date_modified": "2025-05-19T14:53:24.000",
    "request_status": "Pending",
    "responsible_agency": "Department of Sanitation",
    "final_address": "8517 Green St",
    "address_councildis": "A",
    "status": "Pending",
    "rowid": "1193374",
    "final_x": "3661974.67463",
    "final_y": "530789.809922",
    "longitude": "-90.1297488043274",
    "latitude": "29.954066288115676",
    "geocoded_column": {
      "latitude": "29.954066288115676",
      "longitude": "-90.1297488043274"
    }
  },
  {
    "service_request": "2025-1193373",
    "request_type": "Health Related Request",
    "request_reason": "Homeless Encampment Complaint",
    "date_created": "2025-05-19T14:48:28.000",
    "date_modified": "2025-05-19T14:48:30.000",
    "request_status": "Pending",
    "responsible_agency": "Health Department",
    "final_address": "2900 BLK Burgundy St",
    "address_councildis": "C",
    "status": "Pending",
    "rowid": "1193373",
    "final_x": "3688054.45686",
    "final_y": "535396.667183",
    "longitude": "-90.04723636842726",
    "latitude": "29.965954537351646",
    "geocoded_column": {
      "latitude": "29.965954537351646",
      "longitude": "-90.04723636842726"
    }
  },
  {
    "service_request": "2025-1193372",
    "request_type": "Parks & Parkways",
    "request_reason": "Request Tree Service (Right of Way/Public Property)",
    "date_created": "2025-05-19T14:48:04.000",
    "date_modified": "2025-05-19T14:52:29.000",
    "request_status": "Pending",
    "responsible_agency": "Department of Parks & Parkway",
    "final_address": "4201 Duplessis St",
    "address_councildis": "D",
    "status": "Pending",
    "rowid": "1193372",
    "final_x": "3678408.23464",
    "final_y": "547669.631058",
    "longitude": "-90.07727400579397",
    "latitude": "29.999995102564398",
    "geocoded_column": {
      "latitude": "29.999995102564398",
      "longitude": "-90.07727400579397"
    }
  },
  {
    "service_request": "2025-1193371",
    "request_type": "Roads and Streets",
    "request_reason": "Pothole",
    "date_created": "2025-05-19T14:46:11.000",
    "date_modified": "2025-05-19T14:46:51.000",
    "request_status": "Pending",
    "responsible_agency": "Department of Public Works",
    "final_address": "940 St Louis St",
    "address_councildis": "C",
    "status": "Pending",
    "rowid": "1193371",
    "final_x": "3681241.73685",
    "final_y": "532474.608964",
    "longitude": "-90.06885255894117",
    "latitude": "29.958128372442275",
    "geocoded_column": {
      "latitude": "29.958128372442275",
      "longitude": "-90.06885255894117"
    }
  },
  {
    "service_request": "2025-1193370",
    "request_type": "Trash/Recycling",
    "request_reason": "Request a Large Item Pick Up",
    "date_created": "2025-05-19T14:44:47.000",
    "date_modified": "2025-05-19T14:44:50.000",
    "request_status": "Pending",
    "responsible_agency": "Department of Sanitation",
    "final_address": "4751 Lafaye St",
    "address_councildis": "D",
    "status": "Assigned to Contractor",
    "contractor": "IV Waste",
    "rowid": "1193370",
    "final_x": "3687473.70191",
    "final_y": "550750.414293",
    "longitude": "-90.04852670043476",
    "latitude": "30.008189775747596",
    "geocoded_column": {
      "latitude": "30.008189775747596",
      "longitude": "-90.04852670043476"
    }
  },
  {
    "service_request": "2025-1193369",
    "request_type": "Trash/Recycling",
    "request_reason": "Dead Animal Pick Up",
    "date_created": "2025-05-19T14:43:36.000",
    "date_modified": "2025-05-19T14:43:39.000",
    "request_status": "Pending",
    "responsible_agency": "Department of Sanitation",
    "final_address": "8708 Edinburgh St",
    "address_councildis": "A",
    "status": "Assigned to Contractor",
    "contractor": "IV Waste",
    "rowid": "1193369",
    "final_x": "3665809.86138",
    "final_y": "535907.334535",
    "longitude": "-90.11746732480837",
    "latitude": "29.968026474055364",
    "geocoded_column": {
      "latitude": "29.968026474055364",
      "longitude": "-90.11746732480837"
    }
  },
  {
    "service_request": "2025-1193368",
    "request_type": "Trash/Recycling",
    "request_reason": "Request a Large Item Pick Up",
    "date_created": "2025-05-19T14:37:36.000",
    "date_modified": "2025-05-19T14:37:38.000",
    "request_status": "Pending",
    "responsible_agency": "Department of Sanitation",
    "final_address": "817 Clouet St",
    "address_councildis": "C",
    "status": "Assigned to Contractor",
    "contractor": "IV Waste",
    "rowid": "1193368",
    "final_x": "3688783.42217",
    "final_y": "535017.59271",
    "longitude": "-90.04494778424073",
    "latitude": "29.964889697212396",
    "geocoded_column": {
      "latitude": "29.964889697212396",
      "longitude": "-90.04494778424073"
    }
  },
  {
    "service_request": "2025-1193367",
    "request_type": "Trash/Recycling",
    "request_reason": "Request a Large Item Pick Up",
    "date_created": "2025-05-19T14:33:26.000",
    "date_modified": "2025-05-19T14:33:28.000",
    "request_status": "Pending",
    "responsible_agency": "Department of Sanitation",
    "final_address": "7934 Willow St",
    "address_councildis": "A",
    "status": "Assigned to Contractor",
    "contractor": "IV Waste",
    "rowid": "1193367",
    "final_x": "3662794.15911",
    "final_y": "528513.815872",
    "longitude": "-90.12723683791944",
    "latitude": "29.947784343371843",
    "geocoded_column": {
      "latitude": "29.947784343371843",
      "longitude": "-90.12723683791944"
    }
  },
  {
    "service_request": "2025-1193366",
    "request_type": "Streetlights",
    "request_reason": "Streetlight Outage/Malfunction",
    "date_created": "2025-05-19T14:30:41.000",
    "date_modified": "2025-05-19T14:30:43.000",
    "request_status": "Pending",
    "responsible_agency": "Department of Public Works",
    "final_address": "3101 St Roch Ave",
    "address_councildis": "D",
    "status": "Pending",
    "contractor": "Legacy Professional Services",
    "rowid": "1193366",
    "final_x": "3685943.83849",
    "final_y": "544221.823758",
    "longitude": "-90.05359036188364",
    "latitude": "29.990285583461027",
    "geocoded_column": {
      "latitude": "29.990285583461027",
      "longitude": "-90.05359036188364"
    }
  },
  {
    "service_request": "2025-1193365",
    "request_type": "Trash/Recycling",
    "request_reason": "Request a Large Item Pick Up",
    "date_created": "2025-05-19T14:28:04.000",
    "date_modified": "2025-05-19T14:28:06.000",
    "request_status": "Pending",
    "responsible_agency": "Department of Sanitation",
    "final_address": "2360 Treasure St",
    "address_councildis": "D",
    "status": "Assigned to Contractor",
    "contractor": "IV Waste",
    "rowid": "1193365",
    "final_x": "3685678.55657",
    "final_y": "544105.75611",
    "longitude": "-90.05443240914583",
    "latitude": "29.98997458285399",
    "geocoded_column": {
      "latitude": "29.98997458285399",
      "longitude": "-90.05443240914583"
    }
  },