[
  {
    "service_request": "2024-1141716",
    "request_type": "Trash/Recycling",
    "request_reason": "Request a Large Item Pick Up",
    "date_created": "2024-10-16T22:48:52.000",
    "date_modified": "2024-10-16T22:48:53.000",
    "request_status": "Pending",
    "responsible_agency": "Department of Sanitation",
    "final_address": "501 Burgundy St",
    "address_councildis": "C",
    "status": "Assigned to Contractor",
    "contractor": "Empire Services",
    "rowid": "1141716",
    "final_x": "3681232.29442",
    "final_y": "532556.58298",
    "longitude": "-90.06887951903755",
    "latitude": "29.958354059636303",
    "geocoded_column": {
      "latitude": "29.958354059636303",
      "longitude": "-90.06887951903755"
    }
  },
  {
    "service_request": "2024-1141715",
    "request_type": "Trash/Recycling",
    "request_reason": "Request a Large Item Pick Up",
    "date_created": "2024-10-16T22:10:41.000",
    "date_modified": "2024-10-16T22:10:42.000",
    "request_status": "Pending",
    "responsible_agency": "Department of Sanitation",
    "final_address": "2523 Octavia St",
    "address_councildis": "A",
    "status": "Assigned to Contractor",
    "contractor": "IV Waste",
    "rowid": "1141715",
    "final_x": "3667831.29729",
    "final_y": "524935.559548",
    "longitude": "-90.1114530215551",
    "latitude": "29.937798544928864",
    "geocoded_column": {
      "latitude": "29.937798544928864",
      "longitude": "-90.1114530215551"
    }
  },
  {
    "service_request": "2024-1141714",
    "request_type": "Streetlights",
    "request_reason": "Streetlight Outage/Malfunction",
    "date_created": "2024-10-16T22:01:19.000",
    "date_modified": "2024-10-16T22:01:20.000",
    "request_status": "Pending",
    "responsible_agency": "Department of Public Works",
    "final_address": "2841 Memorial Park Dr",
    "address_councildis": "C",
    "status": "Pending",
    "contractor": "Legacy Professional Services",
    "rowid": "1141714",
    "final_x": "3693478.97347",
    "final_y": "520414.063352",
    "longitude": "-90.03064388972426",
    "latitude": "29.924589024071086",
    "geocoded_column": {
      "latitude": "29.924589024071086",
      "longitude": "-90.03064388972426"
    }
  },
  {
    "service_request": "2024-1141713",
    "request_type": "Mosquito, Termite & Rodent Control",
    "request_reason": "Rodent Complaint (Rats)",
    "date_created": "2024-10-16T21:43:24.000",
    "date_modified": "2024-10-16T21:43:24.000",
    "request_status": "Pending",
    "responsible_agency": "Mosquito, Termite & Rodent Control Board",
    "final_address": "2119 Robin St",
    "address_councildis": "D",
    "status": "Pending",
    "rowid": "1141713",
    "final_x": "3683150.14184",
    "final_y": "551845.53135",
    "longitude": "-90.06214775946557",
    "latitude": "30.011333542286067",
    "geocoded_column": {
      "latitude": "30.011333542286067",
      "longitude": "-90.06214775946557"
    }
  },
  {
    "service_request": "2024-1141712",
    "request_type": "Trash/Recycling",
    "request_reason": "Replace Trash Cart",
    "date_created": "2024-10-16T21:39:50.000",
    "date_modified": "2024-10-16T21:39:51.000",
    "request_status": "Pending",
    "responsible_agency": "Department of Sanitation",
    "final_address": "118 N Bernadotte New Orleans La 70119",
    "address_councildis": "A",
    "status": "Assigned to Contractor",
    "contractor": "IV Waste",
    "rowid": "1141712",
    "final_x": "3668995.98401",
    "final_y": "540226.204683",
    "longitude": "-90.1072594609016",
    "latitude": "29.97980856978768",
    "geocoded_column": {
      "latitude": "29.97980856978768",
      "longitude": "-90.1072594609016"
    }
  },
  {
    "service_request": "2024-1141711",
    "request_type": "Trash/Recycling",
    "request_reason": "Replace Trash Cart",
    "date_created": "2024-10-16T21:34:46.000",
    "date_modified": "2024-10-16T21:34:48.000",
    "request_status": "Pending",
    "responsible_agency": "Department of Sanitation",
    "final_address": "118 N Bernadotte St",
    "address_councildis": "A",
    "status": "Assigned to Contractor",
    "contractor": "IV Waste",
    "rowid": "1141711",
    "final_x": "3668995.98401",
    "final_y": "540226.204683",
    "longitude": "-90.1072594609016",
    "latitude": "29.97980856978768",
    "geocoded_column": {
      "latitude": "29.97980856978768",
      "longitude": "-90.1072594609016"
    }
  },
  {
    "service_request": "2024-1141710",
    "request_type": "Trash/Recycling",
    "request_reason": "Replace Trash Cart",
    "date_created": "2024-10-16T21:26:32.000",
    "date_modified": "2024-10-16T21:26:33.000",
    "request_status": "Pending",
    "responsible_agency": "Department of Sanitation",
    "final_address": "118 N Bernadotte St",
    "address_councildis": "A",
    "status": "Assigned to Contractor",
    "contractor": "IV Waste",
    "rowid": "1141710",
    "final_x": "3668995.98401",
    "final_y": "540226.204683",
    "longitude": "-90.1072594609016",
    "latitude": "29.97980856978768",
    "geocoded_column": {
      "latitude": "29.97980856978768",
      "longitude": "-90.1072594609016"
    }
  },
  {
    "service_request": "2024-1141709",
    "request_type": "Trash/Recycling",
    "request_reason": "Request a Large Item Pick Up",
    "date_created": "2024-10-16T20:42:18.000",
    "date_modified": "2024-10-16T20:42:19.000",
    "request_status": "Pending",
    "responsible_agency": "Department of Sanitation",
    "final_address": "1217 Tennessee St",
    "address_councildis": "E",
    "status": "Assigned to Contractor",
    "contractor": "Waste Pro",
    "rowid": "1141709",
    "final_x": "3695837.6511",
    "final_y": "534661.524358",
    "longitude": "-90.02268394852155",
    "latitude": "29.963690653113677",
    "geocoded_column": {
      "latitude": "29.963690653113677",
      "longitude": "-90.02268394852155"
    }
  },
  {
    "service_request": "2024-1141708",
    "request_type": "Trash/Recycling",
    "request_reason": "Request a Large Item Pick Up",
    "date_created": "2024-10-16T20:34:54.000",
    "date_modified": "2024-10-16T20:34:55.000",
    "request_status": "Pending",
    "responsible_agency": "Department of Sanitation",
    "final_address": "1107 Tennessee St",
    "address_councildis": "E",
    "status": "Assigned to Contractor",
    "contractor": "Waste Pro",
    "rowid": "1141708",
    "final_x": "3695782.19626",
    "final_y": "534504.794949",
    "longitude": "-90.02286472886475",
    "latitude": "29.96326144679151",
    "geocoded_column": {
      "latitude": "29.96326144679151",
      "longitude": "-90.02286472886475"
    }
  },
  {
    "service_request": "2024-1141707",
    "request_type": "Streetlights",
    "request_reason": "Streetlight Outage/Malfunction",
    "date_created": "2024-10-16T20:30:00.000",
    "date_modified": "2024-10-16T20:30:02.000",
    "request_status": "Pending",
    "responsible_agency": "Department of Public Works",
    "final_address": "4900 BLK Urquhart St",
    "address_councildis": "E",
    "status": "Pending",
    "contractor": "Legacy Professional Services",
    "rowid": "1141707",
    "final_x": "3696029.89235",
    "final_y": "535030.554727",
    "longitude": "-90.02206353712558",
    "latitude": "29.964699308021633",
    "geocoded_column": {
      "latitude": "29.964699308021633",
      "longitude": "-90.02206353712558"
    }
  },
  {
    "service_request": "2024-1141706",
    "request_type": "Streetlights",
    "request_reason": "Streetlight Outage/Malfunction",
    "date_created": "2024-10-16T20:23:43.000",
    "date_modified": "2024-10-16T20:23:44.000",
    "request_status": "Pending",
    "responsible_agency": "Department of Public Works",
    "final_address": "1235 Tennessee St",
    "address_councildis": "E",
    "status": "Pending",
    "contractor": "Legacy Professional Services",
    "rowid": "1141706",
    "final_x": "3695906.22422",
    "final_y": "534789.896646",
    "longitude": "-90.02246276491755",
    "latitude": "29.964041474484173",
    "geocoded_column": {
      "latitude": "29.964041474484173",
      "longitude": "-90.02246276491755"
    }
  },
  {
    "service_request": "2024-1141705",
    "request_type": "Streetlights",
    "request_reason": "Streetlight Outage/Malfunction",
    "date_created": "2024-10-16T20:12:08.000",
    "date_modified": "2024-10-16T20:12:09.000",
    "request_status": "Pending",
    "responsible_agency": "Department of Public Works",
    "final_address": "1125 Tennessee St",
    "address_councildis": "E",
    "status": "Pending",
    "contractor": "Legacy Professional Services",
    "rowid": "1141705",
    "final_x": "3695816.29373",
    "final_y": "534584.537541",
    "longitude": "-90.02275417329021",
    "latitude": "29.96347963835423",
    "geocoded_column": {
      "latitude": "29.96347963835423",
      "longitude": "-90.02275417329021"
    }
  },
  {
    "service_request": "2024-1141704",
    "request_type": "Trash/Recycling",
    "request_reason": "Illegal Dumping",
    "date_created": "2024-10-16T20:03:37.000",
    "date_modified": "2024-10-16T20:03:37.000",
    "request_status": "Pending",
    "responsible_agency": "Department of Sanitation",
    "final_address": "1107 Tennessee St",
    "address_councildis": "E",
    "status": "Pending",
    "rowid": "1141704",
    "final_x": "3695782.19626",
    "final_y": "534504.794949",
    "longitude": "-90.02286472886475",
    "latitude": "29.96326144679151",
    "geocoded_column": {
      "latitude": "29.96326144679151",
      "longitude": "-90.02286472886475"
    }
  },
  {
    "service_request": "2024-1141703",
    "request_type": "Trash/Recycling",
    "request_reason": "Request a Large Item Pick Up",
    "date_created": "2024-10-16T20:03:21.000",
    "date_modified": "2024-10-16T20:03:22.000",
    "request_status": "Pending",
    "responsible_agency": "Department of Sanitation",
    "final_address": "1921 Peniston St",
    "address_councildis": "B",
    "status": "Assigned to Contractor",
    "contractor": "IV Waste",
    "rowid": "1141703",
    "final_x": "3672635.61864",
    "final_y": "522359.34713",
    "longitude": "-90.09637316536005",
    "latitude": "29.93057305084078",
    "geocoded_column": {
      "latitude": "29.93057305084078",
      "longitude": "-90.09637316536005"
    }
  },
  {
    "service_request": "2024-1141702",
    "request_type": "Mosquito, Termite & Rodent Control",
    "request_reason": "Non-Rodent Complaint (Mice, Possums, Snakes)",
    "date_created": "2024-10-16T19:56:22.000",
    "date_modified": "2024-10-16T19:56:22.000",
    "request_status": "Pending",
    "responsible_agency": "Mosquito, Termite & Rodent Control Board",
    "final_address": "1125 Tennessee St",
    "address_councildis": "E",
    "status": "Pending",
    "rowid": "1141702",
    "final_x": "3695816.29373",
    "final_y": "534584.537541",
    "longitude": "-90.02275417329021",
    "latitude": "29.96347963835423",
    "geocoded_column": {
      "latitude": "29.96347963835423",
      "longitude": "-90.02275417329021"
    }
  },
  {
    "service_request": "2024-1141701",
    "request_type": "Streetlights",
    "request_reason": "Streetlight Outage/Malfunction",
    "date_created": "2024-10-16T19:53:57.000",
    "date_modified": "2024-10-16T19:53:58.000",
    "request_status": "Pending",
    "responsible_agency": "Department of Public Works",
    "final_address": "2513 Delachaise St",
    "address_councildis": "B",
    "status": "Pending",
    "contractor": "Legacy Professional Services",
    "rowid": "1141701",
    "final_x": "3672546.04238",
    "final_y": "524446.892348",
    "longitude": "-90.09658481573379",
    "latitude": "29.93631578363176",
    "geocoded_column": {
      "latitude": "29.93631578363176",
      "longitude": "-90.09658481573379"
    }
  },
  {
    "service_request": "2024-1141700",
    "request_type": "Streetlights",
    "request_reason": "Streetlight Outage/Malfunction",
    "date_created": "2024-10-16T19:52:29.000",
    "date_modified": "2024-10-16T19:52:30.000",
    "request_status": "Pending",
    "responsible_agency": "Department of Public Works",
    "final_address": "DELACHAISE ST & FRERET ST",
    "address_councildis": "B",
    "status": "Pending",
    "contractor": "Legacy Professional Services",
    "rowid": "1141700",
    "final_x": "3672559.6",
    "final_y": "524330.38",
    "longitude": "-90.09654598408297",
    "latitude": "29.935995010101834",
    "geocoded_column": {
      "latitude": "29.935995010101834",
      "longitude": "-90.09654598408297"
    }
  },
  {
    "service_request": "2024-1141699",
    "request_type": "Property Maintenance",
    "request_reason": "Property Maintenance",
    "date_created": "2024-10-16T19:50:09.000",
    "date_modified": "2024-10-16T19:50:09.000",
    "request_status": "Pending",
    "responsible_agency": "Department of Code Enforcement",
    "final_address": "1115 Tennessee St",
    "address_councildis": "E",
    "status": "Pending",
    "rowid": "1141699",
    "final_x": "3695794.04534",
    "final_y": "534547.032837",
    "longitude": "-90.02282578551339",
    "latitude": "29.96337721339479",
    "geocoded_column": {
      "latitude": "29.96337721339479",
      "longitude": "-90.02282578551339"
    }
  },
  {
    "service_request": "2024-1141698",
    "request_type": "Roads and Streets",
    "request_reason": "Debris in Driving Lanes",
    "date_created": "2024-10-16T19:23:36.000",
    "date_modified": "2024-10-16T19:23:36.000",
    "request_status": "Pending",
    "responsible_agency": "Department of Public Works",
    "final_address": "1000 BLK General Taylor St",
    "address_councildis": "B",
    "status": "Pending",
    "rowid": "1141698",
    "final_x": "3672988.00012",
    "final_y": "519531.59327",
    "longitude": "-90.09535719324596",
    "latitude": "29.92278717184743",
    "geocoded_column": {
      "latitude": "29.92278717184743",
      "longitude": "-90.09535719324596"
    }
  },
  {
    "service_request": "2024-1141697",
    "request_type": "General Services",
    "request_reason": "General Service Request",
    "date_created": "2024-10-16T19:20:22.000",
    "date_modified": "2024-10-16T19:20:22.000",
    "request_status": "Pending",
    "responsible_agency": "Orleans Parish Communication District",
    "final_address": "7681 Pebble Dr",
    "address_councildis": "E",
    "status": "Pending",
    "rowid": "1141697",
    "final_x": "3715033.56255",
    "final_y": "569222.256422",
    "longitude": "-89.96075853815466",
    "latitude": "30.05810145101162",
    "geocoded_column": {
      "latitude": "30.05810145101162",
      "longitude": "-89.96075853815466"
    }
  },
  {
    "service_request": "2024-1141696",
    "request_type": "Trash/Recycling",
    "request_reason": "Replace Trash Cart",
    "date_created": "2024-10-16T19:17:26.000",
    "date_modified": "2024-10-16T19:17:27.000",
    "request_status": "Pending",
    "responsible_agency": "Department of Sanitation",
    "final_address": "7637 Tricia Ct",
    "address_councildis": "E",
    "status": "Assigned to Contractor",
    "contractor": "Waste Pro",
    "rowid": "1141696",
    "final_x": "3717727.86815",
    "final_y": "571159.18788",
    "longitude": "-89.95216844155685",
    "latitude": "30.06333818976537",
    "geocoded_column": {
      "latitude": "30.06333818976537",
      "longitude": "-89.95216844155685"
    }
  },
  {
    "service_request": "2024-1141695",
    "request_type": "Trash/Recycling",
    "request_reason": "Request a Large Item Pick Up",
    "date_created": "2024-10-16T19:00:12.000",
    "date_modified": "2024-10-16T19:00:14.000",
    "request_status": "Pending",
    "responsible_agency": "Department of Sanitation",
    "final_address": "1234 Egania St",
    "address_councildis": "E",
    "status": "Assigned to Contractor",
    "contractor": "Waste Pro",
    "rowid": "1141695",
    "final_x": "3696944.63178",
    "final_y": "534738.725894",
    "longitude": "-90.01918543823872",
    "latitude": "29.963868067328434",
    "geocoded_column": {
      "latitude": "29.963868067328434",
      "longitude": "-90.01918543823872"
    }
  },
  {
    "service_request": "2024-1141694",
    "request_type": "Trash/Recycling",
    "request_reason": "Order Recycling Cart",
    "date_created": "2024-10-16T18:57:06.000",
    "date_modified": "2024-10-16T18:57:06.000",
    "request_status": "Pending",
    "responsible_agency": "Department of Sanitation",
    "final_address": "1429 Seventh St",
    "address_councildis": "B",
    "status": "Pending",
    "rowid": "1141694",
    "final_x": "3675694.84731",
    "final_y": "521465.069305",
    "longitude": "-90.08674633764544",
    "latitude": "29.928022914411542",
    "geocoded_column": {
      "latitude": "29.928022914411542",
      "longitude": "-90.08674633764544"
    }
  },
  {
    "service_request": "2024-1141693",
    "request_type": "Property Maintenance",
    "request_reason": "Property Maintenance",
    "date_created": "2024-10-16T18:42:53.000",
    "date_modified": "2024-10-16T18:42:53.000",
    "request_status": "Pending",
    "responsible_agency": "Department of Code Enforcement",
    "final_address": "6640 Hayne Blvd",
    "address_councildis": "E",
    "status": "Pending",
    "rowid": "1141693",
    "final_x": "3697454.42365",
    "final_y": "560628.644638",
    "longitude": "-90.01663608650651",
    "latitude": "30.0350396642001",
    "geocoded_column": {
      "latitude": "30.0350396642001",
      "longitude": "-90.01663608650651"
    }
  },
  {
    "service_request": "2024-1141692",
    "request_type": "Streetlights",
    "request_reason": "Streetlight Outage/Malfunction",
    "date_created": "2024-10-16T18:38:48.000",
    "date_modified": "2024-10-16T18:38:50.000",
    "request_status": "Pending",
    "responsible_agency": "Department of Public Works",
    "final_address": "2460 Bedford Dr",
    "address_councildis": "C",
    "status": "Pending",
    "contractor": "Legacy Professional Services",
    "rowid": "1141692",
    "final_x": "3705323.76446",
    "final_y": "521876.66297",
    "longitude": "-89.99320019142745",
    "latitude": "29.928235074065615",
    "geocoded_column": {
      "latitude": "29.928235074065615",
      "longitude": "-89.99320019142745"
    }
  },
  {
    "service_request": "2024-1141691",
    "request_type": "Drainage",
    "request_reason": "Drainage Manhole Cover Missing or Damaged",
    "date_created": "2024-10-16T18:34:24.000",
    "date_modified": "2024-10-16T18:34:24.000",
    "request_status": "Pending",
    "responsible_agency": "Department of Public Works",
    "final_address": "801 Jena St",
    "address_councildis": "B",
    "status": "Pending",
    "rowid": "1141691",
    "final_x": "3670728.44955",
    "final_y": "518413.313014",
    "longitude": "-90.10252763792063",
    "latitude": "29.91977918908989",
    "geocoded_column": {
      "latitude": "29.91977918908989",
      "longitude": "-90.10252763792063"
    }
  },
  {
    "service_request": "2024-1141690",
    "request_type": "Trash/Recycling",
    "request_reason": "Request a Large Item Pick Up",
    "date_created": "2024-10-16T18:20:42.000",
    "date_modified": "2024-10-16T18:20:43.000",
    "request_status": "Pending",
    "responsible_agency": "Department of Sanitation",
    "final_address": "2335 Bienville Ave",
    "address_councildis": "B",
    "status": "Assigned to Contractor",
    "contractor": "IV Waste",
    "rowid": "1141690",
    "final_x": "3676990.13339",
    "final_y": "534926.557638",
    "longitude": "-90.08219341376243",
    "latitude": "29.96499872744812",
    "geocoded_column": {
      "latitude": "29.96499872744812",
      "longitude": "-90.08219341376243"
    }
  },
  {
    "service_request": "2024-1141689",
    "request_type": "Streetlights",
    "request_reason": "Streetlight Outage/Malfunction",
    "date_created": "2024-10-16T18:14:50.000",
    "date_modified": "2024-10-16T18:14:51.000",
    "request_status": "Pending",
    "responsible_agency": "Department of Public Works",
    "final_address": " & FOREST ISLE DR",
    "address_councildis": "C",
    "status": "Pending",
    "contractor": "Legacy Professional Services",
    "rowid": "1141689",
    "final_x": "3705255.0",
    "final_y": "512072.48",
    "longitude": "-89.99377908193406",
    "latitude": "29.901279161064846",
    "geocoded_column": {
      "latitude": "29.901279161064846",
      "longitude": "-89.99377908193406"
    }
  },
  {
    "service_request": "2024-1141688",
    "request_type": "Abandoned Vehicles",
    "request_reason": "Abandoned/Junk Vehicles",
    "date_created": "2024-10-16T18:06:23.000",
    "date_modified": "2024-10-16T18:06:23.000",
    "request_status": "Pending",
    "responsible_agency": "Department of Public Works",
    "final_address": "1500 BLK Allen Toussaint Blvd",
    "address_councildis": "D",
    "status": "Pending",
    "rowid": "1141688",
    "final_x": "3678405.632",
    "final_y": "555291.843272",
    "longitude": "-90.07701822287059",
    "latitude": "30.02095352931752",
    "geocoded_column": {
      "latitude": "30.02095352931752",
      "longitude": "-90.07701822287059"
    }
  },
  {
    "service_request": "2024-1141687",
    "request_type": "Drainage",
    "request_reason": "Catch Basin Damaged",
    "date_created": "2024-10-16T17:43:22.000",
    "date_modified": "2024-10-16T17:43:22.000",
    "request_status": "Pending",
    "responsible_agency": "Department of Public Works",
    "final_address": "5401 S Claiborne Ave",
    "address_councildis": "A",
    "status": "Pending",
    "rowid": "1141687",
    "final_x": "3668320.44404",
    "final_y": "526558.557758",
    "longitude": "-90.10985402986397",
    "latitude": "29.942246915184466",
    "geocoded_column": {
      "latitude": "29.942246915184466",
      "longitude": "-90.10985402986397"
    }
  },
  {
    "service_request": "2024-1141686",
    "request_type": "Health Related Request",
    "request_reason": "Noise Ordinance Complaint",
    "date_created": "2024-10-16T17:38:49.000",
    "date_modified": "2024-10-16T17:38:49.000",
    "request_status": "Pending",
    "responsible_agency": "Health Department",
    "final_address": "720 Bourbon St",
    "address_councildis": "C",
    "status": "Pending",
    "rowid": "1141686",
    "final_x": "3682374.28066",
    "final_y": "532772.126212",
    "longitude": "-90.06526590560847",
    "latitude": "29.958912029365468",
    "geocoded_column": {
      "latitude": "29.958912029365468",
      "longitude": "-90.06526590560847"
    }
  },
  {
    "service_request": "2024-1141685",
    "request_type": "Trash/Recycling",
    "request_reason": "Order Second Trash Cart",
    "date_created": "2024-10-16T17:33:32.000",
    "date_modified": "2024-10-16T17:33:34.000",
    "request_status": "Pending",
    "responsible_agency": "Department of Sanitation",
    "final_address": "3324 Third St",
    "address_councildis": "B",
    "status": "Assigned to Contractor",
    "contractor": "IV Waste",
    "rowid": "1141685",
    "final_x": "3672946.44852",
    "final_y": "528095.334527",
    "longitude": "-90.0951962574467",
    "latitude": "29.946335918411176",
    "geocoded_column": {
      "latitude": "29.946335918411176",
      "longitude": "-90.0951962574467"
    }
  },
  {
    "service_request": "2024-1141684",
    "request_type": "Health Related Request",
    "request_reason": "Noise Ordinance Complaint",
    "date_created": "2024-10-16T17:31:28.000",
    "date_modified": "2024-10-16T17:31:28.000",
    "request_status": "Pending",
    "responsible_agency": "Health Department",
    "final_address": "720 Bourbon St",
    "address_councildis": "C",
    "status": "Pending",
    "rowid": "1141684",
    "final_x": "3682374.28066",
    "final_y": "532772.126212",
    "longitude": "-90.06526590560847",
    "latitude": "29.958912029365468",
    "geocoded_column": {
      "latitude": "29.958912029365468",
      "longitude": "-90.06526590560847"
    }
  },
  {
    "service_request": "2024-1141683",
    "request_type": "Traffic Safety",
    "request_reason": "Request for Traffic Calming due to Speeding",
    "date_created": "2024-10-16T17:31:24.000",
    "date_modified": "2024-10-16T17:31:26.000",
    "request_status": "Pending",
    "responsible_agency": "Department of Public Works",
    "final_address": "PALMETTO ST & MISTLETOE ST",
    "address_councildis": "A",
    "status": "Pending",
    "rowid": "1141683",
    "final_x": "3665251.2",
    "final_y": "537740.68",
    "longitude": "-90.11917025506519",
    "latitude": "29.973083854340736",
    "geocoded_column": {
      "latitude": "29.973083854340736",
      "longitude": "-90.11917025506519"
    }
  },
  {
    "service_request": "2024-1141682",
    "request_type": "Trash/Recycling",
    "request_reason": "Replace Recycling Cart",
    "date_created": "2024-10-16T17:31:08.000",
    "date_modified": "2024-10-16T17:31:08.000",
    "request_status": "Pending",
    "responsible_agency": "Department of Sanitation",
    "final_address": "2836 Chippewa St",
    "address_councildis": "B",
    "status": "Pending",
    "rowid": "1141682",
    "final_x": "3677643.69474",
    "final_y": "519367.486583",
    "longitude": "-90.08066665906492",
    "latitude": "29.922196800451434",
    "geocoded_column": {
      "latitude": "29.922196800451434",
      "longitude": "-90.08066665906492"
    }
  },
  {
    "service_request": "2024-1141681",
    "request_type": "Roads and Streets",
    "request_reason": "Street Flooding",
    "date_created": "2024-10-16T17:30:05.000",
    "date_modified": "2024-10-16T17:30:05.000",
    "request_status": "Pending",
    "responsible_agency": "Department of Public Works",
    "final_address": "2820 Seine St",
    "address_councildis": "C",
    "status": "Pending",
    "rowid": "1141681",
    "final_x": "3693471.39517",
    "final_y": "520989.974713",
    "longitude": "-90.03064714373777",
    "latitude": "29.926172822508182",
    "geocoded_column": {
      "latitude": "29.926172822508182",
      "longitude": "-90.03064714373777"
    }
  },
  {
    "service_request": "2024-1141680",
    "request_type": "General Services",
    "request_reason": "General Service Request",
    "date_created": "2024-10-16T17:26:51.000",
    "date_modified": "2024-10-16T17:26:51.000",
    "request_status": "Pending",
    "responsible_agency": "Orleans Parish Communication District",
    "final_address": "923 Kerlerec St",
    "address_councildis": "C",
    "status": "Pending",
    "rowid": "1141680",
    "final_x": "3683577.59234",
    "final_y": "535251.802694",
    "longitude": "-90.0613792356685",
    "latitude": "29.965693616813503",
    "geocoded_column": {
      "latitude": "29.965693616813503",
      "longitude": "-90.0613792356685"
    }
  },
  {
    "service_request": "2024-1141679",
    "request_type": "Trash/Recycling",
    "request_reason": "Replace Trash Cart",
    "date_created": "2024-10-16T17:13:18.000",
    "date_modified": "2024-10-16T17:13:19.000",
    "request_status": "Pending",
    "responsible_agency": "Department of Sanitation",
    "final_address": "2425 Ramsey Dr",
    "address_councildis": "C",
    "status": "Assigned to Contractor",
    "contractor": "Richards Disposal",
    "rowid": "1141679",
    "final_x": "3703093.1443",
    "final_y": "522004.25625",
    "longitude": "-90.00023702468773",
    "latitude": "29.928657457482263",
    "geocoded_column": {
      "latitude": "29.928657457482263",
      "longitude": "-90.00023702468773"
    }
  },
  {
    "service_request": "2024-1141678",
    "request_type": "Trash/Recycling",
    "request_reason": "Order Trash Cart",
    "date_created": "2024-10-16T17:06:59.000",
    "date_modified": "2024-10-16T17:07:01.000",
    "request_status": "Pending",
    "responsible_agency": "Department of Sanitation",
    "final_address": "3550 Rue Mignon",
    "address_councildis": "C",
    "status": "Assigned to Contractor",
    "contractor": "Richards Disposal",
    "rowid": "1141678",
    "final_x": "3703376.42417",
    "final_y": "517509.595766",
    "longitude": "-89.99950794047912",
    "latitude": "29.91628962964611",
    "geocoded_column": {
      "latitude": "29.91628962964611",
      "longitude": "-89.99950794047912"
    }
  },
  {
    "service_request": "2024-1141677",
    "request_type": "Trash/Recycling",
    "request_reason": "Order Second Trash Cart",
    "date_created": "2024-10-16T17:05:29.000",
    "date_modified": "2024-10-16T17:05:30.000",
    "request_status": "Pending",
    "responsible_agency": "Department of Sanitation",
    "final_address": "2025 N Broad St",
    "address_councildis": "D",
    "status": "Assigned to Contractor",
    "contractor": "IV Waste",
    "rowid": "1141677",
    "final_x": "3680510.9101",
    "final_y": "542169.373773",
    "longitude": "-90.07082300209976",
    "latitude": "29.984807791388178",
    "geocoded_column": {
      "latitude": "29.984807791388178",
      "longitude": "-90.07082300209976"
    }
  },
  {
    "service_request": "2024-1141676",
    "request_type": "Trash/Recycling",
    "request_reason": "Replace Recycling Cart",
    "date_created": "2024-10-16T17:05:15.000",
    "date_modified": "2024-10-16T17:05:15.000",
    "request_status": "Pending",
    "responsible_agency": "Department of Sanitation",
    "final_address": "10 Flowerdale Ct",
    "address_councildis": "A",
    "status": "Pending",
    "rowid": "1141676",
    "final_x": "3673535.20065",
    "final_y": "541152.68206",
    "longitude": "-90.09289105420713",
    "latitude": "29.982221732026957",
    "geocoded_column": {
      "latitude": "29.982221732026957",
      "longitude": "-90.09289105420713"
    }
  },
  {
    "service_request": "2024-1141675",
    "request_type": "Trash/Recycling",
    "request_reason": "Repair Recycling Cart",
    "date_created": "2024-10-16T17:03:20.000",
    "date_modified": "2024-10-16T17:03:20.000",
    "request_status": "Pending",
    "responsible_agency": "Department of Sanitation",
    "final_address": "18 Flowerdale Ct",
    "address_councildis": "A",
    "status": "Pending",
    "rowid": "1141675",
    "final_x": "3673390.20296",
    "final_y": "541163.082316",
    "longitude": "-90.09334867266806",
    "latitude": "29.98225464446807",
    "geocoded_column": {
      "latitude": "29.98225464446807",
      "longitude": "-90.09334867266806"
    }
  },
  {
    "service_request": "2024-1141674",
    "request_type": "Trash/Recycling",
    "request_reason": "Repair Trash Cart",
    "date_created": "2024-10-16T16:59:22.000",
    "date_modified": "2024-10-16T16:59:23.000",
    "request_status": "Pending",
    "responsible_agency": "Department of Sanitation",
    "final_address": "9250 Hayne Blvd",
    "address_councildis": "E",
    "status": "Assigned to Contractor",
    "contractor": "Waste Pro",
    "rowid": "1141674",
    "final_x": "3705392.32612",
    "final_y": "564577.143905",
    "longitude": "-89.99140512821155",
    "latitude": "30.045643279990717",
    "geocoded_column": {
      "latitude": "30.045643279990717",
      "longitude": "-89.99140512821155"
    }
  },
  {
    "service_request": "2024-1141673",
    "request_type": "Property Maintenance",
    "request_reason": "Property Maintenance",
    "date_created": "2024-10-16T16:58:01.000",
    "date_modified": "2024-10-16T16:58:02.000",
    "request_status": "Pending",
    "responsible_agency": "Department of Code Enforcement",
    "final_address": "3811 Tulane Ave",
    "address_councildis": "B",
    "status": "Pending",
    "rowid": "1141673",
    "final_x": "3670488.47732",
    "final_y": "535758.392071",
    "longitude": "-90.10269709832674",
    "latitude": "29.967479594702976",
    "geocoded_column": {
      "latitude": "29.967479594702976",
      "longitude": "-90.10269709832674"
    }
  },
  {
    "service_request": "2024-1141672",
    "request_type": "Property Maintenance",
    "request_reason": "Property Maintenance",
    "date_created": "2024-10-16T16:57:40.000",
    "date_modified": "2024-10-16T16:57:41.000",
    "request_status": "Pending",
    "responsible_agency": "Department of Code Enforcement",
    "final_address": "3816 Ulloa St",
    "address_councildis": "B",
    "status": "Pending",
    "rowid": "1141672",
    "final_x": "3670504.27124",
    "final_y": "535790.987591",
    "longitude": "-90.10264611509899",
    "latitude": "29.967568755047406",
    "geocoded_column": {
      "latitude": "29.967568755047406",
      "longitude": "-90.10264611509899"
    }
  },
  {
    "service_request": "2024-1141671",
    "request_type": "Abandoned Vehicles",
    "request_reason": "Abandoned/Junk Vehicles",
    "date_created": "2024-10-16T16:54:23.000",
    "date_modified": "2024-10-16T16:55:08.000",
    "request_status": "Pending",
    "responsible_agency": "Department of Public Works",
    "final_address": "2438 Pauline St",
    "address_councildis": "D",
    "status": "Pending",
    "rowid": "1141671",
    "final_x": "3692456.59305",
    "final_y": "540662.634699",
    "longitude": "-90.03314590939961",
    "latitude": "29.980297483116075",
    "geocoded_column": {
      "latitude": "29.980297483116075",
      "longitude": "-90.03314590939961"
    }
  },
  {
    "service_request": "2024-1141670",
    "request_type": "Trash/Recycling",
    "request_reason": "Request a Large Item Pick Up",
    "date_created": "2024-10-16T16:53:59.000",
    "date_modified": "2024-10-16T16:54:00.000",
    "request_status": "Pending",
    "responsible_agency": "Department of Sanitation",
    "final_address": "6700 Bamberry St",
    "address_councildis": "E",
    "status": "Assigned to Contractor",
    "contractor": "Waste Pro",
    "rowid": "1141670",
    "final_x": "3698180.97802",
    "final_y": "558766.848476",
    "longitude": "-90.01440779585715",
    "latitude": "30.029897465790825",
    "geocoded_column": {
      "latitude": "30.029897465790825",
      "longitude": "-90.01440779585715"
    }
  },
  {
    "service_request": "2024-1141669",
    "request_type": "Trash/Recycling",
    "request_reason": "Request a Large Item Pick Up",
    "date_created": "2024-10-16T16:50:47.000",
    "date_modified": "2024-10-16T16:50:48.000",
    "request_status": "Pending",
    "responsible_agency": "Department of Sanitation",
    "final_address": "13190 Wales St",
    "address_councildis": "E",
    "status": "Assigned to Contractor",
    "contractor": "Waste Pro",
    "rowid": "1141669",
    "final_x": "3716399.82744",
    "final_y": "571009.647847",
    "longitude": "-89.95637208337995",
    "latitude": "30.06297096521088",
    "geocoded_column": {
      "latitude": "30.06297096521088",
      "longitude": "-89.95637208337995"
    }
  },
  {
    "service_request": "2024-1141668",
    "request_type": "Roads and Streets",
    "request_reason": "Push-up/Pavement Expansion",
    "date_created": "2024-10-16T16:47:47.000",
    "date_modified": "2024-10-16T16:47:48.000",
    "request_status": "Pending",
    "responsible_agency": "Department of Public Works",
    "final_address": "1300 Elysian Fields Ave",
    "address_councildis": "C",
    "status": "Pending",
    "rowid": "1141668",
    "final_x": "3684855.47484",
    "final_y": "537062.585032",
    "longitude": "-90.05728005535073",
    "latitude": "29.97063357367015",
    "geocoded_column": {
      "latitude": "29.97063357367015",
      "longitude": "-90.05728005535073"
    }
  },
  {
    "service_request": "2024-1141667",
    "request_type": "Trash/Recycling",
    "request_reason": "Repair Trash Cart",
    "date_created": "2024-10-16T16:46:59.000",
    "date_modified": "2024-10-16T16:47:00.000",
    "request_status": "Pending",
    "responsible_agency": "Department of Sanitation",
    "final_address": "611 Robert St",
    "address_councildis": "B",
    "status": "Assigned to Contractor",
    "contractor": "IV Waste",
    "rowid": "1141667",
    "final_x": "3668645.46689",
    "final_y": "517645.81343",
    "longitude": "-90.10912849773015",
    "latitude": "29.9177301650219",
    "geocoded_column": {
      "latitude": "29.9177301650219",
      "longitude": "-90.10912849773015"
    }
  },
  {
    "service_request": "2024-1141666",
    "request_type": "Property Maintenance",
    "request_reason": "Property Maintenance",
    "date_created": "2024-10-16T16:45:09.000",
    "date_modified": "2024-10-16T16:45:10.000",
    "request_status": "Pending",
    "responsible_agency": "Department of Code Enforcement",
    "final_address": "4774 Paris Ave",
    "address_councildis": "D",
    "status": "Pending",
    "rowid": "1141666",
    "final_x": "3678782.74171",
    "final_y": "550113.972372",
    "longitude": "-90.07600618864085",
    "latitude": "30.00670487724568",
    "geocoded_column": {
      "latitude": "30.00670487724568",
      "longitude": "-90.07600618864085"
    }
  },
  {
    "service_request": "2024-1141665",
    "request_type": "Abandoned Vehicles",
    "request_reason": "Abandoned/Junk Vehicles",
    "date_created": "2024-10-16T16:43:13.000",
    "date_modified": "2024-10-16T16:43:14.000",
    "request_status": "Pending",
    "responsible_agency": "Department of Public Works",
    "final_address": "3435 Nashville Ave",
    "address_councildis": "A",
    "status": "Pending",
    "rowid": "1141665",
    "final_x": "3668195.93351",
    "final_y": "528356.27232",
    "longitude": "-90.11018655122484",
    "latitude": "29.947193702685965",
    "geocoded_column": {
      "latitude": "29.947193702685965",
      "longitude": "-90.11018655122484"
    }
  },
  {
    "service_request": "2024-1141664",
    "request_type": "Trash/Recycling",
    "request_reason": "Replace Recycling Cart",
    "date_created": "2024-10-16T16:42:49.000",
    "date_modified": "2024-10-16T16:42:49.000",
    "request_status": "Pending",
    "responsible_agency": "Department of Sanitation",
    "final_address": "5620 Hurst St Apt B",
    "address_councildis": "A",
    "status": "Pending",
    "rowid": "1141664",
    "final_x": "3666483.93761",
    "final_y": "521532.221625",
    "longitude": "-90.11582092702776",
    "latitude": "29.92847988707572",
    "geocoded_column": {
      "latitude": "29.92847988707572",
      "longitude": "-90.11582092702776"
    }
  },
  {
    "service_request": "2024-1141663",
    "request_type": "Utility Poles",
    "request_reason": "Wires Sagging/Hanging Low",
    "date_created": "2024-10-16T16:37:42.000",
    "date_modified": "2024-10-16T16:37:54.000",
    "case_close_date": "2024-10-16T11:37:54.000",
    "request_status": "Closed",
    "responsible_agency": "Utility Company Collective",
    "final_address": "1313 Teche St",
    "address_councildis": "C",
    "status": "Resolved",
    "rowid": "1141663",
    "final_x": "3686606.18338",
    "final_y": "526630.80659",
    "longitude": "-90.05211949159957",
    "latitude": "29.941896043284626",
    "geocoded_column": {
      "latitude": "29.941896043284626",
      "longitude": "-90.05211949159957"
    }
  },
  {
    "service_request": "2024-1141662",
    "request_type": "Trash/Recycling",
    "request_reason": "Request a Large Item Pick Up",
    "date_created": "2024-10-16T16:36:44.000",
    "date_modified": "2024-10-16T16:36:46.000",
    "request_status": "Pending",
    "responsible_agency": "Department of Sanitation",
    "final_address": "2530 Philip St",
    "address_councildis": "B",
    "status": "Assigned to Contractor",
    "contractor": "IV Waste",
    "rowid": "1141662",
    "final_x": "3675159.13889",
    "final_y": "526287.249214",
    "longitude": "-90.088272041672",
    "latitude": "29.94129835150488",
    "geocoded_column": {
      "latitude": "29.94129835150488",
      "longitude": "-90.088272041672"
    }
  },
  {
    "service_request": "2024-1141661",
    "request_type": "Abandoned Vehicles",
    "request_reason": "Abandoned/Junk Vehicles",
    "date_created": "2024-10-16T16:36:23.000",
    "date_modified": "2024-10-16T16:36:24.000",
    "request_status": "Pending",
    "responsible_agency": "Department of Public Works",
    "final_address": "3209 Martin Luther King, Jr. Blvd",
    "address_councildis": "B",
    "status": "Pending",
    "rowid": "1141661",
    "final_x": "3674390.19854",
    "final_y": "528653.32224",
    "longitude": "-90.09061871947699",
    "latitude": "29.94782722552984",
    "geocoded_column": {
      "latitude": "29.94782722552984",
      "longitude": "-90.09061871947699"
    }
  },
  {
    "service_request": "2024-1141660",
    "request_type": "Trash/Recycling",
    "request_reason": "Request a Large Item Pick Up",
    "date_created": "2024-10-16T16:36:12.000",
    "date_modified": "2024-10-16T16:36:13.000",
    "request_status": "Pending",
    "responsible_agency": "Department of Sanitation",
    "final_address": "1610 First St",
    "address_councildis": "B",
    "status": "Assigned to Contractor",
    "contractor": "IV Waste",
    "rowid": "1141660",
    "final_x": "3676869.66862",
    "final_y": "523262.326203",
    "longitude": "-90.08297578299579",
    "latitude": "29.932929588857792",
    "geocoded_column": {
      "latitude": "29.932929588857792",
      "longitude": "-90.08297578299579"
    }
  },
  {
    "service_request": "2024-1141659",
    "request_type": "Trash/Recycling",
    "request_reason": "Request a Large Item Pick Up",
    "date_created": "2024-10-16T16:35:59.000",
    "date_modified": "2024-10-16T16:36:00.000",
    "request_status": "Pending",
    "responsible_agency": "Department of Sanitation",
    "final_address": "2061 N Miro St",
    "address_councildis": "D",
    "status": "Assigned to Contractor",
    "contractor": "IV Waste",
    "rowid": "1141659",
    "final_x": "3683721.61013",
    "final_y": "540313.117515",
    "longitude": "-90.06074691923908",
    "latitude": "29.979606076377394",
    "geocoded_column": {
      "latitude": "29.979606076377394",
      "longitude": "-90.06074691923908"
    }
  },
  {
    "service_request": "2024-1141658",
    "request_type": "Trash/Recycling",
    "request_reason": "Request a Large Item Pick Up",
    "date_created": "2024-10-16T16:34:39.000",
    "date_modified": "2024-10-16T16:34:40.000",
    "request_status": "Pending",
    "responsible_agency": "Department of Sanitation",
    "final_address": "2839 Kabel Dr",
    "address_councildis": "C",
    "status": "Assigned to Contractor",
    "contractor": "Richards Disposal",
    "rowid": "1141658",
    "final_x": "3700585.68375",
    "final_y": "520597.385656",
    "longitude": "-90.00820386189005",
    "latitude": "29.924869024496964",
    "geocoded_column": {
      "latitude": "29.924869024496964",
      "longitude": "-90.00820386189005"
    }
  },
  {
    "service_request": "2024-1141657",
    "request_type": "Trash/Recycling",
    "request_reason": "Order Recycling Cart",
    "date_created": "2024-10-16T16:27:51.000",
    "date_modified": "2024-10-16T16:27:51.000",
    "request_status": "Pending",
    "responsible_agency": "Department of Sanitation",
    "final_address": "5620 Hurst St Apt D",
    "address_councildis": "A",
    "status": "Pending",
    "rowid": "1141657",
    "final_x": "3666480.46541",
    "final_y": "521515.902201",
    "longitude": "-90.1158324354476",
    "latitude": "29.928435115273775",
    "geocoded_column": {
      "latitude": "29.928435115273775",
      "longitude": "-90.1158324354476"
    }
  },
  {
    "service_request": "2024-1141656",
    "request_type": "Trash/Recycling",
    "request_reason": "Request a Large Item Pick Up",
    "date_created": "2024-10-16T16:27:20.000",
    "date_modified": "2024-10-16T16:27:22.000",
    "request_status": "Pending",
    "responsible_agency": "Department of Sanitation",
    "final_address": "6707 Marshal Foch St",
    "address_councildis": "A",
    "status": "Assigned to Contractor",
    "contractor": "IV Waste",
    "rowid": "1141656",
    "final_x": "3670357.80295",
    "final_y": "552021.137622",
    "longitude": "-90.10255812160352",
    "latitude": "30.01220041527178",
    "geocoded_column": {
      "latitude": "30.01220041527178",
      "longitude": "-90.10255812160352"
    }
  },
  {
    "service_request": "2024-1141655",
    "request_type": "Safety & Permits",
    "request_reason": "Zoning Enforcement",
    "date_created": "2024-10-16T16:19:15.000",
    "date_modified": "2024-10-16T16:19:15.000",
    "request_status": "Pending",
    "responsible_agency": "Safety and Permits",
    "final_address": "326 S Gayoso St",
    "address_councildis": "B",
    "status": "Pending",
    "rowid": "1141655",
    "final_x": "3673749.92852",
    "final_y": "535017.451974",
    "longitude": "-90.09242269656946",
    "latitude": "29.965345540648517",
    "geocoded_column": {
      "latitude": "29.965345540648517",
      "longitude": "-90.09242269656946"
    }
  },
  {
    "service_request": "2024-1141654",
    "request_type": "Trash/Recycling",
    "request_reason": "Request a Large Item Pick Up",
    "date_created": "2024-10-16T16:07:45.000",
    "date_modified": "2024-10-16T16:07:46.000",
    "request_status": "Pending",
    "responsible_agency": "Department of Sanitation",
    "final_address": "8326 Hammond St",
    "address_councildis": "E",
    "status": "Assigned to Contractor",
    "contractor": "Waste Pro",
    "rowid": "1141654",
    "final_x": "3705927.60958",
    "final_y": "555690.227545",
    "longitude": "-89.99004265069414",
    "latitude": "30.02119050126987",
    "geocoded_column": {
      "latitude": "30.02119050126987",
      "longitude": "-89.99004265069414"
    }
  },
  {
    "service_request": "2024-1141653",
    "request_type": "Abandoned Vehicles",
    "request_reason": "Abandoned/Junk Vehicles",
    "date_created": "2024-10-16T16:06:15.000",
    "date_modified": "2024-10-16T16:06:16.000",
    "request_status": "Pending",
    "responsible_agency": "Department of Public Works",
    "final_address": "3211 Prytania St",
    "address_councildis": "B",
    "status": "Pending",
    "rowid": "1141653",
    "final_x": "3674975.11125",
    "final_y": "521363.654649",
    "longitude": "-90.08902185892121",
    "latitude": "29.92776556772605",
    "geocoded_column": {
      "latitude": "29.92776556772605",
      "longitude": "-90.08902185892121"
    }
  },
  {
    "service_request": "2024-1141652",
    "request_type": "Trash/Recycling",
    "request_reason": "Request a Large Item Pick Up",
    "date_created": "2024-10-16T16:03:19.000",
    "date_modified": "2024-10-16T16:03:20.000",
    "request_status": "Pending",
    "responsible_agency": "Department of Sanitation",
    "final_address": "2502 Jasmine St",
    "address_councildis": "D",
    "status": "Assigned to Contractor",
    "contractor": "IV Waste",
    "rowid": "1141652",
    "final_x": "3686307.14607",
    "final_y": "547988.293074",
    "longitude": "-90.0523097607821",
    "latitude": "30.000630859396882",
    "geocoded_column": {
      "latitude": "30.000630859396882",
      "longitude": "-90.0523097607821"
    }
  },
  {
    "service_request": "2024-1141651",
    "request_type": "Trash/Recycling",
    "request_reason": "Request a Large Item Pick Up",
    "date_created": "2024-10-16T15:49:42.000",
    "date_modified": "2024-10-16T15:49:43.000",
    "request_status": "Pending",
    "responsible_agency": "Department of Sanitation",
    "final_address": "8120 Sycamore St",
    "address_councildis": "A",
    "status": "Assigned to Contractor",
    "contractor": "IV Waste",
    "rowid": "1141651",
    "final_x": "3664190.83738",
    "final_y": "531044.240578",
    "longitude": "-90.1227425415519",
    "latitude": "29.954701695780706",
    "geocoded_column": {
      "latitude": "29.954701695780706",
      "longitude": "-90.1227425415519"
    }
  },
  {
    "service_request": "2024-1141650",
    "request_type": "Trash/Recycling",
    "request_reason": "Request a Large Item Pick Up",
    "date_created": "2024-10-16T15:49:07.000",
    "date_modified": "2024-10-16T15:49:08.000",
    "request_status": "Pending",
    "responsible_agency": "Department of Sanitation",
    "final_address": "4229 S Roman St",
    "address_councildis": "B",
    "status": "Assigned to Contractor",
    "contractor": "IV Waste",
    "rowid": "1141650",
    "final_x": "3670791.04315",
    "final_y": "526677.630654",
    "longitude": "-90.10204974370926",
    "latitude": "29.94250155939102",
    "geocoded_column": {
      "latitude": "29.94250155939102",
      "longitude": "-90.10204974370926"
    }
  },
  {
    "service_request": "2024-1141649",
    "request_type": "Trash/Recycling",
    "request_reason": "Order Trash Cart",
    "date_created": "2024-10-16T15:46:07.000",
    "date_modified": "2024-10-16T15:46:08.000",
    "request_status": "Pending",
    "responsible_agency": "Department of Sanitation",
    "final_address": "827 Sister St",
    "address_councildis": "E",
    "status": "Assigned to Contractor",
    "contractor": "Waste Pro",
    "rowid": "1141649",
    "final_x": "3694432.6367",
    "final_y": "533662.824581",
    "longitude": "-90.02715677252196",
    "latitude": "29.960988695935473",
    "geocoded_column": {
      "latitude": "29.960988695935473",
      "longitude": "-90.02715677252196"
    }
  },
  {
    "service_request": "2024-1141648",
    "request_type": "Abandoned Vehicles",
    "request_reason": "Abandoned/Junk Vehicles",
    "date_created": "2024-10-16T15:45:14.000",
    "date_modified": "2024-10-16T15:46:00.000",
    "request_status": "Pending",
    "responsible_agency": "Department of Public Works",
    "final_address": "3005 Dauphine St",
    "address_councildis": "C",
    "status": "Pending",
    "rowid": "1141648",
    "final_x": "3688208.94243",
    "final_y": "535011.52871",
    "longitude": "-90.0467621651806",
    "latitude": "29.964890772124892",
    "geocoded_column": {
      "latitude": "29.964890772124892",
      "longitude": "-90.0467621651806"
    }
  },
  {
    "service_request": "2024-1141647",
    "request_type": "Trash/Recycling",
    "request_reason": "Request a Large Item Pick Up",
    "date_created": "2024-10-16T15:41:36.000",
    "date_modified": "2024-10-16T15:41:37.000",
    "request_status": "Pending",
    "responsible_agency": "Department of Sanitation",
    "final_address": "1634 Flanders St",
    "address_councildis": "C",
    "status": "Assigned to Contractor",
    "contractor": "Richards Disposal",
    "rowid": "1141647",
    "final_x": "3696727.86256",
    "final_y": "525223.651453",
    "longitude": "-90.0202143134288",
    "latitude": "29.937711779827914",
    "geocoded_column": {
      "latitude": "29.937711779827914",
      "longitude": "-90.0202143134288"
    }
  },
  {
    "service_request": "2024-1141646",
    "request_type": "Abandoned Vehicles",
    "request_reason": "Abandoned/Junk Vehicles",
    "date_created": "2024-10-16T15:39:42.000",
    "date_modified": "2024-10-16T15:39:42.000",
    "request_status": "Pending",
    "responsible_agency": "Department of Public Works",
    "final_address": "3000 BLK Dauphine St",
    "address_councildis": "C",
    "status": "Pending",
    "rowid": "1141646",
    "final_x": "3688433.07552",
    "final_y": "534927.260314",
    "longitude": "-90.04605735857248",
    "latitude": "29.964652141693055",
    "geocoded_column": {
      "latitude": "29.964652141693055",
      "longitude": "-90.04605735857248"
    }
  },
  {
    "service_request": "2024-1141645",
    "request_type": "Trash/Recycling",
    "request_reason": "Repair Trash Cart",
    "date_created": "2024-10-16T15:39:11.000",
    "date_modified": "2024-10-16T15:39:13.000",
    "request_status": "Pending",
    "responsible_agency": "Department of Sanitation",
    "final_address": "2273 Milton St",
    "address_councildis": "D",
    "status": "Assigned to Contractor",
    "contractor": "IV Waste",
    "rowid": "1141645",
    "final_x": "3684673.92181",
    "final_y": "546875.596753",
    "longitude": "-90.05750835814887",
    "latitude": "29.99762144912162",
    "geocoded_column": {
      "latitude": "29.99762144912162",
      "longitude": "-90.05750835814887"
    }
  },
  {
    "service_request": "2024-1141644",
    "request_type": "Property Maintenance",
    "request_reason": "Property Maintenance",
    "date_created": "2024-10-16T15:38:01.000",
    "date_modified": "2024-10-16T15:38:02.000",
    "request_status": "Pending",
    "responsible_agency": "Department of Code Enforcement",
    "final_address": "2802 Cherry St",
    "address_councildis": "A",
    "status": "Pending",
    "rowid": "1141644",
    "final_x": "3662707.53895",
    "final_y": "535532.940614",
    "longitude": "-90.12727706487837",
    "latitude": "29.967087165559043",
    "geocoded_column": {
      "latitude": "29.967087165559043",
      "longitude": "-90.12727706487837"
    }
  },
  {
    "service_request": "2024-1141643",
    "request_type": "Property Maintenance",
    "request_reason": "Property Maintenance",
    "date_created": "2024-10-16T15:28:34.000",
    "date_modified": "2024-10-16T15:28:34.000",
    "request_status": "Pending",
    "responsible_agency": "Department of Code Enforcement",
    "final_address": "1247 Foy St",
    "address_councildis": "D",
    "status": "Pending",
    "rowid": "1141643",
    "final_x": "3677020.78926",
    "final_y": "546445.387857",
    "longitude": "-90.08169926120956",
    "latitude": "29.99667061187954",
    "geocoded_column": {
      "latitude": "29.99667061187954",
      "longitude": "-90.08169926120956"
    }
  },
  {
    "service_request": "2024-1141642",
    "request_type": "Safety & Permits",
    "request_reason": "Construction permit",
    "date_created": "2024-10-16T15:27:20.000",
    "date_modified": "2024-10-16T15:27:20.000",
    "request_status": "Pending",
    "responsible_agency": "Safety and Permits",
    "final_address": "1247 Foy St",
    "address_councildis": "D",
    "status": "Pending",
    "rowid": "1141642",
    "final_x": "3677020.78926",
    "final_y": "546445.387857",
    "longitude": "-90.08169926120956",
    "latitude": "29.99667061187954",
    "geocoded_column": {
      "latitude": "29.99667061187954",
      "longitude": "-90.08169926120956"
    }
  },
  {
    "service_request": "2024-1141641",
    "request_type": "Roads and Streets",
    "request_reason": "Pothole",
    "date_created": "2024-10-16T15:24:44.000",
    "date_modified": "2024-10-16T15:24:44.000",
    "request_status": "Pending",
    "responsible_agency": "Department of Public Works",
    "final_address": "1841 Shirley Dr",
    "address_councildis": "C",
    "status": "Pending",
    "rowid": "1141641",
    "final_x": "3692863.26934",
    "final_y": "522620.820794",
    "longitude": "-90.03250836970275",
    "latitude": "29.930676093255094",
    "geocoded_column": {
      "latitude": "29.930676093255094",
      "longitude": "-90.03250836970275"
    }
  },
  {
    "service_request": "2024-1141640",
    "request_type": "Trash/Recycling",
    "request_reason": "Request a Large Item Pick Up",
    "date_created": "2024-10-16T15:21:25.000",
    "date_modified": "2024-10-16T15:54:19.000",
    "case_close_date": "2024-10-16T10:54:19.000",
    "request_status": "Closed",
    "responsible_agency": "Department of Sanitation",
    "final_address": "3828 General Taylor St",
    "address_councildis": "B",
    "status": "Assigned to Contractor",
    "contractor": "IV Waste",
    "contractor_action": "Completed",
    "rowid": "1141640",
    "final_x": "3670760.80084",
    "final_y": "528840.728384",
    "longitude": "-90.10207184060567",
    "latitude": "29.948450265605473",
    "geocoded_column": {
      "latitude": "29.948450265605473",
      "longitude": "-90.10207184060567"
    }
  },
  {
    "service_request": "2024-1141639",
    "request_type": "Trash/Recycling",
    "request_reason": "Request a Large Item Pick Up",
    "date_created": "2024-10-16T15:16:05.000",
    "date_modified": "2024-10-16T15:16:06.000",
    "request_status": "Pending",
    "responsible_agency": "Department of Sanitation",
    "final_address": "7141 Salem Dr",
    "address_councildis": "E",
    "status": "Assigned to Contractor",
    "contractor": "Waste Pro",
    "rowid": "1141639",
    "final_x": "3706456.96676",
    "final_y": "561342.234206",
    "longitude": "-89.9881603901651",
    "latitude": "30.036714235091537",
    "geocoded_column": {
      "latitude": "30.036714235091537",
      "longitude": "-89.9881603901651"
    }
  },
  {
    "service_request": "2024-1141638",
    "request_type": "Trash/Recycling",
    "request_reason": "Repair Recycling Cart",
    "date_created": "2024-10-16T15:14:42.000",
    "date_modified": "2024-10-16T15:14:43.000",
    "request_status": "Pending",
    "responsible_agency": "Department of Sanitation",
    "final_address": "2228 Halsey Ave",
    "address_councildis": "C",
    "status": "Pending",
    "rowid": "1141638",
    "final_x": "3697783.31408",
    "final_y": "522771.625082",
    "longitude": "-90.01697112307852",
    "latitude": "29.930936253041043",
    "geocoded_column": {
      "latitude": "29.930936253041043",
      "longitude": "-90.01697112307852"
    }
  },
  {
    "service_request": "2024-1141637",
    "request_type": "Street and Traffic Signs",
    "request_reason": "Street Name Sign Damaged or Missing",
    "date_created": "2024-10-16T15:12:56.000",
    "date_modified": "2024-10-16T15:12:57.000",
    "request_status": "Pending",
    "responsible_agency": "Department of Public Works",
    "final_address": "500 BLK Fats Domino Ave",
    "address_councildis": "E",
    "status": "Pending",
    "rowid": "1141637",
    "final_x": "3697484.05742",
    "final_y": "531765.109814",
    "longitude": "-90.01758982068743",
    "latitude": "29.955674654844607",
    "geocoded_column": {
      "latitude": "29.955674654844607",
      "longitude": "-90.01758982068743"
    }
  },
  {
    "service_request": "2024-1141636",
    "request_type": "Trash/Recycling",
    "request_reason": "Request a Large Item Pick Up",
    "date_created": "2024-10-16T15:12:40.000",
    "date_modified": "2024-10-16T15:12:41.000",
    "request_status": "Pending",
    "responsible_agency": "Department of Sanitation",
    "final_address": "1127 N Derbigny St",
    "address_councildis": "D",
    "status": "Assigned to Contractor",
    "contractor": "IV Waste",
    "rowid": "1141636",
    "final_x": "3680509.60968",
    "final_y": "536249.116551",
    "longitude": "-90.07103311050922",
    "latitude": "29.968529175182194",
    "geocoded_column": {
      "latitude": "29.968529175182194",
      "longitude": "-90.07103311050922"
    }
  },
  {
    "service_request": "2024-1141635",
    "request_type": "Trash/Recycling",
    "request_reason": "Request a Large Item Pick Up",
    "date_created": "2024-10-16T15:11:16.000",
    "date_modified": "2024-10-16T15:11:17.000",
    "request_status": "Pending",
    "responsible_agency": "Department of Sanitation",
    "final_address": "539 Fats Domino Ave",
    "address_councildis": "E",
    "status": "Assigned to Contractor",
    "contractor": "Waste Pro",
    "rowid": "1141635",
    "final_x": "3697557.11658",
    "final_y": "531877.498883",
    "longitude": "-90.01735505128123",
    "latitude": "29.95598137816933",
    "geocoded_column": {
      "latitude": "29.95598137816933",
      "longitude": "-90.01735505128123"
    }
  },
  {
    "service_request": "2024-1141634",
    "request_type": "Trash/Recycling",
    "request_reason": "Repair Recycling Cart",
    "date_created": "2024-10-16T15:08:07.000",
    "date_modified": "2024-10-16T15:08:08.000",
    "request_status": "Pending",
    "responsible_agency": "Department of Sanitation",
    "final_address": "5946 Laurel St",
    "address_councildis": "A",
    "status": "Pending",
    "rowid": "1141634",
    "final_x": "3664600.57082",
    "final_y": "518061.238454",
    "longitude": "-90.12188218321586",
    "latitude": "29.918990662923353",
    "geocoded_column": {
      "latitude": "29.918990662923353",
      "longitude": "-90.12188218321586"
    }
  },
  {
    "service_request": "2024-1141633",
    "request_type": "Trash/Recycling",
    "request_reason": "Order Trash Cart",
    "date_created": "2024-10-16T15:03:15.000",
    "date_modified": "2024-10-16T15:03:16.000",
    "request_status": "Pending",
    "responsible_agency": "Department of Sanitation",
    "final_address": "4854 Warren Dr",
    "address_councildis": "E",
    "status": "Assigned to Contractor",
    "contractor": "Waste Pro",
    "rowid": "1141633",
    "final_x": "3713322.62104",
    "final_y": "556893.323994",
    "longitude": "-89.96663139572466",
    "latitude": "30.0242580949774",
    "geocoded_column": {
      "latitude": "30.0242580949774",
      "longitude": "-89.96663139572466"
    }
  },
  {
    "service_request": "2024-1141632",
    "request_type": "Streetlights",
    "request_reason": "Streetlight Outage/Malfunction",
    "date_created": "2024-10-16T15:02:54.000",
    "date_modified": "2024-10-16T15:02:55.000",
    "request_status": "Pending",
    "responsible_agency": "Department of Public Works",
    "final_address": "1516 Lakeshore Dr",
    "address_councildis": "D",
    "status": "Pending",
    "contractor": "Legacy Professional Services",
    "rowid": "1141632",
    "final_x": "3677838.46958",
    "final_y": "557062.564122",
    "longitude": "-90.07874903425132",
    "latitude": "30.02583945339269",
    "geocoded_column": {
      "latitude": "30.02583945339269",
      "longitude": "-90.07874903425132"
    }
  },
  {
    "service_request": "2024-1141631",
    "request_type": "Trash/Recycling",
    "request_reason": "Request a Large Item Pick Up",
    "date_created": "2024-10-16T14:59:25.000",
    "date_modified": "2024-10-16T14:59:27.000",
    "request_status": "Pending",
    "responsible_agency": "Department of Sanitation",
    "final_address": "4911 Warren Dr",
    "address_councildis": "E",
    "status": "Assigned to Contractor",
    "contractor": "Waste Pro",
    "rowid": "1141631",
    "final_x": "3713447.33579",
    "final_y": "557098.692698",
    "longitude": "-89.96622958185019",
    "latitude": "30.02481868695864",
    "geocoded_column": {
      "latitude": "30.02481868695864",
      "longitude": "-89.96622958185019"
    }
  },
  {
    "service_request": "2024-1141630",
    "request_type": "Trash/Recycling",
    "request_reason": "Request a Large Item Pick Up",
    "date_created": "2024-10-16T14:56:08.000",
    "date_modified": "2024-10-16T14:56:10.000",
    "request_status": "Pending",
    "responsible_agency": "Department of Sanitation",
    "final_address": "7803 W Laverne St",
    "address_councildis": "E",
    "status": "Assigned to Contractor",
    "contractor": "Waste Pro",
    "rowid": "1141630",
    "final_x": "3695047.06947",
    "final_y": "559165.880412",
    "longitude": "-90.02429648004178",
    "latitude": "30.03109346625167",
    "geocoded_column": {
      "latitude": "30.03109346625167",
      "longitude": "-90.02429648004178"
    }
  },
  {
    "service_request": "2024-1141629",
    "request_type": "Property Maintenance",
    "request_reason": "Property Maintenance",
    "date_created": "2024-10-16T14:55:59.000",
    "date_modified": "2024-10-16T14:56:00.000",
    "request_status": "Pending",
    "responsible_agency": "Department of Code Enforcement",
    "final_address": "2712 Verbena St",
    "address_councildis": "D",
    "status": "Pending",
    "rowid": "1141629",
    "final_x": "3687851.9174",
    "final_y": "547781.698898",
    "longitude": "-90.04743705914153",
    "latitude": "30.00001522298953",
    "geocoded_column": {
      "latitude": "30.00001522298953",
      "longitude": "-90.04743705914153"
    }
  },
  {
    "service_request": "2024-1141628",
    "request_type": "Trash/Recycling",
    "request_reason": "Illegal Dumping",
    "date_created": "2024-10-16T14:51:02.000",
    "date_modified": "2024-10-16T14:51:03.000",
    "request_status": "Pending",
    "responsible_agency": "Department of Sanitation",
    "final_address": "4950 Marque Dr",
    "address_councildis": "E",
    "status": "Pending",
    "rowid": "1141628",
    "final_x": "3709903.31096",
    "final_y": "557018.91113",
    "longitude": "-89.97743099013114",
    "latitude": "30.024715107374643",
    "geocoded_column": {
      "latitude": "30.024715107374643",
      "longitude": "-89.97743099013114"
    }
  },
  {
    "service_request": "2024-1141627",
    "request_type": "Trash/Recycling",
    "request_reason": "Request a Large Item Pick Up",
    "date_created": "2024-10-16T14:50:15.000",
    "date_modified": "2024-10-16T14:50:16.000",
    "request_status": "Pending",
    "responsible_agency": "Department of Sanitation",
    "final_address": "7731 Shubert St",
    "address_councildis": "E",
    "status": "Assigned to Contractor",
    "contractor": "Waste Pro",
    "rowid": "1141627",
    "final_x": "3695670.96861",
    "final_y": "559212.648092",
    "longitude": "-90.02232325685563",
    "latitude": "30.03120244653476",
    "geocoded_column": {
      "latitude": "30.03120244653476",
      "longitude": "-90.02232325685563"
    }
  },
  {
    "service_request": "2024-1141626",
    "request_type": "Trash/Recycling",
    "request_reason": "Repair Trash Cart",
    "date_created": "2024-10-16T14:49:44.000",
    "date_modified": "2024-10-16T14:55:55.000",
    "request_status": "Pending",
    "responsible_agency": "Department of Sanitation",
    "final_address": "1153 Santa Maria Dr. Marrero, Louisiana, 70072",
    "rowid": "1141626",
    "longitude": "0.0",
    "latitude": "0.0",
    "geocoded_column": {
      "latitude": "0.0",
      "longitude": "0.0"
    }
  },
  {
    "service_request": "2024-1141625",
    "request_type": "Abandoned Vehicles",
    "request_reason": "Abandoned/Junk Vehicles",
    "date_created": "2024-10-16T14:39:25.000",
    "date_modified": "2024-10-16T14:39:25.000",
    "request_status": "Pending",
    "responsible_agency": "Department of Public Works",
    "final_address": "8711 Olive St",
    "address_councildis": "A",
    "status": "Pending",
    "rowid": "1141625",
    "final_x": "3665622.77882",
    "final_y": "535703.734215",
    "longitude": "-90.11806496010719",
    "latitude": "29.967472097713582",
    "geocoded_column": {
      "latitude": "29.967472097713582",
      "longitude": "-90.11806496010719"
    }
  },
  {
    "service_request": "2024-1141624",
    "request_type": "Trash/Recycling",
    "request_reason": "Request a Large Item Pick Up",
    "date_created": "2024-10-16T14:37:04.000",
    "date_modified": "2024-10-16T14:37:06.000",
    "request_status": "Pending",
    "responsible_agency": "Department of Sanitation",
    "final_address": "7500 Hansbrough Ave",
    "address_councildis": "E",
    "status": "Assigned to Contractor",
    "contractor": "Waste Pro",
    "rowid": "1141624",
    "final_x": "3707796.4675",
    "final_y": "564104.993889",
    "longitude": "-89.98382449450762",
    "latitude": "30.044267419705466",
    "geocoded_column": {
      "latitude": "30.044267419705466",
      "longitude": "-89.98382449450762"
    }
  },
  {
    "service_request": "2024-1141623",
    "request_type": "Safety & Permits",
    "request_reason": "Licenses & Permits",
    "date_created": "2024-10-16T14:35:09.000",
    "date_modified": "2024-10-16T14:35:10.000",
    "request_status": "Pending",
    "responsible_agency": "Safety and Permits",
    "final_address": "JOSEPHINE ST & CONSTANCE ST",
    "address_councildis": "B",
    "status": "Pending",
    "rowid": "1141623",
    "final_x": "3679392.8",
    "final_y": "522022.68",
    "longitude": "-90.07505341917097",
    "latitude": "29.929445021486075",
    "geocoded_column": {
      "latitude": "29.929445021486075",
      "longitude": "-90.07505341917097"
    }
  },
  {
    "service_request": "2024-1141622",
    "request_type": "Trash/Recycling",
    "request_reason": "Repair Trash Cart",
    "date_created": "2024-10-16T14:30:55.000",
    "date_modified": "2024-10-16T14:31:34.000",
    "request_status": "Pending",
    "responsible_agency": "Department of Sanitation",
    "final_address": "750 Conrad St",
    "address_councildis": "A",
    "status": "Assigned to Contractor",
    "contractor": "IV Waste",
    "rowid": "1141622",
    "final_x": "3669546.93966",
    "final_y": "554161.445464",
    "longitude": "-90.10504751174115",
    "latitude": "30.018109428638933",
    "geocoded_column": {
      "latitude": "30.018109428638933",
      "longitude": "-90.10504751174115"
    }
  },
  {
    "service_request": "2024-1141621",
    "request_type": "Safety & Permits",
    "request_reason": "Zoning Enforcement",
    "date_created": "2024-10-16T14:30:11.000",
    "date_modified": "2024-10-16T14:30:11.000",
    "request_status": "Pending",
    "responsible_agency": "Safety and Permits",
    "final_address": "1309 Harmony St",
    "address_councildis": "B",
    "rowid": "1141621",
    "final_x": "3675430.85589",
    "final_y": "520784.635961",
    "longitude": "-90.08760305126597",
    "latitude": "29.926159837328626",
    "geocoded_column": {
      "latitude": "29.926159837328626",
      "longitude": "-90.08760305126597"
    }
  },
  {
    "service_request": "2024-1141620",
    "request_type": "Property Maintenance",
    "request_reason": "Property Maintenance",
    "date_created": "2024-10-16T14:24:31.000",
    "date_modified": "2024-10-16T14:24:31.000",
    "request_status": "Pending",
    "responsible_agency": "Department of Code Enforcement",
    "final_address": "2943 Lancaster St",
    "address_councildis": "C",
    "status": "Pending",
    "rowid": "1141620",
    "final_x": "3709976.76696",
    "final_y": "519444.145271",
    "longitude": "-89.97860262701197",
    "latitude": "29.92139605121461",
    "geocoded_column": {
      "latitude": "29.92139605121461",
      "longitude": "-89.97860262701197"
    }
  },
  {
    "service_request": "2024-1141619",
    "request_type": "Trash/Recycling",
    "request_reason": "Request a Large Item Pick Up",
    "date_created": "2024-10-16T14:23:09.000",
    "date_modified": "2024-10-16T14:23:10.000",
    "request_status": "Pending",
    "responsible_agency": "Department of Sanitation",
    "final_address": "1630 Gentilly Blvd",
    "address_councildis": "D",
    "status": "Assigned to Contractor",
    "contractor": "IV Waste",
    "rowid": "1141619",
    "final_x": "3678540.73198",
    "final_y": "540896.470347",
    "longitude": "-90.07709002360156",
    "latitude": "29.981367291164187",
    "geocoded_column": {
      "latitude": "29.981367291164187",
      "longitude": "-90.07709002360156"
    }
  },
  {
    "service_request": "2024-1141618",
    "request_type": "Trash/Recycling",
    "request_reason": "Request a Large Item Pick Up",
    "date_created": "2024-10-16T14:22:53.000",
    "date_modified": "2024-10-16T14:22:54.000",
    "request_status": "Pending",
    "responsible_agency": "Department of Sanitation",
    "final_address": "4421 Dodt Ave",
    "address_councildis": "E",
    "status": "Assigned to Contractor",
    "contractor": "Waste Pro",
    "rowid": "1141618",
    "final_x": "3705686.06481",
    "final_y": "553591.113559",
    "longitude": "-89.99088356469466",
    "latitude": "30.015426531264048",
    "geocoded_column": {
      "latitude": "30.015426531264048",
      "longitude": "-89.99088356469466"
    }
  },
  {
    "service_request": "2024-1141617",
    "request_type": "Abandoned Vehicles",
    "request_reason": "Abandoned/Junk Vehicles",
    "date_created": "2024-10-16T14:22:39.000",
    "date_modified": "2024-10-16T14:22:39.000",
    "request_status": "Pending",
    "responsible_agency": "Department of Public Works",
    "final_address": "10200 Almonaster Ave",
    "address_councildis": "E",
    "status": "Inspected",
    "rowid": "1141617",
    "final_x": "3713684.56383",
    "final_y": "551626.395989",
    "longitude": "-89.96568637555853",
    "latitude": "30.00976423388402",
    "geocoded_column": {
      "latitude": "30.00976423388402",
      "longitude": "-89.96568637555853"
    }
  },
  {
    "service_request": "2024-1141616",
    "request_type": "Property Maintenance",
    "request_reason": "Property Maintenance",
    "date_created": "2024-10-16T14:21:29.000",
    "date_modified": "2024-10-16T14:22:38.000",
    "request_status": "Pending",
    "responsible_agency": "Department of Code Enforcement",
    "final_address": "6533 Pauline Dr",
    "address_councildis": "D",
    "status": "Pending",
    "rowid": "1141616",
    "final_x": "3691037.7702",
    "final_y": "557847.446939",
    "longitude": "-90.03701308928892",
    "latitude": "30.027593604689766",
    "geocoded_column": {
      "latitude": "30.027593604689766",
      "longitude": "-90.03701308928892"
    }
  },
  {
    "service_request": "2024-1141615",
    "request_type": "Safety & Permits",
    "request_reason": "Zoning Enforcement",
    "date_created": "2024-10-16T14:21:20.000",
    "date_modified": "2024-10-16T14:21:20.000",
    "request_status": "Pending",
    "responsible_agency": "Safety and Permits",
    "final_address": "326 S Gayoso St",
    "address_councildis": "B",
    "rowid": "1141615",
    "final_x": "3673749.92852",
    "final_y": "535017.451974",
    "longitude": "-90.09242269656946",
    "latitude": "29.965345540648517",
    "geocoded_column": {
      "latitude": "29.965345540648517",
      "longitude": "-90.09242269656946"
    }
  },
  {
    "service_request": "2024-1141614",
    "request_type": "Trash/Recycling",
    "request_reason": "Request a Large Item Pick Up",
    "date_created": "2024-10-16T14:19:14.000",
    "date_modified": "2024-10-16T14:19:15.000",
    "request_status": "Pending",
    "responsible_agency": "Department of Sanitation",
    "final_address": "6243 Wainwright Dr",
    "address_councildis": "D",
    "status": "Assigned to Contractor",
    "contractor": "IV Waste",
    "rowid": "1141614",
    "final_x": "3681377.80879",
    "final_y": "556160.679002",
    "longitude": "-90.06759667989024",
    "latitude": "30.023252571020222",
    "geocoded_column": {
      "latitude": "30.023252571020222",
      "longitude": "-90.06759667989024"
    }
  },
  {
    "service_request": "2024-1141613",
    "request_type": "Trash/Recycling",
    "request_reason": "Request a Large Item Pick Up",
    "date_created": "2024-10-16T14:18:35.000",
    "date_modified": "2024-10-16T14:18:39.000",
    "request_status": "Pending",
    "responsible_agency": "Department of Sanitation",
    "final_address": "7000 Cove Dr",
    "address_councildis": "E",
    "status": "Assigned to Contractor",
    "contractor": "Waste Pro",
    "rowid": "1141613",
    "final_x": "3700346.33834",
    "final_y": "558144.995931",
    "longitude": "-90.00758804699463",
    "latitude": "30.028118900315583",
    "geocoded_column": {
      "latitude": "30.028118900315583",
      "longitude": "-90.00758804699463"
    }
  },
  {
    "service_request": "2024-1141612",
    "request_type": "Streetlights",
    "request_reason": "Streetlight Outage/Malfunction",
    "date_created": "2024-10-16T14:18:00.000",
    "date_modified": "2024-10-16T14:18:02.000",
    "request_status": "Pending",
    "responsible_agency": "Department of Public Works",
    "final_address": "BELLAIRE DR & HEDWIDGE LN",
    "address_councildis": "A",
    "status": "Pending",
    "contractor": "Legacy Professional Services",
    "rowid": "1141612",
    "final_x": "3663969.9",
    "final_y": "542435.38",
    "longitude": "-90.12306026505124",
    "latitude": "29.986029980260785",
    "geocoded_column": {
      "latitude": "29.986029980260785",
      "longitude": "-90.12306026505124"
    }
  },
  {
    "service_request": "2024-1141611",
    "request_type": "Trash/Recycling",
    "request_reason": "Request a Large Item Pick Up",
    "date_created": "2024-10-16T14:17:45.000",
    "date_modified": "2024-10-16T14:18:39.000",
    "request_status": "Pending",
    "responsible_agency": "Department of Sanitation",
    "final_address": "4924 Maid Marion Dr",
    "address_councildis": "E",
    "status": "Assigned to Contractor",
    "contractor": "Waste Pro",
    "rowid": "1141611",
    "final_x": "3716814.57112",
    "final_y": "557761.111771",
    "longitude": "-89.95556463319969",
    "latitude": "30.02652918045094",
    "geocoded_column": {
      "latitude": "30.02652918045094",
      "longitude": "-89.95556463319969"
    }
  },
  {
    "service_request": "2024-1141610",
    "request_type": "Street and Traffic Signs",
    "request_reason": "One Way Sign Missing or Damaged",
    "date_created": "2024-10-16T14:16:54.000",
    "date_modified": "2024-10-16T14:16:54.000",
    "request_status": "Pending",
    "responsible_agency": "Department of Public Works",
    "final_address": "1706 General Pershing St",
    "address_councildis": "B",
    "status": "Pending",
    "rowid": "1141610",
    "final_x": "3671150.86395",
    "final_y": "521338.194617",
    "longitude": "-90.1010949937301",
    "latitude": "29.92780919794908",
    "geocoded_column": {
      "latitude": "29.92780919794908",
      "longitude": "-90.1010949937301"
    }
  },
  {
    "service_request": "2024-1141609",
    "request_type": "Trash/Recycling",
    "request_reason": "Request a Large Item Pick Up",
    "date_created": "2024-10-16T14:15:51.000",
    "date_modified": "2024-10-16T14:15:52.000",
    "request_status": "Pending",
    "responsible_agency": "Department of Sanitation",
    "final_address": "2229 Dauphine St",
    "address_councildis": "C",
    "status": "Assigned to Contractor",
    "contractor": "IV Waste",
    "rowid": "1141609",
    "final_x": "3685387.36073",
    "final_y": "535284.743494",
    "longitude": "-90.05566290559645",
    "latitude": "29.965728829115058",
    "geocoded_column": {
      "latitude": "29.965728829115058",
      "longitude": "-90.05566290559645"
    }
  },
  {
    "service_request": "2024-1141608",
    "request_type": "Trash/Recycling",
    "request_reason": "Request a Large Item Pick Up",
    "date_created": "2024-10-16T14:13:39.000",
    "date_modified": "2024-10-16T14:13:41.000",
    "request_status": "Pending",
    "responsible_agency": "Department of Sanitation",
    "final_address": "2217 Valence St",
    "address_councildis": "B",
    "status": "Assigned to Contractor",
    "contractor": "IV Waste",
    "rowid": "1141608",
    "final_x": "3669605.04199",
    "final_y": "523058.114811",
    "longitude": "-90.10591664375508",
    "latitude": "29.932584047861074",
    "geocoded_column": {
      "latitude": "29.932584047861074",
      "longitude": "-90.10591664375508"
    }
  },
  {
    "service_request": "2024-1141607",
    "request_type": "Trash/Recycling",
    "request_reason": "Order Recycling Cart",
    "date_created": "2024-10-16T14:13:34.000",
    "date_modified": "2024-10-16T14:13:35.000",
    "request_status": "Pending",
    "responsible_agency": "Department of Sanitation",
    "final_address": "2129 Elysian Fields Ave",
    "address_councildis": "D",
    "status": "Pending",
    "rowid": "1141607",
    "final_x": "3684790.47074",
    "final_y": "540251.597579",
    "longitude": "-90.05737319615946",
    "latitude": "29.97940423398458",
    "geocoded_column": {
      "latitude": "29.97940423398458",
      "longitude": "-90.05737319615946"
    }
  },
  {
    "service_request": "2024-1141606",
    "request_type": "Trash/Recycling",
    "request_reason": "Order Second Trash Cart",
    "date_created": "2024-10-16T14:12:58.000",
    "date_modified": "2024-10-16T14:12:59.000",
    "request_status": "Pending",
    "responsible_agency": "Department of Sanitation",
    "final_address": "2129 Elysian Fields Ave",
    "address_councildis": "D",
    "status": "Assigned to Contractor",
    "contractor": "IV Waste",
    "rowid": "1141606",
    "final_x": "3684790.47074",
    "final_y": "540251.597579",
    "longitude": "-90.05737319615946",
    "latitude": "29.97940423398458",
    "geocoded_column": {
      "latitude": "29.97940423398458",
      "longitude": "-90.05737319615946"
    }
  },
  {
    "service_request": "2024-1141605",
    "request_type": "Trash/Recycling",
    "request_reason": "Order Trash Cart",
    "date_created": "2024-10-16T14:12:22.000",
    "date_modified": "2024-10-16T14:12:23.000",
    "request_status": "Pending",
    "responsible_agency": "Department of Sanitation",
    "final_address": "2129 Elysian Fields Ave",
    "address_councildis": "D",
    "status": "Assigned to Contractor",
    "contractor": "IV Waste",
    "rowid": "1141605",
    "final_x": "3684790.47074",
    "final_y": "540251.597579",
    "longitude": "-90.05737319615946",
    "latitude": "29.97940423398458",
    "geocoded_column": {
      "latitude": "29.97940423398458",
      "longitude": "-90.05737319615946"
    }
  },
  {
    "service_request": "2024-1141604",
    "request_type": "Trash/Recycling",
    "request_reason": "Order Trash Cart",
    "date_created": "2024-10-16T13:59:50.000",
    "date_modified": "2024-10-16T13:59:51.000",
    "request_status": "Pending",
    "responsible_agency": "Department of Sanitation",
    "final_address": "3136 Trafalgar St",
    "address_councildis": "A",
    "status": "Assigned to Contractor",
    "contractor": "IV Waste",
    "rowid": "1141604",
    "final_x": "3678458.87573",
    "final_y": "543130.014733",
    "longitude": "-90.07727123168172",
    "latitude": "29.987511228343266",
    "geocoded_column": {
      "latitude": "29.987511228343266",
      "longitude": "-90.07727123168172"
    }
  },
  {
    "service_request": "2024-1141603",
    "request_type": "Trash/Recycling",
    "request_reason": "Order Trash Cart",
    "date_created": "2024-10-16T13:59:07.000",
    "date_modified": "2024-10-16T13:59:08.000",
    "request_status": "Pending",
    "responsible_agency": "Department of Sanitation",
    "final_address": "1225 Tupelo St",
    "address_councildis": "E",
    "status": "Assigned to Contractor",
    "contractor": "Waste Pro",
    "rowid": "1141603",
    "final_x": "3699739.32509",
    "final_y": "533826.460741",
    "longitude": "-90.01039337992947",
    "latitude": "29.961271236543876",
    "geocoded_column": {
      "latitude": "29.961271236543876",
      "longitude": "-90.01039337992947"
    }
  },
  {
    "service_request": "2024-1141602",
    "request_type": "Trash/Recycling",
    "request_reason": "Replace Trash Cart",
    "date_created": "2024-10-16T13:58:52.000",
    "date_modified": "2024-10-16T13:58:53.000",
    "request_status": "Pending",
    "responsible_agency": "Department of Sanitation",
    "final_address": "910 Burdette St",
    "address_councildis": "A",
    "status": "Assigned to Contractor",
    "contractor": "IV Waste",
    "rowid": "1141602",
    "final_x": "3662134.63866",
    "final_y": "526951.455166",
    "longitude": "-90.12937104785387",
    "latitude": "29.943507422470987",
    "geocoded_column": {
      "latitude": "29.943507422470987",
      "longitude": "-90.12937104785387"
    }
  },
  {
    "service_request": "2024-1141601",
    "request_type": "Trash/Recycling",
    "request_reason": "Order Trash Cart",
    "date_created": "2024-10-16T13:58:45.000",
    "date_modified": "2024-10-16T13:58:46.000",
    "request_status": "Pending",
    "responsible_agency": "Department of Sanitation",
    "final_address": "1223 Tupelo St",
    "address_councildis": "E",
    "status": "Assigned to Contractor",
    "contractor": "Waste Pro",
    "rowid": "1141601",
    "final_x": "3699736.82506",
    "final_y": "533814.377413",
    "longitude": "-90.01040171507182",
    "latitude": "29.961238091071216",
    "geocoded_column": {
      "latitude": "29.961238091071216",
      "longitude": "-90.01040171507182"
    }
  },
  {
    "service_request": "2024-1141600",
    "request_type": "Trash/Recycling",
    "request_reason": "Order Recycling Cart",
    "date_created": "2024-10-16T13:57:57.000",
    "date_modified": "2024-10-16T13:57:57.000",
    "request_status": "Pending",
    "responsible_agency": "Department of Sanitation",
    "final_address": "4618 Gallatin St",
    "address_councildis": "C",
    "status": "Pending",
    "rowid": "1141600",
    "final_x": "3702150.59818",
    "final_y": "522428.252282",
    "longitude": "-90.00319688708471",
    "latitude": "29.92985341804357",
    "geocoded_column": {
      "latitude": "29.92985341804357",
      "longitude": "-90.00319688708471"
    }
  },
  {
    "service_request": "2024-1141599",
    "request_type": "Trash/Recycling",
    "request_reason": "Order Recycling Cart",
    "date_created": "2024-10-16T13:56:19.000",
    "date_modified": "2024-10-16T13:56:19.000",
    "request_status": "Pending",
    "responsible_agency": "Department of Sanitation",
    "final_address": "3136 Trafalgar St",
    "address_councildis": "A",
    "status": "Pending",
    "rowid": "1141599",
    "final_x": "3678458.87573",
    "final_y": "543130.014733",
    "longitude": "-90.07727123168172",
    "latitude": "29.987511228343266",
    "geocoded_column": {
      "latitude": "29.987511228343266",
      "longitude": "-90.07727123168172"
    }
  },
  {
    "service_request": "2024-1141598",
    "request_type": "Trash/Recycling",
    "request_reason": "Request a Large Item Pick Up",
    "date_created": "2024-10-16T13:55:53.000",
    "date_modified": "2024-10-16T13:55:54.000",
    "request_status": "Pending",
    "responsible_agency": "Department of Sanitation",
    "final_address": "8418 Apricot St",
    "address_councildis": "A",
    "status": "Assigned to Contractor",
    "contractor": "IV Waste",
    "rowid": "1141598",
    "final_x": "3664870.61415",
    "final_y": "533443.866692",
    "longitude": "-90.12051585920192",
    "latitude": "29.961280118980305",
    "geocoded_column": {
      "latitude": "29.961280118980305",
      "longitude": "-90.12051585920192"
    }
  },
  {
    "service_request": "2024-1141597",
    "request_type": "Property Maintenance",
    "request_reason": "Property Maintenance",
    "date_created": "2024-10-16T13:55:51.000",
    "date_modified": "2024-10-16T13:55:52.000",
    "request_status": "Pending",
    "responsible_agency": "Department of Code Enforcement",
    "final_address": "11251 Ivy Ln",
    "address_councildis": "E",
    "status": "Pending",
    "rowid": "1141597",
    "final_x": "3716380.01324",
    "final_y": "560201.256157",
    "longitude": "-89.95684514546697",
    "latitude": "30.03325296047292",
    "geocoded_column": {
      "latitude": "30.03325296047292",
      "longitude": "-89.95684514546697"
    }
  },
  {
    "service_request": "2024-1141596",
    "request_type": "Trash/Recycling",
    "request_reason": "Order Trash Cart",
    "date_created": "2024-10-16T13:53:22.000",
    "date_modified": "2024-10-16T13:53:23.000",
    "request_status": "Pending",
    "responsible_agency": "Department of Sanitation",
    "final_address": "3136 Trafalgar St",
    "address_councildis": "A",
    "status": "Assigned to Contractor",
    "contractor": "IV Waste",
    "rowid": "1141596",
    "final_x": "3678458.87573",
    "final_y": "543130.014733",
    "longitude": "-90.07727123168172",
    "latitude": "29.987511228343266",
    "geocoded_column": {
      "latitude": "29.987511228343266",
      "longitude": "-90.07727123168172"
    }
  },
  {
    "service_request": "2024-1141595",
    "request_type": "Trash/Recycling",
    "request_reason": "Replace Trash Cart",
    "date_created": "2024-10-16T13:53:19.000",
    "date_modified": "2024-10-16T13:53:20.000",
    "request_status": "Pending",
    "responsible_agency": "Department of Sanitation",
    "final_address": "811 France St",
    "address_councildis": "C",
    "status": "Assigned to Contractor",
    "contractor": "IV Waste",
    "rowid": "1141595",
    "final_x": "3692162.02109",
    "final_y": "534109.768453",
    "longitude": "-90.03431092464032",
    "latitude": "29.962288610053424",
    "geocoded_column": {
      "latitude": "29.962288610053424",
      "longitude": "-90.03431092464032"
    }
  },
  {
    "service_request": "2024-1141594",
    "request_type": "Abandoned Vehicles",
    "request_reason": "Abandoned/Junk Vehicles",
    "date_created": "2024-10-16T13:51:04.000",
    "date_modified": "2024-10-16T13:51:05.000",
    "request_status": "Pending",
    "responsible_agency": "Department of Public Works",
    "final_address": "GENERAL PERSHING ST & CHESTNUT ST",
    "address_councildis": "B",
    "status": "Pending",
    "rowid": "1141594",
    "final_x": "3671380.2",
    "final_y": "519563.58",
    "longitude": "-90.10043130911895",
    "latitude": "29.922922791378898",
    "geocoded_column": {
      "latitude": "29.922922791378898",
      "longitude": "-90.10043130911895"
    }
  },
  {
    "service_request": "2024-1141593",
    "request_type": "Abandoned Vehicles",
    "request_reason": "Abandoned/Junk Vehicles",
    "date_created": "2024-10-16T13:50:41.000",
    "date_modified": "2024-10-16T13:53:02.000",
    "request_status": "Pending",
    "responsible_agency": "Department of Public Works",
    "final_address": "600 BLK N Lopez St",
    "address_councildis": "A",
    "status": "Pending",
    "rowid": "1141593",
    "final_x": "3675081.48871",
    "final_y": "537820.877558",
    "longitude": "-90.08812148019045",
    "latitude": "29.973014292078442",
    "geocoded_column": {
      "latitude": "29.973014292078442",
      "longitude": "-90.08812148019045"
    }
  },
  {
    "service_request": "2024-1141592",
    "request_type": "Abandoned Vehicles",
    "request_reason": "Abandoned/Junk Vehicles",
    "date_created": "2024-10-16T13:49:44.000",
    "date_modified": "2024-10-16T13:49:44.000",
    "request_status": "Pending",
    "responsible_agency": "Department of Public Works",
    "final_address": "CLIO ST & S SARATOGA ST",
    "address_councildis": "B",
    "status": "Pending",
    "rowid": "1141592",
    "final_x": "3678068.4",
    "final_y": "527404.38",
    "longitude": "-90.07904833831716",
    "latitude": "29.944282848328275",
    "geocoded_column": {
      "latitude": "29.944282848328275",
      "longitude": "-90.07904833831716"
    }
  },
  {
    "service_request": "2024-1141591",
    "request_type": "Trash/Recycling",
    "request_reason": "Replace Trash Cart",
    "date_created": "2024-10-16T13:49:18.000",
    "date_modified": "2024-10-16T13:49:19.000",
    "request_status": "Pending",
    "responsible_agency": "Department of Sanitation",
    "final_address": "7010 Pritchard Pl",
    "address_councildis": "B",
    "status": "Assigned to Contractor",
    "contractor": "IV Waste",
    "rowid": "1141591",
    "final_x": "3667912.05901",
    "final_y": "531120.029058",
    "longitude": "-90.110989764648",
    "latitude": "29.95480146137309",
    "geocoded_column": {
      "latitude": "29.95480146137309",
      "longitude": "-90.110989764648"
    }
  },
  {
    "service_request": "2024-1141590",
    "request_type": "Parks & Parkways",
    "request_reason": "Request Tree Service (Right of Way/Public Property)",
    "date_created": "2024-10-16T13:48:21.000",
    "date_modified": "2024-10-16T13:48:22.000",
    "request_status": "Pending",
    "responsible_agency": "Department of Parks & Parkway",
    "final_address": "7037 Freret St",
    "address_councildis": "A",
    "status": "Pending",
    "rowid": "1141590",
    "final_x": "3664131.88653",
    "final_y": "525718.975229",
    "longitude": "-90.12310628678377",
    "latitude": "29.940060642113103",
    "geocoded_column": {
      "latitude": "29.940060642113103",
      "longitude": "-90.12310628678377"
    }
  },
  {
    "service_request": "2024-1141589",
    "request_type": "Roads and Streets",
    "request_reason": "Sidewalk Damaged or Missing",
    "date_created": "2024-10-16T13:42:45.000",
    "date_modified": "2024-10-16T13:42:46.000",
    "request_status": "Pending",
    "responsible_agency": "Department of Public Works",
    "final_address": "2137 DAbadie St",
    "address_councildis": "D",
    "status": "Pending",
    "rowid": "1141589",
    "final_x": "3680984.10261",
    "final_y": "539666.339594",
    "longitude": "-90.06941559938257",
    "latitude": "29.977910976132687",
    "geocoded_column": {
      "latitude": "29.977910976132687",
      "longitude": "-90.06941559938257"
    }
  },
  {
    "service_request": "2024-1141588",
    "request_type": "Utility Poles",
    "request_reason": "Utility Pole Leaning",
    "date_created": "2024-10-16T13:41:47.000",
    "date_modified": "2024-10-16T13:41:51.000",
    "request_status": "Pending",
    "responsible_agency": "Utility Company Collective",
    "final_address": "2122 Bayou Rd",
    "address_councildis": "D",
    "status": "Pending",
    "rowid": "1141588",
    "final_x": "3679896.37429",
    "final_y": "537449.351112",
    "longitude": "-90.07292804575974",
    "latitude": "29.97184796939652",
    "geocoded_column": {
      "latitude": "29.97184796939652",
      "longitude": "-90.07292804575974"
    }
  },
  {
    "service_request": "2024-1141587",
    "request_type": "Trash/Recycling",
    "request_reason": "Repair Recycling Cart",
    "date_created": "2024-10-16T13:34:38.000",
    "date_modified": "2024-10-16T13:34:39.000",
    "request_status": "Pending",
    "responsible_agency": "Department of Sanitation",
    "final_address": "2006 Audubon St",
    "address_councildis": "A",
    "status": "Pending",
    "rowid": "1141587",
    "final_x": "3665948.1104",
    "final_y": "528832.655936",
    "longitude": "-90.1172678416555",
    "latitude": "29.948569389807318",
    "geocoded_column": {
      "latitude": "29.948569389807318",
      "longitude": "-90.1172678416555"
    }
  },
  {
    "service_request": "2024-1141586",
    "request_type": "Trash/Recycling",
    "request_reason": "Request a Large Item Pick Up",
    "date_created": "2024-10-16T13:33:30.000",
    "date_modified": "2024-10-16T13:33:31.000",
    "request_status": "Pending",
    "responsible_agency": "Department of Sanitation",
    "final_address": "342 40Th St",
    "address_councildis": "A",
    "status": "Assigned to Contractor",
    "contractor": "IV Waste",
    "rowid": "1141586",
    "final_x": "3665071.94253",
    "final_y": "553311.063063",
    "longitude": "-90.1192153420628",
    "latitude": "30.015902315914847",
    "geocoded_column": {
      "latitude": "30.015902315914847",
      "longitude": "-90.1192153420628"
    }
  },
  {
    "service_request": "2024-1141585",
    "request_type": "Utility Poles",
    "request_reason": "Utility Pole Down",
    "date_created": "2024-10-16T13:32:04.000",
    "date_modified": "2024-10-16T13:32:12.000",
    "request_status": "Pending",
    "responsible_agency": "Utility Company Collective",
    "final_address": "2024 Esplanade Ave",
    "address_councildis": "D",
    "status": "Pending",
    "rowid": "1141585",
    "final_x": "3679941.65455",
    "final_y": "537520.734792",
    "longitude": "-90.07278256350578",
    "latitude": "29.972042880332985",
    "geocoded_column": {
      "latitude": "29.972042880332985",
      "longitude": "-90.07278256350578"
    }
  },
  {
    "service_request": "2024-1141584",
    "request_type": "Roads and Streets",
    "request_reason": "Sidewalk Damaged or Missing",
    "date_created": "2024-10-16T13:28:18.000",
    "date_modified": "2024-10-16T13:28:19.000",
    "request_status": "Pending",
    "responsible_agency": "Department of Public Works",
    "final_address": "1900 Gentilly Blvd",
    "address_councildis": "D",
    "status": "Pending",
    "rowid": "1141584",
    "final_x": "3679083.68034",
    "final_y": "543040.608077",
    "longitude": "-90.07530079106067",
    "latitude": "29.98724654398129",
    "geocoded_column": {
      "latitude": "29.98724654398129",
      "longitude": "-90.07530079106067"
    }
  },
  {
    "service_request": "2024-1141583",
    "request_type": "Parks & Parkways",
    "request_reason": "Request Tree Service (Right of Way/Public Property)",
    "date_created": "2024-10-16T13:26:55.000",
    "date_modified": "2024-10-16T13:27:16.000",
    "request_status": "Pending",
    "responsible_agency": "Department of Parks & Parkway",
    "final_address": "1900 Gentilly Blvd",
    "address_councildis": "D",
    "status": "Pending",
    "rowid": "1141583",
    "final_x": "3679083.68034",
    "final_y": "543040.608077",
    "longitude": "-90.07530079106067",
    "latitude": "29.98724654398129",
    "geocoded_column": {
      "latitude": "29.98724654398129",
      "longitude": "-90.07530079106067"
    }
  },
  {
    "service_request": "2024-1141582",
    "request_type": "Mosquito, Termite & Rodent Control",
    "request_reason": "Mosquito Complaint",
    "date_created": "2024-10-16T13:26:54.000",
    "date_modified": "2024-10-16T13:26:55.000",
    "request_status": "Pending",
    "responsible_agency": "Mosquito, Termite & Rodent Control Board",
    "final_address": "5931 Bullard Ave",
    "address_councildis": "E",
    "status": "Pending",
    "rowid": "1141582",
    "final_x": "3716772.1614",
    "final_y": "562687.909664",
    "longitude": "-89.95551144248975",
    "latitude": "30.040077294591374",
    "geocoded_column": {
      "latitude": "30.040077294591374",
      "longitude": "-89.95551144248975"
    }
  },
  {
    "service_request": "2024-1141581",
    "request_type": "Streetlights",
    "request_reason": "Streetlight Outage/Malfunction",
    "date_created": "2024-10-16T13:25:36.000",
    "date_modified": "2024-10-16T13:25:38.000",
    "request_status": "Pending",
    "responsible_agency": "Department of Public Works",
    "final_address": "HAYNE BLVD & LACOMBE ST",
    "address_councildis": "E",
    "status": "Pending",
    "contractor": "Legacy Professional Services",
    "rowid": "1141581",
    "final_x": "3708844.2",
    "final_y": "566623.68",
    "longitude": "-89.98041923087547",
    "latitude": "30.051158823876495",
    "geocoded_column": {
      "latitude": "30.051158823876495",
      "longitude": "-89.98041923087547"
    }
  },
  {
    "service_request": "2024-1141580",
    "request_type": "Trash/Recycling",
    "request_reason": "Repair Trash Cart",
    "date_created": "2024-10-16T13:23:28.000",
    "date_modified": "2024-10-16T13:23:30.000",
    "request_status": "Pending",
    "responsible_agency": "Department of Sanitation",
    "final_address": "2828 State St",
    "address_councildis": "A",
    "status": "Assigned to Contractor",
    "contractor": "IV Waste",
    "rowid": "1141580",
    "final_x": "3667149.67348",
    "final_y": "526973.416766",
    "longitude": "-90.11353648082184",
    "latitude": "29.943421965331474",
    "geocoded_column": {
      "latitude": "29.943421965331474",
      "longitude": "-90.11353648082184"
    }
  },
  {
    "service_request": "2024-1141579",
    "request_type": "Drainage",
    "request_reason": "Drainage Manhole Cover Missing or Damaged",
    "date_created": "2024-10-16T13:20:04.000",
    "date_modified": "2024-10-16T13:20:05.000",
    "request_status": "Pending",
    "responsible_agency": "Department of Public Works",
    "final_address": "MAYO RD & CURRAN BLVD",
    "address_councildis": "E",
    "status": "Pending",
    "rowid": "1141579",
    "final_x": "3700748.8",
    "final_y": "560983.48",
    "longitude": "-90.00621241658476",
    "latitude": "30.035910822104036",
    "geocoded_column": {
      "latitude": "30.035910822104036",
      "longitude": "-90.00621241658476"
    }
  },
  {
    "service_request": "2024-1141578",
    "request_type": "Abandoned Vehicles",
    "request_reason": "Abandoned/Junk Vehicles",
    "date_created": "2024-10-16T13:14:22.000",
    "date_modified": "2024-10-16T13:14:22.000",
    "request_status": "Pending",
    "responsible_agency": "Department of Public Works",
    "final_address": "2220 Pauline St",
    "address_councildis": "D",
    "status": "Pending",
    "rowid": "1141578",
    "final_x": "3692242.69904",
    "final_y": "539777.186826",
    "longitude": "-90.03385319085329",
    "latitude": "29.97786948981616",
    "geocoded_column": {
      "latitude": "29.97786948981616",
      "longitude": "-90.03385319085329"
    }
  },