[
  {
    "service_request": "2026-1284656",
    "request_type": "Roads and Streets",
    "request_reason": "Pothole",
    "date_created": "2026-05-26T23:44:43.000",
    "date_modified": "2026-05-26T23:44:44.000",
    "request_status": "Pending",
    "responsible_agency": "Department of Public Works",
    "final_address": "8920 Green St",
    "address_councildis": "A",
    "status": "Pending",
    "rowid": "1284656",
    "final_x": "3660901.82816",
    "final_y": "531654.022019",
    "longitude": "-90.13310785339705",
    "latitude": "29.956473535660628",
    "geocoded_column": {
      "latitude": "29.956473535660628",
      "longitude": "-90.13310785339705"
    }
  },
  {
    "service_request": "2026-1284655",
    "request_type": "Tree Service",
    "request_reason": "Street or Sidewalk Blocked",
    "date_created": "2026-05-26T23:40:14.000",
    "date_modified": "2026-05-26T23:40:18.000",
    "request_status": "Pending",
    "responsible_agency": "Department of Parks & Parkways",
    "final_address": "1438 Hickory St",
    "address_councildis": "A",
    "status": "Pending",
    "rowid": "1284655",
    "final_x": "3663889.5632",
    "final_y": "527885.883455",
    "longitude": "-90.12379912621267",
    "latitude": "29.946025981676794",
    "geocoded_column": {
      "latitude": "29.946025981676794",
      "longitude": "-90.12379912621267"
    }
  },
  {
    "service_request": "2026-1284654",
    "request_type": "Health Related Request",
    "request_reason": "Noise Ordinance Complaint",
    "date_created": "2026-05-26T23:30:16.000",
    "date_modified": "2026-05-26T23:30:18.000",
    "request_status": "Pending",
    "responsible_agency": "Health Department",
    "final_address": "800 Bourbon St, New Orleans, Louisiana, 70116",
    "address_councildis": "C",
    "status": "Pending",
    "rowid": "1284654",
    "final_x": "3682553.51528",
    "final_y": "533013.631428",
    "longitude": "-90.06469148499534",
    "latitude": "29.95957063099051",
    "geocoded_column": {
      "latitude": "29.95957063099051",
      "longitude": "-90.06469148499534"
    }
  },
  {
    "service_request": "2026-1284653",
    "request_type": "Trash/Recycling",
    "request_reason": "Order Second Trash Cart",
    "date_created": "2026-05-26T23:19:28.000",
    "date_modified": "2026-05-26T23:19:32.000",
    "request_status": "Pending",
    "responsible_agency": "Department of Sanitation",
    "final_address": "4627 Charlmark Dr",
    "address_councildis": "E",
    "status": "Assigned to Contractor",
    "contractor": "Waste Pro",
    "rowid": "1284653",
    "final_x": "3711586.65957",
    "final_y": "555306.323801",
    "longitude": "-89.97217622972029",
    "latitude": "30.01995128621061",
    "geocoded_column": {
      "latitude": "30.01995128621061",
      "longitude": "-89.97217622972029"
    }
  },
  {
    "service_request": "2026-1284652",
    "request_type": "Road Striping",
    "request_reason": "Lane Striping or other Pavement Markings",
    "date_created": "2026-05-26T23:11:11.000",
    "date_modified": "2026-05-26T23:11:14.000",
    "request_status": "Pending",
    "responsible_agency": "Department of Public Works",
    "final_address": "2000 BLK Carondelet St",
    "address_councildis": "B",
    "status": "Pending",
    "rowid": "1284652",
    "final_x": "3677751.31999",
    "final_y": "524421.093662",
    "longitude": "-90.08015246528626",
    "latitude": "29.93608933595305",
    "geocoded_column": {
      "latitude": "29.93608933595305",
      "longitude": "-90.08015246528626"
    }
  },
  {
    "service_request": "2026-1284651",
    "request_type": "Abandoned Vehicles",
    "request_reason": "Abandoned/Junk Vehicles",
    "date_created": "2026-05-26T22:42:30.000",
    "date_modified": "2026-05-26T22:42:31.000",
    "request_status": "Pending",
    "responsible_agency": "Department of Public Works",
    "final_address": "4237 Alfred St",
    "address_councildis": "D",
    "status": "Pending",
    "rowid": "1284651",
    "final_x": "3677646.23106",
    "final_y": "547826.883346",
    "longitude": "-90.07967577812066",
    "latitude": "30.00045043651846",
    "geocoded_column": {
      "latitude": "30.00045043651846",
      "longitude": "-90.07967577812066"
    }
  },
  {
    "service_request": "2026-1284650",
    "request_type": "Streetlights",
    "request_reason": "New Streetlight Request",
    "date_created": "2026-05-26T22:40:05.000",
    "date_modified": "2026-05-26T22:40:07.000",
    "request_status": "Pending",
    "responsible_agency": "Department of Public Works",
    "final_address": "907 Wilson Dr",
    "address_councildis": "A",
    "status": "Pending",
    "rowid": "1284650",
    "final_x": "3674064.65582",
    "final_y": "539950.74433",
    "longitude": "-90.09125992635762",
    "latitude": "29.97890104452514",
    "geocoded_column": {
      "latitude": "29.97890104452514",
      "longitude": "-90.09125992635762"
    }
  },
  {
    "service_request": "2026-1284649",
    "request_type": "Health Related Request",
    "request_reason": "Noise Ordinance Complaint",
    "date_created": "2026-05-26T22:38:02.000",
    "date_modified": "2026-05-26T22:38:04.000",
    "request_status": "Pending",
    "responsible_agency": "Health Department",
    "final_address": "800 Bourbon St, New Orleans, Louisiana, 70116",
    "address_councildis": "C",
    "status": "Pending",
    "rowid": "1284649",
    "final_x": "3682553.51528",
    "final_y": "533013.631428",
    "longitude": "-90.06469148499534",
    "latitude": "29.95957063099051",
    "geocoded_column": {
      "latitude": "29.95957063099051",
      "longitude": "-90.06469148499534"
    }
  },
  {
    "service_request": "2026-1284648",
    "request_type": "Trash/Recycling",
    "request_reason": "Replace Trash Cart",
    "date_created": "2026-05-26T22:34:19.000",
    "date_modified": "2026-05-26T22:34:21.000",
    "request_status": "Pending",
    "responsible_agency": "Department of Sanitation",
    "final_address": "45 Lakewood Estates Dr",
    "address_councildis": "C",
    "status": "Assigned to Contractor",
    "contractor": "Richards Disposal",
    "rowid": "1284648",
    "final_x": "3701330.10161",
    "final_y": "512786.420337",
    "longitude": "-90.0061395857512",
    "latitude": "29.90336784020543",
    "geocoded_column": {
      "latitude": "29.90336784020543",
      "longitude": "-90.0061395857512"
    }
  },
  {
    "service_request": "2026-1284647",
    "request_type": "Trash/Recycling",
    "request_reason": "Missed Trash Pick-Up",
    "date_created": "2026-05-26T22:24:38.000",
    "date_modified": "2026-05-26T22:24:40.000",
    "request_status": "Pending",
    "responsible_agency": "Department of Sanitation",
    "final_address": "7420 Camberley Dr",
    "address_councildis": "E",
    "status": "Assigned to Contractor",
    "contractor": "Waste Pro",
    "rowid": "1284647",
    "final_x": "3712731.11678",
    "final_y": "565502.363042",
    "longitude": "-89.9681763252542",
    "latitude": "30.047948895172297",
    "geocoded_column": {
      "latitude": "30.047948895172297",
      "longitude": "-89.9681763252542"
    }
  },
  {
    "service_request": "2026-1284646",
    "request_type": "General Services",
    "request_reason": "General Service Request",
    "date_created": "2026-05-26T22:01:34.000",
    "date_modified": "2026-05-26T22:01:35.000",
    "request_status": "Pending",
    "responsible_agency": "Orleans Parish Communication District",
    "final_address": "1009 Jefferson Ave",
    "address_councildis": "B",
    "status": "Pending",
    "rowid": "1284646",
    "final_x": "3666926.44609",
    "final_y": "519235.137655",
    "longitude": "-90.11450115098555",
    "latitude": "29.922150695835786",
    "geocoded_column": {
      "latitude": "29.922150695835786",
      "longitude": "-90.11450115098555"
    }
  },
  {
    "service_request": "2026-1284645",
    "request_type": "Streetlights",
    "request_reason": "Streetlight Outage/Malfunction",
    "date_created": "2026-05-26T21:53:46.000",
    "date_modified": "2026-05-26T21:53:49.000",
    "request_status": "Pending",
    "responsible_agency": "Department of Public Works",
    "final_address": "4437 Loyola Ave",
    "address_councildis": "B",
    "status": "Pending",
    "rowid": "1284645",
    "final_x": "3670276.20001",
    "final_y": "522999.607739",
    "longitude": "-90.1037998311242",
    "latitude": "29.93240338663925",
    "geocoded_column": {
      "latitude": "29.93240338663925",
      "longitude": "-90.1037998311242"
    }
  },
  {
    "service_request": "2026-1284644",
    "request_type": "Property Maintenance",
    "request_reason": "Property Maintenance",
    "date_created": "2026-05-26T21:41:02.000",
    "date_modified": "2026-05-26T21:41:03.000",
    "request_status": "Pending",
    "responsible_agency": "Department of Code Enforcement",
    "final_address": "9801 E Rockton Cir",
    "address_councildis": "E",
    "status": "Pending",
    "rowid": "1284644",
    "final_x": "3708321.63736",
    "final_y": "562852.77072",
    "longitude": "-89.98221140186925",
    "latitude": "30.040807288153356",
    "geocoded_column": {
      "latitude": "30.040807288153356",
      "longitude": "-89.98221140186925"
    }
  },
  {
    "service_request": "2026-1284643",
    "request_type": "Property Maintenance",
    "request_reason": "Property Maintenance",
    "date_created": "2026-05-26T21:36:18.000",
    "date_modified": "2026-05-26T21:36:19.000",
    "request_status": "Pending",
    "responsible_agency": "Department of Code Enforcement",
    "final_address": "9801 E Rockton Cir",
    "address_councildis": "E",
    "status": "Pending",
    "rowid": "1284643",
    "final_x": "3708321.63736",
    "final_y": "562852.77072",
    "longitude": "-89.98221140186925",
    "latitude": "30.040807288153356",
    "geocoded_column": {
      "latitude": "30.040807288153356",
      "longitude": "-89.98221140186925"
    }
  },
  {
    "service_request": "2026-1284642",
    "request_type": "Trash/Recycling",
    "request_reason": "Request a Large Item Pick Up",
    "date_created": "2026-05-26T21:36:14.000",
    "date_modified": "2026-05-26T21:36:16.000",
    "request_status": "Pending",
    "responsible_agency": "Department of Sanitation",
    "final_address": "4541 Lafon Dr",
    "address_councildis": "E",
    "status": "Assigned to Contractor",
    "contractor": "Waste Pro",
    "rowid": "1284642",
    "final_x": "3701331.08625",
    "final_y": "553196.669655",
    "longitude": "-90.00465763843353",
    "latitude": "30.014481534089313",
    "geocoded_column": {
      "latitude": "30.014481534089313",
      "longitude": "-90.00465763843353"
    }
  },
  {
    "service_request": "2026-1284641",
    "request_type": "Safety & Permits",
    "request_reason": "Zoning Enforcement",
    "date_created": "2026-05-26T21:26:29.000",
    "date_modified": "2026-05-26T21:26:31.000",
    "request_status": "Pending",
    "responsible_agency": "Safety and Permits",
    "final_address": "2001 Conti St",
    "address_councildis": "B",
    "status": "Pending",
    "rowid": "1284641",
    "final_x": "3678226.50683",
    "final_y": "534433.019397",
    "longitude": "-90.07830608949355",
    "latitude": "29.96360448684487",
    "geocoded_column": {
      "latitude": "29.96360448684487",
      "longitude": "-90.07830608949355"
    }
  },
  {
    "service_request": "2026-1284640",
    "request_type": "Trash/Recycling",
    "request_reason": "Order Trash Cart",
    "date_created": "2026-05-26T21:21:30.000",
    "date_modified": "2026-05-26T21:21:33.000",
    "request_status": "Pending",
    "responsible_agency": "Department of Sanitation",
    "final_address": "7904 Sycamore St",
    "address_councildis": "A",
    "status": "Assigned to Contractor",
    "contractor": "IV Waste",
    "rowid": "1284640",
    "final_x": "3664829.7321",
    "final_y": "530466.127042",
    "longitude": "-90.12074446752874",
    "latitude": "29.953093495668554",
    "geocoded_column": {
      "latitude": "29.953093495668554",
      "longitude": "-90.12074446752874"
    }
  },
  {
    "service_request": "2026-1284639",
    "request_type": "Safety & Permits",
    "request_reason": "Zoning Enforcement",
    "date_created": "2026-05-26T21:17:51.000",
    "date_modified": "2026-05-26T21:17:54.000",
    "request_status": "Pending",
    "responsible_agency": "Safety and Permits",
    "final_address": "2001 Conti St",
    "address_councildis": "B",
    "status": "Pending",
    "rowid": "1284639",
    "final_x": "3678226.50683",
    "final_y": "534433.019397",
    "longitude": "-90.07830608949355",
    "latitude": "29.96360448684487",
    "geocoded_column": {
      "latitude": "29.96360448684487",
      "longitude": "-90.07830608949355"
    }
  },
  {
    "service_request": "2026-1284638",
    "request_type": "Trash/Recycling",
    "request_reason": "Order Trash Cart",
    "date_created": "2026-05-26T21:12:39.000",
    "date_modified": "2026-05-26T21:12:40.000",
    "request_status": "Pending",
    "responsible_agency": "Department of Sanitation",
    "final_address": "1460 N Prieur St",
    "address_councildis": "D",
    "status": "Assigned to Contractor",
    "contractor": "IV Waste",
    "rowid": "1284638",
    "final_x": "3680816.20399",
    "final_y": "537647.757448",
    "longitude": "-90.07001617181476",
    "latitude": "29.972365665367313",
    "geocoded_column": {
      "latitude": "29.972365665367313",
      "longitude": "-90.07001617181476"
    }
  },
  {
    "service_request": "2026-1284637",
    "request_type": "Health Related Request",
    "request_reason": "Noise Ordinance Complaint",
    "date_created": "2026-05-26T21:10:14.000",
    "date_modified": "2026-05-26T21:10:16.000",
    "request_status": "Pending",
    "responsible_agency": "Health Department",
    "final_address": "800 Bourbon St, New Orleans, Louisiana, 70116",
    "address_councildis": "C",
    "status": "Pending",
    "rowid": "1284637",
    "final_x": "3682553.51528",
    "final_y": "533013.631428",
    "longitude": "-90.06469148499534",
    "latitude": "29.95957063099051",
    "geocoded_column": {
      "latitude": "29.95957063099051",
      "longitude": "-90.06469148499534"
    }
  },
  {
    "service_request": "2026-1284636",
    "request_type": "Drainage",
    "request_reason": "Catch Basin Not Draining",
    "date_created": "2026-05-26T21:03:57.000",
    "date_modified": "2026-05-26T21:04:04.000",
    "request_status": "Pending",
    "responsible_agency": "Sewerage & Water Board",
    "final_address": "FORSHEY ST & S CARROLLTON AVE",
    "address_councildis": "B",
    "status": "Pending",
    "rowid": "1284636",
    "final_x": "3667090.7",
    "final_y": "533841.08",
    "longitude": "-90.11349184249023",
    "latitude": "29.96230752476434",
    "geocoded_column": {
      "latitude": "29.96230752476434",
      "longitude": "-90.11349184249023"
    }
  },
  {
    "service_request": "2026-1284635",
    "request_type": "Trash/Recycling",
    "request_reason": "Replace Trash Cart",
    "date_created": "2026-05-26T20:52:25.000",
    "date_modified": "2026-05-26T20:52:27.000",
    "request_status": "Pending",
    "responsible_agency": "Department of Sanitation",
    "final_address": "1405 Burdette St",
    "address_councildis": "A",
    "status": "Assigned to Contractor",
    "contractor": "IV Waste",
    "rowid": "1284635",
    "final_x": "3663339.09075",
    "final_y": "528156.168128",
    "longitude": "-90.12552816792501",
    "latitude": "29.946785143897433",
    "geocoded_column": {
      "latitude": "29.946785143897433",
      "longitude": "-90.12552816792501"
    }
  },
  {
    "service_request": "2026-1284634",
    "request_type": "Trash/Recycling",
    "request_reason": "Return Trash Cart",
    "date_created": "2026-05-26T20:51:58.000",
    "date_modified": "2026-05-26T20:52:03.000",
    "request_status": "Pending",
    "responsible_agency": "Department of Sanitation",
    "final_address": "934 Joseph St",
    "address_councildis": "A",
    "status": "Assigned to Contractor",
    "contractor": "IV Waste",
    "rowid": "1284634",
    "final_x": "3666209.63335",
    "final_y": "519484.164407",
    "longitude": "-90.11675549417704",
    "latitude": "29.922856387264417",
    "geocoded_column": {
      "latitude": "29.922856387264417",
      "longitude": "-90.11675549417704"
    }
  },
  {
    "service_request": "2026-1284633",
    "request_type": "Trash/Recycling",
    "request_reason": "Request a Large Item Pick Up",
    "date_created": "2026-05-26T20:45:45.000",
    "date_modified": "2026-05-26T20:45:47.000",
    "request_status": "Pending",
    "responsible_agency": "Department of Sanitation",
    "final_address": "10821 Pressburg St",
    "address_councildis": "E",
    "status": "Assigned to Contractor",
    "contractor": "Waste Pro",
    "rowid": "1284633",
    "final_x": "3715439.65688",
    "final_y": "557451.217563",
    "longitude": "-89.95992089693763",
    "latitude": "30.0257224800311",
    "geocoded_column": {
      "latitude": "30.0257224800311",
      "longitude": "-89.95992089693763"
    }
  },
  {
    "service_request": "2026-1284632",
    "request_type": "Trash/Recycling",
    "request_reason": "Illegal Dumping",
    "date_created": "2026-05-26T20:39:33.000",
    "date_modified": "2026-05-26T20:39:35.000",
    "request_status": "Pending",
    "responsible_agency": "Department of Sanitation",
    "final_address": "7705 Cohn St",
    "address_councildis": "A",
    "status": "Pending",
    "rowid": "1284632",
    "final_x": "3664690.15232",
    "final_y": "529271.715009",
    "longitude": "-90.12122509702965",
    "latitude": "29.949813310107956",
    "geocoded_column": {
      "latitude": "29.949813310107956",
      "longitude": "-90.12122509702965"
    }
  },
  {
    "service_request": "2026-1284631",
    "request_type": "Streetlights",
    "request_reason": "Streetlight Outage/Malfunction",
    "date_created": "2026-05-26T20:38:18.000",
    "date_modified": "2026-05-26T20:38:19.000",
    "request_status": "Pending",
    "responsible_agency": "Department of Public Works",
    "final_address": "1115 Crete St",
    "address_councildis": "A",
    "status": "Pending",
    "rowid": "1284631",
    "final_x": "3677617.11163",
    "final_y": "538827.812617",
    "longitude": "-90.08007870441617",
    "latitude": "29.9757070068908",
    "geocoded_column": {
      "latitude": "29.9757070068908",
      "longitude": "-90.08007870441617"
    }
  },
  {
    "service_request": "2026-1284630",
    "request_type": "Abandoned Vehicles",
    "request_reason": "Abandoned/Junk Vehicles",
    "date_created": "2026-05-26T20:36:30.000",
    "date_modified": "2026-05-26T20:36:32.000",
    "request_status": "Pending",
    "responsible_agency": "Department of Public Works",
    "final_address": "1114 Crete St",
    "address_councildis": "A",
    "status": "Pending",
    "rowid": "1284630",
    "final_x": "3677700.60859",
    "final_y": "538821.533961",
    "longitude": "-90.0798152144879",
    "latitude": "29.975687231380913",
    "geocoded_column": {
      "latitude": "29.975687231380913",
      "longitude": "-90.0798152144879"
    }
  },
  {
    "service_request": "2026-1284629",
    "request_type": "Trash/Recycling",
    "request_reason": "Replace Trash Cart",
    "date_created": "2026-05-26T20:31:00.000",
    "date_modified": "2026-05-26T20:31:02.000",
    "request_status": "Pending",
    "responsible_agency": "Department of Sanitation",
    "final_address": "1628 Agriculture St",
    "address_councildis": "D",
    "status": "Assigned to Contractor",
    "contractor": "IV Waste",
    "rowid": "1284629",
    "final_x": "3680168.53832",
    "final_y": "542927.236557",
    "longitude": "-90.07187805330652",
    "latitude": "29.986902016923523",
    "geocoded_column": {
      "latitude": "29.986902016923523",
      "longitude": "-90.07187805330652"
    }
  },
  {
    "service_request": "2026-1284628",
    "request_type": "Trash/Recycling",
    "request_reason": "Repair Trash Cart",
    "date_created": "2026-05-26T20:16:51.000",
    "date_modified": "2026-05-26T20:16:55.000",
    "request_status": "Pending",
    "responsible_agency": "Department of Sanitation",
    "final_address": "8714 Olive St",
    "address_councildis": "A",
    "status": "Assigned to Contractor",
    "contractor": "IV Waste",
    "rowid": "1284628",
    "final_x": "3665559.12365",
    "final_y": "535665.749959",
    "longitude": "-90.11826725717496",
    "latitude": "29.967369509769924",
    "geocoded_column": {
      "latitude": "29.967369509769924",
      "longitude": "-90.11826725717496"
    }
  },
  {
    "service_request": "2026-1284627",
    "request_type": "Property Maintenance",
    "request_reason": "Property Maintenance",
    "date_created": "2026-05-26T19:57:54.000",
    "date_modified": "2026-05-26T19:57:56.000",
    "request_status": "Pending",
    "responsible_agency": "Department of Code Enforcement",
    "final_address": "4301 Annette St",
    "address_councildis": "D",
    "status": "Pending",
    "rowid": "1284627",
    "final_x": "3682221.0838",
    "final_y": "548353.32789",
    "longitude": "-90.06520513789978",
    "latitude": "30.0017595487197",
    "geocoded_column": {
      "latitude": "30.0017595487197",
      "longitude": "-90.06520513789978"
    }
  },
  {
    "service_request": "2026-1284626",
    "request_type": "Trash/Recycling",
    "request_reason": "Return Trash Cart",
    "date_created": "2026-05-26T19:42:21.000",
    "date_modified": "2026-05-26T19:42:23.000",
    "request_status": "Pending",
    "responsible_agency": "Department of Sanitation",
    "final_address": "4721 Werner Dr",
    "address_councildis": "E",
    "status": "Assigned to Contractor",
    "contractor": "Waste Pro",
    "rowid": "1284626",
    "final_x": "3704821.20836",
    "final_y": "555154.705433",
    "longitude": "-89.99355832553287",
    "latitude": "30.01975363990112",
    "geocoded_column": {
      "latitude": "30.01975363990112",
      "longitude": "-89.99355832553287"
    }
  },
  {
    "service_request": "2026-1284625",
    "request_type": "Trash/Recycling",
    "request_reason": "Replace Trash Cart",
    "date_created": "2026-05-26T19:35:00.000",
    "date_modified": "2026-05-26T19:35:02.000",
    "request_status": "Pending",
    "responsible_agency": "Department of Sanitation",
    "final_address": "11234 Asphodel Dr",
    "address_councildis": "E",
    "status": "Assigned to Contractor",
    "contractor": "Waste Pro",
    "rowid": "1284625",
    "final_x": "3717604.67135",
    "final_y": "559605.950493",
    "longitude": "-89.95299781001057",
    "latitude": "30.03157560112806",
    "geocoded_column": {
      "latitude": "30.03157560112806",
      "longitude": "-89.95299781001057"
    }
  },
  {
    "service_request": "2026-1284624",
    "request_type": "Streetlights",
    "request_reason": "Streetlight Outage/Malfunction",
    "date_created": "2026-05-26T19:22:25.000",
    "date_modified": "2026-05-26T19:22:26.000",
    "request_status": "Pending",
    "responsible_agency": "Department of Public Works",
    "final_address": "3511 Rue Denise",
    "address_councildis": "C",
    "status": "Pending",
    "rowid": "1284624",
    "final_x": "3704221.91914",
    "final_y": "517747.13791",
    "longitude": "-89.99683049573632",
    "latitude": "29.91691569926426",
    "geocoded_column": {
      "latitude": "29.91691569926426",
      "longitude": "-89.99683049573632"
    }
  },
  {
    "service_request": "2026-1284623",
    "request_type": "Trash/Recycling",
    "request_reason": "Missed Trash Pick-Up",
    "date_created": "2026-05-26T19:17:35.000",
    "date_modified": "2026-05-26T19:17:37.000",
    "request_status": "Pending",
    "responsible_agency": "Department of Sanitation",
    "final_address": "3 Jay St",
    "address_councildis": "D",
    "status": "Assigned to Contractor",
    "contractor": "IV Waste",
    "rowid": "1284623",
    "final_x": "3675987.05518",
    "final_y": "555633.967513",
    "longitude": "-90.08464845712248",
    "latitude": "30.021966939278535",
    "geocoded_column": {
      "latitude": "30.021966939278535",
      "longitude": "-90.08464845712248"
    }
  },
  {
    "service_request": "2026-1284622",
    "request_type": "Trash/Recycling",
    "request_reason": "Replace Trash Cart",
    "date_created": "2026-05-26T19:15:07.000",
    "date_modified": "2026-05-26T19:15:08.000",
    "request_status": "Pending",
    "responsible_agency": "Department of Sanitation",
    "final_address": "4722 Nottingham Dr",
    "address_councildis": "E",
    "status": "Assigned to Contractor",
    "contractor": "Waste Pro",
    "rowid": "1284622",
    "final_x": "3716317.6885",
    "final_y": "556905.079642",
    "longitude": "-89.95716719549776",
    "latitude": "30.024191851530233",
    "geocoded_column": {
      "latitude": "30.024191851530233",
      "longitude": "-89.95716719549776"
    }
  },
  {
    "service_request": "2026-1284621",
    "request_type": "Trash/Recycling",
    "request_reason": "Replace Trash Cart",
    "date_created": "2026-05-26T19:14:01.000",
    "date_modified": "2026-05-26T19:14:03.000",
    "request_status": "Pending",
    "responsible_agency": "Department of Sanitation",
    "final_address": "610 River Oaks Dr",
    "address_councildis": "C",
    "status": "Assigned to Contractor",
    "contractor": "Richards Disposal",
    "rowid": "1284621",
    "final_x": "3701544.70705",
    "final_y": "520533.116216",
    "longitude": "-90.00517891330645",
    "latitude": "29.924661774819956",
    "geocoded_column": {
      "latitude": "29.924661774819956",
      "longitude": "-90.00517891330645"
    }
  },
  {
    "service_request": "2026-1284620",
    "request_type": "Alley Ways",
    "request_reason": "Alley Way Issues",
    "date_created": "2026-05-26T19:02:11.000",
    "date_modified": "2026-05-26T19:02:12.000",
    "request_status": "Pending",
    "responsible_agency": "Department of Public Works",
    "final_address": "6945 Memphis St",
    "address_councildis": "A",
    "status": "Pending",
    "rowid": "1284620",
    "final_x": "3669862.80558",
    "final_y": "553618.522071",
    "longitude": "-90.10406789523438",
    "latitude": "30.01660726805969",
    "geocoded_column": {
      "latitude": "30.01660726805969",
      "longitude": "-90.10406789523438"
    }
  },
  {
    "service_request": "2026-1284619",
    "request_type": "Trash/Recycling",
    "request_reason": "Repair Trash Cart",
    "date_created": "2026-05-26T18:50:54.000",
    "date_modified": "2026-05-26T18:50:56.000",
    "request_status": "Pending",
    "responsible_agency": "Department of Sanitation",
    "final_address": "4942 Read Blvd",
    "address_councildis": "E",
    "status": "Assigned to Contractor",
    "contractor": "Waste Pro",
    "rowid": "1284619",
    "final_x": "3712560.90674",
    "final_y": "557240.273755",
    "longitude": "-89.96902519512157",
    "latitude": "30.025237029198802",
    "geocoded_column": {
      "latitude": "30.025237029198802",
      "longitude": "-89.96902519512157"
    }
  },
  {
    "service_request": "2026-1284618",
    "request_type": "Trash/Recycling",
    "request_reason": "Repair Trash Cart",
    "date_created": "2026-05-26T18:50:28.000",
    "date_modified": "2026-05-26T18:50:30.000",
    "request_status": "Pending",
    "responsible_agency": "Department of Sanitation",
    "final_address": "325 Diana St",
    "address_councildis": "C",
    "status": "Assigned to Contractor",
    "contractor": "Richards Disposal",
    "rowid": "1284618",
    "final_x": "3686446.86114",
    "final_y": "527483.906943",
    "longitude": "-90.05259239908095",
    "latitude": "29.94424667787175",
    "geocoded_column": {
      "latitude": "29.94424667787175",
      "longitude": "-90.05259239908095"
    }
  },
  {
    "service_request": "2026-1284617",
    "request_type": "Trash/Recycling",
    "request_reason": "Replace Trash Cart",
    "date_created": "2026-05-26T18:40:41.000",
    "date_modified": "2026-05-26T18:40:43.000",
    "request_status": "Pending",
    "responsible_agency": "Department of Sanitation",
    "final_address": "90 Yellowstone Dr",
    "address_councildis": "C",
    "status": "Assigned to Contractor",
    "contractor": "Richards Disposal",
    "rowid": "1284617",
    "final_x": "3700612.61284",
    "final_y": "515746.925812",
    "longitude": "-90.00829591405584",
    "latitude": "29.911531061182938",
    "geocoded_column": {
      "latitude": "29.911531061182938",
      "longitude": "-90.00829591405584"
    }
  },
  {
    "service_request": "2026-1284616",
    "request_type": "Trash/Recycling",
    "request_reason": "Order Second Trash Cart",
    "date_created": "2026-05-26T18:40:09.000",
    "date_modified": "2026-05-26T18:40:10.000",
    "request_status": "Pending",
    "responsible_agency": "Department of Sanitation",
    "final_address": "11412 Campbell Ln",
    "address_councildis": "E",
    "status": "Assigned to Contractor",
    "contractor": "Waste Pro",
    "rowid": "1284616",
    "final_x": "3718003.88178",
    "final_y": "561318.794974",
    "longitude": "-89.95167103494012",
    "latitude": "30.036272002757624",
    "geocoded_column": {
      "latitude": "30.036272002757624",
      "longitude": "-89.95167103494012"
    }
  },
  {
    "service_request": "2026-1284615",
    "request_type": "Trash/Recycling",
    "request_reason": "Replace Recycling Cart",
    "date_created": "2026-05-26T18:38:03.000",
    "date_modified": "2026-05-26T18:38:06.000",
    "request_status": "Pending",
    "responsible_agency": "Department of Sanitation",
    "final_address": "11412 Campbell Ln",
    "address_councildis": "E",
    "status": "Pending",
    "rowid": "1284615",
    "final_x": "3718003.88178",
    "final_y": "561318.794974",
    "longitude": "-89.95167103494012",
    "latitude": "30.036272002757624",
    "geocoded_column": {
      "latitude": "30.036272002757624",
      "longitude": "-89.95167103494012"
    }
  },
  {
    "service_request": "2026-1284614",
    "request_type": "General Services",
    "request_reason": "General Service Request",
    "date_created": "2026-05-26T18:31:13.000",
    "date_modified": "2026-05-26T18:31:14.000",
    "request_status": "Pending",
    "responsible_agency": "Orleans Parish Communication District",
    "final_address": "Norman C Francis and Tulane Avenue, New Orleans, Louisiana 70119",
    "status": "Pending",
    "rowid": "1284614",
    "longitude": "0.0",
    "latitude": "0.0",
    "geocoded_column": {
      "latitude": "0.0",
      "longitude": "0.0"
    }
  },
  {
    "service_request": "2026-1284613",
    "request_type": "Trash/Recycling",
    "request_reason": "Repair Trash Cart",
    "date_created": "2026-05-26T18:25:32.000",
    "date_modified": "2026-05-26T18:25:35.000",
    "request_status": "Pending",
    "responsible_agency": "Department of Sanitation",
    "final_address": "6029 Cameron Blvd",
    "address_councildis": "D",
    "status": "Assigned to Contractor",
    "contractor": "IV Waste",
    "rowid": "1284613",
    "final_x": "3682493.75804",
    "final_y": "555103.987033",
    "longitude": "-90.06410750797266",
    "latitude": "30.020313113637943",
    "geocoded_column": {
      "latitude": "30.020313113637943",
      "longitude": "-90.06410750797266"
    }
  },
  {
    "service_request": "2026-1284612",
    "request_type": "Drainage",
    "request_reason": "Catch Basin Not Draining",
    "date_created": "2026-05-26T18:03:22.000",
    "date_modified": "2026-05-26T18:03:25.000",
    "request_status": "Pending",
    "responsible_agency": "Sewerage & Water Board",
    "final_address": "500 Lake Marina Ave",
    "address_councildis": "A",
    "status": "Pending",
    "rowid": "1284612",
    "final_x": "3665086.84116",
    "final_y": "555262.967193",
    "longitude": "-90.11910291645061",
    "latitude": "30.021268932165952",
    "geocoded_column": {
      "latitude": "30.021268932165952",
      "longitude": "-90.11910291645061"
    }
  },
  {
    "service_request": "2026-1284611",
    "request_type": "Street and Traffic Signs",
    "request_reason": "Traffic or Parking Sign Damaged or Missing",
    "date_created": "2026-05-26T17:59:54.000",
    "date_modified": "2026-05-26T17:59:55.000",
    "request_status": "Pending",
    "responsible_agency": "Department of Public Works",
    "final_address": "3517 Encampment St",
    "address_councildis": "D",
    "status": "Pending",
    "rowid": "1284611",
    "final_x": "3676714.38753",
    "final_y": "545546.674576",
    "longitude": "-90.08269815391198",
    "latitude": "29.994208665147827",
    "geocoded_column": {
      "latitude": "29.994208665147827",
      "longitude": "-90.08269815391198"
    }
  },
  {
    "service_request": "2026-1284610",
    "request_type": "Trash/Recycling",
    "request_reason": "Request a Large Item Pick Up",
    "date_created": "2026-05-26T17:56:46.000",
    "date_modified": "2026-05-26T17:56:48.000",
    "request_status": "Pending",
    "responsible_agency": "Department of Sanitation",
    "final_address": "13237 St Helena Pl",
    "address_councildis": "E",
    "status": "Assigned to Contractor",
    "contractor": "Waste Pro",
    "rowid": "1284610",
    "final_x": "3726934.04313",
    "final_y": "564221.260065",
    "longitude": "-89.92333752255193",
    "latitude": "30.04395347426982",
    "geocoded_column": {
      "latitude": "30.04395347426982",
      "longitude": "-89.92333752255193"
    }
  },
  {
    "service_request": "2026-1284609",
    "request_type": "Trash/Recycling",
    "request_reason": "Replace Trash Cart",
    "date_created": "2026-05-26T17:55:41.000",
    "date_modified": "2026-05-26T17:55:45.000",
    "request_status": "Pending",
    "responsible_agency": "Department of Sanitation",
    "final_address": "2212 General Collins Ave",
    "address_councildis": "C",
    "status": "Assigned to Contractor",
    "contractor": "Richards Disposal",
    "rowid": "1284609",
    "final_x": "3698506.23709",
    "final_y": "522873.139003",
    "longitude": "-90.0146852798653",
    "latitude": "29.93119252538457",
    "geocoded_column": {
      "latitude": "29.93119252538457",
      "longitude": "-90.0146852798653"
    }
  },
  {
    "service_request": "2026-1284608",
    "request_type": "Trash/Recycling",
    "request_reason": "Missed Trash Pick-Up",
    "date_created": "2026-05-26T17:52:39.000",
    "date_modified": "2026-05-26T17:52:41.000",
    "request_status": "Pending",
    "responsible_agency": "Department of Sanitation",
    "final_address": "25514 Chef Menteur Hwy, New Orleans, Louisiana, 70129",
    "address_councildis": "E",
    "status": "Assigned to Contractor",
    "contractor": "Waste Pro",
    "rowid": "1284608",
    "final_x": "3780531.0707",
    "final_y": "599748.723906",
    "longitude": "-89.7524039382491",
    "latitude": "30.13971413555277",
    "geocoded_column": {
      "latitude": "30.13971413555277",
      "longitude": "-89.7524039382491"
    }
  },
  {
    "service_request": "2026-1284607",
    "request_type": "Roads and Streets",
    "request_reason": "Curb Damage",
    "date_created": "2026-05-26T17:46:25.000",
    "date_modified": "2026-05-26T17:46:27.000",
    "request_status": "Pending",
    "responsible_agency": "Department of Public Works",
    "final_address": "5611 Painters St",
    "address_councildis": "D",
    "status": "Pending",
    "rowid": "1284607",
    "final_x": "3686223.08335",
    "final_y": "553710.706647",
    "longitude": "-90.05237322795638",
    "latitude": "30.016367994379024",
    "geocoded_column": {
      "latitude": "30.016367994379024",
      "longitude": "-90.05237322795638"
    }
  },
  {
    "service_request": "2026-1284606",
    "request_type": "Trash/Recycling",
    "request_reason": "Request a Large Item Pick Up",
    "date_created": "2026-05-26T17:43:05.000",
    "date_modified": "2026-05-26T17:43:06.000",
    "request_status": "Pending",
    "responsible_agency": "Department of Sanitation",
    "final_address": "1719 Port St",
    "address_councildis": "D",
    "status": "Assigned to Contractor",
    "contractor": "IV Waste",
    "rowid": "1284606",
    "final_x": "3688060.1254",
    "final_y": "538798.561097",
    "longitude": "-90.04709787363743",
    "latitude": "29.97530837824697",
    "geocoded_column": {
      "latitude": "29.97530837824697",
      "longitude": "-90.04709787363743"
    }
  },
  {
    "service_request": "2026-1284605",
    "request_type": "Trash/Recycling",
    "request_reason": "Request a Large Item Pick Up",
    "date_created": "2026-05-26T17:39:05.000",
    "date_modified": "2026-05-26T17:39:07.000",
    "request_status": "Pending",
    "responsible_agency": "Department of Sanitation",
    "final_address": "322 Olivier St",
    "address_councildis": "C",
    "status": "Assigned to Contractor",
    "contractor": "Richards Disposal",
    "rowid": "1284605",
    "final_x": "3687328.99561",
    "final_y": "530575.769602",
    "longitude": "-90.04969789885139",
    "latitude": "29.95272110399198",
    "geocoded_column": {
      "latitude": "29.95272110399198",
      "longitude": "-90.04969789885139"
    }
  },
  {
    "service_request": "2026-1284604",
    "request_type": "Trash/Recycling",
    "request_reason": "Request a Large Item Pick Up",
    "date_created": "2026-05-26T17:35:38.000",
    "date_modified": "2026-05-26T17:35:39.000",
    "request_status": "Pending",
    "responsible_agency": "Department of Sanitation",
    "final_address": "4926 Brittany Ct",
    "address_councildis": "E",
    "status": "Assigned to Contractor",
    "contractor": "Waste Pro",
    "rowid": "1284604",
    "final_x": "3727090.10822",
    "final_y": "561996.061471",
    "longitude": "-89.92293085876243",
    "latitude": "30.037829820813396",
    "geocoded_column": {
      "latitude": "30.037829820813396",
      "longitude": "-89.92293085876243"
    }
  },
  {
    "service_request": "2026-1284603",
    "request_type": "Trash/Recycling",
    "request_reason": "Replace Trash Cart",
    "date_created": "2026-05-26T17:34:37.000",
    "date_modified": "2026-05-26T17:34:39.000",
    "request_status": "Pending",
    "responsible_agency": "Department of Sanitation",
    "final_address": "309 S Norman C Francis Prkwy",
    "address_councildis": "B",
    "status": "Assigned to Contractor",
    "contractor": "IV Waste",
    "rowid": "1284603",
    "final_x": "3672542.41307",
    "final_y": "536101.078151",
    "longitude": "-90.09619903262572",
    "latitude": "29.968361050589053",
    "geocoded_column": {
      "latitude": "29.968361050589053",
      "longitude": "-90.09619903262572"
    }
  },
  {
    "service_request": "2026-1284602",
    "request_type": "Tree Service",
    "request_reason": "Tree Trim",
    "date_created": "2026-05-26T17:27:56.000",
    "date_modified": "2026-05-26T17:27:58.000",
    "request_status": "Pending",
    "responsible_agency": "Department of Parks & Parkways",
    "final_address": "4340 Cleveland Ave",
    "address_councildis": "A",
    "status": "Pending",
    "rowid": "1284602",
    "final_x": "3669767.205",
    "final_y": "538773.457033",
    "longitude": "-90.10487281458624",
    "latitude": "29.975791291672312",
    "geocoded_column": {
      "latitude": "29.975791291672312",
      "longitude": "-90.10487281458624"
    }
  },
  {
    "service_request": "2026-1284601",
    "request_type": "Property Maintenance",
    "request_reason": "Property Maintenance",
    "date_created": "2026-05-26T17:18:14.000",
    "date_modified": "2026-05-26T17:18:16.000",
    "request_status": "Pending",
    "responsible_agency": "Department of Code Enforcement",
    "final_address": "7901 Willow St",
    "address_councildis": "A",
    "status": "Pending",
    "rowid": "1284601",
    "final_x": "3663005.17043",
    "final_y": "528428.136512",
    "longitude": "-90.1265734375055",
    "latitude": "29.94754264371737",
    "geocoded_column": {
      "latitude": "29.94754264371737",
      "longitude": "-90.1265734375055"
    }
  },
  {
    "service_request": "2026-1284600",
    "request_type": "General Services",
    "request_reason": "General Service Request",
    "date_created": "2026-05-26T17:09:27.000",
    "date_modified": "2026-05-26T17:09:29.000",
    "request_status": "Pending",
    "responsible_agency": "Orleans Parish Communication District",
    "final_address": "4442 Camelot Dr",
    "address_councildis": "E",
    "status": "Pending",
    "rowid": "1284600",
    "final_x": "3708451.39313",
    "final_y": "554041.531416",
    "longitude": "-89.98212970526002",
    "latitude": "30.01657563309199",
    "geocoded_column": {
      "latitude": "30.01657563309199",
      "longitude": "-89.98212970526002"
    }
  },
  {
    "service_request": "2026-1284599",
    "request_type": "Street and Traffic Signs",
    "request_reason": "Additional Signage Request",
    "date_created": "2026-05-26T17:09:14.000",
    "date_modified": "2026-05-26T17:09:16.000",
    "request_status": "Pending",
    "responsible_agency": "Department of Public Works",
    "final_address": "4100 BLK General De Gaulle Dr",
    "address_councildis": "C",
    "status": "Pending",
    "rowid": "1284599",
    "final_x": "3699568.35378",
    "final_y": "518338.844672",
    "longitude": "-90.01149746284182",
    "latitude": "29.918691120376476",
    "geocoded_column": {
      "latitude": "29.918691120376476",
      "longitude": "-90.01149746284182"
    }
  },
  {
    "service_request": "2026-1284597",
    "request_type": "Trash/Recycling",
    "request_reason": "Order Recycling Cart",
    "date_created": "2026-05-26T16:57:52.000",
    "date_modified": "2026-05-26T16:57:54.000",
    "request_status": "Pending",
    "responsible_agency": "Department of Sanitation",
    "final_address": "1723 N Tonti St",
    "address_councildis": "D",
    "status": "Pending",
    "rowid": "1284597",
    "final_x": "3680751.71586",
    "final_y": "540065.361611",
    "longitude": "-90.0701356643095",
    "latitude": "29.979015194274236",
    "geocoded_column": {
      "latitude": "29.979015194274236",
      "longitude": "-90.0701356643095"
    }
  },
  {
    "service_request": "2026-1284596",
    "request_type": "Property Maintenance",
    "request_reason": "Property Maintenance",
    "date_created": "2026-05-26T16:55:29.000",
    "date_modified": "2026-05-26T16:55:31.000",
    "request_status": "Pending",
    "responsible_agency": "Department of Code Enforcement",
    "final_address": "0 BLK Agriculture Pl",
    "address_councildis": "D",
    "status": "Pending",
    "rowid": "1284596",
    "final_x": "3689891.40135",
    "final_y": "543419.290574",
    "longitude": "-90.04114966127275",
    "latitude": "29.987957086684915",
    "geocoded_column": {
      "latitude": "29.987957086684915",
      "longitude": "-90.04114966127275"
    }
  },
  {
    "service_request": "2026-1284595",
    "request_type": "Abandoned Vehicles",
    "request_reason": "Abandoned/Junk Vehicles",
    "date_created": "2026-05-26T16:48:20.000",
    "date_modified": "2026-05-26T16:48:22.000",
    "request_status": "Pending",
    "responsible_agency": "Department of Public Works",
    "final_address": "4100 BLK Anson St",
    "address_councildis": "C",
    "status": "Pending",
    "rowid": "1284595",
    "final_x": "3700903.7143",
    "final_y": "521626.563162",
    "longitude": "-90.00716235026886",
    "latitude": "29.927688790807913",
    "geocoded_column": {
      "latitude": "29.927688790807913",
      "longitude": "-90.00716235026886"
    }
  },
  {
    "service_request": "2026-1284594",
    "request_type": "Trash/Recycling",
    "request_reason": "Request a Large Item Pick Up",
    "date_created": "2026-05-26T16:46:12.000",
    "date_modified": "2026-05-26T16:46:13.000",
    "request_status": "Pending",
    "responsible_agency": "Department of Sanitation",
    "final_address": "322 Calhoun St",
    "address_councildis": "A",
    "status": "Assigned to Contractor",
    "contractor": "IV Waste",
    "rowid": "1284594",
    "final_x": "3662787.58323",
    "final_y": "518287.652278",
    "longitude": "-90.1275973593474",
    "latitude": "29.9196658119982",
    "geocoded_column": {
      "latitude": "29.9196658119982",
      "longitude": "-90.1275973593474"
    }
  },
  {
    "service_request": "2026-1284593",
    "request_type": "Trash/Recycling",
    "request_reason": "Order Trash Cart",
    "date_created": "2026-05-26T16:45:03.000",
    "date_modified": "2026-05-26T16:46:18.000",
    "request_status": "Pending",
    "responsible_agency": "Department of Sanitation",
    "final_address": "3615 Washington Ave",
    "address_councildis": "B",
    "status": "Assigned to Contractor",
    "contractor": "IV Waste",
    "rowid": "1284593",
    "final_x": "3671989.98471",
    "final_y": "528547.243904",
    "longitude": "-90.09820077481857",
    "latitude": "29.94760690431263",
    "geocoded_column": {
      "latitude": "29.94760690431263",
      "longitude": "-90.09820077481857"
    }
  },
  {
    "service_request": "2026-1284592",
    "request_type": "Trash/Recycling",
    "request_reason": "Request a Large Item Pick Up",
    "date_created": "2026-05-26T16:44:19.000",
    "date_modified": "2026-05-26T16:44:20.000",
    "request_status": "Pending",
    "responsible_agency": "Department of Sanitation",
    "final_address": "7438 Strathmore Dr",
    "address_councildis": "E",
    "status": "Assigned to Contractor",
    "contractor": "Waste Pro",
    "rowid": "1284592",
    "final_x": "3714579.00427",
    "final_y": "566719.191779",
    "longitude": "-89.96228999951636",
    "latitude": "30.051234013687996",
    "geocoded_column": {
      "latitude": "30.051234013687996",
      "longitude": "-89.96228999951636"
    }
  },
  {
    "service_request": "2026-1284591",
    "request_type": "Trash/Recycling",
    "request_reason": "Request a Large Item Pick Up",
    "date_created": "2026-05-26T16:43:58.000",
    "date_modified": "2026-05-26T16:44:01.000",
    "request_status": "Pending",
    "responsible_agency": "Department of Sanitation",
    "final_address": "3615 Washington Ave",
    "address_councildis": "B",
    "status": "Assigned to Contractor",
    "contractor": "IV Waste",
    "rowid": "1284591",
    "final_x": "3671989.98471",
    "final_y": "528547.243904",
    "longitude": "-90.09820077481857",
    "latitude": "29.94760690431263",
    "geocoded_column": {
      "latitude": "29.94760690431263",
      "longitude": "-90.09820077481857"
    }
  },
  {
    "service_request": "2026-1284590",
    "request_type": "Roads and Streets",
    "request_reason": "Street Subsidence (Sinking)",
    "date_created": "2026-05-26T16:40:32.000",
    "date_modified": "2026-05-26T16:40:33.000",
    "request_status": "Pending",
    "responsible_agency": "Sewerage & Water Board",
    "final_address": "5527 Mandeville St",
    "address_councildis": "D",
    "status": "Pending",
    "rowid": "1284590",
    "final_x": "3684461.82524",
    "final_y": "553324.792407",
    "longitude": "-90.05795160401684",
    "latitude": "30.015360892900603",
    "geocoded_column": {
      "latitude": "30.015360892900603",
      "longitude": "-90.05795160401684"
    }
  },
  {
    "service_request": "2026-1284589",
    "request_type": "Trash/Recycling",
    "request_reason": "Request a Large Item Pick Up",
    "date_created": "2026-05-26T16:39:50.000",
    "date_modified": "2026-05-26T16:39:52.000",
    "request_status": "Pending",
    "responsible_agency": "Department of Sanitation",
    "final_address": "1622 N Dupre St",
    "address_councildis": "D",
    "status": "Assigned to Contractor",
    "contractor": "IV Waste",
    "rowid": "1284589",
    "final_x": "3678664.13538",
    "final_y": "540753.152587",
    "longitude": "-90.07670522329079",
    "latitude": "29.980969496354255",
    "geocoded_column": {
      "latitude": "29.980969496354255",
      "longitude": "-90.07670522329079"
    }
  },
  {
    "service_request": "2026-1284588",
    "request_type": "Trash/Recycling",
    "request_reason": "Request a Large Item Pick Up",
    "date_created": "2026-05-26T16:38:40.000",
    "date_modified": "2026-05-26T16:38:42.000",
    "request_status": "Pending",
    "responsible_agency": "Department of Sanitation",
    "final_address": "5705 Warrington Dr",
    "address_councildis": "D",
    "status": "Assigned to Contractor",
    "contractor": "IV Waste",
    "rowid": "1284588",
    "final_x": "3680888.26293",
    "final_y": "553733.160535",
    "longitude": "-90.06922816009819",
    "latitude": "30.01659264142165",
    "geocoded_column": {
      "latitude": "30.01659264142165",
      "longitude": "-90.06922816009819"
    }
  },
  {
    "service_request": "2026-1284587",
    "request_type": "Trash/Recycling",
    "request_reason": "Return Trash Cart",
    "date_created": "2026-05-26T16:37:16.000",
    "date_modified": "2026-05-26T16:37:17.000",
    "request_status": "Pending",
    "responsible_agency": "Department of Sanitation",
    "final_address": "3920 S Pin Oak Ave",
    "address_councildis": "C",
    "status": "Assigned to Contractor",
    "contractor": "Richards Disposal",
    "rowid": "1284587",
    "final_x": "3704935.83217",
    "final_y": "513637.39877",
    "longitude": "-89.99472864771663",
    "latitude": "29.905592410816674",
    "geocoded_column": {
      "latitude": "29.905592410816674",
      "longitude": "-89.99472864771663"
    }
  },
  {
    "service_request": "2026-1284586",
    "request_type": "Safety & Permits",
    "request_reason": "Zoning Enforcement",
    "date_created": "2026-05-26T16:37:08.000",
    "date_modified": "2026-05-26T16:37:09.000",
    "request_status": "Pending",
    "responsible_agency": "Safety and Permits",
    "final_address": "4710 Read Blvd",
    "address_councildis": "E",
    "status": "Pending",
    "rowid": "1284586",
    "final_x": "3712689.1836",
    "final_y": "555957.967833",
    "longitude": "-89.96866812078373",
    "latitude": "30.02170699318979",
    "geocoded_column": {
      "latitude": "30.02170699318979",
      "longitude": "-89.96866812078373"
    }
  },
  {
    "service_request": "2026-1284585",
    "request_type": "Trash/Recycling",
    "request_reason": "Request a Large Item Pick Up",
    "date_created": "2026-05-26T16:37:00.000",
    "date_modified": "2026-05-26T16:37:02.000",
    "request_status": "Pending",
    "responsible_agency": "Department of Sanitation",
    "final_address": "720 Adele St",
    "address_councildis": "B",
    "status": "Assigned to Contractor",
    "contractor": "IV Waste",
    "rowid": "1284585",
    "final_x": "3680115.8957",
    "final_y": "521378.215801",
    "longitude": "-90.07279312088582",
    "latitude": "29.927651102628822",
    "geocoded_column": {
      "latitude": "29.927651102628822",
      "longitude": "-90.07279312088582"
    }
  },
  {
    "service_request": "2026-1284584",
    "request_type": "Roads and Streets",
    "request_reason": "Debris in Driving Lanes",
    "date_created": "2026-05-26T16:36:44.000",
    "date_modified": "2026-05-26T16:36:46.000",
    "request_status": "Pending",
    "responsible_agency": "Department of Public Works",
    "final_address": "1204 St Mary St",
    "address_councildis": "B",
    "status": "Pending",
    "rowid": "1284584",
    "final_x": "3679400.74338",
    "final_y": "523156.879803",
    "longitude": "-90.07498902332853",
    "latitude": "29.932563458851476",
    "geocoded_column": {
      "latitude": "29.932563458851476",
      "longitude": "-90.07498902332853"
    }
  },
  {
    "service_request": "2026-1284583",
    "request_type": "Trash/Recycling",
    "request_reason": "Request a Large Item Pick Up",
    "date_created": "2026-05-26T16:34:40.000",
    "date_modified": "2026-05-26T16:34:42.000",
    "request_status": "Pending",
    "responsible_agency": "Department of Sanitation",
    "final_address": "4504 Pitt St",
    "address_councildis": "B",
    "status": "Assigned to Contractor",
    "contractor": "IV Waste",
    "rowid": "1284583",
    "final_x": "3670445.20065",
    "final_y": "520475.070072",
    "longitude": "-90.10335185976484",
    "latitude": "29.92545672864306",
    "geocoded_column": {
      "latitude": "29.92545672864306",
      "longitude": "-90.10335185976484"
    }
  },
  {
    "service_request": "2026-1284582",
    "request_type": "Trash/Recycling",
    "request_reason": "Replace Trash Cart",
    "date_created": "2026-05-26T16:32:13.000",
    "date_modified": "2026-05-26T16:32:14.000",
    "request_status": "Pending",
    "responsible_agency": "Department of Sanitation",
    "final_address": "4851 Lynhuber Dr",
    "address_councildis": "D",
    "status": "Assigned to Contractor",
    "contractor": "Waste Pro",
    "rowid": "1284582",
    "final_x": "3698033.7368",
    "final_y": "554963.956952",
    "longitude": "-90.0150113349199",
    "latitude": "30.01944562517929",
    "geocoded_column": {
      "latitude": "30.01944562517929",
      "longitude": "-90.0150113349199"
    }
  },
  {
    "service_request": "2026-1284581",
    "request_type": "Trash/Recycling",
    "request_reason": "Order Trash Cart",
    "date_created": "2026-05-26T16:30:25.000",
    "date_modified": "2026-05-26T16:30:27.000",
    "request_status": "Pending",
    "responsible_agency": "Department of Sanitation",
    "final_address": "3615 Washington Ave",
    "address_councildis": "B",
    "status": "Assigned to Contractor",
    "contractor": "IV Waste",
    "rowid": "1284581",
    "final_x": "3671989.98471",
    "final_y": "528547.243904",
    "longitude": "-90.09820077481857",
    "latitude": "29.94760690431263",
    "geocoded_column": {
      "latitude": "29.94760690431263",
      "longitude": "-90.09820077481857"
    }
  },
  {
    "service_request": "2026-1284580",
    "request_type": "Trash/Recycling",
    "request_reason": "Repair Recycling Cart",
    "date_created": "2026-05-26T16:24:23.000",
    "date_modified": "2026-05-26T16:24:25.000",
    "request_status": "Pending",
    "responsible_agency": "Department of Sanitation",
    "final_address": "536 Bouny St",
    "address_councildis": "C",
    "status": "Pending",
    "rowid": "1284580",
    "final_x": "3686333.33494",
    "final_y": "529517.623361",
    "longitude": "-90.05287907916464",
    "latitude": "29.949842195283495",
    "geocoded_column": {
      "latitude": "29.949842195283495",
      "longitude": "-90.05287907916464"
    }
  },
  {
    "service_request": "2026-1284579",
    "request_type": "Trash/Recycling",
    "request_reason": "Request a Large Item Pick Up",
    "date_created": "2026-05-26T16:19:33.000",
    "date_modified": "2026-05-26T16:19:34.000",
    "request_status": "Pending",
    "responsible_agency": "Department of Sanitation",
    "final_address": "2103 Selma St",
    "address_councildis": "D",
    "status": "Assigned to Contractor",
    "contractor": "IV Waste",
    "rowid": "1284579",
    "final_x": "3683064.49135",
    "final_y": "551472.909589",
    "longitude": "-90.06243142151034",
    "latitude": "30.0103115800896",
    "geocoded_column": {
      "latitude": "30.0103115800896",
      "longitude": "-90.06243142151034"
    }
  },
  {
    "service_request": "2026-1284578",
    "request_type": "Trash/Recycling",
    "request_reason": "Request a Large Item Pick Up",
    "date_created": "2026-05-26T16:19:29.000",
    "date_modified": "2026-05-26T16:19:30.000",
    "request_status": "Pending",
    "responsible_agency": "Department of Sanitation",
    "final_address": "2701 Jefferson Ave",
    "address_councildis": "B",
    "status": "Assigned to Contractor",
    "contractor": "IV Waste",
    "rowid": "1284578",
    "final_x": "3668313.03591",
    "final_y": "525318.888317",
    "longitude": "-90.10991920791338",
    "latitude": "29.938838441632694",
    "geocoded_column": {
      "latitude": "29.938838441632694",
      "longitude": "-90.10991920791338"
    }
  },
  {
    "service_request": "2026-1284577",
    "request_type": "Trash/Recycling",
    "request_reason": "Missed Trash Pick-Up",
    "date_created": "2026-05-26T16:18:12.000",
    "date_modified": "2026-05-26T16:18:14.000",
    "request_status": "Pending",
    "responsible_agency": "Department of Sanitation",
    "final_address": "14033 Wales St",
    "address_councildis": "E",
    "status": "Assigned to Contractor",
    "contractor": "Waste Pro",
    "rowid": "1284577",
    "final_x": "3718270.22565",
    "final_y": "572730.896233",
    "longitude": "-89.95039407778988",
    "latitude": "30.06764174334874",
    "geocoded_column": {
      "latitude": "30.06764174334874",
      "longitude": "-89.95039407778988"
    }
  },
  {
    "service_request": "2026-1284576",
    "request_type": "Trash/Recycling",
    "request_reason": "Order Second Trash Cart",
    "date_created": "2026-05-26T16:18:10.000",
    "date_modified": "2026-05-26T16:18:12.000",
    "request_status": "Pending",
    "responsible_agency": "Department of Sanitation",
    "final_address": "7100 Camberley Dr",
    "address_councildis": "E",
    "status": "Assigned to Contractor",
    "contractor": "Waste Pro",
    "rowid": "1284576",
    "final_x": "3713366.24062",
    "final_y": "564642.746401",
    "longitude": "-89.9662014105148",
    "latitude": "30.04556447654236",
    "geocoded_column": {
      "latitude": "30.04556447654236",
      "longitude": "-89.9662014105148"
    }
  },
  {
    "service_request": "2026-1284575",
    "request_type": "Trash/Recycling",
    "request_reason": "Return Recycling Cart",
    "date_created": "2026-05-26T16:17:27.000",
    "date_modified": "2026-05-26T16:17:28.000",
    "request_status": "Pending",
    "responsible_agency": "Department of Sanitation",
    "final_address": "7100 Camberley Dr",
    "address_councildis": "E",
    "status": "Pending",
    "rowid": "1284575",
    "final_x": "3713366.24062",
    "final_y": "564642.746401",
    "longitude": "-89.9662014105148",
    "latitude": "30.04556447654236",
    "geocoded_column": {
      "latitude": "30.04556447654236",
      "longitude": "-89.9662014105148"
    }
  },
  {
    "service_request": "2026-1284574",
    "request_type": "Trash/Recycling",
    "request_reason": "Request a Large Item Pick Up",
    "date_created": "2026-05-26T16:17:08.000",
    "date_modified": "2026-05-26T16:17:10.000",
    "request_status": "Pending",
    "responsible_agency": "Department of Sanitation",
    "final_address": "3920 S Pin Oak Ave",
    "address_councildis": "C",
    "status": "Assigned to Contractor",
    "contractor": "Richards Disposal",
    "rowid": "1284574",
    "final_x": "3704935.83217",
    "final_y": "513637.39877",
    "longitude": "-89.99472864771663",
    "latitude": "29.905592410816674",
    "geocoded_column": {
      "latitude": "29.905592410816674",
      "longitude": "-89.99472864771663"
    }
  },
  {
    "service_request": "2026-1284573",
    "request_type": "Trash/Recycling",
    "request_reason": "Request a Large Item Pick Up",
    "date_created": "2026-05-26T16:16:13.000",
    "date_modified": "2026-05-26T16:16:16.000",
    "request_status": "Pending",
    "responsible_agency": "Department of Sanitation",
    "final_address": "6737 Deanne St",
    "address_councildis": "D",
    "status": "Assigned to Contractor",
    "contractor": "Waste Pro",
    "rowid": "1284573",
    "final_x": "3695989.65008",
    "final_y": "555561.341145",
    "longitude": "-90.02144831939718",
    "latitude": "30.021152712746023",
    "geocoded_column": {
      "latitude": "30.021152712746023",
      "longitude": "-90.02144831939718"
    }
  },
  {
    "service_request": "2026-1284572",
    "request_type": "Trash/Recycling",
    "request_reason": "Request a Large Item Pick Up",
    "date_created": "2026-05-26T16:14:21.000",
    "date_modified": "2026-05-26T16:14:23.000",
    "request_status": "Pending",
    "responsible_agency": "Department of Sanitation",
    "final_address": "1918 Broadway St",
    "address_councildis": "A",
    "status": "Assigned to Contractor",
    "contractor": "IV Waste",
    "rowid": "1284572",
    "final_x": "3665605.70746",
    "final_y": "528743.9568",
    "longitude": "-90.11835192577895",
    "latitude": "29.94833548338537",
    "geocoded_column": {
      "latitude": "29.94833548338537",
      "longitude": "-90.11835192577895"
    }
  },
  {
    "service_request": "2026-1284571",
    "request_type": "Mosquito, Termite & Rodent Control",
    "request_reason": "Rodent Complaint (Mice & Rats)",
    "date_created": "2026-05-26T16:14:18.000",
    "date_modified": "2026-05-26T16:14:20.000",
    "request_status": "Pending",
    "responsible_agency": "Mosquito, Termite & Rodent Control Board",
    "final_address": "2838 General Taylor St",
    "address_councildis": "B",
    "status": "Pending",
    "rowid": "1284571",
    "final_x": "3671544.89307",
    "final_y": "525509.372413",
    "longitude": "-90.09970937191953",
    "latitude": "29.939266933725076",
    "geocoded_column": {
      "latitude": "29.939266933725076",
      "longitude": "-90.09970937191953"
    }
  },
  {
    "service_request": "2026-1284570",
    "request_type": "Abandoned Vehicles",
    "request_reason": "Abandoned/Junk Vehicles",
    "date_created": "2026-05-26T16:11:20.000",
    "date_modified": "2026-05-26T16:11:21.000",
    "request_status": "Pending",
    "responsible_agency": "Department of Public Works",
    "final_address": "6043 Chatham Dr",
    "address_councildis": "D",
    "status": "Pending",
    "rowid": "1284570",
    "final_x": "3679660.01327",
    "final_y": "554797.135576",
    "longitude": "-90.07307193156855",
    "latitude": "30.01955538731744",
    "geocoded_column": {
      "latitude": "30.01955538731744",
      "longitude": "-90.07307193156855"
    }
  },
  {
    "service_request": "2026-1284569",
    "request_type": "Trash/Recycling",
    "request_reason": "Request a Large Item Pick Up",
    "date_created": "2026-05-26T16:10:48.000",
    "date_modified": "2026-05-26T16:10:49.000",
    "request_status": "Pending",
    "responsible_agency": "Department of Sanitation",
    "final_address": "7100 Camberley Dr",
    "address_councildis": "E",
    "status": "Assigned to Contractor",
    "contractor": "Waste Pro",
    "rowid": "1284569",
    "final_x": "3713366.24062",
    "final_y": "564642.746401",
    "longitude": "-89.9662014105148",
    "latitude": "30.04556447654236",
    "geocoded_column": {
      "latitude": "30.04556447654236",
      "longitude": "-89.9662014105148"
    }
  },
  {
    "service_request": "2026-1284568",
    "request_type": "Trash/Recycling",
    "request_reason": "Missed Trash Pick-Up",
    "date_created": "2026-05-26T16:10:34.000",
    "date_modified": "2026-05-26T16:32:05.000",
    "case_close_date": "2026-05-26T11:32:04.000",
    "request_status": "Closed",
    "responsible_agency": "Department of Sanitation",
    "final_address": "0 BLK Morrison Ct",
    "address_councildis": "E",
    "status": "Invalid Request",
    "contractor": "Waste Pro",
    "contractor_action": "Invalid",
    "rowid": "1284568",
    "final_x": "3704099.45495",
    "final_y": "561402.366156",
    "longitude": "-89.99560835045413",
    "latitude": "30.036955462934223",
    "geocoded_column": {
      "latitude": "30.036955462934223",
      "longitude": "-89.99560835045413"
    }
  },
  {
    "service_request": "2026-1284567",
    "request_type": "Trash/Recycling",
    "request_reason": "Request a Large Item Pick Up",
    "date_created": "2026-05-26T16:09:27.000",
    "date_modified": "2026-05-26T16:09:29.000",
    "request_status": "Pending",
    "responsible_agency": "Department of Sanitation",
    "final_address": "5152 Lakeview Ct",
    "address_councildis": "E",
    "status": "Assigned to Contractor",
    "contractor": "Waste Pro",
    "rowid": "1284567",
    "final_x": "3698819.3729",
    "final_y": "556413.495578",
    "longitude": "-90.01247620735788",
    "latitude": "30.02340642690518",
    "geocoded_column": {
      "latitude": "30.02340642690518",
      "longitude": "-90.01247620735788"
    }
  },
  {
    "service_request": "2026-1284566",
    "request_type": "Trash/Recycling",
    "request_reason": "Request a Large Item Pick Up",
    "date_created": "2026-05-26T16:07:47.000",
    "date_modified": "2026-05-26T16:07:49.000",
    "request_status": "Pending",
    "responsible_agency": "Department of Sanitation",
    "final_address": "2836 Palmer Ave",
    "address_councildis": "A",
    "status": "Assigned to Contractor",
    "contractor": "IV Waste",
    "rowid": "1284566",
    "final_x": "3666904.73057",
    "final_y": "527084.271679",
    "longitude": "-90.11430610806839",
    "latitude": "29.943733948139837",
    "geocoded_column": {
      "latitude": "29.943733948139837",
      "longitude": "-90.11430610806839"
    }
  },
  {
    "service_request": "2026-1284565",
    "request_type": "Property Maintenance",
    "request_reason": "Property Maintenance",
    "date_created": "2026-05-26T16:05:20.000",
    "date_modified": "2026-05-26T16:05:22.000",
    "request_status": "Pending",
    "responsible_agency": "Department of Code Enforcement",
    "final_address": "529 Atlantic Ave",
    "address_councildis": "C",
    "status": "Pending",
    "rowid": "1284565",
    "final_x": "3688748.95753",
    "final_y": "529638.476097",
    "longitude": "-90.04524757768067",
    "latitude": "29.950100053087333",
    "geocoded_column": {
      "latitude": "29.950100053087333",
      "longitude": "-90.04524757768067"
    }
  },
  {
    "service_request": "2026-1284564",
    "request_type": "Traffic Signals",
    "request_reason": "Traffic Signal Malfunctioning or Damaged",
    "date_created": "2026-05-26T16:03:04.000",
    "date_modified": "2026-05-26T16:03:05.000",
    "request_status": "Pending",
    "responsible_agency": "Department of Public Works",
    "final_address": "Saint Claude Avenue & Tupelo Street",
    "address_councildis": "E",
    "status": "Pending",
    "rowid": "1284564",
    "final_x": "3699438.93367",
    "final_y": "533324.17658",
    "longitude": "-90.01136025611977",
    "latitude": "29.95989966703182",
    "geocoded_column": {
      "latitude": "29.95989966703182",
      "longitude": "-90.01136025611977"
    }
  },
  {
    "service_request": "2026-1284563",
    "request_type": "Streetlights",
    "request_reason": "Streetlight Knocked Down/Leaning",
    "date_created": "2026-05-26T16:02:59.000",
    "date_modified": "2026-05-26T16:03:01.000",
    "request_status": "Pending",
    "responsible_agency": "Department of Public Works",
    "final_address": "13504 Trappers Ct",
    "address_councildis": "E",
    "status": "Pending",
    "rowid": "1284563",
    "final_x": "3724442.47417",
    "final_y": "568918.233893",
    "longitude": "-89.93103019645295",
    "latitude": "30.056952259234286",
    "geocoded_column": {
      "latitude": "30.056952259234286",
      "longitude": "-89.93103019645295"
    }
  },
  {
    "service_request": "2026-1284562",
    "request_type": "Trash/Recycling",
    "request_reason": "Return Trash Cart",
    "date_created": "2026-05-26T16:02:28.000",
    "date_modified": "2026-05-26T16:02:31.000",
    "request_status": "Pending",
    "responsible_agency": "Department of Sanitation",
    "final_address": "860 Taft Pl",
    "address_councildis": "A",
    "status": "Assigned to Contractor",
    "contractor": "IV Waste",
    "rowid": "1284562",
    "final_x": "3673862.46452",
    "final_y": "539858.93569",
    "longitude": "-90.09190166604417",
    "latitude": "29.978654627086406",
    "geocoded_column": {
      "latitude": "29.978654627086406",
      "longitude": "-90.09190166604417"
    }
  },
  {
    "service_request": "2026-1284561",
    "request_type": "Trash/Recycling",
    "request_reason": "Return Recycling Cart",
    "date_created": "2026-05-26T16:01:10.000",
    "date_modified": "2026-05-26T16:01:12.000",
    "request_status": "Pending",
    "responsible_agency": "Department of Sanitation",
    "final_address": "860 Taft Pl",
    "address_councildis": "A",
    "status": "Pending",
    "rowid": "1284561",
    "final_x": "3673862.46452",
    "final_y": "539858.93569",
    "longitude": "-90.09190166604417",
    "latitude": "29.978654627086406",
    "geocoded_column": {
      "latitude": "29.978654627086406",
      "longitude": "-90.09190166604417"
    }
  },
  {
    "service_request": "2026-1284560",
    "request_type": "Abandoned Vehicles",
    "request_reason": "Abandoned/Junk Vehicles",
    "date_created": "2026-05-26T16:00:32.000",
    "date_modified": "2026-05-26T16:00:33.000",
    "request_status": "Pending",
    "responsible_agency": "Department of Public Works",
    "final_address": "3915 Banks St",
    "address_councildis": "A",
    "status": "Pending",
    "rowid": "1284560",
    "final_x": "3670973.67163",
    "final_y": "537003.868616",
    "longitude": "-90.10112254445107",
    "latitude": "29.970889899677175",
    "geocoded_column": {
      "latitude": "29.970889899677175",
      "longitude": "-90.10112254445107"
    }
  },
  {
    "service_request": "2026-1284559",
    "request_type": "Trash/Recycling",
    "request_reason": "Damaged Caused By Contractor",
    "date_created": "2026-05-26T15:59:58.000",
    "date_modified": "2026-05-26T16:00:01.000",
    "request_status": "Pending",
    "responsible_agency": "Department of Sanitation",
    "final_address": "1662 Nie Prkwy",
    "address_councildis": "C",
    "status": "Assigned to Contractor",
    "contractor": "Richards Disposal",
    "rowid": "1284559",
    "final_x": "3701267.53405",
    "final_y": "524632.22918",
    "longitude": "-90.00590394846715",
    "latitude": "29.93594174560895",
    "geocoded_column": {
      "latitude": "29.93594174560895",
      "longitude": "-90.00590394846715"
    }
  },
  {
    "service_request": "2026-1284558",
    "request_type": "Trash/Recycling",
    "request_reason": "Order Recycling Cart",
    "date_created": "2026-05-26T15:58:36.000",
    "date_modified": "2026-05-26T15:58:37.000",
    "request_status": "Pending",
    "responsible_agency": "Department of Sanitation",
    "final_address": "1420 Carondelet St",
    "address_councildis": "B",
    "status": "Pending",
    "rowid": "1284558",
    "final_x": "3678910.45934",
    "final_y": "525860.471037",
    "longitude": "-90.07644318642622",
    "latitude": "29.940012239054756",
    "geocoded_column": {
      "latitude": "29.940012239054756",
      "longitude": "-90.07644318642622"
    }
  },
  {
    "service_request": "2026-1284557",
    "request_type": "Trash/Recycling",
    "request_reason": "Request a Large Item Pick Up",
    "date_created": "2026-05-26T15:58:35.000",
    "date_modified": "2026-05-26T15:58:36.000",
    "request_status": "Pending",
    "responsible_agency": "Department of Sanitation",
    "final_address": "11412 Campbell Ln",
    "address_councildis": "E",
    "status": "Assigned to Contractor",
    "contractor": "Waste Pro",
    "rowid": "1284557",
    "final_x": "3718003.88178",
    "final_y": "561318.794974",
    "longitude": "-89.95167103494012",
    "latitude": "30.036272002757624",
    "geocoded_column": {
      "latitude": "30.036272002757624",
      "longitude": "-89.95167103494012"
    }
  },
  {
    "service_request": "2026-1284556",
    "request_type": "Trash/Recycling",
    "request_reason": "Request a Large Item Pick Up",
    "date_created": "2026-05-26T15:57:01.000",
    "date_modified": "2026-05-26T15:57:02.000",
    "request_status": "Pending",
    "responsible_agency": "Department of Sanitation",
    "final_address": "1302 France St",
    "address_councildis": "D",
    "status": "Assigned to Contractor",
    "contractor": "IV Waste",
    "rowid": "1284556",
    "final_x": "3692540.38326",
    "final_y": "535938.683335",
    "longitude": "-90.03305057790203",
    "latitude": "29.967305682212604",
    "geocoded_column": {
      "latitude": "29.967305682212604",
      "longitude": "-90.03305057790203"
    }
  },
  {
    "service_request": "2026-1284555",
    "request_type": "Trash/Recycling",
    "request_reason": "Return Trash Cart",
    "date_created": "2026-05-26T15:56:10.000",
    "date_modified": "2026-05-26T15:56:12.000",
    "request_status": "Pending",
    "responsible_agency": "Department of Sanitation",
    "final_address": "5515 Debore Dr",
    "address_councildis": "D",
    "status": "Assigned to Contractor",
    "contractor": "IV Waste",
    "rowid": "1284555",
    "final_x": "3691908.4607",
    "final_y": "554302.865752",
    "longitude": "-90.03438875704738",
    "latitude": "30.017820224096916",
    "geocoded_column": {
      "latitude": "30.017820224096916",
      "longitude": "-90.03438875704738"
    }
  },
  {
    "service_request": "2026-1284554",
    "request_type": "Streetlights",
    "request_reason": "Streetlight Outage/Malfunction",
    "date_created": "2026-05-26T15:53:47.000",
    "date_modified": "2026-05-26T15:53:48.000",
    "request_status": "Pending",
    "responsible_agency": "Department of Public Works",
    "final_address": "1662 Nie Prkwy",
    "address_councildis": "C",
    "status": "Pending",
    "rowid": "1284554",
    "final_x": "3701267.53405",
    "final_y": "524632.22918",
    "longitude": "-90.00590394846715",
    "latitude": "29.93594174560895",
    "geocoded_column": {
      "latitude": "29.93594174560895",
      "longitude": "-90.00590394846715"
    }
  },
  {
    "service_request": "2026-1284553",
    "request_type": "Traffic Signals",
    "request_reason": "Traffic Signal Malfunctioning or Damaged",
    "date_created": "2026-05-26T15:53:30.000",
    "date_modified": "2026-05-26T15:53:31.000",
    "request_status": "Pending",
    "responsible_agency": "Department of Public Works",
    "final_address": "0 BLK Poydras St",
    "address_councildis": "B",
    "status": "Pending",
    "rowid": "1284553",
    "final_x": "3682820.46766",
    "final_y": "528816.972666",
    "longitude": "-90.06399531569016",
    "latitude": "29.948023114681554",
    "geocoded_column": {
      "latitude": "29.948023114681554",
      "longitude": "-90.06399531569016"
    }
  },
  {
    "service_request": "2026-1284552",
    "request_type": "Roads and Streets",
    "request_reason": "Pothole",
    "date_created": "2026-05-26T15:51:35.000",
    "date_modified": "2026-05-26T15:51:36.000",
    "request_status": "Pending",
    "responsible_agency": "Department of Public Works",
    "final_address": "GENERAL OGDEN ST & DIXON ST",
    "address_councildis": "A",
    "status": "Pending",
    "rowid": "1284552",
    "final_x": "3666339.8",
    "final_y": "537375.48",
    "longitude": "-90.1157444851186",
    "latitude": "29.9720479135655",
    "geocoded_column": {
      "latitude": "29.9720479135655",
      "longitude": "-90.1157444851186"
    }
  },
  {
    "service_request": "2026-1284551",
    "request_type": "Roads and Streets",
    "request_reason": "Pothole",
    "date_created": "2026-05-26T15:51:32.000",
    "date_modified": "2026-05-26T15:51:33.000",
    "request_status": "Pending",
    "responsible_agency": "Department of Public Works",
    "final_address": "DIXON ST & HOLLYGROVE ST",
    "address_councildis": "A",
    "status": "Pending",
    "rowid": "1284551",
    "final_x": "3666075.7",
    "final_y": "537609.68",
    "longitude": "-90.11657070518291",
    "latitude": "29.97269959949468",
    "geocoded_column": {
      "latitude": "29.97269959949468",
      "longitude": "-90.11657070518291"
    }
  },
  {
    "service_request": "2026-1284550",
    "request_type": "Roads and Streets",
    "request_reason": "Pothole",
    "date_created": "2026-05-26T15:51:28.000",
    "date_modified": "2026-05-26T15:51:30.000",
    "request_status": "Pending",
    "responsible_agency": "Department of Public Works",
    "final_address": "DIXON ST & HAMILTON ST",
    "address_councildis": "A",
    "status": "Pending",
    "rowid": "1284550",
    "final_x": "3665818.5",
    "final_y": "537850.88",
    "longitude": "-90.1173749097371",
    "latitude": "29.97337032650915",
    "geocoded_column": {
      "latitude": "29.97337032650915",
      "longitude": "-90.1173749097371"
    }
  },
  {
    "service_request": "2026-1284549",
    "request_type": "Trash/Recycling",
    "request_reason": "Order Trash Cart",
    "date_created": "2026-05-26T15:51:14.000",
    "date_modified": "2026-05-26T15:51:16.000",
    "request_status": "Pending",
    "responsible_agency": "Department of Sanitation",
    "final_address": "3518 Third St",
    "address_councildis": "B",
    "status": "Assigned to Contractor",
    "contractor": "IV Waste",
    "rowid": "1284549",
    "final_x": "3672591.00136",
    "final_y": "528627.131136",
    "longitude": "-90.09630040380907",
    "latitude": "29.94780874047148",
    "geocoded_column": {
      "latitude": "29.94780874047148",
      "longitude": "-90.09630040380907"
    }
  },
  {
    "service_request": "2026-1284548",
    "request_type": "Roads and Streets",
    "request_reason": "Pothole",
    "date_created": "2026-05-26T15:51:02.000",
    "date_modified": "2026-05-26T15:51:03.000",
    "request_status": "Pending",
    "responsible_agency": "Department of Public Works",
    "final_address": "1927 Allen St",
    "address_councildis": "D",
    "status": "Pending",
    "rowid": "1284548",
    "final_x": "3682556.40924",
    "final_y": "539301.35521",
    "longitude": "-90.06446247607715",
    "latitude": "29.976859614527886",
    "geocoded_column": {
      "latitude": "29.976859614527886",
      "longitude": "-90.06446247607715"
    }
  },
  {
    "service_request": "2026-1284547",
    "request_type": "Mosquito, Termite & Rodent Control",
    "request_reason": "Mosquito Complaint",
    "date_created": "2026-05-26T15:50:34.000",
    "date_modified": "2026-05-26T15:50:35.000",
    "request_status": "Pending",
    "responsible_agency": "Mosquito, Termite & Rodent Control Board",
    "final_address": "5515 Debore Dr",
    "address_councildis": "D",
    "status": "Pending",
    "rowid": "1284547",
    "final_x": "3691908.4607",
    "final_y": "554302.865752",
    "longitude": "-90.03438875704738",
    "latitude": "30.017820224096916",
    "geocoded_column": {
      "latitude": "30.017820224096916",
      "longitude": "-90.03438875704738"
    }
  },
  {
    "service_request": "2026-1284546",
    "request_type": "Trash/Recycling",
    "request_reason": "Request a Large Item Pick Up",
    "date_created": "2026-05-26T15:50:18.000",
    "date_modified": "2026-05-26T15:50:20.000",
    "request_status": "Pending",
    "responsible_agency": "Department of Sanitation",
    "final_address": "4727 Coronado Dr",
    "address_councildis": "E",
    "status": "Assigned to Contractor",
    "contractor": "Waste Pro",
    "rowid": "1284546",
    "final_x": "3714197.70136",
    "final_y": "556483.288282",
    "longitude": "-89.96388181730057",
    "latitude": "30.02310193070143",
    "geocoded_column": {
      "latitude": "30.02310193070143",
      "longitude": "-89.96388181730057"
    }
  },
  {
    "service_request": "2026-1284545",
    "request_type": "Roads and Streets",
    "request_reason": "Pothole",
    "date_created": "2026-05-26T15:49:12.000",
    "date_modified": "2026-05-26T15:49:13.000",
    "request_status": "Pending",
    "responsible_agency": "Department of Public Works",
    "final_address": "7805 Pyramid St",
    "address_councildis": "E",
    "status": "Pending",
    "rowid": "1284545",
    "final_x": "3714845.26155",
    "final_y": "569749.856294",
    "longitude": "-89.96133376179581",
    "latitude": "30.059558333836268",
    "geocoded_column": {
      "latitude": "30.059558333836268",
      "longitude": "-89.96133376179581"
    }
  },
  {
    "service_request": "2026-1284544",
    "request_type": "Tree Service",
    "request_reason": "Street or Sidewalk Blocked",
    "date_created": "2026-05-26T15:47:55.000",
    "date_modified": "2026-05-26T15:47:57.000",
    "request_status": "Pending",
    "responsible_agency": "Department of Parks & Parkways",
    "final_address": "MURL ST & MAGELLAN ST",
    "address_councildis": "C",
    "status": "Pending",
    "rowid": "1284544",
    "final_x": "3695353.4",
    "final_y": "524750.18",
    "longitude": "-90.02457064956452",
    "latitude": "29.936453135067588",
    "geocoded_column": {
      "latitude": "29.936453135067588",
      "longitude": "-90.02457064956452"
    }
  },
  {
    "service_request": "2026-1284543",
    "request_type": "Trash/Recycling",
    "request_reason": "Repair Trash Cart",
    "date_created": "2026-05-26T15:47:21.000",
    "date_modified": "2026-05-26T15:47:23.000",
    "request_status": "Pending",
    "responsible_agency": "Department of Sanitation",
    "final_address": "4632 Lynhuber Dr",
    "address_councildis": "D",
    "status": "Assigned to Contractor",
    "contractor": "Waste Pro",
    "rowid": "1284543",
    "final_x": "3698012.42615",
    "final_y": "553747.902551",
    "longitude": "-90.01512287224125",
    "latitude": "30.01610261024926",
    "geocoded_column": {
      "latitude": "30.01610261024926",
      "longitude": "-90.01512287224125"
    }
  },
  {
    "service_request": "2026-1284542",
    "request_type": "Homeless Related Request",
    "request_reason": "Homeless Encampment Complaint",
    "date_created": "2026-05-26T15:46:28.000",
    "date_modified": "2026-05-26T15:46:32.000",
    "request_status": "Pending",
    "responsible_agency": "Office Of Homeless Services And Strategy",
    "final_address": "1800 St Roch Ave",
    "address_councildis": "D",
    "status": "Pending",
    "rowid": "1284542",
    "final_x": "3686155.711",
    "final_y": "539035.952394",
    "longitude": "-90.05310413310053",
    "latitude": "29.97601976439729",
    "geocoded_column": {
      "latitude": "29.97601976439729",
      "longitude": "-90.05310413310053"
    }
  },
  {
    "service_request": "2026-1284541",
    "request_type": "Trash/Recycling",
    "request_reason": "Request a Large Item Pick Up",
    "date_created": "2026-05-26T15:45:50.000",
    "date_modified": "2026-05-26T15:45:52.000",
    "request_status": "Pending",
    "responsible_agency": "Department of Sanitation",
    "final_address": "4649 Dodt Ave",
    "address_councildis": "E",
    "status": "Assigned to Contractor",
    "contractor": "Waste Pro",
    "rowid": "1284541",
    "final_x": "3705529.45457",
    "final_y": "554812.23196",
    "longitude": "-89.99133319003649",
    "latitude": "30.018789180856224",
    "geocoded_column": {
      "latitude": "30.018789180856224",
      "longitude": "-89.99133319003649"
    }
  },
  {
    "service_request": "2026-1284540",
    "request_type": "Trash/Recycling",
    "request_reason": "Request a Large Item Pick Up",
    "date_created": "2026-05-26T15:42:35.000",
    "date_modified": "2026-05-26T15:44:15.000",
    "request_status": "Pending",
    "responsible_agency": "Department of Sanitation",
    "final_address": "1501 Paula St",
    "address_councildis": "D",
    "status": "Assigned to Contractor",
    "contractor": "IV Waste",
    "rowid": "1284540",
    "final_x": "3678781.98517",
    "final_y": "549349.256083",
    "longitude": "-90.07603508815741",
    "latitude": "30.004602203352512",
    "geocoded_column": {
      "latitude": "30.004602203352512",
      "longitude": "-90.07603508815741"
    }
  },
  {
    "service_request": "2026-1284539",
    "request_type": "Trash/Recycling",
    "request_reason": "Replace Trash Cart",
    "date_created": "2026-05-26T15:42:16.000",
    "date_modified": "2026-05-26T15:42:17.000",
    "request_status": "Pending",
    "responsible_agency": "Department of Sanitation",
    "final_address": "1127 Philip St",
    "address_councildis": "B",
    "status": "Assigned to Contractor",
    "contractor": "IV Waste",
    "rowid": "1284539",
    "final_x": "3678423.50491",
    "final_y": "522054.605114",
    "longitude": "-90.07811220197074",
    "latitude": "29.929562037329514",
    "geocoded_column": {
      "latitude": "29.929562037329514",
      "longitude": "-90.07811220197074"
    }
  },
  {
    "service_request": "2026-1284538",
    "request_type": "Trash/Recycling",
    "request_reason": "Repair Trash Cart",
    "date_created": "2026-05-26T15:40:33.000",
    "date_modified": "2026-05-26T15:40:35.000",
    "request_status": "Pending",
    "responsible_agency": "Department of Sanitation",
    "final_address": "7704 Sycamore St",
    "address_councildis": "A",
    "status": "Assigned to Contractor",
    "contractor": "IV Waste",
    "rowid": "1284538",
    "final_x": "3665324.00896",
    "final_y": "530000.123137",
    "longitude": "-90.1191993417057",
    "latitude": "29.95179774428047",
    "geocoded_column": {
      "latitude": "29.95179774428047",
      "longitude": "-90.1191993417057"
    }
  },
  {
    "service_request": "2026-1284537",
    "request_type": "Trash/Recycling",
    "request_reason": "Request a Large Item Pick Up",
    "date_created": "2026-05-26T15:40:00.000",
    "date_modified": "2026-05-26T15:40:01.000",
    "request_status": "Pending",
    "responsible_agency": "Department of Sanitation",
    "final_address": "4785 Pauline Dr",
    "address_councildis": "D",
    "status": "Assigned to Contractor",
    "contractor": "IV Waste",
    "rowid": "1284537",
    "final_x": "3692932.164",
    "final_y": "551723.662805",
    "longitude": "-90.03124686929627",
    "latitude": "30.010696428534256",
    "geocoded_column": {
      "latitude": "30.010696428534256",
      "longitude": "-90.03124686929627"
    }
  },
  {
    "service_request": "2026-1284536",
    "request_type": "Abandoned Vehicles",
    "request_reason": "Abandoned/Junk Vehicles",
    "date_created": "2026-05-26T15:39:33.000",
    "date_modified": "2026-05-26T15:39:34.000",
    "request_status": "Pending",
    "responsible_agency": "Department of Public Works",
    "final_address": "8026 Cohn St, New Orleans, Louisiana, 70118",
    "address_councildis": "A",
    "status": "Pending",
    "rowid": "1284536",
    "final_x": "3663806.7104",
    "final_y": "529962.291905",
    "longitude": "-90.12399152927509",
    "latitude": "29.951737840679538",
    "geocoded_column": {
      "latitude": "29.951737840679538",
      "longitude": "-90.12399152927509"
    }
  },
  {
    "service_request": "2026-1284535",
    "request_type": "Trash/Recycling",
    "request_reason": "Replace Trash Cart",
    "date_created": "2026-05-26T15:38:10.000",
    "date_modified": "2026-05-26T15:38:12.000",
    "request_status": "Pending",
    "responsible_agency": "Department of Sanitation",
    "final_address": "2066 Pleasure St",
    "address_councildis": "D",
    "status": "Assigned to Contractor",
    "contractor": "IV Waste",
    "rowid": "1284535",
    "final_x": "3683474.30191",
    "final_y": "545016.836943",
    "longitude": "-90.06136310169714",
    "latitude": "29.992547195039222",
    "geocoded_column": {
      "latitude": "29.992547195039222",
      "longitude": "-90.06136310169714"
    }
  },
  {
    "service_request": "2026-1284534",
    "request_type": "Trash/Recycling",
    "request_reason": "Request a Large Item Pick Up",
    "date_created": "2026-05-26T15:38:06.000",
    "date_modified": "2026-05-26T15:38:08.000",
    "request_status": "Pending",
    "responsible_agency": "Department of Sanitation",
    "final_address": "6217 Dauphine St",
    "address_councildis": "E",
    "status": "Assigned to Contractor",
    "contractor": "Waste Pro",
    "rowid": "1284534",
    "final_x": "3699572.70653",
    "final_y": "532041.140099",
    "longitude": "-90.01098459009502",
    "latitude": "29.956367528526403",
    "geocoded_column": {
      "latitude": "29.956367528526403",
      "longitude": "-90.01098459009502"
    }
  },
  {
    "service_request": "2026-1284533",
    "request_type": "Abandoned Vehicles",
    "request_reason": "Abandoned/Junk Vehicles",
    "date_created": "2026-05-26T15:37:43.000",
    "date_modified": "2026-05-26T15:37:45.000",
    "request_status": "Pending",
    "responsible_agency": "Department of Public Works",
    "final_address": "2801 Loyola Ave",
    "address_councildis": "B",
    "status": "Pending",
    "rowid": "1284533",
    "final_x": "3674665.90747",
    "final_y": "524300.239548",
    "longitude": "-90.0898973464612",
    "latitude": "29.93584945218056",
    "geocoded_column": {
      "latitude": "29.93584945218056",
      "longitude": "-90.0898973464612"
    }
  },
  {
    "service_request": "2026-1284532",
    "request_type": "Street and Traffic Signs",
    "request_reason": "Traffic or Parking Sign Damaged or Missing",
    "date_created": "2026-05-26T15:37:01.000",
    "date_modified": "2026-05-26T15:37:02.000",
    "request_status": "Pending",
    "responsible_agency": "Department of Public Works",
    "final_address": "4500 BLK S Galvez St",
    "address_councildis": "B",
    "status": "Pending",
    "rowid": "1284532",
    "final_x": "3669617.08822",
    "final_y": "527420.535826",
    "longitude": "-90.1057310697506",
    "latitude": "29.94457894206851",
    "geocoded_column": {
      "latitude": "29.94457894206851",
      "longitude": "-90.1057310697506"
    }
  },
  {
    "service_request": "2026-1284531",
    "request_type": "Abandoned Vehicles",
    "request_reason": "Abandoned/Junk Vehicles",
    "date_created": "2026-05-26T15:36:40.000",
    "date_modified": "2026-05-26T15:36:42.000",
    "request_status": "Pending",
    "responsible_agency": "Department of Public Works",
    "final_address": "6131 Erin Dr",
    "address_councildis": "E",
    "status": "Pending",
    "rowid": "1284531",
    "final_x": "3696046.93629",
    "final_y": "558685.5087",
    "longitude": "-90.02115426713507",
    "latitude": "30.02974118166679",
    "geocoded_column": {
      "latitude": "30.02974118166679",
      "longitude": "-90.02115426713507"
    }
  },
  {
    "service_request": "2026-1284530",
    "request_type": "Traffic Signals",
    "request_reason": "Traffic Signal Malfunctioning or Damaged",
    "date_created": "2026-05-26T15:34:36.000",
    "date_modified": "2026-05-26T15:34:38.000",
    "request_status": "Pending",
    "responsible_agency": "Department of Public Works",
    "final_address": "TULANE AVE & S CARROLLTON AVE",
    "address_councildis": "A",
    "status": "Pending",
    "rowid": "1284530",
    "final_x": "3669243.6",
    "final_y": "536304.18",
    "longitude": "-90.1066100036471",
    "latitude": "29.96901703354732",
    "geocoded_column": {
      "latitude": "29.96901703354732",
      "longitude": "-90.1066100036471"
    }
  },
  {
    "service_request": "2026-1284529",
    "request_type": "Street and Traffic Signs",
    "request_reason": "Traffic or Parking Sign Damaged or Missing",
    "date_created": "2026-05-26T15:34:20.000",
    "date_modified": "2026-05-26T15:34:22.000",
    "request_status": "Pending",
    "responsible_agency": "Department of Public Works",
    "final_address": "NAPOLEON AVE & S GALVEZ ST",
    "address_councildis": "B",
    "status": "Pending",
    "rowid": "1284529",
    "final_x": "3670155.3",
    "final_y": "527475.78",
    "longitude": "-90.10402990077517",
    "latitude": "29.94471497954966",
    "geocoded_column": {
      "latitude": "29.94471497954966",
      "longitude": "-90.10402990077517"
    }
  },
  {
    "service_request": "2026-1284528",
    "request_type": "Trash/Recycling",
    "request_reason": "Replace Recycling Cart",
    "date_created": "2026-05-26T15:33:58.000",
    "date_modified": "2026-05-26T15:33:59.000",
    "request_status": "Pending",
    "responsible_agency": "Department of Sanitation",
    "final_address": "401 Bellaire Dr",
    "address_councildis": "A",
    "status": "Pending",
    "rowid": "1284528",
    "final_x": "3664013.12672",
    "final_y": "542314.109581",
    "longitude": "-90.12292777454074",
    "latitude": "29.9856952719579",
    "geocoded_column": {
      "latitude": "29.9856952719579",
      "longitude": "-90.12292777454074"
    }
  },
  {
    "service_request": "2026-1284527",
    "request_type": "Healthy Homes",
    "request_reason": "Healthy Homes",
    "date_created": "2026-05-26T15:33:45.000",
    "date_modified": "2026-05-26T15:40:56.000",
    "case_close_date": "2026-05-26T10:40:55.000",
    "request_status": "Closed",
    "responsible_agency": "Department of Code Enforcement",
    "final_address": "5324 N Miro St",
    "address_councildis": "E",
    "status": "Referred to Code Enforcement",
    "rowid": "1284527",
    "final_x": "3698141.64298",
    "final_y": "538085.378889",
    "longitude": "-90.0152838457993",
    "latitude": "29.973032361353045",
    "geocoded_column": {
      "latitude": "29.973032361353045",
      "longitude": "-90.0152838457993"
    }
  },
  {
    "service_request": "2026-1284526",
    "request_type": "Street and Traffic Signs",
    "request_reason": "Traffic or Parking Sign Damaged or Missing",
    "date_created": "2026-05-26T15:33:02.000",
    "date_modified": "2026-05-26T15:33:04.000",
    "request_status": "Pending",
    "responsible_agency": "Department of Public Works",
    "final_address": "NAPOLEON AVE & S GALVEZ ST",
    "address_councildis": "B",
    "status": "Pending",
    "rowid": "1284526",
    "final_x": "3670155.3",
    "final_y": "527475.78",
    "longitude": "-90.10402990077517",
    "latitude": "29.94471497954966",
    "geocoded_column": {
      "latitude": "29.94471497954966",
      "longitude": "-90.10402990077517"
    }
  },
  {
    "service_request": "2026-1284525",
    "request_type": "Property Maintenance",
    "request_reason": "Property Maintenance",
    "date_created": "2026-05-26T15:33:02.000",
    "date_modified": "2026-05-26T15:48:34.000",
    "case_close_date": "2026-05-26T10:48:33.000",
    "request_status": "Closed",
    "responsible_agency": "Department of Code Enforcement",
    "final_address": "5814 Pauline Dr",
    "address_councildis": "D",
    "status": "Referred to Code Enforcement",
    "rowid": "1284525",
    "final_x": "3691601.70774",
    "final_y": "555550.387481",
    "longitude": "-90.03531332226044",
    "latitude": "30.021260000394744",
    "geocoded_column": {
      "latitude": "30.021260000394744",
      "longitude": "-90.03531332226044"
    }
  },
  {
    "service_request": "2026-1284524",
    "request_type": "Street and Traffic Signs",
    "request_reason": "Traffic or Parking Sign Damaged or Missing",
    "date_created": "2026-05-26T15:31:49.000",
    "date_modified": "2026-05-26T15:31:50.000",
    "request_status": "Pending",
    "responsible_agency": "Department of Public Works",
    "final_address": "3416 Upperline St",
    "address_councildis": "B",
    "status": "Pending",
    "rowid": "1284524",
    "final_x": "3669227.20564",
    "final_y": "527530.687167",
    "longitude": "-90.10695832531249",
    "latitude": "29.944893302155865",
    "geocoded_column": {
      "latitude": "29.944893302155865",
      "longitude": "-90.10695832531249"
    }
  },
  {
    "service_request": "2026-1284523",
    "request_type": "Abandoned Vehicles",
    "request_reason": "Abandoned/Junk Vehicles",
    "date_created": "2026-05-26T15:30:22.000",
    "date_modified": "2026-05-26T15:30:25.000",
    "request_status": "Pending",
    "responsible_agency": "Department of Public Works",
    "final_address": "922 Music St",
    "address_councildis": "C",
    "status": "Pending",
    "rowid": "1284523",
    "final_x": "3686862.69583",
    "final_y": "535922.257415",
    "longitude": "-90.05098133082763",
    "latitude": "29.967436454255353",
    "geocoded_column": {
      "latitude": "29.967436454255353",
      "longitude": "-90.05098133082763"
    }
  },
  {
    "service_request": "2026-1284522",
    "request_type": "Property Maintenance",
    "request_reason": "Property Maintenance",
    "date_created": "2026-05-26T15:27:30.000",
    "date_modified": "2026-05-26T15:27:32.000",
    "request_status": "Pending",
    "responsible_agency": "Department of Code Enforcement",
    "final_address": "9555 Stroelitz St",
    "address_councildis": "A",
    "status": "Pending",
    "rowid": "1284522",
    "final_x": "3664017.34439",
    "final_y": "538586.201737",
    "longitude": "-90.12303882575885",
    "latitude": "29.97544465039475",
    "geocoded_column": {
      "latitude": "29.97544465039475",
      "longitude": "-90.12303882575885"
    }
  },
  {
    "service_request": "2026-1284521",
    "request_type": "Property Maintenance",
    "request_reason": "Property Maintenance",
    "date_created": "2026-05-26T15:24:57.000",
    "date_modified": "2026-05-26T15:27:18.000",
    "request_status": "Pending",
    "responsible_agency": "Department of Code Enforcement",
    "final_address": "7123 Foch Rd",
    "address_councildis": "D",
    "status": "Pending",
    "rowid": "1284521",
    "final_x": "3696536.61341",
    "final_y": "557026.475802",
    "longitude": "-90.01966700386849",
    "latitude": "30.025164046439397",
    "geocoded_column": {
      "latitude": "30.025164046439397",
      "longitude": "-90.01966700386849"
    }
  },
  {
    "service_request": "2026-1284520",
    "request_type": "Trash/Recycling",
    "request_reason": "Repair Trash Cart",
    "date_created": "2026-05-26T15:23:28.000",
    "date_modified": "2026-05-26T15:23:29.000",
    "request_status": "Pending",
    "responsible_agency": "Department of Sanitation",
    "final_address": "4225 S Roman St",
    "address_councildis": "B",
    "status": "Assigned to Contractor",
    "contractor": "IV Waste",
    "rowid": "1284520",
    "final_x": "3670820.74619",
    "final_y": "526680.587518",
    "longitude": "-90.10195586385639",
    "latitude": "29.94250881213357",
    "geocoded_column": {
      "latitude": "29.94250881213357",
      "longitude": "-90.10195586385639"
    }
  },
  {
    "service_request": "2026-1284519",
    "request_type": "Trash/Recycling",
    "request_reason": "Request a Large Item Pick Up",
    "date_created": "2026-05-26T15:23:19.000",
    "date_modified": "2026-05-26T15:37:46.000",
    "case_close_date": "2026-05-26T10:37:46.000",
    "request_status": "Closed",
    "responsible_agency": "Department of Sanitation",
    "final_address": "2330 Palmer Ave",
    "address_councildis": "A",
    "status": "Duplicate Request",
    "contractor": "IV Waste",
    "contractor_action": "Duplicate",
    "rowid": "1284519",
    "final_x": "3666237.66727",
    "final_y": "525518.694973",
    "longitude": "-90.11646470721769",
    "latitude": "29.939448611964178",
    "geocoded_column": {
      "latitude": "29.939448611964178",
      "longitude": "-90.11646470721769"
    }
  },
  {
    "service_request": "2026-1284518",
    "request_type": "Trash/Recycling",
    "request_reason": "Request a Large Item Pick Up",
    "date_created": "2026-05-26T15:22:45.000",
    "date_modified": "2026-05-26T15:22:47.000",
    "request_status": "Pending",
    "responsible_agency": "Department of Sanitation",
    "final_address": "6944 E Laverne St",
    "address_councildis": "D",
    "status": "Assigned to Contractor",
    "contractor": "Waste Pro",
    "rowid": "1284518",
    "final_x": "3697079.49776",
    "final_y": "556802.40841",
    "longitude": "-90.0179597102329",
    "latitude": "30.02453082166553",
    "geocoded_column": {
      "latitude": "30.02453082166553",
      "longitude": "-90.0179597102329"
    }
  },
  {
    "service_request": "2026-1284517",
    "request_type": "Trash/Recycling",
    "request_reason": "Request a Large Item Pick Up",
    "date_created": "2026-05-26T15:22:37.000",
    "date_modified": "2026-05-26T16:03:30.000",
    "request_status": "Pending",
    "responsible_agency": "Department of Sanitation",
    "final_address": "1622 Shirley Dr",
    "address_councildis": "C",
    "status": "Pending",
    "contractor": "Richards Disposal",
    "rowid": "1284517",
    "final_x": "3693102.72425",
    "final_y": "524518.078716",
    "longitude": "-90.03168441079589",
    "latitude": "29.935885429339283",
    "geocoded_column": {
      "latitude": "29.935885429339283",
      "longitude": "-90.03168441079589"
    }
  },