[
  {
    "service_request": "2025-1228545",
    "request_type": "Trash/Recycling",
    "request_reason": "Order Trash Cart",
    "date_created": "2025-09-23T23:17:24.000",
    "date_modified": "2025-09-23T23:17:31.000",
    "request_status": "Pending",
    "responsible_agency": "Department of Sanitation",
    "final_address": "13658 Granville St",
    "address_councildis": "E",
    "status": "Assigned to Contractor",
    "contractor": "Waste Pro",
    "rowid": "1228545",
    "final_x": "3726687.69721",
    "final_y": "562538.426848",
    "longitude": "-89.92418147890847",
    "latitude": "30.039334714487744",
    "geocoded_column": {
      "latitude": "30.039334714487744",
      "longitude": "-89.92418147890847"
    }
  },
  {
    "service_request": "2025-1228544",
    "request_type": "Trash/Recycling",
    "request_reason": "Request a Large Item Pick Up",
    "date_created": "2025-09-23T23:00:13.000",
    "date_modified": "2025-09-23T23:00:15.000",
    "request_status": "Pending",
    "responsible_agency": "Department of Sanitation",
    "final_address": "724 Dumaine St",
    "address_councildis": "C",
    "status": "Assigned to Contractor",
    "contractor": "IV Waste",
    "rowid": "1228544",
    "final_x": "3682821.1645",
    "final_y": "533140.686724",
    "longitude": "-90.06384186648728",
    "latitude": "29.959911838743423",
    "geocoded_column": {
      "latitude": "29.959911838743423",
      "longitude": "-90.06384186648728"
    }
  },
  {
    "service_request": "2025-1228543",
    "request_type": "Trash/Recycling",
    "request_reason": "Order Trash Cart",
    "date_created": "2025-09-23T22:44:37.000",
    "date_modified": "2025-09-23T22:44:39.000",
    "request_status": "Pending",
    "responsible_agency": "Department of Sanitation",
    "final_address": "3720 Buchanan St",
    "address_councildis": "D",
    "status": "Assigned to Contractor",
    "contractor": "IV Waste",
    "rowid": "1228543",
    "final_x": "3677351.75227",
    "final_y": "545895.31016",
    "longitude": "-90.08067276382195",
    "latitude": "29.99514814704599",
    "geocoded_column": {
      "latitude": "29.99514814704599",
      "longitude": "-90.08067276382195"
    }
  },
  {
    "service_request": "2025-1228542",
    "request_type": "Trash/Recycling",
    "request_reason": "Order Recycling Cart",
    "date_created": "2025-09-23T22:16:50.000",
    "date_modified": "2025-09-23T22:16:51.000",
    "request_status": "Pending",
    "responsible_agency": "Department of Sanitation",
    "final_address": "342 Walnut St",
    "address_councildis": "A",
    "status": "Pending",
    "rowid": "1228542",
    "final_x": "3662007.56659",
    "final_y": "522303.936314",
    "longitude": "-90.12992635595222",
    "latitude": "29.930731886228266",
    "geocoded_column": {
      "latitude": "29.930731886228266",
      "longitude": "-90.12992635595222"
    }
  },
  {
    "service_request": "2025-1228541",
    "request_type": "Trash/Recycling",
    "request_reason": "Request a Large Item Pick Up",
    "date_created": "2025-09-23T22:12:01.000",
    "date_modified": "2025-09-23T22:12:02.000",
    "request_status": "Pending",
    "responsible_agency": "Department of Sanitation",
    "final_address": "725 Jourdan Ave",
    "address_councildis": "E",
    "status": "Assigned to Contractor",
    "contractor": "Waste Pro",
    "rowid": "1228541",
    "final_x": "3694717.26006",
    "final_y": "533234.935876",
    "longitude": "-90.02627340230015",
    "latitude": "29.9598032283643",
    "geocoded_column": {
      "latitude": "29.9598032283643",
      "longitude": "-90.02627340230015"
    }
  },
  {
    "service_request": "2025-1228540",
    "request_type": "Trash/Recycling",
    "request_reason": "Request a Large Item Pick Up",
    "date_created": "2025-09-23T22:11:55.000",
    "date_modified": "2025-09-23T22:11:57.000",
    "request_status": "Pending",
    "responsible_agency": "Department of Sanitation",
    "final_address": "1520 Sixth St",
    "address_councildis": "B",
    "status": "Assigned to Contractor",
    "contractor": "IV Waste",
    "rowid": "1228540",
    "final_x": "3675645.86613",
    "final_y": "521943.643258",
    "longitude": "-90.08688452620085",
    "latitude": "29.929340302755303",
    "geocoded_column": {
      "latitude": "29.929340302755303",
      "longitude": "-90.08688452620085"
    }
  },
  {
    "service_request": "2025-1228539",
    "request_type": "Streetlights",
    "request_reason": "Streetlight Outage/Malfunction",
    "date_created": "2025-09-23T21:57:22.000",
    "date_modified": "2025-09-23T21:57:24.000",
    "request_status": "Pending",
    "responsible_agency": "Department of Public Works",
    "final_address": "4203 S Broad St",
    "address_councildis": "B",
    "status": "Pending",
    "rowid": "1228539",
    "final_x": "3670563.56199",
    "final_y": "529410.792257",
    "longitude": "-90.10267527585485",
    "latitude": "29.950023580708798",
    "geocoded_column": {
      "latitude": "29.950023580708798",
      "longitude": "-90.10267527585485"
    }
  },
  {
    "service_request": "2025-1228538",
    "request_type": "Trash/Recycling",
    "request_reason": "Repair Recycling Cart",
    "date_created": "2025-09-23T21:27:32.000",
    "date_modified": "2025-09-23T21:27:35.000",
    "request_status": "Pending",
    "responsible_agency": "Department of Sanitation",
    "final_address": "617 Leontine St",
    "address_councildis": "B",
    "status": "Pending",
    "rowid": "1228538",
    "final_x": "3667077.94721",
    "final_y": "517735.998582",
    "longitude": "-90.11407327685262",
    "latitude": "29.91802410237883",
    "geocoded_column": {
      "latitude": "29.91802410237883",
      "longitude": "-90.11407327685262"
    }
  },
  {
    "service_request": "2025-1228535",
    "request_type": "Mosquito, Termite & Rodent Control",
    "request_reason": "Rodent Complaint (Mice & Rats)",
    "date_created": "2025-09-23T20:59:46.000",
    "date_modified": "2025-09-23T20:59:47.000",
    "request_status": "Pending",
    "responsible_agency": "Mosquito, Termite & Rodent Control Board",
    "final_address": "3301 Touro St",
    "address_councildis": "D",
    "status": "Pending",
    "rowid": "1228535",
    "final_x": "3683591.15215",
    "final_y": "544755.048143",
    "longitude": "-90.06100317644629",
    "latitude": "29.9918238017377",
    "geocoded_column": {
      "latitude": "29.9918238017377",
      "longitude": "-90.06100317644629"
    }
  },
  {
    "service_request": "2025-1228534",
    "request_type": "Streetlights",
    "request_reason": "Streetlight Outage/Malfunction",
    "date_created": "2025-09-23T20:59:35.000",
    "date_modified": "2025-09-23T20:59:38.000",
    "request_status": "Pending",
    "responsible_agency": "Department of Public Works",
    "final_address": "7241 Canal Blvd",
    "address_councildis": "D",
    "status": "Pending",
    "rowid": "1228534",
    "final_x": "3669335.24391",
    "final_y": "555119.040729",
    "longitude": "-90.10568397570684",
    "latitude": "30.020748713409656",
    "geocoded_column": {
      "latitude": "30.020748713409656",
      "longitude": "-90.10568397570684"
    }
  },
  {
    "service_request": "2025-1228533",
    "request_type": "Roads and Streets",
    "request_reason": "Sidewalk Damaged or Missing",
    "date_created": "2025-09-23T20:45:52.000",
    "date_modified": "2025-09-23T20:45:53.000",
    "request_status": "Pending",
    "responsible_agency": "Department of Public Works",
    "final_address": "739 Bourbon St",
    "address_councildis": "C",
    "status": "Pending",
    "rowid": "1228533",
    "final_x": "3682453.08591",
    "final_y": "532960.399812",
    "longitude": "-90.06501047802857",
    "latitude": "29.959427319255727",
    "geocoded_column": {
      "latitude": "29.959427319255727",
      "longitude": "-90.06501047802857"
    }
  },
  {
    "service_request": "2025-1228532",
    "request_type": "Abandoned Vehicles",
    "request_reason": "Abandoned/Junk Vehicles",
    "date_created": "2025-09-23T20:40:52.000",
    "date_modified": "2025-09-23T20:40:54.000",
    "request_status": "Pending",
    "responsible_agency": "Department of Public Works",
    "final_address": "3211 Pittari Pl",
    "address_councildis": "C",
    "status": "Pending",
    "rowid": "1228532",
    "final_x": "3709663.42481",
    "final_y": "518963.757047",
    "longitude": "-89.97960961603066",
    "latitude": "29.920085334890807",
    "geocoded_column": {
      "latitude": "29.920085334890807",
      "longitude": "-89.97960961603066"
    }
  },
  {
    "service_request": "2025-1228531",
    "request_type": "Streetlights",
    "request_reason": "Streetlight Outage/Malfunction",
    "date_created": "2025-09-23T20:30:13.000",
    "date_modified": "2025-09-23T20:30:15.000",
    "request_status": "Pending",
    "responsible_agency": "Department of Public Works",
    "final_address": "4423 Vixen St",
    "address_councildis": "C",
    "status": "Pending",
    "rowid": "1228531",
    "final_x": "3700022.70756",
    "final_y": "520600.100152",
    "longitude": "-90.00998088213942",
    "latitude": "29.924894378543875",
    "geocoded_column": {
      "latitude": "29.924894378543875",
      "longitude": "-90.00998088213942"
    }
  },
  {
    "service_request": "2025-1228530",
    "request_type": "Trash/Recycling",
    "request_reason": "Request a Large Item Pick Up",
    "date_created": "2025-09-23T20:18:55.000",
    "date_modified": "2025-09-23T20:18:57.000",
    "request_status": "Pending",
    "responsible_agency": "Department of Sanitation",
    "final_address": "4729 Corinne St",
    "address_councildis": "E",
    "status": "Assigned to Contractor",
    "contractor": "Waste Pro",
    "rowid": "1228530",
    "final_x": "3715115.48043",
    "final_y": "556819.672538",
    "longitude": "-89.96096913964354",
    "latitude": "30.023996661919245",
    "geocoded_column": {
      "latitude": "30.023996661919245",
      "longitude": "-89.96096913964354"
    }
  },
  {
    "service_request": "2025-1228529",
    "request_type": "General Services",
    "request_reason": "General Service Request",
    "date_created": "2025-09-23T20:04:57.000",
    "date_modified": "2025-09-23T20:04:58.000",
    "request_status": "Pending",
    "responsible_agency": "Orleans Parish Communication District",
    "final_address": "3131 Mansfield Ave",
    "address_councildis": "C",
    "status": "Pending",
    "rowid": "1228529",
    "final_x": "3709061.38737",
    "final_y": "518702.694583",
    "longitude": "-89.98151966312746",
    "latitude": "29.919387048023438",
    "geocoded_column": {
      "latitude": "29.919387048023438",
      "longitude": "-89.98151966312746"
    }
  },
  {
    "service_request": "2025-1228528",
    "request_type": "Streetlights",
    "request_reason": "Streetlight Outage/Malfunction",
    "date_created": "2025-09-23T20:01:39.000",
    "date_modified": "2025-09-23T20:01:40.000",
    "request_status": "Pending",
    "responsible_agency": "Department of Public Works",
    "final_address": "4835 Arthur Dr",
    "address_councildis": "E",
    "status": "Pending",
    "rowid": "1228528",
    "final_x": "3707682.51339",
    "final_y": "556249.467802",
    "longitude": "-89.98447689454935",
    "latitude": "30.02267150935646",
    "geocoded_column": {
      "latitude": "30.02267150935646",
      "longitude": "-89.98447689454935"
    }
  },
  {
    "service_request": "2025-1228527",
    "request_type": "Streetlights",
    "request_reason": "Streetlight Outage/Malfunction",
    "date_created": "2025-09-23T19:58:52.000",
    "date_modified": "2025-09-23T19:58:54.000",
    "request_status": "Pending",
    "responsible_agency": "Department of Public Works",
    "final_address": "4835 Arthur Dr",
    "address_councildis": "E",
    "status": "Pending",
    "rowid": "1228527",
    "final_x": "3707682.51339",
    "final_y": "556249.467802",
    "longitude": "-89.98447689454935",
    "latitude": "30.02267150935646",
    "geocoded_column": {
      "latitude": "30.02267150935646",
      "longitude": "-89.98447689454935"
    }
  },
  {
    "service_request": "2025-1228525",
    "request_type": "Safety & Permits",
    "request_reason": "Licenses & Permits",
    "date_created": "2025-09-23T19:39:21.000",
    "date_modified": "2025-09-23T19:39:22.000",
    "request_status": "Pending",
    "responsible_agency": "Safety and Permits",
    "final_address": "1215 Governor Nicholls St",
    "address_councildis": "C",
    "status": "Pending",
    "rowid": "1228525",
    "final_x": "3682089.97397",
    "final_y": "535224.273222",
    "longitude": "-90.06607803623179",
    "latitude": "29.96566324281294",
    "geocoded_column": {
      "latitude": "29.96566324281294",
      "longitude": "-90.06607803623179"
    }
  },
  {
    "service_request": "2025-1228526",
    "request_type": "Safety & Permits",
    "request_reason": "Licenses & Permits",
    "date_created": "2025-09-23T19:39:21.000",
    "date_modified": "2025-09-23T19:39:22.000",
    "request_status": "Pending",
    "responsible_agency": "Safety and Permits",
    "final_address": "1215 Governor Nicholls St",
    "address_councildis": "C",
    "status": "Pending",
    "rowid": "1228526",
    "final_x": "3682089.97397",
    "final_y": "535224.273222",
    "longitude": "-90.06607803623179",
    "latitude": "29.96566324281294",
    "geocoded_column": {
      "latitude": "29.96566324281294",
      "longitude": "-90.06607803623179"
    }
  },
  {
    "service_request": "2025-1228524",
    "request_type": "Utility Poles",
    "request_reason": "Wires Sagging/Hanging Low",
    "date_created": "2025-09-23T19:28:49.000",
    "date_modified": "2025-09-23T19:28:51.000",
    "request_status": "Pending",
    "responsible_agency": "Utility Company Collective",
    "final_address": "4240 DHemecourt St",
    "address_councildis": "A",
    "status": "Pending",
    "rowid": "1228524",
    "final_x": "3669107.53185",
    "final_y": "537325.94484",
    "longitude": "-90.10700518270832",
    "latitude": "29.971830549698193",
    "geocoded_column": {
      "latitude": "29.971830549698193",
      "longitude": "-90.10700518270832"
    }
  },
  {
    "service_request": "2025-1228523",
    "request_type": "Trash/Recycling",
    "request_reason": "Replace Trash Cart",
    "date_created": "2025-09-23T19:18:41.000",
    "date_modified": "2025-09-23T19:18:43.000",
    "request_status": "Pending",
    "responsible_agency": "Department of Sanitation",
    "final_address": "3641 Mimosa Ct",
    "address_councildis": "C",
    "status": "Assigned to Contractor",
    "contractor": "Richards Disposal",
    "rowid": "1228523",
    "final_x": "3703280.26257",
    "final_y": "513252.97573",
    "longitude": "-89.99996780654372",
    "latitude": "29.904588455227724",
    "geocoded_column": {
      "latitude": "29.904588455227724",
      "longitude": "-89.99996780654372"
    }
  },
  {
    "service_request": "2025-1228522",
    "request_type": "Drainage",
    "request_reason": "Catch Basin Not Draining",
    "date_created": "2025-09-23T19:14:54.000",
    "date_modified": "2025-09-23T19:14:55.000",
    "request_status": "Pending",
    "responsible_agency": "Sewerage & Water Board",
    "final_address": "3601 Pine St",
    "address_councildis": "B",
    "status": "Pending",
    "rowid": "1228522",
    "final_x": "3668788.74894",
    "final_y": "533779.776901",
    "longitude": "-90.10813170264869",
    "latitude": "29.96208914627845",
    "geocoded_column": {
      "latitude": "29.96208914627845",
      "longitude": "-90.10813170264869"
    }
  },
  {
    "service_request": "2025-1228521",
    "request_type": "Trash/Recycling",
    "request_reason": "Request a Large Item Pick Up",
    "date_created": "2025-09-23T19:01:08.000",
    "date_modified": "2025-09-23T19:01:10.000",
    "request_status": "Pending",
    "responsible_agency": "Department of Sanitation",
    "final_address": "36 Fontainebleau Dr",
    "address_councildis": "A",
    "status": "Assigned to Contractor",
    "contractor": "IV Waste",
    "rowid": "1228521",
    "final_x": "3666024.12327",
    "final_y": "531424.331011",
    "longitude": "-90.11694096744584",
    "latitude": "29.955693435294833",
    "geocoded_column": {
      "latitude": "29.955693435294833",
      "longitude": "-90.11694096744584"
    }
  },
  {
    "service_request": "2025-1228520",
    "request_type": "Trash/Recycling",
    "request_reason": "Order Trash Cart",
    "date_created": "2025-09-23T19:00:34.000",
    "date_modified": "2025-09-23T19:00:36.000",
    "request_status": "Pending",
    "responsible_agency": "Department of Sanitation",
    "final_address": "8110 Lomond Rd",
    "address_councildis": "E",
    "status": "Assigned to Contractor",
    "contractor": "Waste Pro",
    "rowid": "1228520",
    "final_x": "3702623.96215",
    "final_y": "561455.773471",
    "longitude": "-90.00026923394736",
    "latitude": "30.037149594083953",
    "geocoded_column": {
      "latitude": "30.037149594083953",
      "longitude": "-90.00026923394736"
    }
  },
  {
    "service_request": "2025-1228519",
    "request_type": "Trash/Recycling",
    "request_reason": "MIssed Recycling Pick-Up",
    "date_created": "2025-09-23T18:58:13.000",
    "date_modified": "2025-09-23T18:58:15.000",
    "request_status": "Pending",
    "responsible_agency": "Department of Sanitation",
    "final_address": "7510 Wave Dr",
    "address_councildis": "E",
    "status": "Assigned to Contractor",
    "contractor": "Waste Pro",
    "rowid": "1228519",
    "final_x": "3715293.8261",
    "final_y": "568203.056933",
    "longitude": "-89.95997449555371",
    "latitude": "30.055290497181026",
    "geocoded_column": {
      "latitude": "30.055290497181026",
      "longitude": "-89.95997449555371"
    }
  },
  {
    "service_request": "2025-1228518",
    "request_type": "Trash/Recycling",
    "request_reason": "Damaged Caused By Contractor",
    "date_created": "2025-09-23T18:52:52.000",
    "date_modified": "2025-09-23T18:52:54.000",
    "request_status": "Pending",
    "responsible_agency": "Department of Sanitation",
    "final_address": "13312 Granville St",
    "address_councildis": "E",
    "status": "Assigned to Contractor",
    "contractor": "Waste Pro",
    "rowid": "1228518",
    "final_x": "3725232.65222",
    "final_y": "562006.080415",
    "longitude": "-89.92880040418825",
    "latitude": "30.03792010301529",
    "geocoded_column": {
      "latitude": "30.03792010301529",
      "longitude": "-89.92880040418825"
    }
  },
  {
    "service_request": "2025-1228517",
    "request_type": "Trash/Recycling",
    "request_reason": "Request a Large Item Pick Up",
    "date_created": "2025-09-23T18:47:49.000",
    "date_modified": "2025-09-23T18:47:52.000",
    "request_status": "Pending",
    "responsible_agency": "Department of Sanitation",
    "final_address": "5011 Warren Dr",
    "address_councildis": "E",
    "status": "Assigned to Contractor",
    "contractor": "Waste Pro",
    "rowid": "1228517",
    "final_x": "3713398.4309",
    "final_y": "557565.618011",
    "longitude": "-89.96636651028481",
    "latitude": "30.02610415105788",
    "geocoded_column": {
      "latitude": "30.02610415105788",
      "longitude": "-89.96636651028481"
    }
  },
  {
    "service_request": "2025-1228516",
    "request_type": "Abandoned Vehicles",
    "request_reason": "Abandoned/Junk Vehicles",
    "date_created": "2025-09-23T18:40:37.000",
    "date_modified": "2025-09-23T18:40:38.000",
    "request_status": "Pending",
    "responsible_agency": "Department of Public Works",
    "final_address": "4523 Perrier St",
    "address_councildis": "B",
    "status": "Pending",
    "rowid": "1228516",
    "final_x": "3670324.89633",
    "final_y": "520049.824888",
    "longitude": "-90.10374602897294",
    "latitude": "29.9242909901804",
    "geocoded_column": {
      "latitude": "29.9242909901804",
      "longitude": "-90.10374602897294"
    }
  },
  {
    "service_request": "2025-1228515",
    "request_type": "Trash/Recycling",
    "request_reason": "Request a Large Item Pick Up",
    "date_created": "2025-09-23T18:36:01.000",
    "date_modified": "2025-09-23T18:36:03.000",
    "request_status": "Pending",
    "responsible_agency": "Department of Sanitation",
    "final_address": "732 Independence St",
    "address_councildis": "C",
    "status": "Assigned to Contractor",
    "contractor": "IV Waste",
    "rowid": "1228515",
    "final_x": "3690614.7288",
    "final_y": "534301.208261",
    "longitude": "-90.03919020417136",
    "latitude": "29.962863144794248",
    "geocoded_column": {
      "latitude": "29.962863144794248",
      "longitude": "-90.03919020417136"
    }
  },
  {
    "service_request": "2025-1228514",
    "request_type": "Roads and Streets",
    "request_reason": "Pothole",
    "date_created": "2025-09-23T18:35:57.000",
    "date_modified": "2025-09-23T18:35:59.000",
    "request_status": "Pending",
    "responsible_agency": "Department of Public Works",
    "final_address": "1131 Third St",
    "address_councildis": "B",
    "status": "Pending",
    "rowid": "1228514",
    "final_x": "3677471.44878",
    "final_y": "521389.590329",
    "longitude": "-90.0811406147849",
    "latitude": "29.927762106361374",
    "geocoded_column": {
      "latitude": "29.927762106361374",
      "longitude": "-90.0811406147849"
    }
  },
  {
    "service_request": "2025-1228513",
    "request_type": "Trash/Recycling",
    "request_reason": "Repair Trash Cart",
    "date_created": "2025-09-23T18:26:26.000",
    "date_modified": "2025-09-23T18:26:28.000",
    "request_status": "Pending",
    "responsible_agency": "Department of Sanitation",
    "final_address": "6856 Catina St",
    "address_councildis": "A",
    "status": "Assigned to Contractor",
    "contractor": "IV Waste",
    "rowid": "1228513",
    "final_x": "3667049.96474",
    "final_y": "553539.692375",
    "longitude": "-90.11295796102038",
    "latitude": "30.016473188331624",
    "geocoded_column": {
      "latitude": "30.016473188331624",
      "longitude": "-90.11295796102038"
    }
  },
  {
    "service_request": "2025-1228512",
    "request_type": "Roads and Streets",
    "request_reason": "Push-up/Pavement Expansion",
    "date_created": "2025-09-23T18:19:21.000",
    "date_modified": "2025-09-23T18:19:23.000",
    "request_status": "Pending",
    "responsible_agency": "Department of Public Works",
    "final_address": "3970 Toledano St",
    "address_councildis": "B",
    "status": "Pending",
    "rowid": "1228512",
    "final_x": "3671154.32283",
    "final_y": "529559.442497",
    "longitude": "-90.10080491496191",
    "latitude": "29.950414860442166",
    "geocoded_column": {
      "latitude": "29.950414860442166",
      "longitude": "-90.10080491496191"
    }
  },
  {
    "service_request": "2025-1228511",
    "request_type": "Roads and Streets",
    "request_reason": "Debris in Driving Lanes",
    "date_created": "2025-09-23T18:17:41.000",
    "date_modified": "2025-09-23T18:17:42.000",
    "request_status": "Pending",
    "responsible_agency": "Department of Public Works",
    "final_address": "2800 Perdido St",
    "address_councildis": "B",
    "status": "Pending",
    "rowid": "1228511",
    "final_x": "3673045.13921",
    "final_y": "533174.644484",
    "longitude": "-90.09471129842385",
    "latitude": "29.960299405626934",
    "geocoded_column": {
      "latitude": "29.960299405626934",
      "longitude": "-90.09471129842385"
    }
  },
  {
    "service_request": "2025-1228509",
    "request_type": "Streetlights",
    "request_reason": "Streetlight Outage/Malfunction",
    "date_created": "2025-09-23T18:03:26.000",
    "date_modified": "2025-09-23T18:03:27.000",
    "request_status": "Pending",
    "responsible_agency": "Department of Public Works",
    "final_address": "7232 W Tamaron Blvd",
    "address_councildis": "E",
    "status": "Pending",
    "rowid": "1228509",
    "final_x": "3717716.52037",
    "final_y": "569517.145894",
    "longitude": "-89.95226687329144",
    "latitude": "30.058823633456093",
    "geocoded_column": {
      "latitude": "30.058823633456093",
      "longitude": "-89.95226687329144"
    }
  },
  {
    "service_request": "2025-1228508",
    "request_type": "Property Maintenance",
    "request_reason": "Property Maintenance",
    "date_created": "2025-09-23T18:03:04.000",
    "date_modified": "2025-09-23T18:03:05.000",
    "request_status": "Pending",
    "responsible_agency": "Department of Code Enforcement",
    "final_address": "2669 Treasure St",
    "address_councildis": "D",
    "status": "Pending",
    "rowid": "1228508",
    "final_x": "3687970.52943",
    "final_y": "544362.079823",
    "longitude": "-90.04718361431419",
    "latitude": "29.99060884263078",
    "geocoded_column": {
      "latitude": "29.99060884263078",
      "longitude": "-90.04718361431419"
    }
  },
  {
    "service_request": "2025-1228507",
    "request_type": "Property Maintenance",
    "request_reason": "Property Maintenance",
    "date_created": "2025-09-23T17:59:08.000",
    "date_modified": "2025-09-23T17:59:10.000",
    "request_status": "Pending",
    "responsible_agency": "Department of Code Enforcement",
    "final_address": "2646 Benefit St",
    "address_councildis": "D",
    "status": "Pending",
    "rowid": "1228507",
    "final_x": "3687785.51414",
    "final_y": "544644.995855",
    "longitude": "-90.04775800364703",
    "latitude": "29.991392469196125",
    "geocoded_column": {
      "latitude": "29.991392469196125",
      "longitude": "-90.04775800364703"
    }
  },
  {
    "service_request": "2025-1228506",
    "request_type": "Property Maintenance",
    "request_reason": "Property Maintenance",
    "date_created": "2025-09-23T17:57:04.000",
    "date_modified": "2025-09-23T17:57:05.000",
    "request_status": "Pending",
    "responsible_agency": "Department of Code Enforcement",
    "final_address": "2720 Benefit St",
    "address_councildis": "D",
    "status": "Pending",
    "rowid": "1228506",
    "final_x": "3688170.31055",
    "final_y": "544672.776399",
    "longitude": "-90.04654153580016",
    "latitude": "29.99145697927351",
    "geocoded_column": {
      "latitude": "29.99145697927351",
      "longitude": "-90.04654153580016"
    }
  },
  {
    "service_request": "2025-1228505",
    "request_type": "Property Maintenance",
    "request_reason": "Property Maintenance",
    "date_created": "2025-09-23T17:54:15.000",
    "date_modified": "2025-09-23T17:54:16.000",
    "request_status": "Pending",
    "responsible_agency": "Department of Code Enforcement",
    "final_address": "3800901 Bay St",
    "address_councildis": "D",
    "status": "Pending",
    "rowid": "1228505",
    "final_x": "3688615.04163",
    "final_y": "545176.670543",
    "longitude": "-90.04511883842288",
    "latitude": "29.99282876664518",
    "geocoded_column": {
      "latitude": "29.99282876664518",
      "longitude": "-90.04511883842288"
    }
  },
  {
    "service_request": "2025-1228504",
    "request_type": "Property Maintenance",
    "request_reason": "Property Maintenance",
    "date_created": "2025-09-23T17:52:39.000",
    "date_modified": "2025-09-23T17:52:41.000",
    "request_status": "Pending",
    "responsible_agency": "Department of Code Enforcement",
    "final_address": "2732 Bay St",
    "address_councildis": "D",
    "status": "Pending",
    "rowid": "1228504",
    "final_x": "3688250.84828",
    "final_y": "545244.200399",
    "longitude": "-90.0462668610007",
    "latitude": "29.993025702728104",
    "geocoded_column": {
      "latitude": "29.993025702728104",
      "longitude": "-90.0462668610007"
    }
  },
  {
    "service_request": "2025-1228503",
    "request_type": "Property Maintenance",
    "request_reason": "Property Maintenance",
    "date_created": "2025-09-23T17:51:02.000",
    "date_modified": "2025-09-23T17:51:04.000",
    "request_status": "Pending",
    "responsible_agency": "Department of Code Enforcement",
    "final_address": "2738 Bay St",
    "address_councildis": "D",
    "status": "Pending",
    "rowid": "1228503",
    "final_x": "3688307.35766",
    "final_y": "545252.129935",
    "longitude": "-90.04608807670421",
    "latitude": "29.99304576066204",
    "geocoded_column": {
      "latitude": "29.99304576066204",
      "longitude": "-90.04608807670421"
    }
  },
  {
    "service_request": "2025-1228502",
    "request_type": "Property Maintenance",
    "request_reason": "Property Maintenance",
    "date_created": "2025-09-23T17:49:52.000",
    "date_modified": "2025-09-23T17:49:54.000",
    "request_status": "Pending",
    "responsible_agency": "Department of Code Enforcement",
    "final_address": "2742 Edge St",
    "address_councildis": "D",
    "status": "Pending",
    "rowid": "1228502",
    "final_x": "3688228.04854",
    "final_y": "545080.265743",
    "longitude": "-90.0463446975566",
    "latitude": "29.99257564554227",
    "geocoded_column": {
      "latitude": "29.99257564554227",
      "longitude": "-90.0463446975566"
    }
  },
  {
    "service_request": "2025-1228501",
    "request_type": "Property Maintenance",
    "request_reason": "Property Maintenance",
    "date_created": "2025-09-23T17:47:43.000",
    "date_modified": "2025-09-23T17:47:45.000",
    "request_status": "Pending",
    "responsible_agency": "Department of Code Enforcement",
    "final_address": "3231 Rabbits St",
    "address_councildis": "D",
    "status": "Pending",
    "rowid": "1228501",
    "final_x": "3688355.25596",
    "final_y": "545003.306639",
    "longitude": "-90.0459456054516",
    "latitude": "29.99236010645137",
    "geocoded_column": {
      "latitude": "29.99236010645137",
      "longitude": "-90.0459456054516"
    }
  },
  {
    "service_request": "2025-1228500",
    "request_type": "Property Maintenance",
    "request_reason": "Property Maintenance",
    "date_created": "2025-09-23T17:43:50.000",
    "date_modified": "2025-09-23T17:43:51.000",
    "request_status": "Pending",
    "responsible_agency": "Department of Code Enforcement",
    "final_address": "3235 Rabbits St",
    "address_councildis": "D",
    "status": "Pending",
    "rowid": "1228500",
    "final_x": "3688346.61615",
    "final_y": "545073.491727",
    "longitude": "-90.04597040603394",
    "latitude": "29.992553357112524",
    "geocoded_column": {
      "latitude": "29.992553357112524",
      "longitude": "-90.04597040603394"
    }
  },
  {
    "service_request": "2025-1228499",
    "request_type": "Property Maintenance",
    "request_reason": "Property Maintenance",
    "date_created": "2025-09-23T17:41:01.000",
    "date_modified": "2025-09-23T17:41:03.000",
    "request_status": "Pending",
    "responsible_agency": "Department of Code Enforcement",
    "final_address": "2741 Benefit St",
    "address_councildis": "D",
    "status": "Pending",
    "rowid": "1228499",
    "final_x": "3688445.37507",
    "final_y": "544764.485455",
    "longitude": "-90.0456694150213",
    "latitude": "29.991700649684752",
    "geocoded_column": {
      "latitude": "29.991700649684752",
      "longitude": "-90.0456694150213"
    }
  },
  {
    "service_request": "2025-1228498",
    "request_type": "Property Maintenance",
    "request_reason": "Property Maintenance",
    "date_created": "2025-09-23T17:38:17.000",
    "date_modified": "2025-09-23T17:38:19.000",
    "request_status": "Pending",
    "responsible_agency": "Department of Code Enforcement",
    "final_address": "2759 Benefit St",
    "address_councildis": "D",
    "status": "Pending",
    "rowid": "1228498",
    "final_x": "3688607.28214",
    "final_y": "544781.632335",
    "longitude": "-90.04515737781306",
    "latitude": "29.99174279355666",
    "geocoded_column": {
      "latitude": "29.99174279355666",
      "longitude": "-90.04515737781306"
    }
  },
  {
    "service_request": "2025-1228497",
    "request_type": "Trash/Recycling",
    "request_reason": "Order Recycling Cart",
    "date_created": "2025-09-23T17:38:06.000",
    "date_modified": "2025-09-23T17:38:09.000",
    "request_status": "Pending",
    "responsible_agency": "Department of Sanitation",
    "final_address": "33 Marywood Ct",
    "address_councildis": "E",
    "status": "Pending",
    "rowid": "1228497",
    "final_x": "3712431.8771",
    "final_y": "566973.637028",
    "longitude": "-89.96906671805289",
    "latitude": "30.05200410070936",
    "geocoded_column": {
      "latitude": "30.05200410070936",
      "longitude": "-89.96906671805289"
    }
  },
  {
    "service_request": "2025-1228496",
    "request_type": "Property Maintenance",
    "request_reason": "Property Maintenance",
    "date_created": "2025-09-23T17:34:58.000",
    "date_modified": "2025-09-23T17:34:59.000",
    "request_status": "Pending",
    "responsible_agency": "Department of Code Enforcement",
    "final_address": "2661 Abundance St",
    "address_councildis": "D",
    "status": "Pending",
    "rowid": "1228496",
    "final_x": "3687917.74396",
    "final_y": "543988.167758",
    "longitude": "-90.04736360539033",
    "latitude": "29.989582347445936",
    "geocoded_column": {
      "latitude": "29.989582347445936",
      "longitude": "-90.04736360539033"
    }
  },
  {
    "service_request": "2025-1228495",
    "request_type": "Trash/Recycling",
    "request_reason": "Repair Trash Cart",
    "date_created": "2025-09-23T17:34:36.000",
    "date_modified": "2025-09-23T17:34:37.000",
    "request_status": "Pending",
    "responsible_agency": "Department of Sanitation",
    "final_address": "3127 Dauphine St",
    "address_councildis": "C",
    "status": "Assigned to Contractor",
    "contractor": "IV Waste",
    "rowid": "1228495",
    "final_x": "3688938.95657",
    "final_y": "534828.517254",
    "longitude": "-90.04446333403554",
    "latitude": "29.964364996072092",
    "geocoded_column": {
      "latitude": "29.964364996072092",
      "longitude": "-90.04446333403554"
    }
  },
  {
    "service_request": "2025-1228494",
    "request_type": "Trash/Recycling",
    "request_reason": "Missed Trash Pick-Up",
    "date_created": "2025-09-23T17:33:12.000",
    "date_modified": "2025-09-23T17:33:13.000",
    "request_status": "Pending",
    "responsible_agency": "Department of Sanitation",
    "final_address": "3818 Cleveland Ave",
    "address_councildis": "A",
    "status": "Assigned to Contractor",
    "contractor": "IV Waste",
    "rowid": "1228494",
    "final_x": "3671650.96289",
    "final_y": "537333.112904",
    "longitude": "-90.09897236650568",
    "latitude": "29.97177516612929",
    "geocoded_column": {
      "latitude": "29.97177516612929",
      "longitude": "-90.09897236650568"
    }
  },
  {
    "service_request": "2025-1228493",
    "request_type": "Property Maintenance",
    "request_reason": "Property Maintenance",
    "date_created": "2025-09-23T17:31:09.000",
    "date_modified": "2025-09-23T17:31:12.000",
    "request_status": "Pending",
    "responsible_agency": "Department of Code Enforcement",
    "final_address": "2649 Abundance St",
    "address_councildis": "D",
    "status": "Pending",
    "rowid": "1228493",
    "final_x": "3687828.54819",
    "final_y": "543980.041166",
    "longitude": "-90.04764563702858",
    "latitude": "29.989562754428324",
    "geocoded_column": {
      "latitude": "29.989562754428324",
      "longitude": "-90.04764563702858"
    }
  },
  {
    "service_request": "2025-1228492",
    "request_type": "Property Maintenance",
    "request_reason": "Property Maintenance",
    "date_created": "2025-09-23T17:27:22.000",
    "date_modified": "2025-09-23T17:27:24.000",
    "request_status": "Pending",
    "responsible_agency": "Department of Code Enforcement",
    "final_address": "2669 Treasure St",
    "address_councildis": "D",
    "status": "Pending",
    "rowid": "1228492",
    "final_x": "3687970.52943",
    "final_y": "544362.079823",
    "longitude": "-90.04718361431419",
    "latitude": "29.99060884263078",
    "geocoded_column": {
      "latitude": "29.99060884263078",
      "longitude": "-90.04718361431419"
    }
  },
  {
    "service_request": "2025-1228491",
    "request_type": "Trash/Recycling",
    "request_reason": "Replace Trash Cart",
    "date_created": "2025-09-23T17:25:41.000",
    "date_modified": "2025-09-23T17:25:43.000",
    "request_status": "Pending",
    "responsible_agency": "Department of Sanitation",
    "final_address": "1206 Clouet St",
    "address_councildis": "C",
    "status": "Assigned to Contractor",
    "contractor": "IV Waste",
    "rowid": "1228491",
    "final_x": "3689080.38639",
    "final_y": "536431.931719",
    "longitude": "-90.04395973404286",
    "latitude": "29.96876944999195",
    "geocoded_column": {
      "latitude": "29.96876944999195",
      "longitude": "-90.04395973404286"
    }
  },
  {
    "service_request": "2025-1228490",
    "request_type": "Property Maintenance",
    "request_reason": "Property Maintenance",
    "date_created": "2025-09-23T17:09:37.000",
    "date_modified": "2025-09-23T17:09:39.000",
    "request_status": "Pending",
    "responsible_agency": "Department of Code Enforcement",
    "final_address": "3039 Eads St",
    "address_councildis": "D",
    "status": "Pending",
    "rowid": "1228490",
    "final_x": "3687695.77807",
    "final_y": "544251.225742",
    "longitude": "-90.0480554109913",
    "latitude": "29.99031251052809",
    "geocoded_column": {
      "latitude": "29.99031251052809",
      "longitude": "-90.0480554109913"
    }
  },
  {
    "service_request": "2025-1228489",
    "request_type": "Trash/Recycling",
    "request_reason": "Order Recycling Cart",
    "date_created": "2025-09-23T17:04:49.000",
    "date_modified": "2025-09-23T17:04:51.000",
    "request_status": "Pending",
    "responsible_agency": "Department of Sanitation",
    "final_address": "3515 St Charles Ave",
    "address_councildis": "B",
    "status": "Pending",
    "rowid": "1228489",
    "final_x": "3673654.15956",
    "final_y": "521540.628921",
    "longitude": "-90.09318575047564",
    "latitude": "29.928291567121672",
    "geocoded_column": {
      "latitude": "29.928291567121672",
      "longitude": "-90.09318575047564"
    }
  },
  {
    "service_request": "2025-1228488",
    "request_type": "Streetlights",
    "request_reason": "Streetlight Outage/Malfunction",
    "date_created": "2025-09-23T17:04:35.000",
    "date_modified": "2025-09-23T17:04:37.000",
    "request_status": "Pending",
    "responsible_agency": "Department of Public Works",
    "final_address": "2265 St Charles Ave",
    "address_councildis": "B",
    "status": "Pending",
    "rowid": "1228488",
    "final_x": "3677144.91541",
    "final_y": "523437.133883",
    "longitude": "-90.08210082256034",
    "latitude": "29.9334019911984",
    "geocoded_column": {
      "latitude": "29.9334019911984",
      "longitude": "-90.08210082256034"
    }
  },
  {
    "service_request": "2025-1228487",
    "request_type": "Property Maintenance",
    "request_reason": "Property Maintenance",
    "date_created": "2025-09-23T17:03:12.000",
    "date_modified": "2025-09-23T17:03:14.000",
    "request_status": "Pending",
    "responsible_agency": "Department of Code Enforcement",
    "final_address": "2712 Treasure St",
    "address_councildis": "D",
    "status": "Pending",
    "rowid": "1228487",
    "final_x": "3688108.65487",
    "final_y": "544296.186511",
    "longitude": "-90.04674964865046",
    "latitude": "29.990423395903637",
    "geocoded_column": {
      "latitude": "29.990423395903637",
      "longitude": "-90.04674964865046"
    }
  },
  {
    "service_request": "2025-1228486",
    "request_type": "Parks & Parkways",
    "request_reason": "Park Maintenance/Clean Up",
    "date_created": "2025-09-23T17:00:52.000",
    "date_modified": "2025-09-23T17:00:57.000",
    "request_status": "Pending",
    "responsible_agency": "Department of Parks & Parkway",
    "final_address": "6301 Canal Blvd",
    "address_councildis": "A",
    "status": "Pending",
    "rowid": "1228486",
    "final_x": "3668805.38932",
    "final_y": "549369.744083",
    "longitude": "-90.10755250041724",
    "latitude": "30.004955769971186",
    "geocoded_column": {
      "latitude": "30.004955769971186",
      "longitude": "-90.10755250041724"
    }
  },
  {
    "service_request": "2025-1228485",
    "request_type": "Trash/Recycling",
    "request_reason": "Request a Large Item Pick Up",
    "date_created": "2025-09-23T16:55:58.000",
    "date_modified": "2025-09-23T16:56:00.000",
    "request_status": "Pending",
    "responsible_agency": "Department of Sanitation",
    "final_address": "7902 Freret St",
    "address_councildis": "A",
    "status": "Assigned to Contractor",
    "contractor": "IV Waste",
    "rowid": "1228485",
    "final_x": "3661995.03879",
    "final_y": "527344.024063",
    "longitude": "-90.1297987847559",
    "latitude": "29.94459089428192",
    "geocoded_column": {
      "latitude": "29.94459089428192",
      "longitude": "-90.1297987847559"
    }
  },
  {
    "service_request": "2025-1228484",
    "request_type": "Trash/Recycling",
    "request_reason": "Request a Large Item Pick Up",
    "date_created": "2025-09-23T16:54:28.000",
    "date_modified": "2025-09-23T16:54:30.000",
    "request_status": "Pending",
    "responsible_agency": "Department of Sanitation",
    "final_address": "539 Fats Domino Ave",
    "address_councildis": "E",
    "status": "Assigned to Contractor",
    "contractor": "Waste Pro",
    "rowid": "1228484",
    "final_x": "3697557.11658",
    "final_y": "531877.498883",
    "longitude": "-90.01735505128123",
    "latitude": "29.95598137816933",
    "geocoded_column": {
      "latitude": "29.95598137816933",
      "longitude": "-90.01735505128123"
    }
  },
  {
    "service_request": "2025-1228483",
    "request_type": "Trash/Recycling",
    "request_reason": "Request a Large Item Pick Up",
    "date_created": "2025-09-23T16:53:39.000",
    "date_modified": "2025-09-23T16:53:41.000",
    "request_status": "Pending",
    "responsible_agency": "Department of Sanitation",
    "final_address": "10 Charlotte Dr",
    "address_councildis": "D",
    "status": "Assigned to Contractor",
    "contractor": "IV Waste",
    "rowid": "1228483",
    "final_x": "3680056.82434",
    "final_y": "551437.783317",
    "longitude": "-90.0719349896129",
    "latitude": "30.01030637879483",
    "geocoded_column": {
      "latitude": "30.01030637879483",
      "longitude": "-90.0719349896129"
    }
  },
  {
    "service_request": "2025-1228482",
    "request_type": "Parks & Parkways",
    "request_reason": "Request Tree Service (Right of Way/Public Property)",
    "date_created": "2025-09-23T16:52:25.000",
    "date_modified": "2025-09-23T16:52:27.000",
    "request_status": "Pending",
    "responsible_agency": "Department of Parks & Parkway",
    "final_address": "13511 Dwyer Blvd",
    "address_councildis": "E",
    "status": "Pending",
    "rowid": "1228482",
    "final_x": "3725954.58809",
    "final_y": "562107.552031",
    "longitude": "-89.92651500341378",
    "latitude": "30.03817475627309",
    "geocoded_column": {
      "latitude": "30.03817475627309",
      "longitude": "-89.92651500341378"
    }
  },
  {
    "service_request": "2025-1228481",
    "request_type": "Abandoned Vehicles",
    "request_reason": "Abandoned/Junk Vehicles",
    "date_created": "2025-09-23T16:49:36.000",
    "date_modified": "2025-09-23T16:49:50.000",
    "request_status": "Pending",
    "responsible_agency": "Department of Public Works",
    "final_address": "LAUREL ST & BELLECASTLE ST",
    "address_councildis": "B",
    "status": "Pending",
    "rowid": "1228481",
    "final_x": "3667667.7",
    "final_y": "517877.88",
    "longitude": "-90.11220696980725",
    "latitude": "29.91839696318268",
    "geocoded_column": {
      "latitude": "29.91839696318268",
      "longitude": "-90.11220696980725"
    }
  },
  {
    "service_request": "2025-1228480",
    "request_type": "Property Maintenance",
    "request_reason": "Property Maintenance",
    "date_created": "2025-09-23T16:46:55.000",
    "date_modified": "2025-09-23T16:46:58.000",
    "request_status": "Pending",
    "responsible_agency": "Department of Code Enforcement",
    "final_address": "3119 Deers St",
    "address_councildis": "D",
    "status": "Pending",
    "rowid": "1228480",
    "final_x": "3688034.55337",
    "final_y": "544496.997711",
    "longitude": "-90.04697659481823",
    "latitude": "29.99097784228066",
    "geocoded_column": {
      "latitude": "29.99097784228066",
      "longitude": "-90.04697659481823"
    }
  },
  {
    "service_request": "2025-1228479",
    "request_type": "Trash/Recycling",
    "request_reason": "Request a Large Item Pick Up",
    "date_created": "2025-09-23T16:43:07.000",
    "date_modified": "2025-09-23T16:43:10.000",
    "request_status": "Pending",
    "responsible_agency": "Department of Sanitation",
    "final_address": "2844 Danneel St",
    "address_councildis": "B",
    "status": "Assigned to Contractor",
    "contractor": "IV Waste",
    "rowid": "1228479",
    "final_x": "3674839.386",
    "final_y": "523502.152251",
    "longitude": "-90.08937702406301",
    "latitude": "29.9336497946037",
    "geocoded_column": {
      "latitude": "29.9336497946037",
      "longitude": "-90.08937702406301"
    }
  },
  {
    "service_request": "2025-1228478",
    "request_type": "Abandoned Vehicles",
    "request_reason": "Abandoned/Junk Vehicles",
    "date_created": "2025-09-23T16:41:30.000",
    "date_modified": "2025-09-23T16:41:37.000",
    "request_status": "Pending",
    "responsible_agency": "Department of Public Works",
    "final_address": "4727 Francis Dr",
    "address_councildis": "D",
    "status": "Pending",
    "rowid": "1228478",
    "final_x": "3698291.8712",
    "final_y": "554280.110424",
    "longitude": "-90.01422059623319",
    "latitude": "30.017557137900454",
    "geocoded_column": {
      "latitude": "30.017557137900454",
      "longitude": "-90.01422059623319"
    }
  },
  {
    "service_request": "2025-1228477",
    "request_type": "Abandoned Vehicles",
    "request_reason": "Abandoned/Junk Vehicles",
    "date_created": "2025-09-23T16:39:10.000",
    "date_modified": "2025-09-23T16:39:12.000",
    "request_status": "Pending",
    "responsible_agency": "Department of Public Works",
    "final_address": "3015 Frenchmen St",
    "address_councildis": "D",
    "status": "Pending",
    "rowid": "1228477",
    "final_x": "3684032.09199",
    "final_y": "543791.564878",
    "longitude": "-90.05964417238299",
    "latitude": "29.98916109486121",
    "geocoded_column": {
      "latitude": "29.98916109486121",
      "longitude": "-90.05964417238299"
    }
  },
  {
    "service_request": "2025-1228476",
    "request_type": "Trash/Recycling",
    "request_reason": "Replace Trash Cart",
    "date_created": "2025-09-23T16:38:12.000",
    "date_modified": "2025-09-23T16:38:14.000",
    "request_status": "Pending",
    "responsible_agency": "Department of Sanitation",
    "final_address": "262 Vallette St",
    "address_councildis": "C",
    "status": "Assigned to Contractor",
    "contractor": "Richards Disposal",
    "rowid": "1228476",
    "final_x": "3687627.45999",
    "final_y": "530948.372162",
    "longitude": "-90.04874229469107",
    "latitude": "29.953736436035037",
    "geocoded_column": {
      "latitude": "29.953736436035037",
      "longitude": "-90.04874229469107"
    }
  },
  {
    "service_request": "2025-1228475",
    "request_type": "Trash/Recycling",
    "request_reason": "Request a Large Item Pick Up",
    "date_created": "2025-09-23T16:34:01.000",
    "date_modified": "2025-09-23T16:34:02.000",
    "request_status": "Pending",
    "responsible_agency": "Department of Sanitation",
    "final_address": "4727 Francis Dr",
    "address_councildis": "D",
    "status": "Assigned to Contractor",
    "contractor": "Waste Pro",
    "rowid": "1228475",
    "final_x": "3698291.8712",
    "final_y": "554280.110424",
    "longitude": "-90.01422059623319",
    "latitude": "30.017557137900454",
    "geocoded_column": {
      "latitude": "30.017557137900454",
      "longitude": "-90.01422059623319"
    }
  },
  {
    "service_request": "2025-1228474",
    "request_type": "General Services",
    "request_reason": "General Service Request",
    "date_created": "2025-09-23T16:32:28.000",
    "date_modified": "2025-09-23T16:32:29.000",
    "request_status": "Pending",
    "responsible_agency": "Orleans Parish Communication District",
    "final_address": "3429 River Oaks Dr",
    "address_councildis": "C",
    "status": "Pending",
    "rowid": "1228474",
    "final_x": "3701352.28945",
    "final_y": "518467.898486",
    "longitude": "-90.0058618325783",
    "latitude": "29.918989267078942",
    "geocoded_column": {
      "latitude": "29.918989267078942",
      "longitude": "-90.0058618325783"
    }
  },
  {
    "service_request": "2025-1228473",
    "request_type": "Trash/Recycling",
    "request_reason": "Order Recycling Cart",
    "date_created": "2025-09-23T16:31:35.000",
    "date_modified": "2025-09-23T16:31:37.000",
    "request_status": "Pending",
    "responsible_agency": "Department of Sanitation",
    "final_address": "2723 N Roman St",
    "address_councildis": "D",
    "status": "Pending",
    "rowid": "1228473",
    "final_x": "3688301.57615",
    "final_y": "538996.941642",
    "longitude": "-90.04632827258423",
    "latitude": "29.97584640005778",
    "geocoded_column": {
      "latitude": "29.97584640005778",
      "longitude": "-90.04632827258423"
    }
  },
  {
    "service_request": "2025-1228472",
    "request_type": "Property Maintenance",
    "request_reason": "Property Maintenance",
    "date_created": "2025-09-23T16:23:15.000",
    "date_modified": "2025-09-23T16:23:16.000",
    "request_status": "Pending",
    "responsible_agency": "Department of Code Enforcement",
    "final_address": "1726 Andry St",
    "address_councildis": "E",
    "status": "Pending",
    "rowid": "1228472",
    "final_x": "3697728.50378",
    "final_y": "536513.524871",
    "longitude": "-90.01664565628977",
    "latitude": "29.968723387702624",
    "geocoded_column": {
      "latitude": "29.968723387702624",
      "longitude": "-90.01664565628977"
    }
  },
  {
    "service_request": "2025-1228471",
    "request_type": "Trash/Recycling",
    "request_reason": "Request a Large Item Pick Up",
    "date_created": "2025-09-23T16:21:48.000",
    "date_modified": "2025-09-23T16:21:50.000",
    "request_status": "Pending",
    "responsible_agency": "Department of Sanitation",
    "final_address": "6019 Beechcraft St",
    "address_councildis": "D",
    "status": "Assigned to Contractor",
    "contractor": "Waste Pro",
    "rowid": "1228471",
    "final_x": "3696553.50832",
    "final_y": "553205.917463",
    "longitude": "-90.01975201524084",
    "latitude": "30.014658423984173",
    "geocoded_column": {
      "latitude": "30.014658423984173",
      "longitude": "-90.01975201524084"
    }
  },
  {
    "service_request": "2025-1228470",
    "request_type": "Roads and Streets",
    "request_reason": "Abandoned Service Cut",
    "date_created": "2025-09-23T16:20:50.000",
    "date_modified": "2025-09-23T16:20:51.000",
    "request_status": "Pending",
    "responsible_agency": "Department of Public Works",
    "final_address": "JEFFERSON AVE & MAGNOLIA ST",
    "address_councildis": "A",
    "status": "Pending",
    "rowid": "1228470",
    "final_x": "3668049.4",
    "final_y": "524686.28",
    "longitude": "-90.11077284844907",
    "latitude": "29.93710670936022",
    "geocoded_column": {
      "latitude": "29.93710670936022",
      "longitude": "-90.11077284844907"
    }
  },
  {
    "service_request": "2025-1228469",
    "request_type": "Property Maintenance",
    "request_reason": "Property Maintenance",
    "date_created": "2025-09-23T16:20:13.000",
    "date_modified": "2025-09-23T16:20:16.000",
    "request_status": "Pending",
    "responsible_agency": "Department of Code Enforcement",
    "final_address": "3825 Metropolitan St",
    "address_councildis": "D",
    "status": "Pending",
    "rowid": "1228469",
    "final_x": "3691614.99593",
    "final_y": "547085.483089",
    "longitude": "-90.035574264075",
    "latitude": "29.997984228516476",
    "geocoded_column": {
      "latitude": "29.997984228516476",
      "longitude": "-90.035574264075"
    }
  },
  {
    "service_request": "2025-1228468",
    "request_type": "Trash/Recycling",
    "request_reason": "Request a Large Item Pick Up",
    "date_created": "2025-09-23T16:19:04.000",
    "date_modified": "2025-09-23T16:19:06.000",
    "request_status": "Pending",
    "responsible_agency": "Department of Sanitation",
    "final_address": "2643 Republic St",
    "address_councildis": "D",
    "status": "Assigned to Contractor",
    "contractor": "IV Waste",
    "rowid": "1228468",
    "final_x": "3680784.23074",
    "final_y": "542022.267148",
    "longitude": "-90.0699648238289",
    "latitude": "29.984395016244164",
    "geocoded_column": {
      "latitude": "29.984395016244164",
      "longitude": "-90.0699648238289"
    }
  },
  {
    "service_request": "2025-1228467",
    "request_type": "Parks & Parkways",
    "request_reason": "Request Grass Cutting Service (City Owned Property)",
    "date_created": "2025-09-23T16:14:44.000",
    "date_modified": "2025-09-23T16:16:03.000",
    "request_status": "Pending",
    "responsible_agency": "Department of Parks & Parkway",
    "final_address": "3500 BLK Behrman Pl",
    "address_councildis": "C",
    "status": "Pending",
    "rowid": "1228467",
    "final_x": "3697644.1903",
    "final_y": "518730.701171",
    "longitude": "-90.01755680042837",
    "latitude": "29.91982948707314",
    "geocoded_column": {
      "latitude": "29.91982948707314",
      "longitude": "-90.01755680042837"
    }
  },
  {
    "service_request": "2025-1228466",
    "request_type": "Trash/Recycling",
    "request_reason": "Request a Large Item Pick Up",
    "date_created": "2025-09-23T16:12:50.000",
    "date_modified": "2025-09-23T16:12:52.000",
    "request_status": "Pending",
    "responsible_agency": "Department of Sanitation",
    "final_address": "6030 Perrier St",
    "address_councildis": "A",
    "status": "Assigned to Contractor",
    "contractor": "IV Waste",
    "rowid": "1228466",
    "final_x": "3664864.0137",
    "final_y": "520542.62348",
    "longitude": "-90.12096775408406",
    "latitude": "29.92580603324055",
    "geocoded_column": {
      "latitude": "29.92580603324055",
      "longitude": "-90.12096775408406"
    }
  },
  {
    "service_request": "2025-1228465",
    "request_type": "Abandoned Vehicles",
    "request_reason": "Abandoned/Junk Vehicles",
    "date_created": "2025-09-23T16:05:47.000",
    "date_modified": "2025-09-23T16:05:50.000",
    "request_status": "Pending",
    "responsible_agency": "Department of Public Works",
    "final_address": "1730 Constantinople St",
    "address_councildis": "B",
    "status": "Pending",
    "rowid": "1228465",
    "final_x": "3672209.54113",
    "final_y": "521643.424633",
    "longitude": "-90.09774260248383",
    "latitude": "29.928617134855973",
    "geocoded_column": {
      "latitude": "29.928617134855973",
      "longitude": "-90.09774260248383"
    }
  },
  {
    "service_request": "2025-1228464",
    "request_type": "Trash/Recycling",
    "request_reason": "Repair Recycling Cart",
    "date_created": "2025-09-23T16:03:58.000",
    "date_modified": "2025-09-23T16:03:59.000",
    "request_status": "Pending",
    "responsible_agency": "Department of Sanitation",
    "final_address": "5852 Durbridge Dr",
    "address_councildis": "C",
    "status": "Pending",
    "rowid": "1228464",
    "final_x": "3705324.665",
    "final_y": "521383.564409",
    "longitude": "-89.99321555384138",
    "latitude": "29.92687919626214",
    "geocoded_column": {
      "latitude": "29.92687919626214",
      "longitude": "-89.99321555384138"
    }
  },
  {
    "service_request": "2025-1228463",
    "request_type": "Trash/Recycling",
    "request_reason": "Repair Trash Cart",
    "date_created": "2025-09-23T16:03:17.000",
    "date_modified": "2025-09-23T16:03:19.000",
    "request_status": "Pending",
    "responsible_agency": "Department of Sanitation",
    "final_address": "3701 Rue Michelle",
    "address_councildis": "C",
    "status": "Assigned to Contractor",
    "contractor": "Richards Disposal",
    "rowid": "1228463",
    "final_x": "3703529.13303",
    "final_y": "516950.810805",
    "longitude": "-89.99904647202453",
    "latitude": "29.914748274112917",
    "geocoded_column": {
      "latitude": "29.914748274112917",
      "longitude": "-89.99904647202453"
    }
  },
  {
    "service_request": "2025-1228462",
    "request_type": "Trash/Recycling",
    "request_reason": "Return Trash Cart",
    "date_created": "2025-09-23T16:01:47.000",
    "date_modified": "2025-09-23T16:01:57.000",
    "request_status": "Pending",
    "responsible_agency": "Department of Sanitation",
    "final_address": "5852 Durbridge Dr",
    "address_councildis": "C",
    "status": "Assigned to Contractor",
    "contractor": "Richards Disposal",
    "rowid": "1228462",
    "final_x": "3705324.665",
    "final_y": "521383.564409",
    "longitude": "-89.99321555384138",
    "latitude": "29.92687919626214",
    "geocoded_column": {
      "latitude": "29.92687919626214",
      "longitude": "-89.99321555384138"
    }
  },
  {
    "service_request": "2025-1228461",
    "request_type": "Trash/Recycling",
    "request_reason": "Repair Trash Cart",
    "date_created": "2025-09-23T15:58:04.000",
    "date_modified": "2025-09-23T15:58:06.000",
    "request_status": "Pending",
    "responsible_agency": "Department of Sanitation",
    "final_address": "1218 Moss St",
    "address_councildis": "A",
    "status": "Assigned to Contractor",
    "contractor": "IV Waste",
    "rowid": "1228461",
    "final_x": "3675226.17979",
    "final_y": "539912.11553",
    "longitude": "-90.08759271354526",
    "latitude": "29.97876015725703",
    "geocoded_column": {
      "latitude": "29.97876015725703",
      "longitude": "-90.08759271354526"
    }
  },
  {
    "service_request": "2025-1228460",
    "request_type": "Trash/Recycling",
    "request_reason": "Replace Trash Cart",
    "date_created": "2025-09-23T15:57:55.000",
    "date_modified": "2025-09-23T15:57:57.000",
    "request_status": "Pending",
    "responsible_agency": "Department of Sanitation",
    "final_address": "401 10Th St",
    "address_councildis": "A",
    "status": "Assigned to Contractor",
    "contractor": "IV Waste",
    "rowid": "1228460",
    "final_x": "3664689.33991",
    "final_y": "547615.790482",
    "longitude": "-90.12061464842657",
    "latitude": "30.00025343194473",
    "geocoded_column": {
      "latitude": "30.00025343194473",
      "longitude": "-90.12061464842657"
    }
  },
  {
    "service_request": "2025-1228459",
    "request_type": "Trash/Recycling",
    "request_reason": "Illegal Dumping",
    "date_created": "2025-09-23T15:53:12.000",
    "date_modified": "2025-09-23T15:53:13.000",
    "request_status": "Pending",
    "responsible_agency": "Department of Sanitation",
    "final_address": "7TH ST & LOYOLA AVE",
    "address_councildis": "B",
    "status": "Pending",
    "rowid": "1228459",
    "final_x": "3674066.2",
    "final_y": "523870.98",
    "longitude": "-90.09180532040499",
    "latitude": "29.934687008956473",
    "geocoded_column": {
      "latitude": "29.934687008956473",
      "longitude": "-90.09180532040499"
    }
  },
  {
    "service_request": "2025-1228458",
    "request_type": "Trash/Recycling",
    "request_reason": "Change Size of Trash Cart",
    "date_created": "2025-09-23T15:52:58.000",
    "date_modified": "2025-09-23T15:52:59.000",
    "request_status": "Pending",
    "responsible_agency": "Department of Sanitation",
    "final_address": "9237 Palm St",
    "address_councildis": "A",
    "status": "Assigned to Contractor",
    "contractor": "IV Waste",
    "rowid": "1228458",
    "final_x": "3664666.15744",
    "final_y": "537545.066376",
    "longitude": "-90.1210244786601",
    "latitude": "29.972563014734657",
    "geocoded_column": {
      "latitude": "29.972563014734657",
      "longitude": "-90.1210244786601"
    }
  },
  {
    "service_request": "2025-1228457",
    "request_type": "Parks & Parkways",
    "request_reason": "Request Tree Service (Right of Way/Public Property)",
    "date_created": "2025-09-23T15:47:15.000",
    "date_modified": "2025-09-23T15:47:17.000",
    "request_status": "Pending",
    "responsible_agency": "Department of Parks & Parkway",
    "final_address": "2514 Washington Ave",
    "address_councildis": "B",
    "status": "Pending",
    "rowid": "1228457",
    "final_x": "3673971.55476",
    "final_y": "525373.419005",
    "longitude": "-90.0920527316924",
    "latitude": "29.938821046131253",
    "geocoded_column": {
      "latitude": "29.938821046131253",
      "longitude": "-90.0920527316924"
    }
  },
  {
    "service_request": "2025-1228456",
    "request_type": "Trash/Recycling",
    "request_reason": "Request a Large Item Pick Up",
    "date_created": "2025-09-23T15:46:06.000",
    "date_modified": "2025-09-23T15:46:07.000",
    "request_status": "Pending",
    "responsible_agency": "Department of Sanitation",
    "final_address": "4624 Charlene Dr",
    "address_councildis": "E",
    "status": "Assigned to Contractor",
    "contractor": "Waste Pro",
    "rowid": "1228456",
    "final_x": "3707930.75934",
    "final_y": "554674.717464",
    "longitude": "-89.98375110809992",
    "latitude": "30.018333520397995",
    "geocoded_column": {
      "latitude": "30.018333520397995",
      "longitude": "-89.98375110809992"
    }
  },
  {
    "service_request": "2025-1228455",
    "request_type": "Trash/Recycling",
    "request_reason": "Request a Large Item Pick Up",
    "date_created": "2025-09-23T15:45:50.000",
    "date_modified": "2025-09-23T15:45:52.000",
    "request_status": "Pending",
    "responsible_agency": "Department of Sanitation",
    "final_address": "1449 N Roman St",
    "address_councildis": "D",
    "status": "Assigned to Contractor",
    "contractor": "IV Waste",
    "rowid": "1228455",
    "final_x": "3680955.67701",
    "final_y": "537415.059144",
    "longitude": "-90.06958379725657",
    "latitude": "29.971721596381997",
    "geocoded_column": {
      "latitude": "29.971721596381997",
      "longitude": "-90.06958379725657"
    }
  },
  {
    "service_request": "2025-1228454",
    "request_type": "Streetlights",
    "request_reason": "Streetlight Outage/Malfunction",
    "date_created": "2025-09-23T15:43:11.000",
    "date_modified": "2025-09-23T15:43:12.000",
    "request_status": "Pending",
    "responsible_agency": "Department of Public Works",
    "final_address": "638 Tupelo St",
    "address_councildis": "E",
    "status": "Pending",
    "rowid": "1228454",
    "final_x": "3698870.94928",
    "final_y": "531864.360771",
    "longitude": "-90.0132069237836",
    "latitude": "29.955903697638107",
    "geocoded_column": {
      "latitude": "29.955903697638107",
      "longitude": "-90.0132069237836"
    }
  },
  {
    "service_request": "2025-1228453",
    "request_type": "Trash/Recycling",
    "request_reason": "Request a Large Item Pick Up",
    "date_created": "2025-09-23T15:39:58.000",
    "date_modified": "2025-09-23T15:40:00.000",
    "request_status": "Pending",
    "responsible_agency": "Department of Sanitation",
    "final_address": "11100 Ivy Ln",
    "address_councildis": "E",
    "status": "Assigned to Contractor",
    "contractor": "Waste Pro",
    "rowid": "1228453",
    "final_x": "3715962.50424",
    "final_y": "559712.801181",
    "longitude": "-89.9581830258378",
    "latitude": "30.031923689391434",
    "geocoded_column": {
      "latitude": "30.031923689391434",
      "longitude": "-89.9581830258378"
    }
  },
  {
    "service_request": "2025-1228452",
    "request_type": "Trash/Recycling",
    "request_reason": "Request a Large Item Pick Up",
    "date_created": "2025-09-23T15:38:29.000",
    "date_modified": "2025-09-23T15:38:31.000",
    "request_status": "Pending",
    "responsible_agency": "Department of Sanitation",
    "final_address": "5731 Wright Rd",
    "address_councildis": "E",
    "status": "Assigned to Contractor",
    "contractor": "Waste Pro",
    "rowid": "1228452",
    "final_x": "3714663.66162",
    "final_y": "561124.529822",
    "longitude": "-89.96223401903487",
    "latitude": "30.035848173876175",
    "geocoded_column": {
      "latitude": "30.035848173876175",
      "longitude": "-89.96223401903487"
    }
  },
  {
    "service_request": "2025-1228451",
    "request_type": "Traffic Signals",
    "request_reason": "Traffic Signal Malfunctioning or Damaged",
    "date_created": "2025-09-23T15:37:50.000",
    "date_modified": "2025-09-23T15:37:51.000",
    "request_status": "Pending",
    "responsible_agency": "Department of Public Works",
    "final_address": "LAKE FOREST BLVD & READ BLVD",
    "address_councildis": "E",
    "status": "Pending",
    "rowid": "1228451",
    "final_x": "3711213.6",
    "final_y": "559998.28",
    "longitude": "-89.97317898837136",
    "latitude": "30.03286449618675",
    "geocoded_column": {
      "latitude": "30.03286449618675",
      "longitude": "-89.97317898837136"
    }
  },
  {
    "service_request": "2025-1228450",
    "request_type": "Trash/Recycling",
    "request_reason": "Illegal Dumping",
    "date_created": "2025-09-23T15:36:51.000",
    "date_modified": "2025-09-23T15:36:53.000",
    "request_status": "Pending",
    "responsible_agency": "Department of Sanitation",
    "final_address": "I 10 W SERVICE RD & WRIGHT RD",
    "address_councildis": "E",
    "status": "Pending",
    "rowid": "1228450",
    "final_x": "3712734.1",
    "final_y": "563386.88",
    "longitude": "-89.96824655099546",
    "latitude": "30.042132073687252",
    "geocoded_column": {
      "latitude": "30.042132073687252",
      "longitude": "-89.96824655099546"
    }
  },
  {
    "service_request": "2025-1228449",
    "request_type": "Utility Poles",
    "request_reason": "Utility Pole Leaning",
    "date_created": "2025-09-23T15:25:27.000",
    "date_modified": "2025-09-23T15:25:29.000",
    "request_status": "Pending",
    "responsible_agency": "Utility Company Collective",
    "final_address": "1910 Marengo St",
    "address_councildis": "B",
    "status": "Pending",
    "rowid": "1228449",
    "final_x": "3671784.83297",
    "final_y": "522148.727418",
    "longitude": "-90.09906613743753",
    "latitude": "29.93001914112544",
    "geocoded_column": {
      "latitude": "29.93001914112544",
      "longitude": "-90.09906613743753"
    }
  },
  {
    "service_request": "2025-1228448",
    "request_type": "Trash/Recycling",
    "request_reason": "Return Recycling Cart",
    "date_created": "2025-09-23T15:23:26.000",
    "date_modified": "2025-09-23T15:23:28.000",
    "request_status": "Pending",
    "responsible_agency": "Department of Sanitation",
    "final_address": "15 Glacier Ct",
    "address_councildis": "C",
    "status": "Pending",
    "rowid": "1228448",
    "final_x": "3699955.14167",
    "final_y": "516083.780852",
    "longitude": "-90.01035876815719",
    "latitude": "29.912478187535275",
    "geocoded_column": {
      "latitude": "29.912478187535275",
      "longitude": "-90.01035876815719"
    }
  },
  {
    "service_request": "2025-1228447",
    "request_type": "Trash/Recycling",
    "request_reason": "Illegal Dumping",
    "date_created": "2025-09-23T15:21:50.000",
    "date_modified": "2025-09-23T15:21:52.000",
    "request_status": "Pending",
    "responsible_agency": "Department of Sanitation",
    "final_address": "1901 Tchoupitoulas St",
    "address_councildis": "B",
    "status": "Pending",
    "rowid": "1228447",
    "final_x": "3681069.68866",
    "final_y": "520552.67212",
    "longitude": "-90.06981096487615",
    "latitude": "29.925352242341845",
    "geocoded_column": {
      "latitude": "29.925352242341845",
      "longitude": "-90.06981096487615"
    }
  },
  {
    "service_request": "2025-1228446",
    "request_type": "Safety & Permits",
    "request_reason": "Zoning Enforcement",
    "date_created": "2025-09-23T15:19:21.000",
    "date_modified": "2025-09-23T15:19:23.000",
    "request_status": "Pending",
    "responsible_agency": "Safety and Permits",
    "final_address": "900 BLK Saint Charles Ave",
    "address_councildis": "B",
    "status": "Pending",
    "rowid": "1228446",
    "final_x": "3680227.92264",
    "final_y": "527351.790885",
    "longitude": "-90.07223193905851",
    "latitude": "29.944073069655897",
    "geocoded_column": {
      "latitude": "29.944073069655897",
      "longitude": "-90.07223193905851"
    }
  },
  {
    "service_request": "2025-1228445",
    "request_type": "Abandoned Vehicles",
    "request_reason": "Abandoned/Junk Vehicles",
    "date_created": "2025-09-23T15:18:42.000",
    "date_modified": "2025-09-23T15:18:44.000",
    "request_status": "Pending",
    "responsible_agency": "Department of Public Works",
    "final_address": "9020 Tilford Rd",
    "address_councildis": "E",
    "status": "Pending",
    "rowid": "1228445",
    "final_x": "3708234.5546",
    "final_y": "557231.005787",
    "longitude": "-89.98269603152393",
    "latitude": "30.025352475560588",
    "geocoded_column": {
      "latitude": "30.025352475560588",
      "longitude": "-89.98269603152393"
    }
  },
  {
    "service_request": "2025-1228444",
    "request_type": "Trash/Recycling",
    "request_reason": "Request a Large Item Pick Up",
    "date_created": "2025-09-23T15:18:11.000",
    "date_modified": "2025-09-23T15:18:13.000",
    "request_status": "Pending",
    "responsible_agency": "Department of Sanitation",
    "final_address": "5892 Rhodes Ave",
    "address_councildis": "C",
    "status": "Assigned to Contractor",
    "contractor": "Richards Disposal",
    "rowid": "1228444",
    "final_x": "3705461.201",
    "final_y": "519493.473847",
    "longitude": "-89.99285434943258",
    "latitude": "29.921677713750565",
    "geocoded_column": {
      "latitude": "29.921677713750565",
      "longitude": "-89.99285434943258"
    }
  },
  {
    "service_request": "2025-1228443",
    "request_type": "Trash/Recycling",
    "request_reason": "Repair Trash Cart",
    "date_created": "2025-09-23T15:18:06.000",
    "date_modified": "2025-09-23T15:18:07.000",
    "request_status": "Pending",
    "responsible_agency": "Department of Sanitation",
    "final_address": "922 Race St",
    "address_councildis": "B",
    "status": "Assigned to Contractor",
    "contractor": "IV Waste",
    "rowid": "1228443",
    "final_x": "3680780.96738",
    "final_y": "523654.292283",
    "longitude": "-90.07061447168613",
    "latitude": "29.933889428909904",
    "geocoded_column": {
      "latitude": "29.933889428909904",
      "longitude": "-90.07061447168613"
    }
  },
  {
    "service_request": "2025-1228442",
    "request_type": "Trash/Recycling",
    "request_reason": "Request a Large Item Pick Up",
    "date_created": "2025-09-23T15:17:57.000",
    "date_modified": "2025-09-23T15:17:59.000",
    "request_status": "Pending",
    "responsible_agency": "Department of Sanitation",
    "final_address": "4 S Oak Ridge Ct",
    "address_councildis": "E",
    "status": "Assigned to Contractor",
    "contractor": "Waste Pro",
    "rowid": "1228442",
    "final_x": "3713286.95371",
    "final_y": "567502.981924",
    "longitude": "-89.96634414950005",
    "latitude": "30.053431562323905",
    "geocoded_column": {
      "latitude": "30.053431562323905",
      "longitude": "-89.96634414950005"
    }
  },
  {
    "service_request": "2025-1228441",
    "request_type": "Drainage",
    "request_reason": "Catch Basin Not Draining",
    "date_created": "2025-09-23T15:14:50.000",
    "date_modified": "2025-09-23T15:14:52.000",
    "request_status": "Pending",
    "responsible_agency": "Sewerage & Water Board",
    "final_address": "4801 Iberville St",
    "address_councildis": "A",
    "status": "Pending",
    "rowid": "1228441",
    "final_x": "3669095.93991",
    "final_y": "540473.356043",
    "longitude": "-90.10693540343716",
    "latitude": "29.98048521108001",
    "geocoded_column": {
      "latitude": "29.98048521108001",
      "longitude": "-90.10693540343716"
    }
  },
  {
    "service_request": "2025-1228440",
    "request_type": "Streetlights",
    "request_reason": "Streetlight Outage/Malfunction",
    "date_created": "2025-09-23T15:14:26.000",
    "date_modified": "2025-09-23T15:14:28.000",
    "request_status": "Pending",
    "responsible_agency": "Department of Public Works",
    "final_address": "6000 BLK Read Blvd",
    "address_councildis": "E",
    "status": "Pending",
    "rowid": "1228440",
    "final_x": "3710515.64652",
    "final_y": "561175.137608",
    "longitude": "-89.97534048701928",
    "latitude": "30.03612314921687",
    "geocoded_column": {
      "latitude": "30.03612314921687",
      "longitude": "-89.97534048701928"
    }
  },
  {
    "service_request": "2025-1228439",
    "request_type": "Roads and Streets",
    "request_reason": "Street Subsidence (Sinking)",
    "date_created": "2025-09-23T15:13:56.000",
    "date_modified": "2025-09-23T15:13:59.000",
    "request_status": "Pending",
    "responsible_agency": "Sewerage & Water Board",
    "final_address": "1138 Third St",
    "address_councildis": "B",
    "status": "Pending",
    "rowid": "1228439",
    "final_x": "3677359.45973",
    "final_y": "521396.250937",
    "longitude": "-90.08149390811901",
    "latitude": "29.927783785535897",
    "geocoded_column": {
      "latitude": "29.927783785535897",
      "longitude": "-90.08149390811901"
    }
  },
  {
    "service_request": "2025-1228438",
    "request_type": "Street and Traffic Signs",
    "request_reason": "One Way Sign Missing or Damaged",
    "date_created": "2025-09-23T15:12:31.000",
    "date_modified": "2025-09-23T15:12:33.000",
    "request_status": "Pending",
    "responsible_agency": "Department of Public Works",
    "final_address": "GENERAL PERSHING ST & TCHOUPITOULAS ST",
    "address_councildis": "B",
    "status": "Pending",
    "rowid": "1228438",
    "final_x": "3671587.7",
    "final_y": "517501.78",
    "longitude": "-90.09984637241953",
    "latitude": "29.9172473560031",
    "geocoded_column": {
      "latitude": "29.9172473560031",
      "longitude": "-90.09984637241953"
    }
  },
  {
    "service_request": "2025-1228437",
    "request_type": "Trash/Recycling",
    "request_reason": "Repair Recycling Cart",
    "date_created": "2025-09-23T15:12:25.000",
    "date_modified": "2025-09-23T15:12:27.000",
    "request_status": "Pending",
    "responsible_agency": "Department of Sanitation",
    "final_address": "4801 Iberville St",
    "address_councildis": "A",
    "status": "Pending",
    "rowid": "1228437",
    "final_x": "3669095.93991",
    "final_y": "540473.356043",
    "longitude": "-90.10693540343716",
    "latitude": "29.98048521108001",
    "geocoded_column": {
      "latitude": "29.98048521108001",
      "longitude": "-90.10693540343716"
    }
  },
  {
    "service_request": "2025-1228436",
    "request_type": "Drainage",
    "request_reason": "Drainage Manhole Cover Missing or Damaged",
    "date_created": "2025-09-23T15:09:18.000",
    "date_modified": "2025-09-23T15:09:19.000",
    "request_status": "Pending",
    "responsible_agency": "Sewerage & Water Board",
    "final_address": "859 Convention Center Blvd",
    "address_councildis": "B",
    "status": "Pending",
    "rowid": "1228436",
    "final_x": "3682585.40232",
    "final_y": "527078.519806",
    "longitude": "-90.06479827852625",
    "latitude": "29.943250111926297",
    "geocoded_column": {
      "latitude": "29.943250111926297",
      "longitude": "-90.06479827852625"
    }
  },
  {
    "service_request": "2025-1228435",
    "request_type": "Street and Traffic Signs",
    "request_reason": "Traffic or Parking Sign Damaged or Missing",
    "date_created": "2025-09-23T15:07:40.000",
    "date_modified": "2025-09-23T15:07:42.000",
    "request_status": "Pending",
    "responsible_agency": "Department of Public Works",
    "final_address": "6500 Magazine St",
    "address_councildis": "A",
    "status": "Pending",
    "rowid": "1228435",
    "final_x": "3662586.74362",
    "final_y": "520120.866808",
    "longitude": "-90.12817045257185",
    "latitude": "29.924712390786677",
    "geocoded_column": {
      "latitude": "29.924712390786677",
      "longitude": "-90.12817045257185"
    }
  },
  {
    "service_request": "2025-1228434",
    "request_type": "Trash/Recycling",
    "request_reason": "Return Trash Cart",
    "date_created": "2025-09-23T14:59:45.000",
    "date_modified": "2025-09-23T15:00:54.000",
    "request_status": "Pending",
    "responsible_agency": "Department of Sanitation",
    "final_address": "4738 Friar Tuck Dr",
    "address_councildis": "E",
    "status": "Assigned to Contractor",
    "contractor": "Waste Pro",
    "rowid": "1228434",
    "final_x": "3717680.59378",
    "final_y": "556944.231066",
    "longitude": "-89.95285922910445",
    "latitude": "30.024254424321505",
    "geocoded_column": {
      "latitude": "30.024254424321505",
      "longitude": "-89.95285922910445"
    }
  },
  {
    "service_request": "2025-1228433",
    "request_type": "Trash/Recycling",
    "request_reason": "Request a Large Item Pick Up",
    "date_created": "2025-09-23T14:58:39.000",
    "date_modified": "2025-09-23T15:00:18.000",
    "request_status": "Pending",
    "responsible_agency": "Department of Sanitation",
    "final_address": "4738 Friar Tuck Dr",
    "address_councildis": "E",
    "status": "Assigned to Contractor",
    "contractor": "Waste Pro",
    "rowid": "1228433",
    "final_x": "3717680.59378",
    "final_y": "556944.231066",
    "longitude": "-89.95285922910445",
    "latitude": "30.024254424321505",
    "geocoded_column": {
      "latitude": "30.024254424321505",
      "longitude": "-89.95285922910445"
    }
  },
  {
    "service_request": "2025-1228432",
    "request_type": "Trash/Recycling",
    "request_reason": "Request a Large Item Pick Up",
    "date_created": "2025-09-23T14:56:26.000",
    "date_modified": "2025-09-23T14:56:27.000",
    "request_status": "Pending",
    "responsible_agency": "Department of Sanitation",
    "final_address": "7143 Thornley Dr",
    "address_councildis": "E",
    "status": "Assigned to Contractor",
    "contractor": "Waste Pro",
    "rowid": "1228432",
    "final_x": "3703170.55556",
    "final_y": "560127.916829",
    "longitude": "-89.9985907695151",
    "latitude": "30.03348101124049",
    "geocoded_column": {
      "latitude": "30.03348101124049",
      "longitude": "-89.9985907695151"
    }
  },
  {
    "service_request": "2025-1228431",
    "request_type": "Trash/Recycling",
    "request_reason": "Request a Large Item Pick Up",
    "date_created": "2025-09-23T14:56:14.000",
    "date_modified": "2025-09-23T14:56:16.000",
    "request_status": "Pending",
    "responsible_agency": "Department of Sanitation",
    "final_address": "7801 Doyle Ct",
    "address_councildis": "E",
    "status": "Assigned to Contractor",
    "contractor": "Waste Pro",
    "rowid": "1228431",
    "final_x": "3700398.92196",
    "final_y": "561220.14115",
    "longitude": "-90.00730943413681",
    "latitude": "30.03657268590262",
    "geocoded_column": {
      "latitude": "30.03657268590262",
      "longitude": "-90.00730943413681"
    }
  },
  {
    "service_request": "2025-1228430",
    "request_type": "Trash/Recycling",
    "request_reason": "Request a Large Item Pick Up",
    "date_created": "2025-09-23T14:55:32.000",
    "date_modified": "2025-09-23T14:55:34.000",
    "request_status": "Pending",
    "responsible_agency": "Department of Sanitation",
    "final_address": "208 S Murat St",
    "address_councildis": "A",
    "status": "Assigned to Contractor",
    "contractor": "IV Waste",
    "rowid": "1228430",
    "final_x": "3669420.15719",
    "final_y": "538970.407114",
    "longitude": "-90.10596222987786",
    "latitude": "29.976343064113163",
    "geocoded_column": {
      "latitude": "29.976343064113163",
      "longitude": "-90.10596222987786"
    }
  },
  {
    "service_request": "2025-1228429",
    "request_type": "Trash/Recycling",
    "request_reason": "Request a Large Item Pick Up",
    "date_created": "2025-09-23T14:54:45.000",
    "date_modified": "2025-09-23T14:54:47.000",
    "request_status": "Pending",
    "responsible_agency": "Department of Sanitation",
    "final_address": "7210 Salem Dr",
    "address_councildis": "E",
    "status": "Assigned to Contractor",
    "contractor": "Waste Pro",
    "rowid": "1228429",
    "final_x": "3706295.59537",
    "final_y": "561496.854559",
    "longitude": "-89.9886646194157",
    "latitude": "30.03714458806444",
    "geocoded_column": {
      "latitude": "30.03714458806444",
      "longitude": "-89.9886646194157"
    }
  },
  {
    "service_request": "2025-1228428",
    "request_type": "Trash/Recycling",
    "request_reason": "Request a Large Item Pick Up",
    "date_created": "2025-09-23T14:52:23.000",
    "date_modified": "2025-09-23T14:52:25.000",
    "request_status": "Pending",
    "responsible_agency": "Department of Sanitation",
    "final_address": "4421 Cessna Ct",
    "address_councildis": "D",
    "status": "Assigned to Contractor",
    "contractor": "Waste Pro",
    "rowid": "1228428",
    "final_x": "3696702.78391",
    "final_y": "552537.079446",
    "longitude": "-90.01930461340105",
    "latitude": "30.012814664546838",
    "geocoded_column": {
      "latitude": "30.012814664546838",
      "longitude": "-90.01930461340105"
    }
  },
  {
    "service_request": "2025-1228427",
    "request_type": "Streetlights",
    "request_reason": "Streetlight Outage/Malfunction",
    "date_created": "2025-09-23T14:49:57.000",
    "date_modified": "2025-09-23T14:49:59.000",
    "request_status": "Pending",
    "responsible_agency": "Department of Public Works",
    "final_address": "3310 Vincennes Pl",
    "address_councildis": "A",
    "status": "Pending",
    "rowid": "1228427",
    "final_x": "3667850.25012",
    "final_y": "528286.778304",
    "longitude": "-90.11128034792002",
    "latitude": "29.947012758609755",
    "geocoded_column": {
      "latitude": "29.947012758609755",
      "longitude": "-90.11128034792002"
    }
  },
  {
    "service_request": "2025-1228426",
    "request_type": "Abandoned Vehicles",
    "request_reason": "Abandoned/Junk Vehicles",
    "date_created": "2025-09-23T14:46:07.000",
    "date_modified": "2025-09-23T14:46:08.000",
    "request_status": "Pending",
    "responsible_agency": "Department of Public Works",
    "final_address": "9110 Tilford Rd",
    "address_councildis": "E",
    "status": "Pending",
    "rowid": "1228426",
    "final_x": "3708438.24721",
    "final_y": "557245.333595",
    "longitude": "-89.98205186506385",
    "latitude": "30.02538526803743",
    "geocoded_column": {
      "latitude": "30.02538526803743",
      "longitude": "-89.98205186506385"
    }
  },
  {
    "service_request": "2025-1228425",
    "request_type": "Trash/Recycling",
    "request_reason": "Replace Trash Cart",
    "date_created": "2025-09-23T14:44:37.000",
    "date_modified": "2025-09-23T14:44:39.000",
    "request_status": "Pending",
    "responsible_agency": "Department of Sanitation",
    "final_address": "247 New Orleans-Hammond Hwy",
    "address_councildis": "A",
    "status": "Assigned to Contractor",
    "contractor": "IV Waste",
    "rowid": "1228425",
    "final_x": "3665947.84295",
    "final_y": "554731.825688",
    "longitude": "-90.11640020292138",
    "latitude": "30.019783364949756",
    "geocoded_column": {
      "latitude": "30.019783364949756",
      "longitude": "-90.11640020292138"
    }
  },
  {
    "service_request": "2025-1228424",
    "request_type": "Trash/Recycling",
    "request_reason": "Request a Large Item Pick Up",
    "date_created": "2025-09-23T14:42:32.000",
    "date_modified": "2025-09-23T14:42:35.000",
    "request_status": "Pending",
    "responsible_agency": "Department of Sanitation",
    "final_address": "5741 Waterford Blvd",
    "address_councildis": "E",
    "status": "Assigned to Contractor",
    "contractor": "Waste Pro",
    "rowid": "1228424",
    "final_x": "3714096.56229",
    "final_y": "560930.37667",
    "longitude": "-89.96403346983818",
    "latitude": "30.035332976841016",
    "geocoded_column": {
      "latitude": "30.035332976841016",
      "longitude": "-89.96403346983818"
    }
  },
  {
    "service_request": "2025-1228423",
    "request_type": "Trash/Recycling",
    "request_reason": "Illegal Dumping",
    "date_created": "2025-09-23T14:41:39.000",
    "date_modified": "2025-09-23T14:41:40.000",
    "request_status": "Pending",
    "responsible_agency": "Department of Sanitation",
    "final_address": "10563 N Interstate 10 Service Rd",
    "address_councildis": "E",
    "status": "Pending",
    "rowid": "1228423",
    "final_x": "3712103.36517",
    "final_y": "563047.6808",
    "longitude": "-89.97025264665544",
    "latitude": "30.041220058297192",
    "geocoded_column": {
      "latitude": "30.041220058297192",
      "longitude": "-89.97025264665544"
    }
  },
  {
    "service_request": "2025-1228422",
    "request_type": "Property Maintenance",
    "request_reason": "Property Maintenance",
    "date_created": "2025-09-23T14:39:40.000",
    "date_modified": "2025-09-23T14:39:42.000",
    "request_status": "Pending",
    "responsible_agency": "Department of Code Enforcement",
    "final_address": "6981 Pinebrook Dr",
    "address_councildis": "E",
    "status": "Pending",
    "rowid": "1228422",
    "final_x": "3719912.07558",
    "final_y": "569478.275046",
    "longitude": "-89.94532849325108",
    "latitude": "30.058643809870674",
    "geocoded_column": {
      "latitude": "30.058643809870674",
      "longitude": "-89.94532849325108"
    }
  },
  {
    "service_request": "2025-1228421",
    "request_type": "Trash/Recycling",
    "request_reason": "Request a Large Item Pick Up",
    "date_created": "2025-09-23T14:36:36.000",
    "date_modified": "2025-09-23T14:36:38.000",
    "request_status": "Pending",
    "responsible_agency": "Department of Sanitation",
    "final_address": "901 Webster St",
    "address_councildis": "A",
    "status": "Assigned to Contractor",
    "contractor": "IV Waste",
    "rowid": "1228421",
    "final_x": "3664299.37684",
    "final_y": "519797.805688",
    "longitude": "-90.12277499124255",
    "latitude": "29.923774432923828",
    "geocoded_column": {
      "latitude": "29.923774432923828",
      "longitude": "-90.12277499124255"
    }
  },
  {
    "service_request": "2025-1228420",
    "request_type": "General Services",
    "request_reason": "General Service Request",
    "date_created": "2025-09-23T14:34:25.000",
    "date_modified": "2025-09-23T15:04:22.000",
    "case_close_date": "2025-09-23T10:04:21.000",
    "request_status": "Closed",
    "responsible_agency": "Orleans Parish Communication District",
    "final_address": "3009 Dumaine St",
    "address_councildis": "A",
    "status": "Question Answered.",
    "rowid": "1228420",
    "final_x": "3676113.54069",
    "final_y": "538367.312393",
    "longitude": "-90.08484325298588",
    "latitude": "29.97448592185667",
    "geocoded_column": {
      "latitude": "29.97448592185667",
      "longitude": "-90.08484325298588"
    }
  },
  {
    "service_request": "2025-1228419",
    "request_type": "Trash/Recycling",
    "request_reason": "Replace Trash Cart",
    "date_created": "2025-09-23T14:30:01.000",
    "date_modified": "2025-09-23T14:30:03.000",
    "request_status": "Pending",
    "responsible_agency": "Department of Sanitation",
    "final_address": "2011 Broadway St",
    "address_councildis": "A",
    "status": "Assigned to Contractor",
    "contractor": "IV Waste",
    "rowid": "1228419",
    "final_x": "3665862.83904",
    "final_y": "528888.794176",
    "longitude": "-90.11753519954478",
    "latitude": "29.94872623990117",
    "geocoded_column": {
      "latitude": "29.94872623990117",
      "longitude": "-90.11753519954478"
    }
  },
  {
    "service_request": "2025-1228418",
    "request_type": "Trash/Recycling",
    "request_reason": "Replace Trash Cart",
    "date_created": "2025-09-23T14:29:03.000",
    "date_modified": "2025-09-23T14:29:05.000",
    "request_status": "Pending",
    "responsible_agency": "Department of Sanitation",
    "final_address": "2009 Broadway St",
    "address_councildis": "A",
    "status": "Assigned to Contractor",
    "contractor": "IV Waste",
    "rowid": "1228418",
    "final_x": "3665854.81408",
    "final_y": "528874.231424",
    "longitude": "-90.11756102573183",
    "latitude": "29.948686431176096",
    "geocoded_column": {
      "latitude": "29.948686431176096",
      "longitude": "-90.11756102573183"
    }
  },
  {
    "service_request": "2025-1228417",
    "request_type": "Trash/Recycling",
    "request_reason": "Request a Large Item Pick Up",
    "date_created": "2025-09-23T14:28:35.000",
    "date_modified": "2025-09-23T14:29:21.000",
    "request_status": "Pending",
    "responsible_agency": "Department of Sanitation",
    "final_address": "818 Orange St",
    "address_councildis": "B",
    "status": "Assigned to Contractor",
    "contractor": "IV Waste",
    "rowid": "1228417",
    "final_x": "3681029.78498",
    "final_y": "523223.326139",
    "longitude": "-90.06984396814642",
    "latitude": "29.932696872524257",
    "geocoded_column": {
      "latitude": "29.932696872524257",
      "longitude": "-90.06984396814642"
    }
  },
  {
    "service_request": "2025-1228416",
    "request_type": "Utility Poles",
    "request_reason": "Utility Pole Leaning",
    "date_created": "2025-09-23T14:27:05.000",
    "date_modified": "2025-09-23T14:27:28.000",
    "request_status": "Pending",
    "responsible_agency": "Utility Company Collective",
    "final_address": "5139 General Meyer Ave",
    "address_councildis": "C",
    "status": "Pending",
    "rowid": "1228416",
    "final_x": "3703206.30884",
    "final_y": "522582.933306",
    "longitude": "-89.99985853162289",
    "latitude": "29.93024499734477",
    "geocoded_column": {
      "latitude": "29.93024499734477",
      "longitude": "-89.99985853162289"
    }
  },
  {
    "service_request": "2025-1228415",
    "request_type": "Trash/Recycling",
    "request_reason": "Request a Large Item Pick Up",
    "date_created": "2025-09-23T14:25:38.000",
    "date_modified": "2025-09-23T14:25:40.000",
    "request_status": "Pending",
    "responsible_agency": "Department of Sanitation",
    "final_address": "5927 W Deer Park Blvd",
    "address_councildis": "E",
    "status": "Assigned to Contractor",
    "contractor": "Waste Pro",
    "rowid": "1228415",
    "final_x": "3711973.27787",
    "final_y": "561355.11011",
    "longitude": "-89.97072737469131",
    "latitude": "30.036570421157716",
    "geocoded_column": {
      "latitude": "30.036570421157716",
      "longitude": "-89.97072737469131"
    }
  },
  {
    "service_request": "2025-1228414",
    "request_type": "Trash/Recycling",
    "request_reason": "Request a Large Item Pick Up",
    "date_created": "2025-09-23T14:25:37.000",
    "date_modified": "2025-09-23T14:25:40.000",
    "request_status": "Pending",
    "responsible_agency": "Department of Sanitation",
    "final_address": "5422 Magazine St",
    "address_councildis": "A",
    "status": "Assigned to Contractor",
    "contractor": "IV Waste",
    "rowid": "1228414",
    "final_x": "3666536.04378",
    "final_y": "518774.650487",
    "longitude": "-90.11574893958361",
    "latitude": "29.920895913699734",
    "geocoded_column": {
      "latitude": "29.920895913699734",
      "longitude": "-90.11574893958361"
    }
  },
  {
    "service_request": "2025-1228413",
    "request_type": "Roads and Streets",
    "request_reason": "Abandoned Service Cut",
    "date_created": "2025-09-23T14:21:15.000",
    "date_modified": "2025-09-23T14:21:17.000",
    "request_status": "Pending",
    "responsible_agency": "Department of Public Works",
    "final_address": "2312 Louisiana Ave",
    "address_councildis": "B",
    "status": "Pending",
    "rowid": "1228413",
    "final_x": "3673097.3956",
    "final_y": "523933.559676",
    "longitude": "-90.09486168836256",
    "latitude": "29.934887910739132",
    "geocoded_column": {
      "latitude": "29.934887910739132",
      "longitude": "-90.09486168836256"
    }
  },
  {
    "service_request": "2025-1228412",
    "request_type": "Trash/Recycling",
    "request_reason": "Request a Large Item Pick Up",
    "date_created": "2025-09-23T14:20:36.000",
    "date_modified": "2025-09-23T14:21:25.000",
    "request_status": "Pending",
    "responsible_agency": "Department of Sanitation",
    "final_address": "3017 Cherry St",
    "address_councildis": "A",
    "status": "Assigned to Contractor",
    "contractor": "IV Waste",
    "rowid": "1228412",
    "final_x": "3663308.33914",
    "final_y": "536083.627271",
    "longitude": "-90.12536139116666",
    "latitude": "29.968583970886506",
    "geocoded_column": {
      "latitude": "29.968583970886506",
      "longitude": "-90.12536139116666"
    }
  },
  {
    "service_request": "2025-1228411",
    "request_type": "Trash/Recycling",
    "request_reason": "Return Trash Cart",
    "date_created": "2025-09-23T14:20:03.000",
    "date_modified": "2025-09-23T14:20:05.000",
    "request_status": "Pending",
    "responsible_agency": "Department of Sanitation",
    "final_address": "4319 N Villere St",
    "address_councildis": "D",
    "status": "Assigned to Contractor",
    "contractor": "IV Waste",
    "rowid": "1228411",
    "final_x": "3693149.26979",
    "final_y": "536180.110279",
    "longitude": "-90.03111904942357",
    "latitude": "29.967950507987016",
    "geocoded_column": {
      "latitude": "29.967950507987016",
      "longitude": "-90.03111904942357"
    }
  },
  {
    "service_request": "2025-1228410",
    "request_type": "Street and Traffic Signs",
    "request_reason": "Traffic or Parking Sign Damaged or Missing",
    "date_created": "2025-09-23T14:19:00.000",
    "date_modified": "2025-09-23T14:19:01.000",
    "request_status": "Pending",
    "responsible_agency": "Department of Public Works",
    "final_address": "800 BLK Dumaine St",
    "address_councildis": "C",
    "status": "Pending",
    "rowid": "1228410",
    "final_x": "3682569.71849",
    "final_y": "533376.716827",
    "longitude": "-90.06462762426051",
    "latitude": "29.960568498465552",
    "geocoded_column": {
      "latitude": "29.960568498465552",
      "longitude": "-90.06462762426051"
    }
  },
  {
    "service_request": "2025-1228409",
    "request_type": "Trash/Recycling",
    "request_reason": "Request a Large Item Pick Up",
    "date_created": "2025-09-23T14:14:48.000",
    "date_modified": "2025-09-23T14:14:50.000",
    "request_status": "Pending",
    "responsible_agency": "Department of Sanitation",
    "final_address": "7600 Jonlee Dr",
    "address_councildis": "E",
    "status": "Assigned to Contractor",
    "contractor": "Waste Pro",
    "rowid": "1228409",
    "final_x": "3717181.31698",
    "final_y": "570281.212647",
    "longitude": "-89.95392950977848",
    "latitude": "30.060942226124368",
    "geocoded_column": {
      "latitude": "30.060942226124368",
      "longitude": "-89.95392950977848"
    }
  },
  {
    "service_request": "2025-1228408",
    "request_type": "Property Maintenance",
    "request_reason": "Property Maintenance",
    "date_created": "2025-09-23T14:12:11.000",
    "date_modified": "2025-09-23T15:02:51.000",
    "case_close_date": "2025-09-23T10:02:50.000",
    "request_status": "Closed",
    "responsible_agency": "Department of Code Enforcement",
    "final_address": "2340 Delery St",
    "address_councildis": "E",
    "status": "Referred to Code Enforcement",
    "rowid": "1228408",
    "final_x": "3702258.17917",
    "final_y": "537551.012616",
    "longitude": "-90.00230271939307",
    "latitude": "29.971432204386954",
    "geocoded_column": {
      "latitude": "29.971432204386954",
      "longitude": "-90.00230271939307"
    }
  },
  {
    "service_request": "2025-1228407",
    "request_type": "Trash/Recycling",
    "request_reason": "Request a Large Item Pick Up",
    "date_created": "2025-09-23T14:10:08.000",
    "date_modified": "2025-09-23T14:10:10.000",
    "request_status": "Pending",
    "responsible_agency": "Department of Sanitation",
    "final_address": "8015 Trapier Ave",
    "address_councildis": "E",
    "status": "Assigned to Contractor",
    "contractor": "Waste Pro",
    "rowid": "1228407",
    "final_x": "3706172.26091",
    "final_y": "564440.376161",
    "longitude": "-89.98894524065851",
    "latitude": "30.04524208495352",
    "geocoded_column": {
      "latitude": "30.04524208495352",
      "longitude": "-89.98894524065851"
    }
  },
  {
    "service_request": "2025-1228406",
    "request_type": "Trash/Recycling",
    "request_reason": "Illegal Dumping",
    "date_created": "2025-09-23T14:07:02.000",
    "date_modified": "2025-09-23T14:07:04.000",
    "request_status": "Pending",
    "responsible_agency": "Department of Sanitation",
    "final_address": "WRIGHT RD & DWYER RD",
    "address_councildis": "E",
    "status": "Pending",
    "rowid": "1228406",
    "final_x": "3716325.8",
    "final_y": "558449.78",
    "longitude": "-89.95708294067948",
    "latitude": "30.028438893641248",
    "geocoded_column": {
      "latitude": "30.028438893641248",
      "longitude": "-89.95708294067948"
    }
  },
  {
    "service_request": "2025-1228405",
    "request_type": "Trash/Recycling",
    "request_reason": "Request a Large Item Pick Up",
    "date_created": "2025-09-23T14:04:31.000",
    "date_modified": "2025-09-23T16:00:23.000",
    "case_close_date": "2025-09-23T11:00:17.000",
    "request_status": "Closed",
    "responsible_agency": "Department of Sanitation",
    "final_address": "1718 Burbank Dr",
    "address_councildis": "D",
    "status": "Duplicate Request",
    "contractor": "IV Waste",
    "contractor_action": "Duplicate",
    "rowid": "1228405",
    "final_x": "3679778.97179",
    "final_y": "554398.824728",
    "longitude": "-90.07270990820426",
    "latitude": "30.018456579252256",
    "geocoded_column": {
      "latitude": "30.018456579252256",
      "longitude": "-90.07270990820426"
    }
  },
  {
    "service_request": "2025-1228404",
    "request_type": "Trash/Recycling",
    "request_reason": "Order Second Trash Cart",
    "date_created": "2025-09-23T14:04:27.000",
    "date_modified": "2025-09-23T14:04:29.000",
    "request_status": "Pending",
    "responsible_agency": "Department of Sanitation",
    "final_address": "53 Fontainebleau Dr",
    "address_councildis": "A",
    "status": "Assigned to Contractor",
    "contractor": "IV Waste",
    "rowid": "1228404",
    "final_x": "3666439.61402",
    "final_y": "531287.807234",
    "longitude": "-90.11563357098444",
    "latitude": "29.955305904924703",
    "geocoded_column": {
      "latitude": "29.955305904924703",
      "longitude": "-90.11563357098444"
    }
  },