[
  {
    "service_request": "2023-1029732",
    "request_type": "Traffic Signals/Signs/Striping/Streetlights",
    "request_reason": "Traffic Signal Malfunctioning/Damaged",
    "date_created": "2023-08-27T00:56:02.000",
    "date_modified": "2023-08-27T00:56:03.000",
    "request_status": "Pending",
    "responsible_agency": "Department of Public Works",
    "final_address": "LOYOLA AVE & CALLIOPE ST",
    "address_councildis": "B",
    "status": "Pending",
    "rowid": "1029732",
    "final_x": "3678483.23",
    "final_y": "527674.85",
    "longitude": "-90.07772924389585",
    "latitude": "29.94501405841703",
    "geocoded_column": {
      "latitude": "29.94501405841703",
      "longitude": "-90.07772924389585"
    }
  },
  {
    "service_request": "2023-1029731",
    "request_type": "Roads/Drainage",
    "request_reason": "Street Subsidence (Sinking)",
    "date_created": "2023-08-26T22:51:38.000",
    "date_modified": "2023-08-26T22:51:38.000",
    "request_status": "Pending",
    "responsible_agency": "Department of Public Works",
    "final_address": "8000 Morrison Rd",
    "address_councildis": "E",
    "status": "Pending",
    "rowid": "1029731",
    "final_x": "3701816.05905",
    "final_y": "559846.548509",
    "longitude": "-90.00288142057468",
    "latitude": "30.03275067169821",
    "geocoded_column": {
      "latitude": "30.03275067169821",
      "longitude": "-90.00288142057468"
    }
  },
  {
    "service_request": "2023-1029730",
    "request_type": "Traffic Signals/Signs/Striping/Streetlights",
    "request_reason": "Street Light Knocked Down/Leaning",
    "date_created": "2023-08-26T22:44:16.000",
    "date_modified": "2023-08-26T22:44:17.000",
    "request_status": "Pending",
    "responsible_agency": "Department of Public Works",
    "final_address": "115 N Wren St",
    "address_councildis": "D",
    "status": "Pending",
    "contractor": "Legacy Professional Services",
    "rowid": "1029730",
    "final_x": "3672913.02587",
    "final_y": "556176.33065",
    "longitude": "-90.09434309235053",
    "latitude": "30.023549995700623",
    "geocoded_column": {
      "latitude": "30.023549995700623",
      "longitude": "-90.09434309235053"
    }
  },
  {
    "service_request": "2023-1029729",
    "request_type": "Roads/Drainage",
    "request_reason": "Road Shoulder Repair",
    "date_created": "2023-08-26T22:31:53.000",
    "date_modified": "2023-08-26T22:31:53.000",
    "request_status": "Pending",
    "responsible_agency": "Department of Public Works",
    "final_address": "1503 Valence St",
    "address_councildis": "B",
    "status": "Pending",
    "rowid": "1029729",
    "final_x": "3669815.40481",
    "final_y": "520519.79692",
    "longitude": "-90.10533842228018",
    "latitude": "29.92559828720276",
    "geocoded_column": {
      "latitude": "29.92559828720276",
      "longitude": "-90.10533842228018"
    }
  },
  {
    "service_request": "2023-1029728",
    "request_type": "Traffic Signals/Signs/Striping/Streetlights",
    "request_reason": "Traffic Signal Malfunctioning/Damaged",
    "date_created": "2023-08-26T22:24:23.000",
    "date_modified": "2023-08-26T22:24:24.000",
    "request_status": "Pending",
    "responsible_agency": "Department of Public Works",
    "final_address": "ST ANTHONY AVE & LEON C SIMON DR",
    "address_councildis": "D",
    "status": "Pending",
    "rowid": "1029728",
    "final_x": "3681856.1",
    "final_y": "556381.88",
    "longitude": "-90.06607765349638",
    "latitude": "30.02384625646597",
    "geocoded_column": {
      "latitude": "30.02384625646597",
      "longitude": "-90.06607765349638"
    }
  },
  {
    "service_request": "2023-1029727",
    "request_type": "Roads/Drainage",
    "request_reason": "Pothole",
    "date_created": "2023-08-26T22:01:14.000",
    "date_modified": "2023-08-26T22:01:14.000",
    "request_status": "Pending",
    "responsible_agency": "Department of Public Works",
    "final_address": "4315 Pitt St",
    "address_councildis": "B",
    "status": "Pending",
    "rowid": "1029727",
    "final_x": "3671135.74062",
    "final_y": "520647.281017",
    "longitude": "-90.10116618834792",
    "latitude": "29.92590985375874",
    "geocoded_column": {
      "latitude": "29.92590985375874",
      "longitude": "-90.10116618834792"
    }
  },
  {
    "service_request": "2023-1029726",
    "request_type": "Roads/Drainage",
    "request_reason": "Pothole",
    "date_created": "2023-08-26T21:48:36.000",
    "date_modified": "2023-08-26T21:48:36.000",
    "request_status": "Pending",
    "responsible_agency": "Department of Public Works",
    "final_address": "1312 Milan St",
    "address_councildis": "B",
    "status": "Pending",
    "rowid": "1029726",
    "final_x": "3671625.82823",
    "final_y": "520286.919608",
    "longitude": "-90.09963137110304",
    "latitude": "29.92490447494246",
    "geocoded_column": {
      "latitude": "29.92490447494246",
      "longitude": "-90.09963137110304"
    }
  },
  {
    "service_request": "2023-1029725",
    "request_type": "Traffic Signals/Signs/Striping/Streetlights",
    "request_reason": "Street Light Outage/Malfunction",
    "date_created": "2023-08-26T21:25:49.000",
    "date_modified": "2023-08-26T21:25:50.000",
    "request_status": "Pending",
    "responsible_agency": "Department of Public Works",
    "status": "Assigned to Contractor",
    "contractor": "Legacy Professional Services",
    "rowid": "1029725",
    "longitude": "0.0",
    "latitude": "0.0",
    "geocoded_column": {
      "latitude": "0.0",
      "longitude": "0.0"
    }
  },
  {
    "service_request": "2023-1029724",
    "request_type": "Trash/Recycling",
    "request_reason": "Replace Trash Cart",
    "date_created": "2023-08-26T20:59:10.000",
    "date_modified": "2023-08-26T20:59:10.000",
    "request_status": "Pending",
    "responsible_agency": "Department of Sanitation",
    "final_address": "1108 Henriette Delille St",
    "address_councildis": "C",
    "status": "Assigned to Contractor",
    "contractor": "Richards Disposal",
    "rowid": "1029724",
    "final_x": "3682042.74511",
    "final_y": "534824.832198",
    "longitude": "-90.06624113204428",
    "latitude": "29.964566353262192",
    "geocoded_column": {
      "latitude": "29.964566353262192",
      "longitude": "-90.06624113204428"
    }
  },
  {
    "service_request": "2023-1029723",
    "request_type": "Traffic Signals/Signs/Striping/Streetlights",
    "request_reason": "Street Light Outage/Malfunction",
    "date_created": "2023-08-26T20:58:34.000",
    "date_modified": "2023-08-26T20:58:35.000",
    "request_status": "Pending",
    "responsible_agency": "Department of Public Works",
    "final_address": "5535 Sutton Pl",
    "address_councildis": "C",
    "status": "Assigned to Contractor",
    "contractor": "Legacy Professional Services",
    "rowid": "1029723",
    "final_x": "3704538.69054",
    "final_y": "518394.777718",
    "longitude": "-89.99580677824582",
    "latitude": "29.918686321971233",
    "geocoded_column": {
      "latitude": "29.918686321971233",
      "longitude": "-89.99580677824582"
    }
  },
  {
    "service_request": "2023-1029722",
    "request_type": "Trash/Recycling",
    "request_reason": "Replace Trash Cart",
    "date_created": "2023-08-26T20:57:34.000",
    "date_modified": "2023-08-26T20:57:35.000",
    "request_status": "Pending",
    "responsible_agency": "Department of Sanitation",
    "final_address": "1110 Henriette Delille St",
    "address_councildis": "C",
    "status": "Assigned to Contractor",
    "contractor": "Richards Disposal",
    "rowid": "1029722",
    "final_x": "3682047.5446",
    "final_y": "534830.73895",
    "longitude": "-90.06622576934674",
    "latitude": "29.96458244886851",
    "geocoded_column": {
      "latitude": "29.96458244886851",
      "longitude": "-90.06622576934674"
    }
  },
  {
    "service_request": "2023-1029721",
    "request_type": "Trash/Recycling",
    "request_reason": "Replace Trash Cart",
    "date_created": "2023-08-26T20:56:44.000",
    "date_modified": "2023-08-26T20:56:45.000",
    "request_status": "Pending",
    "responsible_agency": "Department of Sanitation",
    "final_address": "1110 Henriette Delille St",
    "address_councildis": "C",
    "status": "Assigned to Contractor",
    "contractor": "Richards Disposal",
    "rowid": "1029721",
    "final_x": "3682047.5446",
    "final_y": "534830.73895",
    "longitude": "-90.06622576934674",
    "latitude": "29.96458244886851",
    "geocoded_column": {
      "latitude": "29.96458244886851",
      "longitude": "-90.06622576934674"
    }
  },
  {
    "service_request": "2023-1029720",
    "request_type": "Roads/Drainage",
    "request_reason": "Pothole",
    "date_created": "2023-08-26T20:07:00.000",
    "date_modified": "2023-08-26T20:07:00.000",
    "request_status": "Pending",
    "responsible_agency": "Department of Public Works",
    "final_address": "1660 Robert St",
    "address_councildis": "B",
    "status": "Pending",
    "rowid": "1029720",
    "final_x": "3668683.23905",
    "final_y": "521388.005817",
    "longitude": "-90.1088830476268",
    "latitude": "29.928018900042137",
    "geocoded_column": {
      "latitude": "29.928018900042137",
      "longitude": "-90.1088830476268"
    }
  },
  {
    "service_request": "2023-1029719",
    "request_type": "Trash/Recycling",
    "request_reason": "Return Trash Cart",
    "date_created": "2023-08-26T19:47:24.000",
    "date_modified": "2023-08-26T19:47:25.000",
    "request_status": "Pending",
    "responsible_agency": "Department of Sanitation",
    "final_address": "2340 Dauphine St",
    "address_councildis": "C",
    "status": "Assigned to Contractor",
    "contractor": "IV Waste",
    "rowid": "1029719",
    "final_x": "3685841.38044",
    "final_y": "535265.53543",
    "longitude": "-90.05422980785603",
    "latitude": "29.965662085508974",
    "geocoded_column": {
      "latitude": "29.965662085508974",
      "longitude": "-90.05422980785603"
    }
  },
  {
    "service_request": "2023-1029718",
    "request_type": "Trash/Recycling",
    "request_reason": "Request a Large Item Pick Up",
    "date_created": "2023-08-26T19:29:46.000",
    "date_modified": "2023-08-26T19:29:47.000",
    "request_status": "Pending",
    "responsible_agency": "Department of Sanitation",
    "final_address": "339 40Th St",
    "address_councildis": "A",
    "status": "Assigned to Contractor",
    "contractor": "IV Waste",
    "rowid": "1029718",
    "final_x": "3665118.55469",
    "final_y": "553416.291287",
    "longitude": "-90.11906454458766",
    "latitude": "30.016190298539307",
    "geocoded_column": {
      "latitude": "30.016190298539307",
      "longitude": "-90.11906454458766"
    }
  },
  {
    "service_request": "2023-1029717",
    "request_type": "Trash/Recycling",
    "request_reason": "Request a Large Item Pick Up",
    "date_created": "2023-08-26T19:28:51.000",
    "date_modified": "2023-08-26T19:28:52.000",
    "request_status": "Pending",
    "responsible_agency": "Department of Sanitation",
    "final_address": "6764 Fleur-De-Lis Dr",
    "address_councildis": "A",
    "status": "Assigned to Contractor",
    "contractor": "IV Waste",
    "rowid": "1029717",
    "final_x": "3665377.72468",
    "final_y": "553215.302167",
    "longitude": "-90.11825241181067",
    "latitude": "30.015630094548094",
    "geocoded_column": {
      "latitude": "30.015630094548094",
      "longitude": "-90.11825241181067"
    }
  },
  {
    "service_request": "2023-1029716",
    "request_type": "Parks & Parkways",
    "request_reason": "Request Tree Service (Right of Way/Public Property)",
    "date_created": "2023-08-26T18:54:09.000",
    "date_modified": "2023-08-26T18:55:35.000",
    "request_status": "Pending",
    "responsible_agency": "Department of Parks & Parkway",
    "final_address": "1623 N Dorgenois St",
    "address_councildis": "D",
    "status": "Pending",
    "rowid": "1029716",
    "final_x": "3679606.03208",
    "final_y": "539989.287115",
    "longitude": "-90.07375681471024",
    "latitude": "29.978840694852636",
    "geocoded_column": {
      "latitude": "29.978840694852636",
      "longitude": "-90.07375681471024"
    }
  },
  {
    "service_request": "2023-1029715",
    "request_type": "Roads/Drainage",
    "request_reason": "Pothole",
    "date_created": "2023-08-26T18:52:00.000",
    "date_modified": "2023-08-26T18:52:00.000",
    "request_status": "Pending",
    "responsible_agency": "Department of Public Works",
    "final_address": "1923 State St",
    "address_councildis": "A",
    "status": "Pending",
    "rowid": "1029715",
    "final_x": "3666309.56212",
    "final_y": "523897.593468",
    "longitude": "-90.11629208545087",
    "latitude": "29.9349890015656",
    "geocoded_column": {
      "latitude": "29.9349890015656",
      "longitude": "-90.11629208545087"
    }
  },
  {
    "service_request": "2023-1029714",
    "request_type": "Trash/Recycling",
    "request_reason": "Request a Large Item Pick Up",
    "date_created": "2023-08-26T18:34:57.000",
    "date_modified": "2023-08-26T18:34:57.000",
    "request_status": "Pending",
    "responsible_agency": "Department of Sanitation",
    "final_address": "2016 Cambronne St",
    "address_councildis": "A",
    "status": "Assigned to Contractor",
    "contractor": "Richards Disposal",
    "rowid": "1029714",
    "final_x": "3663133.94887",
    "final_y": "531316.010498",
    "longitude": "-90.12607076276406",
    "latitude": "29.95547963583239",
    "geocoded_column": {
      "latitude": "29.95547963583239",
      "longitude": "-90.12607076276406"
    }
  },
  {
    "service_request": "2023-1029713",
    "request_type": "Trash/Recycling",
    "request_reason": "Request a Large Item Pick Up",
    "date_created": "2023-08-26T18:16:20.000",
    "date_modified": "2023-08-26T18:16:20.000",
    "request_status": "Pending",
    "responsible_agency": "Department of Sanitation",
    "final_address": "1818 Alvar St",
    "address_councildis": "D",
    "status": "Assigned to Contractor",
    "contractor": "IV Waste",
    "rowid": "1029713",
    "final_x": "3692136.67357",
    "final_y": "538173.399177",
    "longitude": "-90.0342454824501",
    "latitude": "29.973462950544892",
    "geocoded_column": {
      "latitude": "29.973462950544892",
      "longitude": "-90.0342454824501"
    }
  },
  {
    "service_request": "2023-1029712",
    "request_type": "Property Maintenance",
    "request_reason": "Property Maintenance",
    "date_created": "2023-08-26T18:12:13.000",
    "date_modified": "2023-08-26T18:12:13.000",
    "request_status": "Pending",
    "responsible_agency": "Department of Code Enforcement",
    "final_address": "1114 Frenchmen St",
    "address_councildis": "C",
    "status": "Pending",
    "rowid": "1029712",
    "final_x": "3684538.75618",
    "final_y": "536423.625927",
    "longitude": "-90.05830274313993",
    "latitude": "29.96888635249126",
    "geocoded_column": {
      "latitude": "29.96888635249126",
      "longitude": "-90.05830274313993"
    }
  },
  {
    "service_request": "2023-1029711",
    "request_type": "Trash/Recycling",
    "request_reason": "Start Trash Service",
    "date_created": "2023-08-26T18:05:23.000",
    "date_modified": "2023-08-26T18:05:24.000",
    "request_status": "Pending",
    "responsible_agency": "Department of Sanitation",
    "final_address": "2528 Jefferson Ave",
    "address_councildis": "A",
    "status": "Assigned to Contractor",
    "contractor": "Richards Disposal",
    "rowid": "1029711",
    "final_x": "3668048.26618",
    "final_y": "524897.253948",
    "longitude": "-90.11076932143813",
    "latitude": "29.93768685321193",
    "geocoded_column": {
      "latitude": "29.93768685321193",
      "longitude": "-90.11076932143813"
    }
  },
  {
    "service_request": "2023-1029710",
    "request_type": "Trash/Recycling",
    "request_reason": "Return Trash Cart",
    "date_created": "2023-08-26T17:56:29.000",
    "date_modified": "2023-08-26T17:56:31.000",
    "request_status": "Pending",
    "responsible_agency": "Department of Sanitation",
    "final_address": "3934 Dumaine St",
    "address_councildis": "A",
    "status": "Assigned to Contractor",
    "contractor": "Richards Disposal",
    "rowid": "1029710",
    "final_x": "3673410.14088",
    "final_y": "540300.993163",
    "longitude": "-90.0933151658654",
    "latitude": "29.979883601240417",
    "geocoded_column": {
      "latitude": "29.979883601240417",
      "longitude": "-90.0933151658654"
    }
  },
  {
    "service_request": "2023-1029709",
    "request_type": "Property Maintenance",
    "request_reason": "Property Maintenance",
    "date_created": "2023-08-26T17:45:26.000",
    "date_modified": "2023-08-26T17:45:26.000",
    "request_status": "Pending",
    "responsible_agency": "Department of Code Enforcement",
    "final_address": "2431 Jonquil St",
    "address_councildis": "D",
    "status": "Pending",
    "rowid": "1029709",
    "final_x": "3686012.74377",
    "final_y": "547217.754001",
    "longitude": "-90.05326698922688",
    "latitude": "29.998521201552535",
    "geocoded_column": {
      "latitude": "29.998521201552535",
      "longitude": "-90.05326698922688"
    }
  },
  {
    "service_request": "2023-1029708",
    "request_type": "Property Maintenance",
    "request_reason": "Property Maintenance",
    "date_created": "2023-08-26T17:24:08.000",
    "date_modified": "2023-08-26T17:24:08.000",
    "request_status": "Pending",
    "responsible_agency": "Department of Code Enforcement",
    "final_address": "2420 Ursulines Ave",
    "address_councildis": "D",
    "status": "Pending",
    "rowid": "1029708",
    "final_x": "3678523.08565",
    "final_y": "537359.475272",
    "longitude": "-90.0772682197892",
    "latitude": "29.97164230635432",
    "geocoded_column": {
      "latitude": "29.97164230635432",
      "longitude": "-90.0772682197892"
    }
  },
  {
    "service_request": "2023-1029707",
    "request_type": "Roads/Drainage",
    "request_reason": "Pothole",
    "date_created": "2023-08-26T17:14:49.000",
    "date_modified": "2023-08-26T17:14:49.000",
    "request_status": "Pending",
    "responsible_agency": "Department of Public Works",
    "final_address": "1620 State St",
    "address_councildis": "A",
    "status": "Pending",
    "rowid": "1029707",
    "final_x": "3665771.16922",
    "final_y": "522799.409659",
    "longitude": "-90.11802856527153",
    "latitude": "29.93198505823613",
    "geocoded_column": {
      "latitude": "29.93198505823613",
      "longitude": "-90.11802856527153"
    }
  },
  {
    "service_request": "2023-1029706",
    "request_type": "Abandoned Vehicles",
    "request_reason": "Abandoned/Junk Vehicles",
    "date_created": "2023-08-26T16:42:18.000",
    "date_modified": "2023-08-26T16:42:18.000",
    "request_status": "Pending",
    "responsible_agency": "Department of Public Works",
    "final_address": "14590 Tilbury Rd",
    "address_councildis": "E",
    "status": "Pending",
    "rowid": "1029706",
    "final_x": "3721203.71833",
    "final_y": "573235.390249",
    "longitude": "-89.94110149025187",
    "latitude": "30.06893121276459",
    "geocoded_column": {
      "latitude": "30.06893121276459",
      "longitude": "-89.94110149025187"
    }
  },
  {
    "service_request": "2023-1029705",
    "request_type": "Trash/Recycling",
    "request_reason": "Request a Large Item Pick Up",
    "date_created": "2023-08-26T16:31:17.000",
    "date_modified": "2023-08-26T16:31:17.000",
    "request_status": "Pending",
    "responsible_agency": "Department of Sanitation",
    "final_address": "3124 Robert St",
    "address_councildis": "B",
    "status": "Assigned to Contractor",
    "contractor": "Richards Disposal",
    "rowid": "1029705",
    "final_x": "3668869.98279",
    "final_y": "526812.725822",
    "longitude": "-90.10811042877272",
    "latitude": "29.94292964926992",
    "geocoded_column": {
      "latitude": "29.94292964926992",
      "longitude": "-90.10811042877272"
    }
  },
  {
    "service_request": "2023-1029704",
    "request_type": "Roads/Drainage",
    "request_reason": "Pothole",
    "date_created": "2023-08-26T16:00:15.000",
    "date_modified": "2023-08-26T16:00:15.000",
    "request_status": "Pending",
    "responsible_agency": "Department of Public Works",
    "final_address": "6070 Chestnut St",
    "address_councildis": "A",
    "status": "Pending",
    "rowid": "1029704",
    "final_x": "3664412.78983",
    "final_y": "519991.592952",
    "longitude": "-90.12241052146828",
    "latitude": "29.92430399204139",
    "geocoded_column": {
      "latitude": "29.92430399204139",
      "longitude": "-90.12241052146828"
    }
  },
  {
    "service_request": "2023-1029703",
    "request_type": "Trash/Recycling",
    "request_reason": "Request a Large Item Pick Up",
    "date_created": "2023-08-26T15:58:57.000",
    "date_modified": "2023-08-26T15:58:58.000",
    "request_status": "Pending",
    "responsible_agency": "Department of Sanitation",
    "final_address": "4710 Charlmark Dr",
    "address_councildis": "E",
    "status": "Assigned to Contractor",
    "contractor": "Waste Pro",
    "rowid": "1029703",
    "final_x": "3711372.93746",
    "final_y": "555779.343705",
    "longitude": "-89.97283377069996",
    "latitude": "30.021258884729072",
    "geocoded_column": {
      "latitude": "30.021258884729072",
      "longitude": "-89.97283377069996"
    }
  },
  {
    "service_request": "2023-1029702",
    "request_type": "Roads/Drainage",
    "request_reason": "Pothole",
    "date_created": "2023-08-26T15:51:22.000",
    "date_modified": "2023-08-26T15:51:22.000",
    "request_status": "Pending",
    "responsible_agency": "Department of Public Works",
    "final_address": "201 Woodland Dr",
    "address_councildis": "C",
    "status": "Pending",
    "rowid": "1029702",
    "final_x": "3705502.35915",
    "final_y": "521379.757305",
    "longitude": "-89.99265476577432",
    "latitude": "29.926863012443192",
    "geocoded_column": {
      "latitude": "29.926863012443192",
      "longitude": "-89.99265476577432"
    }
  },
  {
    "service_request": "2023-1029701",
    "request_type": "Abandoned Vehicles",
    "request_reason": "Abandoned/Junk Vehicles",
    "date_created": "2023-08-26T15:33:09.000",
    "date_modified": "2023-08-26T15:33:09.000",
    "request_status": "Pending",
    "responsible_agency": "Department of Public Works",
    "final_address": "6034 St Claude Ave",
    "address_councildis": "E",
    "status": "Pending",
    "rowid": "1029701",
    "final_x": "3699391.11184",
    "final_y": "533300.547204",
    "longitude": "-90.01151212671589",
    "latitude": "29.959836211635476",
    "geocoded_column": {
      "latitude": "29.959836211635476",
      "longitude": "-90.01151212671589"
    }
  },
  {
    "service_request": "2023-1029700",
    "request_type": "Roads/Drainage",
    "request_reason": "Pothole",
    "date_created": "2023-08-26T15:31:49.000",
    "date_modified": "2023-08-26T15:31:49.000",
    "request_status": "Pending",
    "responsible_agency": "Department of Public Works",
    "final_address": "6216 Camp St",
    "address_councildis": "A",
    "status": "Pending",
    "rowid": "1029700",
    "final_x": "3663748.11187",
    "final_y": "519930.497272",
    "longitude": "-90.12451072353035",
    "latitude": "29.92415529590064",
    "geocoded_column": {
      "latitude": "29.92415529590064",
      "longitude": "-90.12451072353035"
    }
  },
  {
    "service_request": "2023-1029699",
    "request_type": "Abandoned Vehicles",
    "request_reason": "Abandoned/Junk Vehicles",
    "date_created": "2023-08-26T15:31:32.000",
    "date_modified": "2023-08-26T15:31:32.000",
    "request_status": "Pending",
    "responsible_agency": "Department of Public Works",
    "final_address": "2110 DAbadie St",
    "address_councildis": "D",
    "status": "Pending",
    "rowid": "1029699",
    "final_x": "3681116.03407",
    "final_y": "539484.140618",
    "longitude": "-90.06900526351956",
    "latitude": "29.97740599011265",
    "geocoded_column": {
      "latitude": "29.97740599011265",
      "longitude": "-90.06900526351956"
    }
  },
  {
    "service_request": "2023-1029698",
    "request_type": "Roads/Drainage",
    "request_reason": "Street Subsidence (Sinking)",
    "date_created": "2023-08-26T15:27:17.000",
    "date_modified": "2023-08-26T15:27:17.000",
    "request_status": "Pending",
    "responsible_agency": "Department of Public Works",
    "final_address": "2300 BLK N Claiborne Ave",
    "address_councildis": "C",
    "status": "Pending",
    "rowid": "1029698",
    "final_x": "3685807.54173",
    "final_y": "538221.345917",
    "longitude": "-90.05423246993257",
    "latitude": "29.973790573611808",
    "geocoded_column": {
      "latitude": "29.973790573611808",
      "longitude": "-90.05423246993257"
    }
  },
  {
    "service_request": "2023-1029697",
    "request_type": "Roads/Drainage",
    "request_reason": "Accessibility Ramps, Curbs and Sidewalk Repair",
    "date_created": "2023-08-26T14:17:25.000",
    "date_modified": "2023-08-26T14:17:25.000",
    "request_status": "Pending",
    "responsible_agency": "Department of Public Works",
    "final_address": "725 Navarre St",
    "address_councildis": "A",
    "status": "Pending",
    "rowid": "1029697",
    "final_x": "3668510.28084",
    "final_y": "543895.58043",
    "longitude": "-90.10866964876128",
    "latitude": "29.989912386861462",
    "geocoded_column": {
      "latitude": "29.989912386861462",
      "longitude": "-90.10866964876128"
    }
  },
  {
    "service_request": "2023-1029696",
    "request_type": "Trash/Recycling",
    "request_reason": "Request a Large Item Pick Up",
    "date_created": "2023-08-26T14:10:52.000",
    "date_modified": "2023-08-26T14:10:53.000",
    "request_status": "Pending",
    "responsible_agency": "Department of Sanitation",
    "final_address": "3741 Rue Delphine",
    "address_councildis": "C",
    "status": "Assigned to Contractor",
    "contractor": "Richards Disposal",
    "rowid": "1029696",
    "final_x": "3702961.81335",
    "final_y": "516744.936053",
    "longitude": "-90.00084467550288",
    "latitude": "29.91420034179204",
    "geocoded_column": {
      "latitude": "29.91420034179204",
      "longitude": "-90.00084467550288"
    }
  },
  {
    "service_request": "2023-1029695",
    "request_type": "Trash/Recycling",
    "request_reason": "Request a Large Item Pick Up",
    "date_created": "2023-08-26T14:04:26.000",
    "date_modified": "2023-08-26T14:04:27.000",
    "request_status": "Pending",
    "responsible_agency": "Department of Sanitation",
    "final_address": "2619 Prancer St",
    "address_councildis": "C",
    "status": "Assigned to Contractor",
    "contractor": "Richards Disposal",
    "rowid": "1029695",
    "final_x": "3699537.46244",
    "final_y": "521294.431097",
    "longitude": "-90.01148734778485",
    "latitude": "29.926818950861104",
    "geocoded_column": {
      "latitude": "29.926818950861104",
      "longitude": "-90.01148734778485"
    }
  },
  {
    "service_request": "2023-1029694",
    "request_type": "Trash/Recycling",
    "request_reason": "Request a Large Item Pick Up",
    "date_created": "2023-08-26T13:59:41.000",
    "date_modified": "2023-08-26T13:59:42.000",
    "request_status": "Pending",
    "responsible_agency": "Department of Sanitation",
    "status": "Assigned to Contractor",
    "rowid": "1029694",
    "longitude": "0.0",
    "latitude": "0.0",
    "geocoded_column": {
      "latitude": "0.0",
      "longitude": "0.0"
    }
  },
  {
    "service_request": "2023-1029693",
    "request_type": "Trash/Recycling",
    "request_reason": "Repair Trash Cart",
    "date_created": "2023-08-26T13:50:31.000",
    "date_modified": "2023-08-26T13:50:32.000",
    "request_status": "Pending",
    "responsible_agency": "Department of Sanitation",
    "final_address": "2619 Nashville Ave",
    "address_councildis": "A",
    "status": "Assigned to Contractor",
    "contractor": "Richards Disposal",
    "rowid": "1029693",
    "final_x": "3667394.34829",
    "final_y": "525737.534909",
    "longitude": "-90.11280554001503",
    "latitude": "29.94001652428404",
    "geocoded_column": {
      "latitude": "29.94001652428404",
      "longitude": "-90.11280554001503"
    }
  },
  {
    "service_request": "2023-1029692",
    "request_type": "Traffic Signals/Signs/Striping/Streetlights",
    "request_reason": "Street Light Outage/Malfunction",
    "date_created": "2023-08-26T13:40:28.000",
    "date_modified": "2023-08-26T13:40:29.000",
    "request_status": "Pending",
    "responsible_agency": "Department of Public Works",
    "final_address": "1007 N Derbigny St",
    "address_councildis": "D",
    "status": "Assigned to Contractor",
    "contractor": "Legacy Professional Services",
    "rowid": "1029692",
    "final_x": "3680160.29973",
    "final_y": "535778.165703",
    "longitude": "-90.0721526192758",
    "latitude": "29.96724479819078",
    "geocoded_column": {
      "latitude": "29.96724479819078",
      "longitude": "-90.0721526192758"
    }
  },
  {
    "service_request": "2023-1029691",
    "request_type": "Trash/Recycling",
    "request_reason": "Request a Large Item Pick Up",
    "date_created": "2023-08-26T13:34:07.000",
    "date_modified": "2023-08-26T13:34:08.000",
    "request_status": "Pending",
    "responsible_agency": "Department of Sanitation",
    "final_address": "3825 Jena St",
    "address_councildis": "B",
    "status": "Assigned to Contractor",
    "contractor": "Richards Disposal",
    "rowid": "1029691",
    "final_x": "3669705.10234",
    "final_y": "528661.846272",
    "longitude": "-90.10541118311178",
    "latitude": "29.94798954821877",
    "geocoded_column": {
      "latitude": "29.94798954821877",
      "longitude": "-90.10541118311178"
    }
  },
  {
    "service_request": "2023-1029690",
    "request_type": "Trash/Recycling",
    "request_reason": "Request a Large Item Pick Up",
    "date_created": "2023-08-26T13:33:51.000",
    "date_modified": "2023-08-26T13:33:52.000",
    "request_status": "Pending",
    "responsible_agency": "Department of Sanitation",
    "final_address": "201 S Solomon St",
    "address_councildis": "A",
    "status": "Assigned to Contractor",
    "contractor": "Richards Disposal",
    "rowid": "1029690",
    "final_x": "3670241.26241",
    "final_y": "538411.785737",
    "longitude": "-90.10338786451712",
    "latitude": "29.97478283433782",
    "geocoded_column": {
      "latitude": "29.97478283433782",
      "longitude": "-90.10338786451712"
    }
  },
  {
    "service_request": "2023-1029689",
    "request_type": "Trash/Recycling",
    "request_reason": "Request a Large Item Pick Up",
    "date_created": "2023-08-26T13:00:20.000",
    "date_modified": "2023-08-26T13:00:20.000",
    "request_status": "Pending",
    "responsible_agency": "Department of Sanitation",
    "final_address": "1668 Agriculture St",
    "address_councildis": "D",
    "status": "Assigned to Contractor",
    "contractor": "IV Waste",
    "rowid": "1029689",
    "final_x": "3680541.29826",
    "final_y": "542945.613773",
    "longitude": "-90.070700001948",
    "latitude": "29.986941258782124",
    "geocoded_column": {
      "latitude": "29.986941258782124",
      "longitude": "-90.070700001948"
    }
  },
  {
    "service_request": "2023-1029688",
    "request_type": "Trash/Recycling",
    "request_reason": "Request a Large Item Pick Up",
    "date_created": "2023-08-26T12:59:39.000",
    "date_modified": "2023-08-26T12:59:40.000",
    "request_status": "Pending",
    "responsible_agency": "Department of Sanitation",
    "final_address": "4930 S Johnson St",
    "address_councildis": "B",
    "status": "Assigned to Contractor",
    "contractor": "Richards Disposal",
    "rowid": "1029688",
    "final_x": "3668951.87111",
    "final_y": "526957.405374",
    "longitude": "-90.10784700131288",
    "latitude": "29.943325063246196",
    "geocoded_column": {
      "latitude": "29.943325063246196",
      "longitude": "-90.10784700131288"
    }
  },
  {
    "service_request": "2023-1029687",
    "request_type": "Trash/Recycling",
    "request_reason": "Request a Large Item Pick Up",
    "date_created": "2023-08-26T12:59:00.000",
    "date_modified": "2023-08-26T12:59:01.000",
    "request_status": "Pending",
    "responsible_agency": "Department of Sanitation",
    "final_address": "2003 Mazant St, New Orleans, Louisiana, 70117",
    "address_councildis": "D",
    "status": "Assigned to Contractor",
    "contractor": "IV Waste",
    "rowid": "1029687",
    "final_x": "3693014.16105",
    "final_y": "538652.183049",
    "longitude": "-90.03145702572947",
    "latitude": "29.974752051737514",
    "geocoded_column": {
      "latitude": "29.974752051737514",
      "longitude": "-90.03145702572947"
    }
  },
  {
    "service_request": "2023-1029686",
    "request_type": "Trash/Recycling",
    "request_reason": "Request a Large Item Pick Up",
    "date_created": "2023-08-26T12:58:30.000",
    "date_modified": "2023-08-26T12:58:31.000",
    "request_status": "Pending",
    "responsible_agency": "Department of Sanitation",
    "final_address": "4373 Genoa St",
    "address_councildis": "E",
    "status": "Assigned to Contractor",
    "contractor": "Waste Pro",
    "rowid": "1029686",
    "final_x": "3760965.93993",
    "final_y": "574035.86865",
    "longitude": "-89.81537372240726",
    "latitude": "30.069743799576845",
    "geocoded_column": {
      "latitude": "30.069743799576845",
      "longitude": "-89.81537372240726"
    }
  },
  {
    "service_request": "2023-1029685",
    "request_type": "Property Maintenance",
    "request_reason": "Property Maintenance",
    "date_created": "2023-08-26T12:44:54.000",
    "date_modified": "2023-08-26T12:44:54.000",
    "request_status": "Pending",
    "responsible_agency": "Department of Code Enforcement",
    "final_address": "1860 Burgundy St",
    "address_councildis": "C",
    "status": "Pending",
    "rowid": "1029685",
    "final_x": "3683867.46351",
    "final_y": "535454.942598",
    "longitude": "-90.06045670835087",
    "latitude": "29.96624333054572",
    "geocoded_column": {
      "latitude": "29.96624333054572",
      "longitude": "-90.06045670835087"
    }
  },
  {
    "service_request": "2023-1029684",
    "request_type": "Abandoned Vehicles",
    "request_reason": "Abandoned/Junk Vehicles",
    "date_created": "2023-08-26T12:43:32.000",
    "date_modified": "2023-08-26T12:43:32.000",
    "request_status": "Pending",
    "responsible_agency": "Department of Public Works",
    "final_address": "5410 Press Dr",
    "address_councildis": "D",
    "status": "Pending",
    "rowid": "1029684",
    "final_x": "3689165.35887",
    "final_y": "553199.350871",
    "longitude": "-90.04309513189587",
    "latitude": "30.014871185114558",
    "geocoded_column": {
      "latitude": "30.014871185114558",
      "longitude": "-90.04309513189587"
    }
  },
  {
    "service_request": "2023-1029683",
    "request_type": "Trash/Recycling",
    "request_reason": "Request a Large Item Pick Up",
    "date_created": "2023-08-26T12:42:20.000",
    "date_modified": "2023-08-26T12:43:06.000",
    "request_status": "Pending",
    "responsible_agency": "Department of Sanitation",
    "final_address": "4470 Spain St",
    "address_councildis": "D",
    "status": "Assigned to Contractor",
    "contractor": "IV Waste",
    "rowid": "1029683",
    "final_x": "3684984.61673",
    "final_y": "549456.614355",
    "longitude": "-90.05643602379241",
    "latitude": "30.00470880156233",
    "geocoded_column": {
      "latitude": "30.00470880156233",
      "longitude": "-90.05643602379241"
    }
  },
  {
    "service_request": "2023-1029682",
    "request_type": "Roads/Drainage",
    "request_reason": "Street Flooding / Drainage",
    "date_created": "2023-08-26T12:34:02.000",
    "date_modified": "2023-08-26T12:34:02.000",
    "request_status": "Pending",
    "responsible_agency": "Department of Public Works",
    "status": "Pending",
    "rowid": "1029682",
    "longitude": "0.0",
    "latitude": "0.0",
    "geocoded_column": {
      "latitude": "0.0",
      "longitude": "0.0"
    }
  },
  {
    "service_request": "2023-1029681",
    "request_type": "Roads/Drainage",
    "request_reason": "WaterMain Break",
    "date_created": "2023-08-26T12:20:10.000",
    "date_modified": "2023-08-26T12:20:10.000",
    "request_status": "Pending",
    "responsible_agency": "Department of Public Works",
    "final_address": "7100 BLK General Diaz St",
    "address_councildis": "A",
    "status": "Pending",
    "rowid": "1029681",
    "final_x": "3670160.84567",
    "final_y": "554378.273249",
    "longitude": "-90.10310043982908",
    "latitude": "30.018687518914597",
    "geocoded_column": {
      "latitude": "30.018687518914597",
      "longitude": "-90.10310043982908"
    }
  },
  {
    "service_request": "2023-1029680",
    "request_type": "Trash/Recycling",
    "request_reason": "Illegal Dumping",
    "date_created": "2023-08-26T12:13:42.000",
    "date_modified": "2023-08-26T12:13:42.000",
    "request_status": "Pending",
    "responsible_agency": "Department of Sanitation",
    "final_address": "4901 Mexico St",
    "address_councildis": "D",
    "status": "Pending",
    "rowid": "1029680",
    "final_x": "3690657.86038",
    "final_y": "556582.202138",
    "longitude": "-90.03825875857598",
    "latitude": "30.024126469586147",
    "geocoded_column": {
      "latitude": "30.024126469586147",
      "longitude": "-90.03825875857598"
    }
  },
  {
    "service_request": "2023-1029679",
    "request_type": "Trash/Recycling",
    "request_reason": "Request a Large Item Pick Up",
    "date_created": "2023-08-26T12:11:56.000",
    "date_modified": "2023-08-26T12:11:57.000",
    "request_status": "Pending",
    "responsible_agency": "Department of Sanitation",
    "final_address": "2214 Brainard St",
    "address_councildis": "B",
    "status": "Assigned to Contractor",
    "contractor": "Richards Disposal",
    "rowid": "1029679",
    "final_x": "3677105.07374",
    "final_y": "524111.881212",
    "longitude": "-90.0822033417107",
    "latitude": "29.93525852158967",
    "geocoded_column": {
      "latitude": "29.93525852158967",
      "longitude": "-90.0822033417107"
    }
  },
  {
    "service_request": "2023-1029678",
    "request_type": "Trash/Recycling",
    "request_reason": "Order Recycling Cart",
    "date_created": "2023-08-26T12:00:47.000",
    "date_modified": "2023-08-26T12:00:48.000",
    "request_status": "Pending",
    "responsible_agency": "Department of Sanitation",
    "final_address": "13415 Curran Rd",
    "address_councildis": "E",
    "status": "Pending",
    "rowid": "1029678",
    "final_x": "3716815.36792",
    "final_y": "570862.823207",
    "longitude": "-89.95506413984445",
    "latitude": "30.06255352163054",
    "geocoded_column": {
      "latitude": "30.06255352163054",
      "longitude": "-89.95506413984445"
    }
  },
  {
    "service_request": "2023-1029676",
    "request_type": "Trash/Recycling",
    "request_reason": "Illegal Dumping",
    "date_created": "2023-08-26T11:37:34.000",
    "date_modified": "2023-08-26T11:37:35.000",
    "request_status": "Pending",
    "responsible_agency": "Department of Sanitation",
    "final_address": "7619 Hurst St",
    "address_councildis": "A",
    "status": "Pending",
    "rowid": "1029676",
    "final_x": "3660840.97856",
    "final_y": "524705.78214",
    "longitude": "-90.13352973313323",
    "latitude": "29.93736984492393",
    "geocoded_column": {
      "latitude": "29.93736984492393",
      "longitude": "-90.13352973313323"
    }
  },
  {
    "service_request": "2023-1029675",
    "request_type": "Trash/Recycling",
    "request_reason": "Repair Recycling Cart",
    "date_created": "2023-08-26T11:36:45.000",
    "date_modified": "2023-08-26T11:36:45.000",
    "request_status": "Pending",
    "responsible_agency": "Department of Sanitation",
    "final_address": "117 N Alexander St",
    "address_councildis": "A",
    "status": "Pending",
    "rowid": "1029675",
    "final_x": "3670107.85018",
    "final_y": "539392.428874",
    "longitude": "-90.10377598087987",
    "latitude": "29.977483208698484",
    "geocoded_column": {
      "latitude": "29.977483208698484",
      "longitude": "-90.10377598087987"
    }
  },
  {
    "service_request": "2023-1029674",
    "request_type": "Trash/Recycling",
    "request_reason": "Request a Large Item Pick Up",
    "date_created": "2023-08-26T11:33:49.000",
    "date_modified": "2023-08-26T11:33:50.000",
    "request_status": "Pending",
    "responsible_agency": "Department of Sanitation",
    "final_address": "7929 Freret St",
    "address_councildis": "A",
    "status": "Assigned to Contractor",
    "contractor": "Richards Disposal",
    "rowid": "1029674",
    "final_x": "3661926.85114",
    "final_y": "527522.518655",
    "longitude": "-90.13000815603785",
    "latitude": "29.9450836666227",
    "geocoded_column": {
      "latitude": "29.9450836666227",
      "longitude": "-90.13000815603785"
    }
  },
  {
    "service_request": "2023-1029673",
    "request_type": "Trash/Recycling",
    "request_reason": "Illegal Dumping",
    "date_created": "2023-08-26T11:29:44.000",
    "date_modified": "2023-08-26T11:29:44.000",
    "request_status": "Pending",
    "responsible_agency": "Department of Sanitation",
    "final_address": "5700 BLK Wilton Dr",
    "address_councildis": "D",
    "status": "Pending",
    "rowid": "1029673",
    "final_x": "3681783.49401",
    "final_y": "554166.628659",
    "longitude": "-90.06638446993075",
    "latitude": "30.017757334119292",
    "geocoded_column": {
      "latitude": "30.017757334119292",
      "longitude": "-90.06638446993075"
    }
  },
  {
    "service_request": "2023-1029672",
    "request_type": "Roads/Drainage",
    "request_reason": "Catch Basin - Clogged",
    "date_created": "2023-08-26T11:28:57.000",
    "date_modified": "2023-08-26T11:28:57.000",
    "request_status": "Pending",
    "responsible_agency": "Department of Public Works",
    "final_address": "6201 Memphis St",
    "address_councildis": "A",
    "status": "Pending",
    "rowid": "1029672",
    "final_x": "3669379.9842",
    "final_y": "548569.609491",
    "longitude": "-90.10576431258646",
    "latitude": "30.00273876467606",
    "geocoded_column": {
      "latitude": "30.00273876467606",
      "longitude": "-90.10576431258646"
    }
  },
  {
    "service_request": "2023-1029670",
    "request_type": "Trash/Recycling",
    "request_reason": "Request a Large Item Pick Up",
    "date_created": "2023-08-26T11:10:54.000",
    "date_modified": "2023-08-26T11:10:55.000",
    "request_status": "Pending",
    "responsible_agency": "Department of Sanitation",
    "final_address": "1868 Gentilly Blvd Apt C",
    "address_councildis": "D",
    "status": "Assigned to Contractor",
    "contractor": "IV Waste",
    "rowid": "1029670",
    "final_x": "3679063.05211",
    "final_y": "542798.632653",
    "longitude": "-90.07537433932927",
    "latitude": "29.986581818860962",
    "geocoded_column": {
      "latitude": "29.986581818860962",
      "longitude": "-90.07537433932927"
    }
  },
  {
    "service_request": "2023-1029669",
    "request_type": "Abandoned Vehicles",
    "request_reason": "Abandoned/Junk Vehicles",
    "date_created": "2023-08-26T11:04:58.000",
    "date_modified": "2023-08-26T11:04:59.000",
    "request_status": "Pending",
    "responsible_agency": "Department of Public Works",
    "final_address": "DABADIE ST & N GAYOSO ST",
    "address_councildis": "D",
    "status": "Pending",
    "rowid": "1029669",
    "final_x": "3678685.1",
    "final_y": "541411.68",
    "longitude": "-90.07661619579522",
    "latitude": "29.9827795859355",
    "geocoded_column": {
      "latitude": "29.9827795859355",
      "longitude": "-90.07661619579522"
    }
  },
  {
    "service_request": "2023-1029668",
    "request_type": "Traffic Signals/Signs/Striping/Streetlights",
    "request_reason": "Street Light Outage/Malfunction",
    "date_created": "2023-08-26T11:04:45.000",
    "date_modified": "2023-08-26T11:04:45.000",
    "request_status": "Pending",
    "responsible_agency": "Department of Public Works",
    "final_address": "HOWARD AVE & OKEEFE AVE & DRYADES ST & OKEEFE EXIT & ST JOSEPH ST",
    "address_councildis": "B",
    "status": "Assigned to Contractor",
    "contractor": "Legacy Professional Services",
    "rowid": "1029668",
    "final_x": "3679047.9",
    "final_y": "527837.58",
    "longitude": "-90.07594076846051",
    "latitude": "29.945444485745654",
    "geocoded_column": {
      "latitude": "29.945444485745654",
      "longitude": "-90.07594076846051"
    }
  },
  {
    "service_request": "2023-1029667",
    "request_type": "Trash/Recycling",
    "request_reason": "Order Trash Cart",
    "date_created": "2023-08-26T11:04:02.000",
    "date_modified": "2023-08-26T11:04:03.000",
    "request_status": "Pending",
    "responsible_agency": "Department of Sanitation",
    "final_address": "2604 Pauger St",
    "address_councildis": "D",
    "status": "Assigned to Contractor",
    "contractor": "IV Waste",
    "rowid": "1029667",
    "final_x": "3683591.17481",
    "final_y": "539219.695882",
    "longitude": "-90.06119722708075",
    "latitude": "29.976603531867056",
    "geocoded_column": {
      "latitude": "29.976603531867056",
      "longitude": "-90.06119722708075"
    }
  },
  {
    "service_request": "2023-1029666",
    "request_type": "Abandoned Vehicles",
    "request_reason": "Abandoned/Junk Vehicles",
    "date_created": "2023-08-26T10:57:21.000",
    "date_modified": "2023-08-26T10:57:21.000",
    "request_status": "Pending",
    "responsible_agency": "Department of Public Works",
    "final_address": "2841 DAbadie St",
    "address_councildis": "D",
    "status": "Pending",
    "rowid": "1029666",
    "final_x": "3678733.29051",
    "final_y": "541417.448844",
    "longitude": "-90.0764637860175",
    "latitude": "29.982793994872242",
    "geocoded_column": {
      "latitude": "29.982793994872242",
      "longitude": "-90.0764637860175"
    }
  },
  {
    "service_request": "2023-1029665",
    "request_type": "Property Maintenance",
    "request_reason": "Property Maintenance",
    "date_created": "2023-08-26T10:55:52.000",
    "date_modified": "2023-08-26T10:55:52.000",
    "request_status": "Pending",
    "responsible_agency": "Department of Code Enforcement",
    "final_address": "99 Fontainebleau Dr",
    "address_councildis": "B",
    "status": "Pending",
    "rowid": "1029665",
    "final_x": "3667372.7634",
    "final_y": "530627.218818",
    "longitude": "-90.11270923682903",
    "latitude": "29.9534622022083",
    "geocoded_column": {
      "latitude": "29.9534622022083",
      "longitude": "-90.11270923682903"
    }
  },
  {
    "service_request": "2023-1029664",
    "request_type": "Trash/Recycling",
    "request_reason": "Missed Trash Pick-Up",
    "date_created": "2023-08-26T10:51:57.000",
    "date_modified": "2023-08-26T10:51:57.000",
    "request_status": "Pending",
    "responsible_agency": "Department of Sanitation",
    "final_address": "1821 Opelousas Ave",
    "address_councildis": "C",
    "status": "Assigned to Contractor",
    "contractor": "Richards Disposal",
    "rowid": "1029664",
    "final_x": "3691058.0392",
    "final_y": "528901.876096",
    "longitude": "-90.03798304255778",
    "latitude": "29.94800308113749",
    "geocoded_column": {
      "latitude": "29.94800308113749",
      "longitude": "-90.03798304255778"
    }
  },
  {
    "service_request": "2023-1029663",
    "request_type": "Property Maintenance",
    "request_reason": "Property Maintenance",
    "date_created": "2023-08-26T10:48:57.000",
    "date_modified": "2023-08-26T10:48:57.000",
    "request_status": "Pending",
    "responsible_agency": "Department of Code Enforcement",
    "final_address": "733 Dante St",
    "address_councildis": "A",
    "status": "Pending",
    "rowid": "1029663",
    "final_x": "3660477.05421",
    "final_y": "527762.037119",
    "longitude": "-90.13457772882575",
    "latitude": "29.945784051160167",
    "geocoded_column": {
      "latitude": "29.945784051160167",
      "longitude": "-90.13457772882575"
    }
  },
  {
    "service_request": "2023-1029662",
    "request_type": "Trash/Recycling",
    "request_reason": "Replace Trash Cart",
    "date_created": "2023-08-26T10:45:35.000",
    "date_modified": "2023-08-26T10:45:36.000",
    "request_status": "Pending",
    "responsible_agency": "Department of Sanitation",
    "final_address": "2333 Chestnut St",
    "address_councildis": "B",
    "status": "Assigned to Contractor",
    "contractor": "Richards Disposal",
    "rowid": "1029662",
    "final_x": "3677845.11778",
    "final_y": "522270.903098",
    "longitude": "-90.07993059740824",
    "latitude": "29.930174195401687",
    "geocoded_column": {
      "latitude": "29.930174195401687",
      "longitude": "-90.07993059740824"
    }
  },
  {
    "service_request": "2023-1029660",
    "request_type": "Trash/Recycling",
    "request_reason": "Replace Trash Cart",
    "date_created": "2023-08-26T10:33:53.000",
    "date_modified": "2023-08-26T10:33:54.000",
    "request_status": "Pending",
    "responsible_agency": "Department of Sanitation",
    "final_address": "1421 Joliet St",
    "address_councildis": "A",
    "status": "Assigned to Contractor",
    "contractor": "Richards Disposal",
    "rowid": "1029660",
    "final_x": "3661514.50579",
    "final_y": "529948.460737",
    "longitude": "-90.13122970952551",
    "latitude": "29.951766131337703",
    "geocoded_column": {
      "latitude": "29.951766131337703",
      "longitude": "-90.13122970952551"
    }
  },
  {
    "service_request": "2023-1029659",
    "request_type": "Roads/Drainage",
    "request_reason": "Debris in Roadway",
    "date_created": "2023-08-26T10:24:15.000",
    "date_modified": "2023-08-26T10:24:16.000",
    "request_status": "Pending",
    "responsible_agency": "Department of Public Works",
    "final_address": "1116 Merrill St",
    "address_councildis": "C",
    "status": "Pending",
    "rowid": "1029659",
    "final_x": "3695032.72163",
    "final_y": "527983.431423",
    "longitude": "-90.02546652967912",
    "latitude": "29.945353528123807",
    "geocoded_column": {
      "latitude": "29.945353528123807",
      "longitude": "-90.02546652967912"
    }
  },
  {
    "service_request": "2023-1029658",
    "request_type": "Health Related Request",
    "request_reason": "Noise Ordinance Complaint",
    "date_created": "2023-08-26T10:18:07.000",
    "date_modified": "2023-08-26T10:18:07.000",
    "request_status": "Pending",
    "responsible_agency": "Health Department",
    "final_address": "4801 Bienville Ave",
    "address_councildis": "A",
    "status": "Pending",
    "rowid": "1029658",
    "final_x": "3669301.71156",
    "final_y": "540770.138955",
    "longitude": "-90.1062754478953",
    "latitude": "29.981295206071636",
    "geocoded_column": {
      "latitude": "29.981295206071636",
      "longitude": "-90.1062754478953"
    }
  },
  {
    "service_request": "2023-1029657",
    "request_type": "Trash/Recycling",
    "request_reason": "Request a Large Item Pick Up",
    "date_created": "2023-08-26T10:16:47.000",
    "date_modified": "2023-08-26T10:16:48.000",
    "request_status": "Pending",
    "responsible_agency": "Department of Sanitation",
    "final_address": "2950 Americus St",
    "address_councildis": "C",
    "status": "Assigned to Contractor",
    "contractor": "Richards Disposal",
    "rowid": "1029657",
    "final_x": "3695109.236",
    "final_y": "524476.680316",
    "longitude": "-90.02535133697457",
    "latitude": "29.935708770876722",
    "geocoded_column": {
      "latitude": "29.935708770876722",
      "longitude": "-90.02535133697457"
    }
  },
  {
    "service_request": "2023-1029656",
    "request_type": "Trash/Recycling",
    "request_reason": "Request a Large Item Pick Up",
    "date_created": "2023-08-26T10:14:05.000",
    "date_modified": "2023-08-26T10:14:06.000",
    "request_status": "Pending",
    "responsible_agency": "Department of Sanitation",
    "final_address": "1016 N Broad St",
    "address_councildis": "D",
    "status": "Assigned to Contractor",
    "contractor": "Richards Disposal",
    "rowid": "1029656",
    "final_x": "3677536.25538",
    "final_y": "537935.960777",
    "longitude": "-90.0803648717975",
    "latitude": "29.97325715185754",
    "geocoded_column": {
      "latitude": "29.97325715185754",
      "longitude": "-90.0803648717975"
    }
  },
  {
    "service_request": "2023-1029655",
    "request_type": "Roads/Drainage",
    "request_reason": "Pothole",
    "date_created": "2023-08-26T10:07:12.000",
    "date_modified": "2023-08-26T10:07:12.000",
    "request_status": "Pending",
    "responsible_agency": "Department of Public Works",
    "final_address": "900 BLK Philip St",
    "address_councildis": "B",
    "status": "Pending",
    "rowid": "1029655",
    "final_x": "3678882.28754",
    "final_y": "521402.336248",
    "longitude": "-90.0766864900132",
    "latitude": "29.927754683975785",
    "geocoded_column": {
      "latitude": "29.927754683975785",
      "longitude": "-90.0766864900132"
    }
  },
  {
    "service_request": "2023-1029653",
    "request_type": "Property Maintenance",
    "request_reason": "Property Maintenance",
    "date_created": "2023-08-26T10:01:02.000",
    "date_modified": "2023-08-26T10:01:02.000",
    "request_status": "Pending",
    "responsible_agency": "Department of Code Enforcement",
    "final_address": "2641 N Johnson St",
    "address_councildis": "D",
    "status": "Pending",
    "rowid": "1029653",
    "final_x": "3688173.37167",
    "final_y": "539826.238922",
    "longitude": "-90.046703767937",
    "latitude": "29.978130633561673",
    "geocoded_column": {
      "latitude": "29.978130633561673",
      "longitude": "-90.046703767937"
    }
  },
  {
    "service_request": "2023-1029652",
    "request_type": "Property Maintenance",
    "request_reason": "Property Maintenance",
    "date_created": "2023-08-26T09:59:25.000",
    "date_modified": "2023-08-26T09:59:25.000",
    "request_status": "Pending",
    "responsible_agency": "Department of Code Enforcement",
    "final_address": "2639 N Johnson St",
    "address_councildis": "D",
    "status": "Pending",
    "rowid": "1029652",
    "final_x": "3688156.70505",
    "final_y": "539832.90561",
    "longitude": "-90.04675617049728",
    "latitude": "29.978149479167815",
    "geocoded_column": {
      "latitude": "29.978149479167815",
      "longitude": "-90.04675617049728"
    }
  },
  {
    "service_request": "2023-1029651",
    "request_type": "Trash/Recycling",
    "request_reason": "Order Trash Cart",
    "date_created": "2023-08-26T09:50:10.000",
    "date_modified": "2023-08-26T09:50:10.000",
    "request_status": "Pending",
    "responsible_agency": "Department of Sanitation",
    "final_address": "2136 St Andrew St",
    "address_councildis": "B",
    "status": "Assigned to Contractor",
    "contractor": "Richards Disposal",
    "rowid": "1029651",
    "final_x": "3676817.81198",
    "final_y": "525848.029885",
    "longitude": "-90.0830504215218",
    "latitude": "29.940040981573905",
    "geocoded_column": {
      "latitude": "29.940040981573905",
      "longitude": "-90.0830504215218"
    }
  },
  {
    "service_request": "2023-1029650",
    "request_type": "Trash/Recycling",
    "request_reason": "Order Trash Cart",
    "date_created": "2023-08-26T09:49:41.000",
    "date_modified": "2023-08-26T09:49:42.000",
    "request_status": "Pending",
    "responsible_agency": "Department of Sanitation",
    "final_address": "2134 St Andrew St",
    "address_councildis": "B",
    "status": "Assigned to Contractor",
    "contractor": "Richards Disposal",
    "rowid": "1029650",
    "final_x": "3676826.41819",
    "final_y": "525842.009341",
    "longitude": "-90.08302345780565",
    "latitude": "29.940024168845994",
    "geocoded_column": {
      "latitude": "29.940024168845994",
      "longitude": "-90.08302345780565"
    }
  },
  {
    "service_request": "2023-1029648",
    "request_type": "Abandoned Vehicles",
    "request_reason": "Abandoned/Junk Vehicles",
    "date_created": "2023-08-26T09:43:46.000",
    "date_modified": "2023-08-26T09:43:46.000",
    "request_status": "Pending",
    "responsible_agency": "Department of Public Works",
    "final_address": "2411 Aubry St",
    "address_councildis": "D",
    "status": "Pending",
    "rowid": "1029648",
    "final_x": "3680537.89717",
    "final_y": "540477.080907",
    "longitude": "-90.07079665760746",
    "latitude": "29.980153758857345",
    "geocoded_column": {
      "latitude": "29.980153758857345",
      "longitude": "-90.07079665760746"
    }
  },
  {
    "service_request": "2023-1029647",
    "request_type": "Trash/Recycling",
    "request_reason": "Request a Large Item Pick Up",
    "date_created": "2023-08-26T09:41:36.000",
    "date_modified": "2023-08-26T09:41:36.000",
    "request_status": "Pending",
    "responsible_agency": "Department of Sanitation",
    "final_address": "323 Tricou St",
    "address_councildis": "E",
    "status": "Assigned to Contractor",
    "contractor": "Waste Pro",
    "rowid": "1029647",
    "final_x": "3699175.37175",
    "final_y": "530564.28941",
    "longitude": "-90.0122929977488",
    "latitude": "29.952319313911413",
    "geocoded_column": {
      "latitude": "29.952319313911413",
      "longitude": "-90.0122929977488"
    }
  },
  {
    "service_request": "2023-1029646",
    "request_type": "Roads/Drainage",
    "request_reason": "Man hole cover issue",
    "date_created": "2023-08-26T09:30:45.000",
    "date_modified": "2023-08-26T09:30:45.000",
    "request_status": "Pending",
    "responsible_agency": "Department of Public Works",
    "final_address": "140 W Harrison Ave",
    "address_councildis": "A",
    "status": "Pending",
    "rowid": "1029646",
    "final_x": "3665859.70164",
    "final_y": "549466.072531",
    "longitude": "-90.11685533976325",
    "latitude": "30.005306957665237",
    "geocoded_column": {
      "latitude": "30.005306957665237",
      "longitude": "-90.11685533976325"
    }
  },
  {
    "service_request": "2023-1029644",
    "request_type": "Trash/Recycling",
    "request_reason": "Request a Large Item Pick Up",
    "date_created": "2023-08-26T09:18:17.000",
    "date_modified": "2023-08-26T09:18:18.000",
    "request_status": "Pending",
    "responsible_agency": "Department of Sanitation",
    "final_address": "6022 N Villere St",
    "address_councildis": "E",
    "status": "Assigned to Contractor",
    "contractor": "Waste Pro",
    "rowid": "1029644",
    "final_x": "3699721.5009",
    "final_y": "534365.271813",
    "longitude": "-90.01043002132187",
    "latitude": "29.96275334037375",
    "geocoded_column": {
      "latitude": "29.96275334037375",
      "longitude": "-90.01043002132187"
    }
  },
  {
    "service_request": "2023-1029643",
    "request_type": "Trash/Recycling",
    "request_reason": "Order Recycling Cart",
    "date_created": "2023-08-26T09:17:43.000",
    "date_modified": "2023-08-26T09:17:43.000",
    "request_status": "Pending",
    "responsible_agency": "Department of Sanitation",
    "final_address": "515 S Gayoso St",
    "address_councildis": "B",
    "status": "Pending",
    "rowid": "1029643",
    "final_x": "3673236.74612",
    "final_y": "534486.447045",
    "longitude": "-90.09406144087302",
    "latitude": "29.963900726954748",
    "geocoded_column": {
      "latitude": "29.963900726954748",
      "longitude": "-90.09406144087302"
    }
  },
  {
    "service_request": "2023-1029642",
    "request_type": "Property Maintenance",
    "request_reason": "Property Maintenance",
    "date_created": "2023-08-26T09:15:29.000",
    "date_modified": "2023-08-26T09:15:29.000",
    "request_status": "Pending",
    "responsible_agency": "Department of Code Enforcement",
    "final_address": "6022 N Villere St",
    "address_councildis": "E",
    "status": "Pending",
    "rowid": "1029642",
    "final_x": "3699721.5009",
    "final_y": "534365.271813",
    "longitude": "-90.01043002132187",
    "latitude": "29.96275334037375",
    "geocoded_column": {
      "latitude": "29.96275334037375",
      "longitude": "-90.01043002132187"
    }
  },
  {
    "service_request": "2023-1029641",
    "request_type": "Mayor's Request",
    "request_reason": "Requests to the Mayor",
    "date_created": "2023-08-26T09:10:55.000",
    "date_modified": "2023-08-26T09:10:55.000",
    "request_status": "Pending",
    "responsible_agency": "Executive Office of the Mayor",
    "final_address": "N CLAIBORNE AVE & TUPELO ST",
    "address_councildis": "E",
    "status": "Pending",
    "rowid": "1029641",
    "final_x": "3700137.3",
    "final_y": "535072.18",
    "longitude": "-90.00909119174081",
    "latitude": "29.964683878363545",
    "geocoded_column": {
      "latitude": "29.964683878363545",
      "longitude": "-90.00909119174081"
    }
  },
  {
    "service_request": "2023-1029640",
    "request_type": "Roads/Drainage",
    "request_reason": "Street Flooding / Drainage",
    "date_created": "2023-08-26T09:07:45.000",
    "date_modified": "2023-08-26T09:07:45.000",
    "request_status": "Pending",
    "responsible_agency": "Department of Public Works",
    "final_address": "7719 Pearl St",
    "address_councildis": "A",
    "status": "Pending",
    "rowid": "1029640",
    "final_x": "3661322.75584",
    "final_y": "525685.491069",
    "longitude": "-90.1319762934953",
    "latitude": "29.940049854606897",
    "geocoded_column": {
      "latitude": "29.940049854606897",
      "longitude": "-90.1319762934953"
    }
  },
  {
    "service_request": "2023-1029639",
    "request_type": "Property Maintenance",
    "request_reason": "Property Maintenance",
    "date_created": "2023-08-26T09:07:09.000",
    "date_modified": "2023-08-26T09:07:09.000",
    "request_status": "Pending",
    "responsible_agency": "Department of Code Enforcement",
    "final_address": "1408 Tupelo St",
    "address_councildis": "E",
    "status": "Pending",
    "rowid": "1029639",
    "final_x": "3699864.9217",
    "final_y": "534484.246021",
    "longitude": "-90.00997278094418",
    "latitude": "29.96307592314959",
    "geocoded_column": {
      "latitude": "29.96307592314959",
      "longitude": "-90.00997278094418"
    }
  },
  {
    "service_request": "2023-1029638",
    "request_type": "Parks & Parkways",
    "request_reason": "Request Grass Cutting Service (City Owned Property)",
    "date_created": "2023-08-26T09:05:58.000",
    "date_modified": "2023-08-26T09:05:58.000",
    "request_status": "Pending",
    "responsible_agency": "Department of Parks & Parkway",
    "final_address": "1408 Tupelo St",
    "address_councildis": "E",
    "status": "Pending",
    "rowid": "1029638",
    "final_x": "3699864.9217",
    "final_y": "534484.246021",
    "longitude": "-90.00997278094418",
    "latitude": "29.96307592314959",
    "geocoded_column": {
      "latitude": "29.96307592314959",
      "longitude": "-90.00997278094418"
    }
  },
  {
    "service_request": "2023-1029637",
    "request_type": "Abandoned Vehicles",
    "request_reason": "Abandoned/Junk Vehicles",
    "date_created": "2023-08-26T09:04:47.000",
    "date_modified": "2023-08-26T09:06:20.000",
    "request_status": "Pending",
    "responsible_agency": "Department of Public Works",
    "final_address": "1506 Spain St",
    "address_councildis": "C",
    "status": "Pending",
    "rowid": "1029637",
    "final_x": "3685976.61199",
    "final_y": "537935.115529",
    "longitude": "-90.05370860537691",
    "latitude": "29.972998349592935",
    "geocoded_column": {
      "latitude": "29.972998349592935",
      "longitude": "-90.05370860537691"
    }
  },
  {
    "service_request": "2023-1029636",
    "request_type": "Abandoned Vehicles",
    "request_reason": "Abandoned/Junk Vehicles",
    "date_created": "2023-08-26T09:02:35.000",
    "date_modified": "2023-08-26T09:03:55.000",
    "request_status": "Pending",
    "responsible_agency": "Department of Public Works",
    "final_address": "1529 Spain St",
    "address_councildis": "C",
    "status": "Pending",
    "rowid": "1029636",
    "final_x": "3686030.62102",
    "final_y": "538102.345353",
    "longitude": "-90.05353213585488",
    "latitude": "29.973456514545575",
    "geocoded_column": {
      "latitude": "29.973456514545575",
      "longitude": "-90.05353213585488"
    }
  },
  {
    "service_request": "2023-1029635",
    "request_type": "Trash/Recycling",
    "request_reason": "Request a Large Item Pick Up",
    "date_created": "2023-08-26T08:55:49.000",
    "date_modified": "2023-08-26T08:55:51.000",
    "request_status": "Pending",
    "responsible_agency": "Department of Sanitation",
    "final_address": "9201 Forshey St, New Orleans, Louisiana, 70118",
    "address_councildis": "A",
    "status": "Assigned to Contractor",
    "contractor": "Richards Disposal",
    "rowid": "1029635",
    "final_x": "3664142.81127",
    "final_y": "536581.294023",
    "longitude": "-90.12270946607313",
    "latitude": "29.96992817440111",
    "geocoded_column": {
      "latitude": "29.96992817440111",
      "longitude": "-90.12270946607313"
    }
  },
  {
    "service_request": "2023-1029633",
    "request_type": "Property Maintenance",
    "request_reason": "Property Maintenance",
    "date_created": "2023-08-26T08:36:37.000",
    "date_modified": "2023-08-26T08:36:37.000",
    "request_status": "Pending",
    "responsible_agency": "Department of Code Enforcement",
    "final_address": "1443 N Roman St",
    "address_councildis": "D",
    "status": "Pending",
    "rowid": "1029633",
    "final_x": "3680930.1604",
    "final_y": "537387.672392",
    "longitude": "-90.06966533643815",
    "latitude": "29.971647066052427",
    "geocoded_column": {
      "latitude": "29.971647066052427",
      "longitude": "-90.06966533643815"
    }
  },
  {
    "service_request": "2023-1029632",
    "request_type": "Traffic Signals/Signs/Striping/Streetlights",
    "request_reason": "Traffic Signal Malfunctioning/Damaged",
    "date_created": "2023-08-26T08:35:55.000",
    "date_modified": "2023-08-26T08:35:56.000",
    "request_status": "Pending",
    "responsible_agency": "Department of Public Works",
    "final_address": "1000 BLK Common St",
    "address_councildis": "B",
    "status": "Pending",
    "rowid": "1029632",
    "final_x": "3679778.63614",
    "final_y": "530934.771908",
    "longitude": "-90.07352608520102",
    "latitude": "29.95393865544426",
    "geocoded_column": {
      "latitude": "29.95393865544426",
      "longitude": "-90.07352608520102"
    }
  },
  {
    "service_request": "2023-1029631",
    "request_type": "Trash/Recycling",
    "request_reason": "Order Recycling Cart",
    "date_created": "2023-08-26T08:33:33.000",
    "date_modified": "2023-08-26T08:33:33.000",
    "request_status": "Pending",
    "responsible_agency": "Department of Sanitation",
    "final_address": "9326 Colapissa St",
    "address_councildis": "A",
    "status": "Pending",
    "rowid": "1029631",
    "final_x": "3663252.83194",
    "final_y": "536343.203911",
    "longitude": "-90.12552804584254",
    "latitude": "29.969299330048532",
    "geocoded_column": {
      "latitude": "29.969299330048532",
      "longitude": "-90.12552804584254"
    }
  },
  {
    "service_request": "2023-1029630",
    "request_type": "Trash/Recycling",
    "request_reason": "Order Trash Cart",
    "date_created": "2023-08-26T07:57:58.000",
    "date_modified": "2023-08-26T07:57:58.000",
    "request_status": "Pending",
    "responsible_agency": "Department of Sanitation",
    "final_address": "9326 Colapissa St",
    "address_councildis": "A",
    "status": "Assigned to Contractor",
    "contractor": "Richards Disposal",
    "rowid": "1029630",
    "final_x": "3663252.83194",
    "final_y": "536343.203911",
    "longitude": "-90.12552804584254",
    "latitude": "29.969299330048532",
    "geocoded_column": {
      "latitude": "29.969299330048532",
      "longitude": "-90.12552804584254"
    }
  },
  {
    "service_request": "2023-1029629",
    "request_type": "Trash/Recycling",
    "request_reason": "MIssed Recycling Pick-Up",
    "date_created": "2023-08-26T07:35:53.000",
    "date_modified": "2023-08-26T07:35:53.000",
    "request_status": "Pending",
    "responsible_agency": "Department of Sanitation",
    "final_address": "7350 Newcastle St",
    "address_councildis": "E",
    "status": "Assigned to Contractor",
    "contractor": "Waste Pro",
    "rowid": "1029629",
    "final_x": "3697368.40349",
    "final_y": "558599.560732",
    "longitude": "-90.0169815864481",
    "latitude": "30.02946318135517",
    "geocoded_column": {
      "latitude": "30.02946318135517",
      "longitude": "-90.0169815864481"
    }
  },
  {
    "service_request": "2023-1029628",
    "request_type": "Property Maintenance",
    "request_reason": "Property Maintenance",
    "date_created": "2023-08-26T07:23:06.000",
    "date_modified": "2023-08-26T07:23:06.000",
    "request_status": "Pending",
    "responsible_agency": "Department of Code Enforcement",
    "final_address": "514 S Salcedo St",
    "address_councildis": "B",
    "status": "Pending",
    "rowid": "1029628",
    "final_x": "3673080.29096",
    "final_y": "534620.464198",
    "longitude": "-90.09455093703228",
    "latitude": "29.96427388101359",
    "geocoded_column": {
      "latitude": "29.96427388101359",
      "longitude": "-90.09455093703228"
    }
  },
  {
    "service_request": "2023-1029627",
    "request_type": "Trash/Recycling",
    "request_reason": "MIssed Recycling Pick-Up",
    "date_created": "2023-08-26T06:43:23.000",
    "date_modified": "2023-08-26T06:43:24.000",
    "request_status": "Pending",
    "responsible_agency": "Department of Sanitation",
    "final_address": "1728 S Rendon St",
    "address_councildis": "B",
    "status": "Assigned to Contractor",
    "contractor": "Richards Disposal",
    "rowid": "1029627",
    "final_x": "3669580.17735",
    "final_y": "530560.783554",
    "longitude": "-90.10574138784025",
    "latitude": "29.953214684543667",
    "geocoded_column": {
      "latitude": "29.953214684543667",
      "longitude": "-90.10574138784025"
    }
  },
  {
    "service_request": "2023-1029626",
    "request_type": "Trash/Recycling",
    "request_reason": "MIssed Recycling Pick-Up",
    "date_created": "2023-08-26T06:41:53.000",
    "date_modified": "2023-08-26T06:41:54.000",
    "request_status": "Pending",
    "responsible_agency": "Department of Sanitation",
    "final_address": "1724 S Rendon St",
    "address_councildis": "B",
    "status": "Assigned to Contractor",
    "contractor": "Richards Disposal",
    "rowid": "1029626",
    "final_x": "3669599.93991",
    "final_y": "530592.777026",
    "longitude": "-90.1056779036917",
    "latitude": "29.9533020738953",
    "geocoded_column": {
      "latitude": "29.9533020738953",
      "longitude": "-90.1056779036917"
    }
  },
  {
    "service_request": "2023-1029625",
    "request_type": "Roads/Drainage",
    "request_reason": "Pothole",
    "date_created": "2023-08-26T06:35:09.000",
    "date_modified": "2023-08-26T11:38:25.000",
    "request_status": "Pending",
    "responsible_agency": "Department of Public Works",
    "final_address": "1937 Bordeaux St",
    "address_councildis": "B",
    "status": "Inspected",
    "rowid": "1029625",
    "final_x": "3669274.96391",
    "final_y": "522107.977722",
    "longitude": "-90.10699077771058",
    "latitude": "29.929981192993143",
    "geocoded_column": {
      "latitude": "29.929981192993143",
      "longitude": "-90.10699077771058"
    }
  },
  {
    "service_request": "2023-1029624",
    "request_type": "Roads/Drainage",
    "request_reason": "Man hole cover issue",
    "date_created": "2023-08-26T06:21:25.000",
    "date_modified": "2023-08-26T06:21:25.000",
    "request_status": "Pending",
    "responsible_agency": "Department of Public Works",
    "final_address": "2138 State St",
    "address_councildis": "A",
    "status": "Pending",
    "rowid": "1029624",
    "final_x": "3666391.05332",
    "final_y": "524683.576572",
    "longitude": "-90.11600845601048",
    "latitude": "29.937147823832426",
    "geocoded_column": {
      "latitude": "29.937147823832426",
      "longitude": "-90.11600845601048"
    }
  },
  {
    "service_request": "2023-1029623",
    "request_type": "Trash/Recycling",
    "request_reason": "Order Recycling Cart",
    "date_created": "2023-08-26T04:44:58.000",
    "date_modified": "2023-08-26T04:44:58.000",
    "request_status": "Pending",
    "responsible_agency": "Department of Sanitation",
    "final_address": "1115 Washington Ave",
    "address_councildis": "B",
    "status": "Pending",
    "rowid": "1029623",
    "final_x": "3677014.87752",
    "final_y": "520964.882041",
    "longitude": "-90.08259653721477",
    "latitude": "29.92660800808757",
    "geocoded_column": {
      "latitude": "29.92660800808757",
      "longitude": "-90.08259653721477"
    }
  },
  {
    "service_request": "2023-1029622",
    "request_type": "Roads/Drainage",
    "request_reason": "Pothole",
    "date_created": "2023-08-26T02:38:28.000",
    "date_modified": "2023-08-26T11:41:57.000",
    "case_close_date": "2023-08-26T06:41:57.000",
    "request_status": "Closed",
    "responsible_agency": "Department of Public Works",
    "final_address": "1407 Valence St",
    "address_councildis": "B",
    "status": "Duplicate Request",
    "rowid": "1029622",
    "final_x": "3669839.25287",
    "final_y": "520292.863992",
    "longitude": "-90.10527081865904",
    "latitude": "29.924973591096933",
    "geocoded_column": {
      "latitude": "29.924973591096933",
      "longitude": "-90.10527081865904"
    }
  },
  {
    "service_request": "2023-1029621",
    "request_type": "Traffic Signals/Signs/Striping/Streetlights",
    "request_reason": "Street Name Sign Damaged or Missing",
    "date_created": "2023-08-26T01:11:51.000",
    "date_modified": "2023-08-26T01:11:51.000",
    "request_status": "Pending",
    "responsible_agency": "Department of Public Works",
    "final_address": "2105 State St",
    "address_councildis": "A",
    "status": "Pending",
    "rowid": "1029621",
    "final_x": "3666475.16845",
    "final_y": "524441.708796",
    "longitude": "-90.11575101254617",
    "latitude": "29.936480307331067",
    "geocoded_column": {
      "latitude": "29.936480307331067",
      "longitude": "-90.11575101254617"
    }
  },
  {
    "service_request": "2023-1029620",
    "request_type": "Roads/Drainage",
    "request_reason": "Pothole",
    "date_created": "2023-08-26T00:36:34.000",
    "date_modified": "2023-08-26T11:47:45.000",
    "case_close_date": "2023-08-26T06:47:45.000",
    "request_status": "Closed",
    "responsible_agency": "Department of Public Works",
    "final_address": "1423 General Pershing St",
    "address_councildis": "B",
    "status": "Duplicate Request",
    "rowid": "1029620",
    "final_x": "3671330.69185",
    "final_y": "520571.244024",
    "longitude": "-90.1005533659415",
    "latitude": "29.925695010510914",
    "geocoded_column": {
      "latitude": "29.925695010510914",
      "longitude": "-90.1005533659415"
    }
  },
  {
    "service_request": "2023-1029619",
    "request_type": "Roads/Drainage",
    "request_reason": "Pothole",
    "date_created": "2023-08-26T00:04:50.000",
    "date_modified": "2023-08-26T11:52:42.000",
    "case_close_date": "2023-08-26T06:52:42.000",
    "request_status": "Closed",
    "responsible_agency": "Department of Public Works",
    "final_address": "4216 Chestnut St",
    "address_councildis": "B",
    "status": "Duplicate Request",
    "rowid": "1029619",
    "final_x": "3671574.31393",
    "final_y": "519539.203703",
    "longitude": "-90.09981939416457",
    "latitude": "29.922850019854593",
    "geocoded_column": {
      "latitude": "29.922850019854593",
      "longitude": "-90.09981939416457"
    }
  },
  {
    "service_request": "2023-1029618",
    "request_type": "Roads/Drainage",
    "request_reason": "Pothole",
    "date_created": "2023-08-25T23:52:25.000",
    "date_modified": "2023-08-25T23:52:25.000",
    "request_status": "Pending",
    "responsible_agency": "Department of Public Works",
    "final_address": "6218 Camp St",
    "address_councildis": "A",
    "status": "Pending",
    "rowid": "1029618",
    "final_x": "3663735.52493",
    "final_y": "519935.705976",
    "longitude": "-90.12455028280617",
    "latitude": "29.924169983324653",
    "geocoded_column": {
      "latitude": "29.924169983324653",
      "longitude": "-90.12455028280617"
    }
  },
  {
    "service_request": "2023-1029617",
    "request_type": "Roads/Drainage",
    "request_reason": "Pothole",
    "date_created": "2023-08-25T23:51:27.000",
    "date_modified": "2023-08-26T11:54:51.000",
    "request_status": "Pending",
    "responsible_agency": "Department of Public Works",
    "final_address": "1421 Constantinople St",
    "address_councildis": "B",
    "status": "Inspected",
    "rowid": "1029617",
    "final_x": "3672433.24257",
    "final_y": "520667.657465",
    "longitude": "-90.09706965638372",
    "latitude": "29.925927453713577",
    "geocoded_column": {
      "latitude": "29.925927453713577",
      "longitude": "-90.09706965638372"
    }
  },
  {
    "service_request": "2023-1029616",
    "request_type": "Roads/Drainage",
    "request_reason": "Pothole",
    "date_created": "2023-08-25T23:46:33.000",
    "date_modified": "2023-08-26T11:58:28.000",
    "case_close_date": "2023-08-26T06:58:28.000",
    "request_status": "Closed",
    "responsible_agency": "Department of Public Works",
    "final_address": "1312 Milan St",
    "address_councildis": "B",
    "status": "Referred to External Agency",
    "rowid": "1029616",
    "final_x": "3671625.82823",
    "final_y": "520286.919608",
    "longitude": "-90.09963137110304",
    "latitude": "29.92490447494246",
    "geocoded_column": {
      "latitude": "29.92490447494246",
      "longitude": "-90.09963137110304"
    }
  },
  {
    "service_request": "2023-1029615",
    "request_type": "Traffic Signals/Signs/Striping/Streetlights",
    "request_reason": "Street Light Outage/Malfunction",
    "date_created": "2023-08-25T23:16:18.000",
    "date_modified": "2023-08-25T23:16:18.000",
    "request_status": "Pending",
    "responsible_agency": "Department of Public Works",
    "final_address": "5520 Pitt St",
    "address_councildis": "A",
    "status": "Assigned to Contractor",
    "contractor": "Legacy Professional Services",
    "rowid": "1029615",
    "final_x": "3666641.8866",
    "final_y": "520646.555833",
    "longitude": "-90.11535203295246",
    "latitude": "29.92603997068255",
    "geocoded_column": {
      "latitude": "29.92603997068255",
      "longitude": "-90.11535203295246"
    }
  },
  {
    "service_request": "2023-1029614",
    "request_type": "Trash/Recycling",
    "request_reason": "Request a Large Item Pick Up",
    "date_created": "2023-08-25T22:33:31.000",
    "date_modified": "2023-08-25T22:33:33.000",
    "request_status": "Pending",
    "responsible_agency": "Department of Sanitation",
    "final_address": "2900 Mansfield Ave",
    "address_councildis": "C",
    "status": "Assigned to Contractor",
    "contractor": "Richards Disposal",
    "rowid": "1029614",
    "final_x": "3709228.97233",
    "final_y": "519214.212151",
    "longitude": "-89.98097163048246",
    "latitude": "29.920788104870823",
    "geocoded_column": {
      "latitude": "29.920788104870823",
      "longitude": "-89.98097163048246"
    }
  },
  {
    "service_request": "2023-1029613",
    "request_type": "Trash/Recycling",
    "request_reason": "Order Trash Cart",
    "date_created": "2023-08-25T22:19:04.000",
    "date_modified": "2023-08-25T22:19:05.000",
    "request_status": "Pending",
    "responsible_agency": "Department of Sanitation",
    "final_address": "7920 W Laverne St",
    "address_councildis": "D",
    "status": "Assigned to Contractor",
    "contractor": "Waste Pro",
    "rowid": "1029613",
    "final_x": "3694795.49533",
    "final_y": "559552.588701",
    "longitude": "-90.02507750676695",
    "latitude": "30.032164666468702",
    "geocoded_column": {
      "latitude": "30.032164666468702",
      "longitude": "-90.02507750676695"
    }
  },
  {
    "service_request": "2023-1029612",
    "request_type": "Trash/Recycling",
    "request_reason": "Order Trash Cart",
    "date_created": "2023-08-25T22:16:21.000",
    "date_modified": "2023-08-25T22:16:22.000",
    "request_status": "Pending",
    "responsible_agency": "Department of Sanitation",
    "final_address": "7918 W Laverne St",
    "address_councildis": "D",
    "status": "Assigned to Contractor",
    "contractor": "Waste Pro",
    "rowid": "1029612",
    "final_x": "3694803.51126",
    "final_y": "559531.780509",
    "longitude": "-90.02505292677748",
    "latitude": "30.032107200242827",
    "geocoded_column": {
      "latitude": "30.032107200242827",
      "longitude": "-90.02505292677748"
    }
  },
  {
    "service_request": "2023-1029611",
    "request_type": "Traffic Signals/Signs/Striping/Streetlights",
    "request_reason": "Street Name Sign Damaged or Missing",
    "date_created": "2023-08-25T21:41:42.000",
    "date_modified": "2023-08-25T21:41:42.000",
    "request_status": "Pending",
    "responsible_agency": "Department of Public Works",
    "final_address": "SONIAT ST & CUCULLU ST",
    "address_councildis": "B",
    "status": "Pending",
    "rowid": "1029611",
    "final_x": "3668569.5",
    "final_y": "525595.78",
    "longitude": "-90.1091001793858",
    "latitude": "29.93959227268642",
    "geocoded_column": {
      "latitude": "29.93959227268642",
      "longitude": "-90.1091001793858"
    }
  },
  {
    "service_request": "2023-1029610",
    "request_type": "Trash/Recycling",
    "request_reason": "MIssed Recycling Pick-Up",
    "date_created": "2023-08-25T21:33:20.000",
    "date_modified": "2023-08-25T21:33:21.000",
    "request_status": "Pending",
    "responsible_agency": "Department of Sanitation",
    "final_address": "6659 Wales St",
    "address_councildis": "E",
    "status": "Assigned to Contractor",
    "contractor": "Waste Pro",
    "rowid": "1029610",
    "final_x": "3697565.38467",
    "final_y": "560533.324894",
    "longitude": "-90.01628889638079",
    "latitude": "30.03477406527213",
    "geocoded_column": {
      "latitude": "30.03477406527213",
      "longitude": "-90.01628889638079"
    }
  },
  {
    "service_request": "2023-1029609",
    "request_type": "Traffic Signals/Signs/Striping/Streetlights",
    "request_reason": "Street Name Sign Damaged or Missing",
    "date_created": "2023-08-25T21:24:54.000",
    "date_modified": "2023-08-25T21:24:54.000",
    "request_status": "Pending",
    "responsible_agency": "Department of Public Works",
    "final_address": "S ROBERTSON ST & SONIAT ST",
    "address_councildis": "B",
    "status": "Pending",
    "rowid": "1029609",
    "final_x": "3668530.4",
    "final_y": "524277.28",
    "longitude": "-90.10926809252389",
    "latitude": "29.935967970533923",
    "geocoded_column": {
      "latitude": "29.935967970533923",
      "longitude": "-90.10926809252389"
    }
  },
  {
    "service_request": "2023-1029608",
    "request_type": "Trash/Recycling",
    "request_reason": "Replace Trash Cart",
    "date_created": "2023-08-25T20:54:38.000",
    "date_modified": "2023-08-25T20:54:39.000",
    "request_status": "Pending",
    "responsible_agency": "Department of Sanitation",
    "final_address": "2119 Franklin Ave",
    "address_councildis": "D",
    "status": "Assigned to Contractor",
    "contractor": "IV Waste",
    "rowid": "1029608",
    "final_x": "3687688.50607",
    "final_y": "540394.156939",
    "longitude": "-90.04821502516377",
    "latitude": "29.97970716866076",
    "geocoded_column": {
      "latitude": "29.97970716866076",
      "longitude": "-90.04821502516377"
    }
  },
  {
    "service_request": "2023-1029607",
    "request_type": "Traffic Signals/Signs/Striping/Streetlights",
    "request_reason": "Street Light Outage/Malfunction",
    "date_created": "2023-08-25T20:36:07.000",
    "date_modified": "2023-08-25T20:36:07.000",
    "request_status": "Pending",
    "responsible_agency": "Department of Public Works",
    "final_address": "TULANE AVE & S RAMPART ST & COMMON ST",
    "address_councildis": "B",
    "status": "Assigned to Contractor",
    "contractor": "Legacy Professional Services",
    "rowid": "1029607",
    "final_x": "3679627.79",
    "final_y": "531022.73",
    "longitude": "-90.07399934305039",
    "latitude": "29.954185069998477",
    "geocoded_column": {
      "latitude": "29.954185069998477",
      "longitude": "-90.07399934305039"
    }
  },
  {
    "service_request": "2023-1029606",
    "request_type": "Trash/Recycling",
    "request_reason": "Request a Large Item Pick Up",
    "date_created": "2023-08-25T20:24:40.000",
    "date_modified": "2023-08-25T20:24:41.000",
    "request_status": "Pending",
    "responsible_agency": "Department of Sanitation",
    "final_address": "214 Fairfax Pl",
    "address_councildis": "C",
    "status": "Assigned to Contractor",
    "contractor": "Richards Disposal",
    "rowid": "1029606",
    "final_x": "3706632.48683",
    "final_y": "517507.434486",
    "longitude": "-89.98923067289243",
    "latitude": "29.916179066069766",
    "geocoded_column": {
      "latitude": "29.916179066069766",
      "longitude": "-89.98923067289243"
    }
  },
  {
    "service_request": "2023-1029605",
    "request_type": "Traffic Signals/Signs/Striping/Streetlights",
    "request_reason": "Street Light Outage/Malfunction",
    "date_created": "2023-08-25T20:05:38.000",
    "date_modified": "2023-08-25T20:05:38.000",
    "request_status": "Pending",
    "responsible_agency": "Department of Public Works",
    "final_address": "FAIRMONT DR & SERE ST",
    "address_councildis": "D",
    "status": "Assigned to Contractor",
    "contractor": "Legacy Professional Services",
    "rowid": "1029605",
    "final_x": "3685330.4",
    "final_y": "546083.98",
    "longitude": "-90.05546245329008",
    "latitude": "29.995424672188467",
    "geocoded_column": {
      "latitude": "29.995424672188467",
      "longitude": "-90.05546245329008"
    }
  },
  {
    "service_request": "2023-1029604",
    "request_type": "Property Maintenance",
    "request_reason": "Property Maintenance",
    "date_created": "2023-08-25T19:47:10.000",
    "date_modified": "2023-08-25T19:47:10.000",
    "request_status": "Pending",
    "responsible_agency": "Department of Code Enforcement",
    "status": "Pending",
    "rowid": "1029604",
    "longitude": "0.0",
    "latitude": "0.0",
    "geocoded_column": {
      "latitude": "0.0",
      "longitude": "0.0"
    }
  },
  {
    "service_request": "2023-1029603",
    "request_type": "Property Maintenance",
    "request_reason": "Property Maintenance",
    "date_created": "2023-08-25T19:45:35.000",
    "date_modified": "2023-08-25T19:45:35.000",
    "request_status": "Pending",
    "responsible_agency": "Department of Code Enforcement",
    "final_address": "5850 W Deer Park Blvd",
    "address_councildis": "E",
    "status": "Pending",
    "rowid": "1029603",
    "final_x": "3712136.22104",
    "final_y": "560975.76611",
    "longitude": "-89.97022670694604",
    "latitude": "30.035522047752266",
    "geocoded_column": {
      "latitude": "30.035522047752266",
      "longitude": "-89.97022670694604"
    }
  },
  {
    "service_request": "2023-1029602",
    "request_type": "Property Maintenance",
    "request_reason": "Property Maintenance",
    "date_created": "2023-08-25T19:43:08.000",
    "date_modified": "2023-08-25T19:43:08.000",
    "request_status": "Pending",
    "responsible_agency": "Department of Code Enforcement",
    "final_address": "5864 W Deer Park Blvd",
    "address_councildis": "E",
    "status": "Pending",
    "rowid": "1029602",
    "final_x": "3712099.19435",
    "final_y": "561022.92451",
    "longitude": "-89.97034194380768",
    "latitude": "30.035652925616294",
    "geocoded_column": {
      "latitude": "30.035652925616294",
      "longitude": "-89.97034194380768"
    }
  },
  {
    "service_request": "2023-1029601",
    "request_type": "Trash/Recycling",
    "request_reason": "Request a Large Item Pick Up",
    "date_created": "2023-08-25T19:42:31.000",
    "date_modified": "2023-08-25T19:42:32.000",
    "request_status": "Pending",
    "responsible_agency": "Department of Sanitation",
    "final_address": "5526 Hewes St",
    "address_councildis": "A",
    "status": "Assigned to Contractor",
    "contractor": "Richards Disposal",
    "rowid": "1029601",
    "final_x": "3668560.05678",
    "final_y": "529357.646593",
    "longitude": "-90.10900309008409",
    "latitude": "29.949936462998444",
    "geocoded_column": {
      "latitude": "29.949936462998444",
      "longitude": "-90.10900309008409"
    }
  },
  {
    "service_request": "2023-1029600",
    "request_type": "Property Maintenance",
    "request_reason": "Property Maintenance",
    "date_created": "2023-08-25T19:36:36.000",
    "date_modified": "2023-08-25T19:36:36.000",
    "request_status": "Pending",
    "responsible_agency": "Department of Code Enforcement",
    "final_address": "5838 W Deer Park Blvd",
    "address_councildis": "E",
    "status": "Pending",
    "rowid": "1029600",
    "final_x": "3712170.89458",
    "final_y": "560929.245982",
    "longitude": "-89.97011888266655",
    "latitude": "30.035393001755338",
    "geocoded_column": {
      "latitude": "30.035393001755338",
      "longitude": "-89.97011888266655"
    }
  },
  {
    "service_request": "2023-1029599",
    "request_type": "Trash/Recycling",
    "request_reason": "Order Recycling Cart",
    "date_created": "2023-08-25T19:36:09.000",
    "date_modified": "2023-08-25T19:36:09.000",
    "request_status": "Pending",
    "responsible_agency": "Department of Sanitation",
    "final_address": "3701 Rue Mignon",
    "address_councildis": "C",
    "status": "Pending",
    "rowid": "1029599",
    "final_x": "3703248.1153",
    "final_y": "516959.715765",
    "longitude": "-89.99993312893531",
    "latitude": "29.91478175457405",
    "geocoded_column": {
      "latitude": "29.91478175457405",
      "longitude": "-89.99993312893531"
    }
  },
  {
    "service_request": "2023-1029598",
    "request_type": "Abandoned Vehicles",
    "request_reason": "Abandoned/Junk Vehicles",
    "date_created": "2023-08-25T19:34:28.000",
    "date_modified": "2023-08-25T19:34:28.000",
    "request_status": "Pending",
    "responsible_agency": "Department of Public Works",
    "final_address": "20815 Old Spanish Trl",
    "address_councildis": "E",
    "status": "Pending",
    "rowid": "1029598",
    "final_x": "3763147.34627",
    "final_y": "572338.772073",
    "longitude": "-89.80854931748684",
    "latitude": "30.06499793018931",
    "geocoded_column": {
      "latitude": "30.06499793018931",
      "longitude": "-89.80854931748684"
    }
  },
  {
    "service_request": "2023-1029597",
    "request_type": "Abandoned Vehicles",
    "request_reason": "Abandoned/Junk Vehicles",
    "date_created": "2023-08-25T19:30:32.000",
    "date_modified": "2023-08-25T19:30:32.000",
    "request_status": "Pending",
    "responsible_agency": "Department of Public Works",
    "final_address": "6476 Memphis St",
    "address_councildis": "A",
    "status": "Pending",
    "rowid": "1029597",
    "final_x": "3669397.98657",
    "final_y": "550547.28802",
    "longitude": "-90.10564049984146",
    "latitude": "30.008176159514235",
    "geocoded_column": {
      "latitude": "30.008176159514235",
      "longitude": "-90.10564049984146"
    }
  },
  {
    "service_request": "2023-1029596",
    "request_type": "Trash/Recycling",
    "request_reason": "Missed Trash Pick-Up",
    "date_created": "2023-08-25T19:24:41.000",
    "date_modified": "2023-08-25T19:24:42.000",
    "request_status": "Pending",
    "responsible_agency": "Department of Sanitation",
    "final_address": "6305 General Pershing St",
    "address_councildis": "B",
    "status": "Assigned to Contractor",
    "contractor": "Richards Disposal",
    "rowid": "1029596",
    "final_x": "3668097.81857",
    "final_y": "530436.889858",
    "longitude": "-90.11042622674755",
    "latitude": "29.952917602151903",
    "geocoded_column": {
      "latitude": "29.952917602151903",
      "longitude": "-90.11042622674755"
    }
  },
  {
    "service_request": "2023-1029595",
    "request_type": "Trash/Recycling",
    "request_reason": "Missed Trash Pick-Up",
    "date_created": "2023-08-25T19:14:56.000",
    "date_modified": "2023-08-25T19:14:56.000",
    "request_status": "Pending",
    "responsible_agency": "Department of Sanitation",
    "final_address": "800 BLK Verret St",
    "address_councildis": "C",
    "status": "Assigned to Contractor",
    "contractor": "Richards Disposal",
    "rowid": "1029595",
    "final_x": "3687146.59745",
    "final_y": "528532.485374",
    "longitude": "-90.05034606905508",
    "latitude": "29.947108387785768",
    "geocoded_column": {
      "latitude": "29.947108387785768",
      "longitude": "-90.05034606905508"
    }
  },
  {
    "service_request": "2023-1029594",
    "request_type": "Roads/Drainage",
    "request_reason": "Pothole",
    "date_created": "2023-08-25T19:08:21.000",
    "date_modified": "2023-08-25T19:08:21.000",
    "request_status": "Pending",
    "responsible_agency": "Department of Public Works",
    "final_address": " & SCIENCE ST",
    "address_councildis": "D",
    "status": "Pending",
    "rowid": "1029594",
    "final_x": "3688687.45",
    "final_y": "559815.19",
    "longitude": "-90.04436995240737",
    "latitude": "30.033077060512806",
    "geocoded_column": {
      "latitude": "30.033077060512806",
      "longitude": "-90.04436995240737"
    }
  },
  {
    "service_request": "2023-1029593",
    "request_type": "Property Maintenance",
    "request_reason": "Property Maintenance",
    "date_created": "2023-08-25T19:05:52.000",
    "date_modified": "2023-08-25T19:05:52.000",
    "request_status": "Pending",
    "responsible_agency": "Department of Code Enforcement",
    "final_address": "2168 Florida Ave",
    "address_councildis": "D",
    "status": "Pending",
    "rowid": "1029593",
    "final_x": "3684409.60578",
    "final_y": "542354.894861",
    "longitude": "-90.0585022081231",
    "latitude": "29.985199217126496",
    "geocoded_column": {
      "latitude": "29.985199217126496",
      "longitude": "-90.0585022081231"
    }
  },
  {
    "service_request": "2023-1029592",
    "request_type": "Trash/Recycling",
    "request_reason": "MIssed Recycling Pick-Up",
    "date_created": "2023-08-25T19:03:06.000",
    "date_modified": "2023-08-25T19:03:07.000",
    "request_status": "Pending",
    "responsible_agency": "Department of Sanitation",
    "final_address": "7719 Pearl St",
    "address_councildis": "A",
    "status": "Assigned to Contractor",
    "contractor": "Richards Disposal",
    "rowid": "1029592",
    "final_x": "3661322.75584",
    "final_y": "525685.491069",
    "longitude": "-90.1319762934953",
    "latitude": "29.940049854606897",
    "geocoded_column": {
      "latitude": "29.940049854606897",
      "longitude": "-90.1319762934953"
    }
  },
  {
    "service_request": "2023-1029591",
    "request_type": "Trash/Recycling",
    "request_reason": "MIssed Recycling Pick-Up",
    "date_created": "2023-08-25T18:58:03.000",
    "date_modified": "2023-08-25T18:58:03.000",
    "request_status": "Pending",
    "responsible_agency": "Department of Sanitation",
    "final_address": "7544 Plum St",
    "address_councildis": "A",
    "status": "Assigned to Contractor",
    "contractor": "Richards Disposal",
    "rowid": "1029591",
    "final_x": "3663594.91661",
    "final_y": "527316.303935",
    "longitude": "-90.12474839841894",
    "latitude": "29.944468369454647",
    "geocoded_column": {
      "latitude": "29.944468369454647",
      "longitude": "-90.12474839841894"
    }
  },
  {
    "service_request": "2023-1029590",
    "request_type": "Property Maintenance",
    "request_reason": "Property Maintenance",
    "date_created": "2023-08-25T18:50:29.000",
    "date_modified": "2023-08-25T18:50:29.000",
    "request_status": "Pending",
    "responsible_agency": "Department of Code Enforcement",
    "final_address": "2164 Florida Ave",
    "address_councildis": "D",
    "status": "Pending",
    "rowid": "1029590",
    "final_x": "3684358.35573",
    "final_y": "542374.478221",
    "longitude": "-90.05866339715226",
    "latitude": "29.985254632183466",
    "geocoded_column": {
      "latitude": "29.985254632183466",
      "longitude": "-90.05866339715226"
    }
  },
  {
    "service_request": "2023-1029589",
    "request_type": "Property Maintenance",
    "request_reason": "Property Maintenance",
    "date_created": "2023-08-25T18:46:25.000",
    "date_modified": "2023-08-25T18:46:25.000",
    "request_status": "Pending",
    "responsible_agency": "Department of Code Enforcement",
    "final_address": "2160 Florida Ave",
    "address_councildis": "D",
    "status": "Pending",
    "rowid": "1029589",
    "final_x": "3684317.93909",
    "final_y": "542389.894861",
    "longitude": "-90.05879051457502",
    "latitude": "29.985298258699665",
    "geocoded_column": {
      "latitude": "29.985298258699665",
      "longitude": "-90.05879051457502"
    }
  },
  {
    "service_request": "2023-1029588",
    "request_type": "Abandoned Vehicles",
    "request_reason": "Abandoned/Junk Vehicles",
    "date_created": "2023-08-25T18:41:23.000",
    "date_modified": "2023-08-25T18:41:23.000",
    "request_status": "Pending",
    "responsible_agency": "Department of Public Works",
    "final_address": "4407 Danneel St",
    "address_councildis": "B",
    "status": "Pending",
    "rowid": "1029588",
    "final_x": "3670560.15655",
    "final_y": "522317.905914",
    "longitude": "-90.10292651275131",
    "latitude": "29.930520544280313",
    "geocoded_column": {
      "latitude": "29.930520544280313",
      "longitude": "-90.10292651275131"
    }
  },
  {
    "service_request": "2023-1029587",
    "request_type": "Property Maintenance",
    "request_reason": "Property Maintenance",
    "date_created": "2023-08-25T18:41:18.000",
    "date_modified": "2023-08-25T18:41:18.000",
    "request_status": "Pending",
    "responsible_agency": "Department of Code Enforcement",
    "final_address": "2156 Florida Ave",
    "address_councildis": "D",
    "status": "Pending",
    "rowid": "1029587",
    "final_x": "3684286.27241",
    "final_y": "542399.061517",
    "longitude": "-90.05889021423049",
    "latitude": "29.9853244322513",
    "geocoded_column": {
      "latitude": "29.9853244322513",
      "longitude": "-90.05889021423049"
    }
  },
  {
    "service_request": "2023-1029586",
    "request_type": "Property Maintenance",
    "request_reason": "Property Maintenance",
    "date_created": "2023-08-25T18:36:43.000",
    "date_modified": "2023-08-25T18:36:43.000",
    "request_status": "Pending",
    "responsible_agency": "Department of Code Enforcement",
    "final_address": "2152 Florida Ave",
    "address_councildis": "D",
    "status": "Pending",
    "rowid": "1029586",
    "final_x": "3684252.93909",
    "final_y": "542413.228173",
    "longitude": "-90.05899500251422",
    "latitude": "29.985364404927264",
    "geocoded_column": {
      "latitude": "29.985364404927264",
      "longitude": "-90.05899500251422"
    }
  },