[
  {
    "service_request": "2022-946348",
    "request_type": "Property Maintenance",
    "request_reason": "Property Maintenance",
    "date_created": "2022-11-24T22:21:15.000",
    "date_modified": "2022-11-24T22:21:15.000",
    "request_status": "Pending",
    "responsible_agency": "Department of Code Enforcement",
    "final_address": "102 Neil Ave",
    "address_councildis": "C",
    "status": "Pending",
    "rowid": "946348",
    "final_x": "3705698.10916",
    "final_y": "518839.246967",
    "longitude": "-89.99213071039154",
    "latitude": "29.919871194082823",
    "geocoded_column": {
      "latitude": "29.919871194082823",
      "longitude": "-89.99213071039154"
    }
  },
  {
    "service_request": "2022-946346",
    "request_type": "Trash/Recycling",
    "request_reason": "Order Recycling Cart",
    "date_created": "2022-11-24T20:52:39.000",
    "date_modified": "2022-11-24T20:52:39.000",
    "request_status": "Pending",
    "responsible_agency": "Department of Sanitation",
    "final_address": "7541 Parry St",
    "address_councildis": "E",
    "status": "Pending",
    "rowid": "946346",
    "final_x": "3714714.25547",
    "final_y": "568095.481381",
    "longitude": "-89.9618104521493",
    "latitude": "30.055013796006097",
    "geocoded_column": {
      "latitude": "30.055013796006097",
      "longitude": "-89.9618104521493"
    }
  },
  {
    "service_request": "2022-946345",
    "request_type": "Trash/Recycling",
    "request_reason": "Request a Large Item Pick Up",
    "date_created": "2022-11-24T19:09:37.000",
    "date_modified": "2022-11-24T19:09:38.000",
    "request_status": "Pending",
    "responsible_agency": "Department of Sanitation",
    "final_address": "3074 Sullen Pl",
    "address_councildis": "C",
    "status": "Assigned to Contractor",
    "contractor": "Richards Disposal",
    "rowid": "946345",
    "final_x": "3707853.14174",
    "final_y": "519162.005111",
    "longitude": "-89.98531639739093",
    "latitude": "29.92068913125304",
    "geocoded_column": {
      "latitude": "29.92068913125304",
      "longitude": "-89.98531639739093"
    }
  },
  {
    "service_request": "2022-946343",
    "request_type": "Roads/Drainage",
    "request_reason": "Unpermitted work in ROW",
    "date_created": "2022-11-24T17:51:14.000",
    "date_modified": "2022-11-24T17:51:14.000",
    "request_status": "Pending",
    "responsible_agency": "Department of Public Works",
    "final_address": "1025 Soniat St",
    "address_councildis": "B",
    "status": "Pending",
    "rowid": "946343",
    "final_x": "3668449.68628",
    "final_y": "519193.067639",
    "longitude": "-90.10969431628472",
    "latitude": "29.92199037641843",
    "geocoded_column": {
      "latitude": "29.92199037641843",
      "longitude": "-90.10969431628472"
    }
  },
  {
    "service_request": "2022-946342",
    "request_type": "Trash/Recycling",
    "request_reason": "Replace Trash Cart",
    "date_created": "2022-11-24T17:48:41.000",
    "date_modified": "2022-11-24T17:48:42.000",
    "request_status": "Pending",
    "responsible_agency": "Department of Sanitation",
    "final_address": "7074 General Meyer Ave",
    "address_councildis": "C",
    "status": "Assigned to Contractor",
    "contractor": "Richards Disposal",
    "rowid": "946342",
    "final_x": "3710322.93957",
    "final_y": "519275.591671",
    "longitude": "-89.97751621808749",
    "latitude": "29.92092132964261",
    "geocoded_column": {
      "latitude": "29.92092132964261",
      "longitude": "-89.97751621808749"
    }
  },
  {
    "service_request": "2022-946341",
    "request_type": "Trash/Recycling",
    "request_reason": "Order Recycling Cart",
    "date_created": "2022-11-24T16:28:33.000",
    "date_modified": "2022-11-24T16:28:33.000",
    "request_status": "Pending",
    "responsible_agency": "Department of Sanitation",
    "final_address": "9028 Marks St",
    "address_councildis": "A",
    "status": "Pending",
    "rowid": "946341",
    "final_x": "3666339.79066",
    "final_y": "538264.289865",
    "longitude": "-90.11571468613072",
    "latitude": "29.974491844481367",
    "geocoded_column": {
      "latitude": "29.974491844481367",
      "longitude": "-90.11571468613072"
    }
  },
  {
    "service_request": "2022-946340",
    "request_type": "Trash/Recycling",
    "request_reason": "Request a Large Item Pick Up",
    "date_created": "2022-11-24T16:04:28.000",
    "date_modified": "2022-11-24T16:04:28.000",
    "request_status": "Pending",
    "responsible_agency": "Department of Sanitation",
    "final_address": "6219 Vermillion Blvd",
    "address_councildis": "D",
    "status": "Assigned to Contractor",
    "contractor": "IV Waste",
    "rowid": "946340",
    "final_x": "3683062.6516",
    "final_y": "555994.022489",
    "longitude": "-90.06227878607831",
    "latitude": "30.022743044856938",
    "geocoded_column": {
      "latitude": "30.022743044856938",
      "longitude": "-90.06227878607831"
    }
  },
  {
    "service_request": "2022-946339",
    "request_type": "Trash/Recycling",
    "request_reason": "Replace Recycling Cart",
    "date_created": "2022-11-24T14:36:33.000",
    "date_modified": "2022-11-24T14:36:33.000",
    "request_status": "Pending",
    "responsible_agency": "Department of Sanitation",
    "final_address": "4319 Marais St",
    "address_councildis": "D",
    "status": "Pending",
    "rowid": "946339",
    "final_x": "3692961.52368",
    "final_y": "535423.884422",
    "longitude": "-90.03173908360736",
    "latitude": "29.96587701955792",
    "geocoded_column": {
      "latitude": "29.96587701955792",
      "longitude": "-90.03173908360736"
    }
  },
  {
    "service_request": "2022-946338",
    "request_type": "Trash/Recycling",
    "request_reason": "Replace Recycling Cart",
    "date_created": "2022-11-24T14:02:51.000",
    "date_modified": "2022-11-24T14:02:51.000",
    "request_status": "Pending",
    "responsible_agency": "Department of Sanitation",
    "final_address": "3805 Clermont Dr",
    "address_councildis": "D",
    "status": "Pending",
    "rowid": "946338",
    "final_x": "3685441.19266",
    "final_y": "546654.908625",
    "longitude": "-90.05509235159441",
    "latitude": "29.996991123221648",
    "geocoded_column": {
      "latitude": "29.996991123221648",
      "longitude": "-90.05509235159441"
    }
  },
  {
    "service_request": "2022-946337",
    "request_type": "Trash/Recycling",
    "request_reason": "Replace Trash Cart",
    "date_created": "2022-11-24T14:01:46.000",
    "date_modified": "2022-11-24T14:01:47.000",
    "request_status": "Pending",
    "responsible_agency": "Department of Sanitation",
    "final_address": "3805 Clermont Dr",
    "address_councildis": "D",
    "status": "Assigned to Contractor",
    "contractor": "IV Waste",
    "rowid": "946337",
    "final_x": "3685441.19266",
    "final_y": "546654.908625",
    "longitude": "-90.05509235159441",
    "latitude": "29.996991123221648",
    "geocoded_column": {
      "latitude": "29.996991123221648",
      "longitude": "-90.05509235159441"
    }
  },
  {
    "service_request": "2022-946336",
    "request_type": "Abandoned Vehicles",
    "request_reason": "Vehicle Blocking Your Driveway",
    "date_created": "2022-11-24T13:57:05.000",
    "date_modified": "2022-11-24T13:57:05.000",
    "request_status": "Pending",
    "responsible_agency": "Department of Public Works",
    "final_address": "2815 DAbadie St",
    "address_councildis": "D",
    "status": "Pending",
    "rowid": "946336",
    "final_x": "3678864.80853",
    "final_y": "541319.096972",
    "longitude": "-90.07605179436885",
    "latitude": "29.982519594058523",
    "geocoded_column": {
      "latitude": "29.982519594058523",
      "longitude": "-90.07605179436885"
    }
  },
  {
    "service_request": "2022-946335",
    "request_type": "Trash/Recycling",
    "request_reason": "Illegal Dumping",
    "date_created": "2022-11-24T13:27:48.000",
    "date_modified": "2022-11-24T13:27:48.000",
    "request_status": "Pending",
    "responsible_agency": "Department of Sanitation",
    "final_address": "3319 Bruxelles St",
    "address_councildis": "D",
    "status": "Pending",
    "rowid": "946335",
    "final_x": "3680250.96149",
    "final_y": "544607.914255",
    "longitude": "-90.0715592511456",
    "latitude": "29.99152079466091",
    "geocoded_column": {
      "latitude": "29.99152079466091",
      "longitude": "-90.0715592511456"
    }
  },
  {
    "service_request": "2022-946334",
    "request_type": "Trash/Recycling",
    "request_reason": "Order Recycling Cart",
    "date_created": "2022-11-24T13:23:25.000",
    "date_modified": "2022-11-24T13:23:25.000",
    "request_status": "Pending",
    "responsible_agency": "Department of Sanitation",
    "final_address": "8000 Michigan St",
    "address_councildis": "E",
    "status": "Pending",
    "rowid": "946334",
    "final_x": "3710995.39864",
    "final_y": "567622.70058",
    "longitude": "-89.97358260033648",
    "latitude": "30.053835710498728",
    "geocoded_column": {
      "latitude": "30.053835710498728",
      "longitude": "-89.97358260033648"
    }
  },
  {
    "service_request": "2022-946332",
    "request_type": "Trash/Recycling",
    "request_reason": "Repair Trash Cart",
    "date_created": "2022-11-24T12:44:55.000",
    "date_modified": "2022-11-24T12:44:56.000",
    "request_status": "Pending",
    "responsible_agency": "Department of Sanitation",
    "final_address": "7721 Plum St",
    "address_councildis": "A",
    "status": "Assigned to Contractor",
    "contractor": "Richards Disposal",
    "rowid": "946332",
    "final_x": "3663175.93779",
    "final_y": "527791.552319",
    "longitude": "-90.1260554332369",
    "latitude": "29.945787295084752",
    "geocoded_column": {
      "latitude": "29.945787295084752",
      "longitude": "-90.1260554332369"
    }
  },
  {
    "service_request": "2022-946331",
    "request_type": "Trash/Recycling",
    "request_reason": "Order Recycling Cart",
    "date_created": "2022-11-24T11:35:52.000",
    "date_modified": "2022-11-24T11:35:52.000",
    "request_status": "Pending",
    "responsible_agency": "Department of Sanitation",
    "final_address": "2344 Killdeer St",
    "address_councildis": "D",
    "status": "Pending",
    "rowid": "946331",
    "final_x": "3684467.56847",
    "final_y": "557506.111899",
    "longitude": "-90.05778639334395",
    "latitude": "30.02685780475092",
    "geocoded_column": {
      "latitude": "30.02685780475092",
      "longitude": "-90.05778639334395"
    }
  },
  {
    "service_request": "2022-946330",
    "request_type": "Traffic Signals/Signs/Striping/Streetlights",
    "request_reason": "Street Light Outage/Malfunction",
    "date_created": "2022-11-24T11:34:07.000",
    "date_modified": "2022-11-24T11:34:08.000",
    "request_status": "Pending",
    "responsible_agency": "Department of Public Works",
    "final_address": "6910 Coventry St",
    "address_councildis": "E",
    "status": "Pending",
    "contractor": "Legacy Professional Services",
    "rowid": "946330",
    "final_x": "3698862.77258",
    "final_y": "559708.312605",
    "longitude": "-90.01221904013947",
    "latitude": "30.032464533113558",
    "geocoded_column": {
      "latitude": "30.032464533113558",
      "longitude": "-90.01221904013947"
    }
  },
  {
    "service_request": "2022-946329",
    "request_type": "Trash/Recycling",
    "request_reason": "Order Recycling Cart",
    "date_created": "2022-11-24T11:32:14.000",
    "date_modified": "2022-11-24T11:32:14.000",
    "request_status": "Pending",
    "responsible_agency": "Department of Sanitation",
    "final_address": "6910 Coventry St",
    "address_councildis": "E",
    "status": "Pending",
    "rowid": "946329",
    "final_x": "3698862.77258",
    "final_y": "559708.312605",
    "longitude": "-90.01221904013947",
    "latitude": "30.032464533113558",
    "geocoded_column": {
      "latitude": "30.032464533113558",
      "longitude": "-90.01221904013947"
    }
  },
  {
    "service_request": "2022-946328",
    "request_type": "Taxi Issues",
    "request_reason": "Taxi Complaint",
    "date_created": "2022-11-24T11:30:32.000",
    "date_modified": "2022-11-24T11:30:33.000",
    "request_status": "Pending",
    "responsible_agency": "Ground Transportation Bureau",
    "status": "Pending",
    "rowid": "946328",
    "longitude": "0.0",
    "latitude": "0.0",
    "geocoded_column": {
      "latitude": "0.0",
      "longitude": "0.0"
    }
  },
  {
    "service_request": "2022-946327",
    "request_type": "Trash/Recycling",
    "request_reason": "Order Recycling Cart",
    "date_created": "2022-11-24T10:48:18.000",
    "date_modified": "2022-11-24T10:48:18.000",
    "request_status": "Pending",
    "responsible_agency": "Department of Sanitation",
    "final_address": "2835 Milan St",
    "address_councildis": "B",
    "status": "Pending",
    "rowid": "946327",
    "final_x": "3671188.53243",
    "final_y": "525440.437821",
    "longitude": "-90.10083679118124",
    "latitude": "29.939087930583568",
    "geocoded_column": {
      "latitude": "29.939087930583568",
      "longitude": "-90.10083679118124"
    }
  },
  {
    "service_request": "2022-946326",
    "request_type": "Trash/Recycling",
    "request_reason": "Replace Trash Cart",
    "date_created": "2022-11-24T10:46:03.000",
    "date_modified": "2022-11-24T10:46:04.000",
    "request_status": "Pending",
    "responsible_agency": "Department of Sanitation",
    "final_address": "2835 Milan St",
    "address_councildis": "B",
    "status": "Assigned to Contractor",
    "contractor": "Richards Disposal",
    "rowid": "946326",
    "final_x": "3671188.53243",
    "final_y": "525440.437821",
    "longitude": "-90.10083679118124",
    "latitude": "29.939087930583568",
    "geocoded_column": {
      "latitude": "29.939087930583568",
      "longitude": "-90.10083679118124"
    }
  },
  {
    "service_request": "2022-946325",
    "request_type": "Traffic Signals/Signs/Striping/Streetlights",
    "request_reason": "Street Light Outage/Malfunction",
    "date_created": "2022-11-24T10:30:04.000",
    "date_modified": "2022-11-24T10:30:05.000",
    "request_status": "Pending",
    "responsible_agency": "Department of Public Works",
    "final_address": "1501 Mandeville St",
    "address_councildis": "C",
    "status": "Pending",
    "contractor": "Legacy Professional Services",
    "rowid": "946325",
    "final_x": "3685693.2742",
    "final_y": "537873.872585",
    "longitude": "-90.05460559774029",
    "latitude": "29.972838650290722",
    "geocoded_column": {
      "latitude": "29.972838650290722",
      "longitude": "-90.05460559774029"
    }
  },
  {
    "service_request": "2022-946324",
    "request_type": "Parks & Parkways",
    "request_reason": "Request Tree Service (Right of Way/Public Property)",
    "date_created": "2022-11-24T10:23:48.000",
    "date_modified": "2022-11-24T10:23:48.000",
    "request_status": "Pending",
    "responsible_agency": "Department of Parks & Parkway",
    "final_address": "1039 Esplanade Ave",
    "address_councildis": "C",
    "status": "Pending",
    "rowid": "946324",
    "final_x": "3682973.20872",
    "final_y": "535332.371782",
    "longitude": "-90.06328503421",
    "latitude": "29.96593358776972",
    "geocoded_column": {
      "latitude": "29.96593358776972",
      "longitude": "-90.06328503421"
    }
  },
  {
    "service_request": "2022-946323",
    "request_type": "Property Maintenance",
    "request_reason": "Property Maintenance",
    "date_created": "2022-11-24T10:21:26.000",
    "date_modified": "2022-11-24T10:21:26.000",
    "request_status": "Pending",
    "responsible_agency": "Department of Code Enforcement",
    "final_address": "1039 Decatur St",
    "address_councildis": "C",
    "status": "Pending",
    "rowid": "946323",
    "final_x": "3684002.66306",
    "final_y": "533151.23514",
    "longitude": "-90.06011058971288",
    "latitude": "29.959904797399734",
    "geocoded_column": {
      "latitude": "29.959904797399734",
      "longitude": "-90.06011058971288"
    }
  },
  {
    "service_request": "2022-946322",
    "request_type": "Trash/Recycling",
    "request_reason": "MIssed Recycling Pick-Up",
    "date_created": "2022-11-24T10:00:39.000",
    "date_modified": "2022-11-24T10:00:39.000",
    "request_status": "Pending",
    "responsible_agency": "Department of Sanitation",
    "final_address": "630 Majestic Pl",
    "address_councildis": "C",
    "status": "Assigned to Contractor",
    "contractor": "Richards Disposal",
    "rowid": "946322",
    "final_x": "3687952.87113",
    "final_y": "526312.277438",
    "longitude": "-90.04787900936857",
    "latitude": "29.940978723276704",
    "geocoded_column": {
      "latitude": "29.940978723276704",
      "longitude": "-90.04787900936857"
    }
  },
  {
    "service_request": "2022-946321",
    "request_type": "Trash/Recycling",
    "request_reason": "MIssed Recycling Pick-Up",
    "date_created": "2022-11-24T09:37:37.000",
    "date_modified": "2022-11-24T09:37:37.000",
    "request_status": "Pending",
    "responsible_agency": "Department of Sanitation",
    "final_address": "3717 Gentilly Blvd",
    "address_councildis": "D",
    "status": "Assigned to Contractor",
    "contractor": "IV Waste",
    "rowid": "946321",
    "final_x": "3687102.84822",
    "final_y": "548973.525587",
    "longitude": "-90.04976122380779",
    "latitude": "30.00331540745377",
    "geocoded_column": {
      "latitude": "30.00331540745377",
      "longitude": "-90.04976122380779"
    }
  },
  {
    "service_request": "2022-946320",
    "request_type": "Trash/Recycling",
    "request_reason": "Request a Large Item Pick Up",
    "date_created": "2022-11-24T09:28:31.000",
    "date_modified": "2022-11-24T09:28:32.000",
    "request_status": "Pending",
    "responsible_agency": "Department of Sanitation",
    "final_address": "3701 Laurel St, New Orleans, Louisiana, 70115",
    "address_councildis": "B",
    "status": "Assigned to Contractor",
    "contractor": "Richards Disposal",
    "rowid": "946320",
    "final_x": "3673798.57819",
    "final_y": "518433.16671",
    "longitude": "-90.09283605135685",
    "latitude": "29.919742745051888",
    "geocoded_column": {
      "latitude": "29.919742745051888",
      "longitude": "-90.09283605135685"
    }
  },
  {
    "service_request": "2022-946319",
    "request_type": "Trash/Recycling",
    "request_reason": "Order Recycling Cart",
    "date_created": "2022-11-24T09:25:08.000",
    "date_modified": "2022-11-24T09:25:09.000",
    "request_status": "Pending",
    "responsible_agency": "Department of Sanitation",
    "final_address": "2512 Verbena St",
    "address_councildis": "D",
    "status": "Pending",
    "rowid": "946319",
    "final_x": "3686415.72156",
    "final_y": "547695.801042",
    "longitude": "-90.05197709691987",
    "latitude": "29.999823273860585",
    "geocoded_column": {
      "latitude": "29.999823273860585",
      "longitude": "-90.05197709691987"
    }
  },
  {
    "service_request": "2022-946318",
    "request_type": "Trash/Recycling",
    "request_reason": "Missed Trash Pick-Up",
    "date_created": "2022-11-24T09:07:37.000",
    "date_modified": "2022-11-24T09:07:38.000",
    "request_status": "Pending",
    "responsible_agency": "Department of Sanitation",
    "final_address": "4610 Hauck Dr",
    "address_councildis": "E",
    "status": "Assigned to Contractor",
    "contractor": "Waste Pro",
    "rowid": "946318",
    "final_x": "3714568.4556",
    "final_y": "555977.686873",
    "longitude": "-89.96272943798138",
    "latitude": "30.021699537776662",
    "geocoded_column": {
      "latitude": "30.021699537776662",
      "longitude": "-89.96272943798138"
    }
  },
  {
    "service_request": "2022-946317",
    "request_type": "Trash/Recycling",
    "request_reason": "Missed Trash Pick-Up",
    "date_created": "2022-11-24T08:42:04.000",
    "date_modified": "2022-11-24T08:42:05.000",
    "request_status": "Pending",
    "responsible_agency": "Department of Sanitation",
    "final_address": "1522 Dante St",
    "address_councildis": "A",
    "status": "Assigned to Contractor",
    "contractor": "Richards Disposal",
    "rowid": "946317",
    "final_x": "3662233.24039",
    "final_y": "529817.344705",
    "longitude": "-90.12896462937267",
    "latitude": "29.951384851660354",
    "geocoded_column": {
      "latitude": "29.951384851660354",
      "longitude": "-90.12896462937267"
    }
  },
  {
    "service_request": "2022-946316",
    "request_type": "Abandoned Vehicles",
    "request_reason": "Abandoned/Junk Vehicles",
    "date_created": "2022-11-24T08:40:22.000",
    "date_modified": "2022-11-24T08:40:22.000",
    "request_status": "Pending",
    "responsible_agency": "Department of Public Works",
    "final_address": "101 Sherwood Forest Dr",
    "address_councildis": "A",
    "status": "Pending",
    "rowid": "946316",
    "final_x": "3673257.85006",
    "final_y": "541313.731212",
    "longitude": "-90.09376156084629",
    "latitude": "29.982672814865065",
    "geocoded_column": {
      "latitude": "29.982672814865065",
      "longitude": "-90.09376156084629"
    }
  },
  {
    "service_request": "2022-946315",
    "request_type": "Trash/Recycling",
    "request_reason": "Missed Trash Pick-Up",
    "date_created": "2022-11-24T08:36:58.000",
    "date_modified": "2022-11-24T08:36:59.000",
    "request_status": "Pending",
    "responsible_agency": "Department of Sanitation",
    "final_address": "4724 Marigny St",
    "address_councildis": "D",
    "status": "Assigned to Contractor",
    "contractor": "IV Waste",
    "rowid": "946315",
    "final_x": "3684330.85487",
    "final_y": "550294.935764",
    "longitude": "-90.05847191728496",
    "latitude": "30.007033898044526",
    "geocoded_column": {
      "latitude": "30.007033898044526",
      "longitude": "-90.05847191728496"
    }
  },
  {
    "service_request": "2022-946314",
    "request_type": "Trash/Recycling",
    "request_reason": "Order Recycling Cart",
    "date_created": "2022-11-24T08:35:36.000",
    "date_modified": "2022-11-24T08:35:36.000",
    "request_status": "Pending",
    "responsible_agency": "Department of Sanitation",
    "final_address": "4536 Camp St",
    "address_councildis": "B",
    "status": "Pending",
    "rowid": "946314",
    "final_x": "3670325.3227",
    "final_y": "519042.890423",
    "longitude": "-90.10377879073677",
    "latitude": "29.921522227849554",
    "geocoded_column": {
      "latitude": "29.921522227849554",
      "longitude": "-90.10377879073677"
    }
  },
  {
    "service_request": "2022-946313",
    "request_type": "Traffic Signals/Signs/Striping/Streetlights",
    "request_reason": "Striping/Road Surface Markings",
    "date_created": "2022-11-24T08:29:55.000",
    "date_modified": "2022-11-24T08:29:55.000",
    "request_status": "Pending",
    "responsible_agency": "Department of Public Works",
    "final_address": "1128 City Park Ave",
    "address_councildis": "A",
    "status": "Pending",
    "rowid": "946313",
    "final_x": "3673266.73947",
    "final_y": "541458.925324",
    "longitude": "-90.09372852236545",
    "latitude": "29.983071784436344",
    "geocoded_column": {
      "latitude": "29.983071784436344",
      "longitude": "-90.09372852236545"
    }
  },
  {
    "service_request": "2022-946312",
    "request_type": "Trash/Recycling",
    "request_reason": "Order Recycling Cart",
    "date_created": "2022-11-24T08:22:35.000",
    "date_modified": "2022-11-24T08:22:35.000",
    "request_status": "Pending",
    "responsible_agency": "Department of Sanitation",
    "final_address": "1300 Calhoun St",
    "address_councildis": "A",
    "status": "Pending",
    "rowid": "946312",
    "final_x": "3664084.53325",
    "final_y": "521346.913337",
    "longitude": "-90.12340154248078",
    "latitude": "29.928040232169252",
    "geocoded_column": {
      "latitude": "29.928040232169252",
      "longitude": "-90.12340154248078"
    }
  },
  {
    "service_request": "2022-946311",
    "request_type": "Trash/Recycling",
    "request_reason": "Repair Trash Cart",
    "date_created": "2022-11-24T08:19:22.000",
    "date_modified": "2022-11-24T08:19:23.000",
    "request_status": "Pending",
    "responsible_agency": "Department of Sanitation",
    "final_address": "1300 Calhoun St",
    "address_councildis": "A",
    "status": "Assigned to Contractor",
    "contractor": "Richards Disposal",
    "rowid": "946311",
    "final_x": "3664084.53325",
    "final_y": "521346.913337",
    "longitude": "-90.12340154248078",
    "latitude": "29.928040232169252",
    "geocoded_column": {
      "latitude": "29.928040232169252",
      "longitude": "-90.12340154248078"
    }
  },
  {
    "service_request": "2022-946310",
    "request_type": "Trash/Recycling",
    "request_reason": "Request a Large Item Pick Up",
    "date_created": "2022-11-24T08:15:28.000",
    "date_modified": "2022-11-24T08:15:29.000",
    "request_status": "Pending",
    "responsible_agency": "Department of Sanitation",
    "final_address": "835 Reynes St",
    "address_councildis": "E",
    "status": "Assigned to Contractor",
    "contractor": "Waste Pro",
    "rowid": "946310",
    "final_x": "3695739.57469",
    "final_y": "533315.693572",
    "longitude": "-90.02304226183884",
    "latitude": "29.959993178698973",
    "geocoded_column": {
      "latitude": "29.959993178698973",
      "longitude": "-90.02304226183884"
    }
  },
  {
    "service_request": "2022-946309",
    "request_type": "Traffic Signals/Signs/Striping/Streetlights",
    "request_reason": "Street Light Outage/Malfunction",
    "date_created": "2022-11-24T08:06:57.000",
    "date_modified": "2022-11-24T08:06:58.000",
    "request_status": "Pending",
    "responsible_agency": "Department of Public Works",
    "final_address": "1005 Barracks St Unit 3",
    "address_councildis": "C",
    "status": "Pending",
    "contractor": "Legacy Professional Services",
    "rowid": "946309",
    "final_x": "3682981.46197",
    "final_y": "534983.489158",
    "longitude": "-90.06327118275681",
    "latitude": "29.964974029094357",
    "geocoded_column": {
      "latitude": "29.964974029094357",
      "longitude": "-90.06327118275681"
    }
  },
  {
    "service_request": "2022-946308",
    "request_type": "Abandoned Vehicles",
    "request_reason": "Abandoned/Junk Vehicles",
    "date_created": "2022-11-24T07:50:04.000",
    "date_modified": "2022-11-24T07:50:04.000",
    "request_status": "Pending",
    "responsible_agency": "Department of Public Works",
    "final_address": "1212 N Derbigny St",
    "address_councildis": "D",
    "status": "Pending",
    "rowid": "946308",
    "final_x": "3680694.81723",
    "final_y": "536375.398471",
    "longitude": "-90.07044382020243",
    "latitude": "29.96887079561264",
    "geocoded_column": {
      "latitude": "29.96887079561264",
      "longitude": "-90.07044382020243"
    }
  },
  {
    "service_request": "2022-946306",
    "request_type": "Trash/Recycling",
    "request_reason": "Illegal Dumping",
    "date_created": "2022-11-24T06:52:55.000",
    "date_modified": "2022-11-24T06:52:55.000",
    "request_status": "Pending",
    "responsible_agency": "Department of Sanitation",
    "final_address": "1874 N Roman St",
    "address_councildis": "D",
    "status": "Pending",
    "rowid": "946306",
    "final_x": "3683540.45295",
    "final_y": "538746.979081",
    "longitude": "-90.06137399524636",
    "latitude": "29.97530527385337",
    "geocoded_column": {
      "latitude": "29.97530527385337",
      "longitude": "-90.06137399524636"
    }
  },
  {
    "service_request": "2022-946305",
    "request_type": "Trash/Recycling",
    "request_reason": "Request a Large Item Pick Up",
    "date_created": "2022-11-24T05:56:25.000",
    "date_modified": "2022-11-24T05:56:26.000",
    "request_status": "Pending",
    "responsible_agency": "Department of Sanitation",
    "final_address": "7301 Wayside Dr",
    "address_councildis": "E",
    "status": "Assigned to Contractor",
    "contractor": "Waste Pro",
    "rowid": "946305",
    "final_x": "3717127.64383",
    "final_y": "568646.471845",
    "longitude": "-89.9541613635904",
    "latitude": "30.056449142733285",
    "geocoded_column": {
      "latitude": "30.056449142733285",
      "longitude": "-89.9541613635904"
    }
  },
  {
    "service_request": "2022-946304",
    "request_type": "Trash/Recycling",
    "request_reason": "Damaged Caused By Contractor",
    "date_created": "2022-11-24T00:38:02.000",
    "date_modified": "2022-11-24T00:38:03.000",
    "request_status": "Pending",
    "responsible_agency": "Department of Sanitation",
    "final_address": "13161 Linden St",
    "address_councildis": "E",
    "status": "Assigned to Contractor",
    "contractor": "Waste Pro",
    "rowid": "946304",
    "final_x": "3716356.91743",
    "final_y": "570802.484135",
    "longitude": "-89.95651559077356",
    "latitude": "30.062402768847615",
    "geocoded_column": {
      "latitude": "30.062402768847615",
      "longitude": "-89.95651559077356"
    }
  },
  {
    "service_request": "2022-946303",
    "request_type": "Property Maintenance",
    "request_reason": "Property Maintenance",
    "date_created": "2022-11-23T23:05:56.000",
    "date_modified": "2022-11-23T23:05:56.000",
    "request_status": "Pending",
    "responsible_agency": "Department of Code Enforcement",
    "final_address": "324 Newton St",
    "address_councildis": "C",
    "status": "Pending",
    "rowid": "946303",
    "final_x": "3686415.58742",
    "final_y": "527967.290175",
    "longitude": "-90.05267408142032",
    "latitude": "29.945576778915967",
    "geocoded_column": {
      "latitude": "29.945576778915967",
      "longitude": "-90.05267408142032"
    }
  },
  {
    "service_request": "2022-946302",
    "request_type": "Traffic Signals/Signs/Striping/Streetlights",
    "request_reason": "Street Light Outage/Malfunction",
    "date_created": "2022-11-23T23:00:28.000",
    "date_modified": "2022-11-23T23:00:29.000",
    "request_status": "Pending",
    "responsible_agency": "Department of Public Works",
    "final_address": "330 Newton St",
    "address_councildis": "C",
    "status": "Pending",
    "contractor": "Legacy Professional Services",
    "rowid": "946302",
    "final_x": "3686453.95266",
    "final_y": "527970.608319",
    "longitude": "-90.05255283301311",
    "latitude": "29.94558472359371",
    "geocoded_column": {
      "latitude": "29.94558472359371",
      "longitude": "-90.05255283301311"
    }
  },
  {
    "service_request": "2022-946301",
    "request_type": "Traffic Signals/Signs/Striping/Streetlights",
    "request_reason": "Street Light Outage/Malfunction",
    "date_created": "2022-11-23T22:58:37.000",
    "date_modified": "2022-11-23T22:58:38.000",
    "request_status": "Pending",
    "responsible_agency": "Department of Public Works",
    "final_address": "330 Newton St",
    "address_councildis": "C",
    "status": "Pending",
    "contractor": "Legacy Professional Services",
    "rowid": "946301",
    "final_x": "3686453.95266",
    "final_y": "527970.608319",
    "longitude": "-90.05255283301311",
    "latitude": "29.94558472359371",
    "geocoded_column": {
      "latitude": "29.94558472359371",
      "longitude": "-90.05255283301311"
    }
  },
  {
    "service_request": "2022-946300",
    "request_type": "Traffic Signals/Signs/Striping/Streetlights",
    "request_reason": "Street Light Outage/Malfunction",
    "date_created": "2022-11-23T22:57:06.000",
    "date_modified": "2022-11-23T22:57:07.000",
    "request_status": "Pending",
    "responsible_agency": "Department of Public Works",
    "final_address": "330 Newton St",
    "address_councildis": "C",
    "status": "Pending",
    "contractor": "Legacy Professional Services",
    "rowid": "946300",
    "final_x": "3686453.95266",
    "final_y": "527970.608319",
    "longitude": "-90.05255283301311",
    "latitude": "29.94558472359371",
    "geocoded_column": {
      "latitude": "29.94558472359371",
      "longitude": "-90.05255283301311"
    }
  },
  {
    "service_request": "2022-946299",
    "request_type": "Trash/Recycling",
    "request_reason": "Replace Trash Cart",
    "date_created": "2022-11-23T22:46:15.000",
    "date_modified": "2022-11-23T22:46:15.000",
    "request_status": "Pending",
    "responsible_agency": "Department of Sanitation",
    "final_address": "2327 S Roman St",
    "address_councildis": "B",
    "status": "Assigned to Contractor",
    "contractor": "Richards Disposal",
    "rowid": "946299",
    "final_x": "3673929.90056",
    "final_y": "528127.462847",
    "longitude": "-90.09209005126075",
    "latitude": "29.94639500421902",
    "geocoded_column": {
      "latitude": "29.94639500421902",
      "longitude": "-90.09209005126075"
    }
  },
  {
    "service_request": "2022-946298",
    "request_type": "Trash/Recycling",
    "request_reason": "Repair Trash Cart",
    "date_created": "2022-11-23T22:44:59.000",
    "date_modified": "2022-11-23T22:44:59.000",
    "request_status": "Pending",
    "responsible_agency": "Department of Sanitation",
    "final_address": "3583 Mimosa Ct",
    "address_councildis": "C",
    "status": "Assigned to Contractor",
    "contractor": "Richards Disposal",
    "rowid": "946298",
    "final_x": "3703041.0705",
    "final_y": "513018.316209",
    "longitude": "-90.00073131128478",
    "latitude": "29.903950872315548",
    "geocoded_column": {
      "latitude": "29.903950872315548",
      "longitude": "-90.00073131128478"
    }
  },
  {
    "service_request": "2022-946297",
    "request_type": "Trash/Recycling",
    "request_reason": "Order Recycling Cart",
    "date_created": "2022-11-23T22:19:40.000",
    "date_modified": "2022-11-23T22:19:40.000",
    "request_status": "Pending",
    "responsible_agency": "Department of Sanitation",
    "final_address": "2711 Aubry St",
    "address_councildis": "D",
    "status": "Pending",
    "rowid": "946297",
    "final_x": "3679406.73743",
    "final_y": "541356.64622",
    "longitude": "-90.07433881153312",
    "latitude": "29.98260647988997",
    "geocoded_column": {
      "latitude": "29.98260647988997",
      "longitude": "-90.07433881153312"
    }
  },
  {
    "service_request": "2022-946296",
    "request_type": "Abandoned Vehicles",
    "request_reason": "Abandoned/Junk Vehicles",
    "date_created": "2022-11-23T22:00:24.000",
    "date_modified": "2022-11-24T08:57:17.000",
    "request_status": "Pending",
    "responsible_agency": "Department of Public Works",
    "final_address": "614 Philip St",
    "address_councildis": "B",
    "status": "Inspected",
    "rowid": "946296",
    "final_x": "3679545.66472",
    "final_y": "520480.459256",
    "longitude": "-90.0746243341308",
    "latitude": "29.925199802101954",
    "geocoded_column": {
      "latitude": "29.925199802101954",
      "longitude": "-90.0746243341308"
    }
  },
  {
    "service_request": "2022-946295",
    "request_type": "Abandoned Vehicles",
    "request_reason": "Abandoned/Junk Vehicles",
    "date_created": "2022-11-23T21:59:07.000",
    "date_modified": "2022-11-24T08:54:14.000",
    "request_status": "Closed",
    "responsible_agency": "Department of Public Works",
    "final_address": "420 Jackson Ave",
    "address_councildis": "B",
    "status": "Inspected",
    "rowid": "946295",
    "final_x": "3680400.61544",
    "final_y": "519971.765624",
    "longitude": "-90.07194320504897",
    "latitude": "29.923775209113735",
    "geocoded_column": {
      "latitude": "29.923775209113735",
      "longitude": "-90.07194320504897"
    }
  },
  {
    "service_request": "2022-946294",
    "request_type": "Abandoned Vehicles",
    "request_reason": "Abandoned/Junk Vehicles",
    "date_created": "2022-11-23T21:56:58.000",
    "date_modified": "2022-11-24T08:18:41.000",
    "request_status": "Pending",
    "responsible_agency": "Department of Public Works",
    "final_address": "400 Jackson Ave",
    "address_councildis": "B",
    "status": "Inspected",
    "rowid": "946294",
    "final_x": "3680506.7037",
    "final_y": "519839.506232",
    "longitude": "-90.07161292026576",
    "latitude": "29.923408327288005",
    "geocoded_column": {
      "latitude": "29.923408327288005",
      "longitude": "-90.07161292026576"
    }
  },
  {
    "service_request": "2022-946293",
    "request_type": "Roads/Drainage",
    "request_reason": "Street Flooding / Drainage",
    "date_created": "2022-11-23T21:53:27.000",
    "date_modified": "2022-11-23T21:53:27.000",
    "request_status": "Pending",
    "responsible_agency": "Department of Public Works",
    "final_address": "GENERAL DE GAULLE DR & GEN DE GAULLE EXIT",
    "address_councildis": "C",
    "status": "Pending",
    "rowid": "946293",
    "final_x": "3690829.28",
    "final_y": "522570.9",
    "longitude": "-90.03893113602048",
    "latitude": "29.93060216391561",
    "geocoded_column": {
      "latitude": "29.93060216391561",
      "longitude": "-90.03893113602048"
    }
  },
  {
    "service_request": "2022-946292",
    "request_type": "Trash/Recycling",
    "request_reason": "Repair Trash Cart",
    "date_created": "2022-11-23T21:52:43.000",
    "date_modified": "2022-11-23T21:52:44.000",
    "request_status": "Pending",
    "responsible_agency": "Department of Sanitation",
    "final_address": "11100 N Idlewood Ct",
    "address_councildis": "E",
    "status": "Assigned to Contractor",
    "contractor": "Waste Pro",
    "rowid": "946292",
    "final_x": "3715883.87212",
    "final_y": "559981.506397",
    "longitude": "-89.95842131642735",
    "latitude": "30.032665115506504",
    "geocoded_column": {
      "latitude": "30.032665115506504",
      "longitude": "-89.95842131642735"
    }
  },
  {
    "service_request": "2022-946290",
    "request_type": "Safety & Permits",
    "request_reason": "Licenses & Permits",
    "date_created": "2022-11-23T21:19:14.000",
    "date_modified": "2022-11-23T21:19:14.000",
    "request_status": "Pending",
    "responsible_agency": "Safety and Permits",
    "final_address": "4523 Magazine St",
    "address_councildis": "B",
    "status": "Pending",
    "rowid": "946290",
    "final_x": "3670459.91399",
    "final_y": "518764.599223",
    "longitude": "-90.10336337284775",
    "latitude": "29.920753043460966",
    "geocoded_column": {
      "latitude": "29.920753043460966",
      "longitude": "-90.10336337284775"
    }
  },
  {
    "service_request": "2022-946289",
    "request_type": "Trash/Recycling",
    "request_reason": "Order Recycling Cart",
    "date_created": "2022-11-23T20:27:57.000",
    "date_modified": "2022-11-23T20:27:57.000",
    "request_status": "Pending",
    "responsible_agency": "Department of Sanitation",
    "final_address": "1660 Annunciation St",
    "address_councildis": "B",
    "status": "Pending",
    "rowid": "946289",
    "final_x": "3680721.17013",
    "final_y": "522385.254906",
    "longitude": "-90.0708473902318",
    "latitude": "29.93040180634687",
    "geocoded_column": {
      "latitude": "29.93040180634687",
      "longitude": "-90.0708473902318"
    }
  },
  {
    "service_request": "2022-946288",
    "request_type": "Trash/Recycling",
    "request_reason": "Missed Trash Pick-Up",
    "date_created": "2022-11-23T19:37:25.000",
    "date_modified": "2022-11-23T19:37:26.000",
    "request_status": "Pending",
    "responsible_agency": "Department of Sanitation",
    "final_address": "7632 Sycamore St",
    "address_councildis": "A",
    "status": "Assigned to Contractor",
    "contractor": "Richards Disposal",
    "rowid": "946288",
    "final_x": "3665423.45178",
    "final_y": "529861.072065",
    "longitude": "-90.11889000088219",
    "latitude": "29.951412501250093",
    "geocoded_column": {
      "latitude": "29.951412501250093",
      "longitude": "-90.11889000088219"
    }
  },
  {
    "service_request": "2022-946287",
    "request_type": "Trash/Recycling",
    "request_reason": "Missed Trash Pick-Up",
    "date_created": "2022-11-23T19:25:07.000",
    "date_modified": "2022-11-23T19:25:08.000",
    "request_status": "Pending",
    "responsible_agency": "Department of Sanitation",
    "final_address": "1436 Arts St, New Orleans, Louisiana, 70117",
    "address_councildis": "C",
    "status": "Assigned to Contractor",
    "contractor": "IV Waste",
    "rowid": "946287",
    "final_x": "3687064.57161",
    "final_y": "537870.553289",
    "longitude": "-90.05027490947565",
    "latitude": "29.972787373304573",
    "geocoded_column": {
      "latitude": "29.972787373304573",
      "longitude": "-90.05027490947565"
    }
  },
  {
    "service_request": "2022-946286",
    "request_type": "Taxi Issues",
    "request_reason": "Taxi Complaint",
    "date_created": "2022-11-23T19:22:20.000",
    "date_modified": "2022-11-23T19:22:21.000",
    "request_status": "Pending",
    "responsible_agency": "Ground Transportation Bureau",
    "status": "Pending",
    "rowid": "946286",
    "longitude": "0.0",
    "latitude": "0.0",
    "geocoded_column": {
      "latitude": "0.0",
      "longitude": "0.0"
    }
  },
  {
    "service_request": "2022-946285",
    "request_type": "Traffic Signals/Signs/Striping/Streetlights",
    "request_reason": "Street Light Outage/Malfunction",
    "date_created": "2022-11-23T18:50:12.000",
    "date_modified": "2022-11-23T18:50:12.000",
    "request_status": "Pending",
    "responsible_agency": "Department of Public Works",
    "final_address": "2728 Spain St",
    "address_councildis": "D",
    "status": "Pending",
    "contractor": "Legacy Professional Services",
    "rowid": "946285",
    "final_x": "3685567.0079",
    "final_y": "542919.651981",
    "longitude": "-90.05482656437084",
    "latitude": "29.98671664111775",
    "geocoded_column": {
      "latitude": "29.98671664111775",
      "longitude": "-90.05482656437084"
    }
  },
  {
    "service_request": "2022-946284",
    "request_type": "Abandoned Vehicles",
    "request_reason": "Abandoned/Junk Vehicles",
    "date_created": "2022-11-23T18:16:45.000",
    "date_modified": "2022-11-23T18:16:45.000",
    "request_status": "Pending",
    "responsible_agency": "Department of Public Works",
    "final_address": "11061 Lake Forest Blvd",
    "address_councildis": "E",
    "status": "Pending",
    "rowid": "946284",
    "final_x": "3714715.18879",
    "final_y": "560798.357598",
    "longitude": "-89.96208352082046",
    "latitude": "30.03494963575178",
    "geocoded_column": {
      "latitude": "30.03494963575178",
      "longitude": "-89.96208352082046"
    }
  },
  {
    "service_request": "2022-946283",
    "request_type": "Trash/Recycling",
    "request_reason": "Missed Trash Pick-Up",
    "date_created": "2022-11-23T18:15:25.000",
    "date_modified": "2022-11-23T18:15:26.000",
    "request_status": "Pending",
    "responsible_agency": "Department of Sanitation",
    "final_address": "5010 Cardenas Dr",
    "address_councildis": "E",
    "status": "Assigned to Contractor",
    "contractor": "Waste Pro",
    "rowid": "946283",
    "final_x": "3713480.89464",
    "final_y": "557695.859291",
    "longitude": "-89.96610102733777",
    "latitude": "30.026459557702395",
    "geocoded_column": {
      "latitude": "30.026459557702395",
      "longitude": "-89.96610102733777"
    }
  },
  {
    "service_request": "2022-946282",
    "request_type": "Trash/Recycling",
    "request_reason": "Missed Trash Pick-Up",
    "date_created": "2022-11-23T18:11:59.000",
    "date_modified": "2022-11-23T18:14:09.000",
    "request_status": "Pending",
    "responsible_agency": "Department of Sanitation",
    "final_address": "New Orleans,LA",
    "address_councildis": "E",
    "status": "Assigned to Contractor",
    "contractor": "Waste Pro",
    "rowid": "946282",
    "final_x": "3713480.89464",
    "final_y": "557695.859291",
    "longitude": "-89.96610102733777",
    "latitude": "30.026459557702395",
    "geocoded_column": {
      "latitude": "30.026459557702395",
      "longitude": "-89.96610102733777"
    }
  },
  {
    "service_request": "2022-946281",
    "request_type": "Traffic Signals/Signs/Striping/Streetlights",
    "request_reason": "Street Light Outage/Malfunction",
    "date_created": "2022-11-23T18:05:41.000",
    "date_modified": "2022-11-23T18:05:41.000",
    "request_status": "Pending",
    "responsible_agency": "Department of Public Works",
    "final_address": "17 Versailles Blvd",
    "address_councildis": "A",
    "status": "Pending",
    "contractor": "Legacy Professional Services",
    "rowid": "946281",
    "final_x": "3667178.86778",
    "final_y": "528969.64992",
    "longitude": "-90.11337720356356",
    "latitude": "29.948910105580993",
    "geocoded_column": {
      "latitude": "29.948910105580993",
      "longitude": "-90.11337720356356"
    }
  },
  {
    "service_request": "2022-946279",
    "request_type": "Trash/Recycling",
    "request_reason": "MIssed Recycling Pick-Up",
    "date_created": "2022-11-23T17:40:16.000",
    "date_modified": "2022-11-23T17:40:16.000",
    "request_status": "Pending",
    "responsible_agency": "Department of Sanitation",
    "final_address": "4430 Lancelot Dr, New Orleans, Louisiana, 70127",
    "address_councildis": "E",
    "status": "Assigned to Contractor",
    "contractor": "Waste Pro",
    "rowid": "946279",
    "final_x": "3707544.13688",
    "final_y": "553760.070743",
    "longitude": "-89.98500668723098",
    "latitude": "30.01583111096896",
    "geocoded_column": {
      "latitude": "30.01583111096896",
      "longitude": "-89.98500668723098"
    }
  },
  {
    "service_request": "2022-946278",
    "request_type": "Trash/Recycling",
    "request_reason": "MIssed Recycling Pick-Up",
    "date_created": "2022-11-23T17:37:13.000",
    "date_modified": "2022-11-23T17:37:14.000",
    "request_status": "Pending",
    "responsible_agency": "Department of Sanitation",
    "final_address": "2026 Philip St",
    "address_councildis": "B",
    "status": "Assigned to Contractor",
    "contractor": "Richards Disposal",
    "rowid": "946278",
    "final_x": "3676203.36949",
    "final_y": "524710.893308",
    "longitude": "-90.08502942247196",
    "latitude": "29.93693265010777",
    "geocoded_column": {
      "latitude": "29.93693265010777",
      "longitude": "-90.08502942247196"
    }
  },
  {
    "service_request": "2022-946277",
    "request_type": "Trash/Recycling",
    "request_reason": "MIssed Recycling Pick-Up",
    "date_created": "2022-11-23T17:35:34.000",
    "date_modified": "2022-11-23T17:35:35.000",
    "request_status": "Pending",
    "responsible_agency": "Department of Sanitation",
    "final_address": "1522 Simon Bolivar Ave",
    "address_councildis": "B",
    "status": "Assigned to Contractor",
    "contractor": "Richards Disposal",
    "rowid": "946277",
    "final_x": "3677250.9261",
    "final_y": "526494.983358",
    "longitude": "-90.08166070222862",
    "latitude": "29.941806888272563",
    "geocoded_column": {
      "latitude": "29.941806888272563",
      "longitude": "-90.08166070222862"
    }
  },
  {
    "service_request": "2022-946276",
    "request_type": "Trash/Recycling",
    "request_reason": "Request a Large Item Pick Up",
    "date_created": "2022-11-23T17:14:34.000",
    "date_modified": "2022-11-23T17:14:35.000",
    "request_status": "Pending",
    "responsible_agency": "Department of Sanitation",
    "final_address": "4305 S Carrollton Ave, New Orleans, Louisiana, 70119",
    "address_councildis": "A",
    "status": "Assigned to Contractor",
    "contractor": "Richards Disposal",
    "rowid": "946276",
    "final_x": "3669742.43098",
    "final_y": "536962.314376",
    "longitude": "-90.10501237668194",
    "latitude": "29.970811988824202",
    "geocoded_column": {
      "latitude": "29.970811988824202",
      "longitude": "-90.10501237668194"
    }
  },
  {
    "service_request": "2022-946275",
    "request_type": "Trash/Recycling",
    "request_reason": "MIssed Recycling Pick-Up",
    "date_created": "2022-11-23T17:12:02.000",
    "date_modified": "2022-11-23T17:12:02.000",
    "request_status": "Pending",
    "responsible_agency": "Department of Sanitation",
    "final_address": "4491 Franklin Ave",
    "address_councildis": "D",
    "status": "Assigned to Contractor",
    "contractor": "IV Waste",
    "rowid": "946275",
    "final_x": "3686982.41078",
    "final_y": "549515.034131",
    "longitude": "-90.05012254531216",
    "latitude": "30.0048080683206",
    "geocoded_column": {
      "latitude": "30.0048080683206",
      "longitude": "-90.05012254531216"
    }
  },
  {
    "service_request": "2022-946274",
    "request_type": "Trash/Recycling",
    "request_reason": "Order Recycling Cart",
    "date_created": "2022-11-23T17:06:06.000",
    "date_modified": "2022-11-23T17:06:07.000",
    "request_status": "Pending",
    "responsible_agency": "Department of Sanitation",
    "final_address": "3630 Elysian Fields Ave",
    "address_councildis": "D",
    "status": "Pending",
    "rowid": "946274",
    "final_x": "3684092.935",
    "final_y": "546121.430736",
    "longitude": "-90.05937016505665",
    "latitude": "29.995565536854578",
    "geocoded_column": {
      "latitude": "29.995565536854578",
      "longitude": "-90.05937016505665"
    }
  },
  {
    "service_request": "2022-946273",
    "request_type": "Property Maintenance",
    "request_reason": "Property Maintenance",
    "date_created": "2022-11-23T17:04:04.000",
    "date_modified": "2022-11-23T17:04:04.000",
    "request_status": "Pending",
    "responsible_agency": "Department of Code Enforcement",
    "final_address": "1808 Elysian Fields Ave",
    "address_councildis": "D",
    "status": "Pending",
    "rowid": "946273",
    "final_x": "3684679.04649",
    "final_y": "538949.955978",
    "longitude": "-90.05777088274918",
    "latitude": "29.97582858695228",
    "geocoded_column": {
      "latitude": "29.97582858695228",
      "longitude": "-90.05777088274918"
    }
  },
  {
    "service_request": "2022-946272",
    "request_type": "Trash/Recycling",
    "request_reason": "Order Trash Cart",
    "date_created": "2022-11-23T17:00:43.000",
    "date_modified": "2022-11-23T17:00:44.000",
    "request_status": "Pending",
    "responsible_agency": "Department of Sanitation",
    "final_address": "7525 Sandy Cove Dr",
    "address_councildis": "E",
    "status": "Assigned to Contractor",
    "contractor": "Waste Pro",
    "rowid": "946272",
    "final_x": "3716007.59192",
    "final_y": "568955.403686",
    "longitude": "-89.95768990110459",
    "latitude": "30.057335598660284",
    "geocoded_column": {
      "latitude": "30.057335598660284",
      "longitude": "-89.95768990110459"
    }
  },
  {
    "service_request": "2022-946271",
    "request_type": "Trash/Recycling",
    "request_reason": "MIssed Recycling Pick-Up",
    "date_created": "2022-11-23T16:47:55.000",
    "date_modified": "2022-11-23T16:47:56.000",
    "request_status": "Pending",
    "responsible_agency": "Department of Sanitation",
    "final_address": "917 Thalia St",
    "address_councildis": "B",
    "status": "Assigned to Contractor",
    "contractor": "Richards Disposal",
    "rowid": "946271",
    "final_x": "3681183.92591",
    "final_y": "525116.528957",
    "longitude": "-90.06929142583014",
    "latitude": "29.937897878712683",
    "geocoded_column": {
      "latitude": "29.937897878712683",
      "longitude": "-90.06929142583014"
    }
  },
  {
    "service_request": "2022-946270",
    "request_type": "Abandoned Vehicles",
    "request_reason": "Abandoned/Junk Vehicles",
    "date_created": "2022-11-23T16:42:49.000",
    "date_modified": "2022-11-23T16:42:50.000",
    "request_status": "Pending",
    "responsible_agency": "Department of Public Works",
    "final_address": "330 S Bernadotte St",
    "address_councildis": "A",
    "status": "Pending",
    "rowid": "946270",
    "final_x": "3668198.20423",
    "final_y": "539198.477898",
    "longitude": "-90.10981384470726",
    "latitude": "29.977006115700448",
    "geocoded_column": {
      "latitude": "29.977006115700448",
      "longitude": "-90.10981384470726"
    }
  },
  {
    "service_request": "2022-946269",
    "request_type": "Traffic Signals/Signs/Striping/Streetlights",
    "request_reason": "Street Light Outage/Malfunction",
    "date_created": "2022-11-23T16:36:15.000",
    "date_modified": "2022-11-23T16:36:16.000",
    "request_status": "Pending",
    "responsible_agency": "Department of Public Works",
    "final_address": "3301 Royal St",
    "address_councildis": "C",
    "status": "Pending",
    "contractor": "Legacy Professional Services",
    "rowid": "946269",
    "final_x": "3689507.60585",
    "final_y": "534299.647045",
    "longitude": "-90.04268640237082",
    "latitude": "29.962893187662416",
    "geocoded_column": {
      "latitude": "29.962893187662416",
      "longitude": "-90.04268640237082"
    }
  },
  {
    "service_request": "2022-946268",
    "request_type": "Abandoned Vehicles",
    "request_reason": "Abandoned/Junk Vehicles",
    "date_created": "2022-11-23T16:31:55.000",
    "date_modified": "2022-11-24T10:18:31.000",
    "case_close_date": "2022-11-24T04:18:31.000",
    "request_status": "Closed",
    "responsible_agency": "Department of Public Works",
    "final_address": "1434 Elysian Fields Ave",
    "address_councildis": "C",
    "status": "Resolved",
    "rowid": "946268",
    "final_x": "3684795.51637",
    "final_y": "537689.777352",
    "longitude": "-90.05744735551974",
    "latitude": "29.972359970096818",
    "geocoded_column": {
      "latitude": "29.972359970096818",
      "longitude": "-90.05744735551974"
    }
  },
  {
    "service_request": "2022-946267",
    "request_type": "Trash/Recycling",
    "request_reason": "Illegal Dumping",
    "date_created": "2022-11-23T16:31:17.000",
    "date_modified": "2022-11-23T16:31:18.000",
    "request_status": "Pending",
    "responsible_agency": "Department of Sanitation",
    "final_address": "LE BOEUF ST & PELICAN AVE",
    "address_councildis": "C",
    "status": "Pending",
    "rowid": "946267",
    "final_x": "3689881.4",
    "final_y": "530681.58",
    "longitude": "-90.04163480904984",
    "latitude": "29.952933176866093",
    "geocoded_column": {
      "latitude": "29.952933176866093",
      "longitude": "-90.04163480904984"
    }
  },
  {
    "service_request": "2022-946266",
    "request_type": "Trash/Recycling",
    "request_reason": "Replace Trash Cart",
    "date_created": "2022-11-23T16:31:13.000",
    "date_modified": "2022-11-23T16:31:14.000",
    "request_status": "Pending",
    "responsible_agency": "Department of Sanitation",
    "final_address": "1001 Henry Clay Ave",
    "address_councildis": "A",
    "status": "Assigned to Contractor",
    "contractor": "Richards Disposal",
    "rowid": "946266",
    "final_x": "3664114.85536",
    "final_y": "520229.992632",
    "longitude": "-90.12334305472245",
    "latitude": "29.924968170625775",
    "geocoded_column": {
      "latitude": "29.924968170625775",
      "longitude": "-90.12334305472245"
    }
  },
  {
    "service_request": "2022-946265",
    "request_type": "Trash/Recycling",
    "request_reason": "Order Recycling Cart",
    "date_created": "2022-11-23T16:30:18.000",
    "date_modified": "2022-11-23T16:31:02.000",
    "request_status": "Pending",
    "responsible_agency": "Department of Sanitation",
    "final_address": "1900 BLK Lafreniere St",
    "address_councildis": "D",
    "status": "Pending",
    "rowid": "946265",
    "final_x": "3682223.14897",
    "final_y": "545345.982915",
    "longitude": "-90.06530375003457",
    "latitude": "29.99349035955961",
    "geocoded_column": {
      "latitude": "29.99349035955961",
      "longitude": "-90.06530375003457"
    }
  },
  {
    "service_request": "2022-946264",
    "request_type": "Trash/Recycling",
    "request_reason": "Missed Trash Pick-Up",
    "date_created": "2022-11-23T16:26:57.000",
    "date_modified": "2022-11-23T16:26:58.000",
    "request_status": "Pending",
    "responsible_agency": "Department of Sanitation",
    "final_address": "4224 Marigny St",
    "address_councildis": "D",
    "status": "Assigned to Contractor",
    "contractor": "IV Waste",
    "rowid": "946264",
    "final_x": "3684365.29999",
    "final_y": "548323.370642",
    "longitude": "-90.05843239866897",
    "latitude": "30.001611752294398",
    "geocoded_column": {
      "latitude": "30.001611752294398",
      "longitude": "-90.05843239866897"
    }
  },
  {
    "service_request": "2022-946263",
    "request_type": "Trash/Recycling",
    "request_reason": "Order Trash Cart",
    "date_created": "2022-11-23T16:24:52.000",
    "date_modified": "2022-11-23T16:24:53.000",
    "request_status": "Pending",
    "responsible_agency": "Department of Sanitation",
    "final_address": "2317 Jena St",
    "address_councildis": "B",
    "status": "Assigned to Contractor",
    "contractor": "Richards Disposal",
    "rowid": "946263",
    "final_x": "3670224.54535",
    "final_y": "523474.156091",
    "longitude": "-90.10394682726233",
    "latitude": "29.933709766065302",
    "geocoded_column": {
      "latitude": "29.933709766065302",
      "longitude": "-90.10394682726233"
    }
  },
  {
    "service_request": "2022-946262",
    "request_type": "Trash/Recycling",
    "request_reason": "Missed Trash Pick-Up",
    "date_created": "2022-11-23T16:21:31.000",
    "date_modified": "2022-11-23T16:21:32.000",
    "request_status": "Pending",
    "responsible_agency": "Department of Sanitation",
    "final_address": "731 Fern St",
    "address_councildis": "A",
    "status": "Assigned to Contractor",
    "contractor": "Richards Disposal",
    "rowid": "946262",
    "final_x": "3661572.91936",
    "final_y": "526733.867006",
    "longitude": "-90.1311517589614",
    "latitude": "29.942925341207168",
    "geocoded_column": {
      "latitude": "29.942925341207168",
      "longitude": "-90.1311517589614"
    }
  },
  {
    "service_request": "2022-946261",
    "request_type": "Trash/Recycling",
    "request_reason": "Request a Large Item Pick Up",
    "date_created": "2022-11-23T16:16:09.000",
    "date_modified": "2022-11-23T16:16:10.000",
    "request_status": "Pending",
    "responsible_agency": "Department of Sanitation",
    "final_address": "1010 Toledano St",
    "address_councildis": "B",
    "status": "Assigned to Contractor",
    "contractor": "Richards Disposal",
    "rowid": "946261",
    "final_x": "3675479.25128",
    "final_y": "519528.820471",
    "longitude": "-90.0874933829482",
    "latitude": "29.922705303028245",
    "geocoded_column": {
      "latitude": "29.922705303028245",
      "longitude": "-90.0874933829482"
    }
  },
  {
    "service_request": "2022-946260",
    "request_type": "Trash/Recycling",
    "request_reason": "Order Recycling Cart",
    "date_created": "2022-11-23T16:13:13.000",
    "date_modified": "2022-11-23T16:13:14.000",
    "request_status": "Pending",
    "responsible_agency": "Department of Sanitation",
    "final_address": "130 16Th St",
    "address_councildis": "A",
    "status": "Pending",
    "rowid": "946260",
    "final_x": "3665864.75994",
    "final_y": "548342.164946",
    "longitude": "-90.11687705436593",
    "latitude": "30.002216452702484",
    "geocoded_column": {
      "latitude": "30.002216452702484",
      "longitude": "-90.11687705436593"
    }
  },
  {
    "service_request": "2022-946259",
    "request_type": "Trash/Recycling",
    "request_reason": "Order Recycling Cart",
    "date_created": "2022-11-23T16:06:16.000",
    "date_modified": "2022-11-23T16:06:16.000",
    "request_status": "Pending",
    "responsible_agency": "Department of Sanitation",
    "final_address": "2116 Lafreniere St",
    "address_councildis": "D",
    "status": "Pending",
    "rowid": "946259",
    "final_x": "3683661.33935",
    "final_y": "545415.958096",
    "longitude": "-90.06075828433751",
    "latitude": "29.99363892586069",
    "geocoded_column": {
      "latitude": "29.99363892586069",
      "longitude": "-90.06075828433751"
    }
  },
  {
    "service_request": "2022-946258",
    "request_type": "Trash/Recycling",
    "request_reason": "Order Recycling Cart",
    "date_created": "2022-11-23T16:05:46.000",
    "date_modified": "2022-11-23T16:05:46.000",
    "request_status": "Pending",
    "responsible_agency": "Department of Sanitation",
    "final_address": "2316 Choctaw Ct",
    "address_councildis": "E",
    "status": "Pending",
    "rowid": "946258",
    "final_x": "3698659.9192",
    "final_y": "538592.876681",
    "longitude": "-90.01362857866349",
    "latitude": "29.97441139441578",
    "geocoded_column": {
      "latitude": "29.97441139441578",
      "longitude": "-90.01362857866349"
    }
  },
  {
    "service_request": "2022-946257",
    "request_type": "Roads/Drainage",
    "request_reason": "Catch Basin - Clogged",
    "date_created": "2022-11-23T16:04:18.000",
    "date_modified": "2022-11-23T16:04:18.000",
    "request_status": "Pending",
    "responsible_agency": "Department of Public Works",
    "final_address": "1300 Magazine St",
    "address_councildis": "B",
    "status": "Pending",
    "rowid": "946257",
    "final_x": "3680575.60335",
    "final_y": "525194.061565",
    "longitude": "-90.07120925378202",
    "latitude": "29.93812950599452",
    "geocoded_column": {
      "latitude": "29.93812950599452",
      "longitude": "-90.07120925378202"
    }
  },
  {
    "service_request": "2022-946256",
    "request_type": "Trash/Recycling",
    "request_reason": "Illegal Dumping",
    "date_created": "2022-11-23T16:00:51.000",
    "date_modified": "2022-11-23T16:00:51.000",
    "request_status": "Pending",
    "responsible_agency": "Department of Sanitation",
    "final_address": "5500 BLK N Johnson St",
    "address_councildis": "E",
    "status": "Pending",
    "rowid": "946256",
    "final_x": "3698762.55027",
    "final_y": "537166.370009",
    "longitude": "-90.01335634635673",
    "latitude": "29.970485764676617",
    "geocoded_column": {
      "latitude": "29.970485764676617",
      "longitude": "-90.01335634635673"
    }
  },
  {
    "service_request": "2022-946255",
    "request_type": "Trash/Recycling",
    "request_reason": "Missed Trash Pick-Up",
    "date_created": "2022-11-23T15:59:22.000",
    "date_modified": "2022-11-23T15:59:23.000",
    "request_status": "Pending",
    "responsible_agency": "Department of Sanitation",
    "final_address": "8649 Grant St",
    "address_councildis": "E",
    "status": "Assigned to Contractor",
    "contractor": "Waste Pro",
    "rowid": "946255",
    "final_x": "3707480.6835",
    "final_y": "554464.716248",
    "longitude": "-89.98518097512552",
    "latitude": "30.0177706665698",
    "geocoded_column": {
      "latitude": "30.0177706665698",
      "longitude": "-89.98518097512552"
    }
  },
  {
    "service_request": "2022-946254",
    "request_type": "Trash/Recycling",
    "request_reason": "Repair Recycling Cart",
    "date_created": "2022-11-23T15:58:19.000",
    "date_modified": "2022-11-23T15:58:20.000",
    "request_status": "Pending",
    "responsible_agency": "Department of Sanitation",
    "final_address": "4819 Corinne St",
    "address_councildis": "E",
    "status": "Pending",
    "rowid": "946254",
    "final_x": "3715085.31768",
    "final_y": "557117.316762",
    "longitude": "-89.96105318353543",
    "latitude": "30.02481605871303",
    "geocoded_column": {
      "latitude": "30.02481605871303",
      "longitude": "-89.96105318353543"
    }
  },
  {
    "service_request": "2022-946253",
    "request_type": "Trash/Recycling",
    "request_reason": "Order Recycling Cart",
    "date_created": "2022-11-23T15:57:46.000",
    "date_modified": "2022-11-23T15:57:47.000",
    "request_status": "Pending",
    "responsible_agency": "Department of Sanitation",
    "final_address": "6439 Music St",
    "address_councildis": "D",
    "status": "Pending",
    "rowid": "946253",
    "final_x": "3685264.5798",
    "final_y": "556963.416346",
    "longitude": "-90.05528704950424",
    "latitude": "30.02534117386346",
    "geocoded_column": {
      "latitude": "30.02534117386346",
      "longitude": "-90.05528704950424"
    }
  },
  {
    "service_request": "2022-946252",
    "request_type": "Trash/Recycling",
    "request_reason": "Request a Large Item Pick Up",
    "date_created": "2022-11-23T15:57:08.000",
    "date_modified": "2022-11-23T16:11:08.000",
    "case_close_date": "2022-11-23T10:11:08.000",
    "request_status": "Closed",
    "responsible_agency": "Department of Sanitation",
    "final_address": "849 Walker St",
    "address_councildis": "A",
    "status": "Assigned to Contractor",
    "contractor": "IV Waste",
    "contractor_action": "Completed",
    "rowid": "946252",
    "final_x": "3670287.38708",
    "final_y": "553923.142167",
    "longitude": "-90.1027160578645",
    "latitude": "30.017432333908193",
    "geocoded_column": {
      "latitude": "30.017432333908193",
      "longitude": "-90.1027160578645"
    }
  },
  {
    "service_request": "2022-946251",
    "request_type": "Trash/Recycling",
    "request_reason": "Replace Trash Cart",
    "date_created": "2022-11-23T15:56:49.000",
    "date_modified": "2022-11-23T15:56:49.000",
    "request_status": "Pending",
    "responsible_agency": "Department of Sanitation",
    "final_address": "4819 Corinne St",
    "address_councildis": "E",
    "status": "Assigned to Contractor",
    "contractor": "Waste Pro",
    "rowid": "946251",
    "final_x": "3715085.31768",
    "final_y": "557117.316762",
    "longitude": "-89.96105318353543",
    "latitude": "30.02481605871303",
    "geocoded_column": {
      "latitude": "30.02481605871303",
      "longitude": "-89.96105318353543"
    }
  },
  {
    "service_request": "2022-946250",
    "request_type": "Trash/Recycling",
    "request_reason": "MIssed Recycling Pick-Up",
    "date_created": "2022-11-23T15:56:19.000",
    "date_modified": "2022-11-23T15:56:20.000",
    "request_status": "Pending",
    "responsible_agency": "Department of Sanitation",
    "final_address": "502 S Scott St",
    "address_councildis": "B",
    "status": "Assigned to Contractor",
    "contractor": "Richards Disposal",
    "rowid": "946250",
    "final_x": "3670824.25217",
    "final_y": "536445.320263",
    "longitude": "-90.10161339303356",
    "latitude": "29.969358496726638",
    "geocoded_column": {
      "latitude": "29.969358496726638",
      "longitude": "-90.10161339303356"
    }
  },
  {
    "service_request": "2022-946249",
    "request_type": "Trash/Recycling",
    "request_reason": "Replace Trash Cart",
    "date_created": "2022-11-23T15:55:09.000",
    "date_modified": "2022-11-23T15:55:10.000",
    "request_status": "Pending",
    "responsible_agency": "Department of Sanitation",
    "final_address": "5018 Cardenas Dr",
    "address_councildis": "E",
    "status": "Assigned to Contractor",
    "contractor": "Waste Pro",
    "rowid": "946249",
    "final_x": "3713474.66552",
    "final_y": "557759.250715",
    "longitude": "-89.9661183203552",
    "latitude": "30.026634063365453",
    "geocoded_column": {
      "latitude": "30.026634063365453",
      "longitude": "-89.9661183203552"
    }
  },
  {
    "service_request": "2022-946248",
    "request_type": "Trash/Recycling",
    "request_reason": "Repair Trash Cart",
    "date_created": "2022-11-23T15:54:46.000",
    "date_modified": "2022-11-23T15:54:47.000",
    "request_status": "Pending",
    "responsible_agency": "Department of Sanitation",
    "final_address": "4151 State Street Dr",
    "address_councildis": "B",
    "status": "Assigned to Contractor",
    "contractor": "Richards Disposal",
    "rowid": "946248",
    "final_x": "3668462.46657",
    "final_y": "530940.30765",
    "longitude": "-90.10925784468098",
    "latitude": "29.954291130138568",
    "geocoded_column": {
      "latitude": "29.954291130138568",
      "longitude": "-90.10925784468098"
    }
  },
  {
    "service_request": "2022-946247",
    "request_type": "Trash/Recycling",
    "request_reason": "MIssed Recycling Pick-Up",
    "date_created": "2022-11-23T15:54:41.000",
    "date_modified": "2022-11-23T15:54:41.000",
    "request_status": "Pending",
    "responsible_agency": "Department of Sanitation",
    "final_address": "502 S Scott St",
    "address_councildis": "B",
    "status": "Assigned to Contractor",
    "contractor": "Richards Disposal",
    "rowid": "946247",
    "final_x": "3670824.25217",
    "final_y": "536445.320263",
    "longitude": "-90.10161339303356",
    "latitude": "29.969358496726638",
    "geocoded_column": {
      "latitude": "29.969358496726638",
      "longitude": "-90.10161339303356"
    }
  },
  {
    "service_request": "2022-946246",
    "request_type": "Trash/Recycling",
    "request_reason": "MIssed Recycling Pick-Up",
    "date_created": "2022-11-23T15:53:36.000",
    "date_modified": "2022-11-23T15:53:37.000",
    "request_status": "Pending",
    "responsible_agency": "Department of Sanitation",
    "final_address": "502 S Scott St",
    "address_councildis": "B",
    "status": "Assigned to Contractor",
    "contractor": "Richards Disposal",
    "rowid": "946246",
    "final_x": "3670824.25217",
    "final_y": "536445.320263",
    "longitude": "-90.10161339303356",
    "latitude": "29.969358496726638",
    "geocoded_column": {
      "latitude": "29.969358496726638",
      "longitude": "-90.10161339303356"
    }
  },
  {
    "service_request": "2022-946245",
    "request_type": "Trash/Recycling",
    "request_reason": "Illegal Dumping",
    "date_created": "2022-11-23T15:51:37.000",
    "date_modified": "2022-11-23T15:51:37.000",
    "request_status": "Pending",
    "responsible_agency": "Department of Sanitation",
    "final_address": "717 Andry St",
    "address_councildis": "E",
    "status": "Pending",
    "rowid": "946245",
    "final_x": "3696823.11997",
    "final_y": "532586.089156",
    "longitude": "-90.01964709459263",
    "latitude": "29.95795291021087",
    "geocoded_column": {
      "latitude": "29.95795291021087",
      "longitude": "-90.01964709459263"
    }
  },
  {
    "service_request": "2022-946244",
    "request_type": "Trash/Recycling",
    "request_reason": "Illegal Dumping",
    "date_created": "2022-11-23T15:49:50.000",
    "date_modified": "2022-11-23T15:49:50.000",
    "request_status": "Pending",
    "responsible_agency": "Department of Sanitation",
    "final_address": "2115 Bienville Ave",
    "address_councildis": "B",
    "status": "Pending",
    "rowid": "946244",
    "final_x": "3677669.68546",
    "final_y": "534402.209477",
    "longitude": "-90.08006553872458",
    "latitude": "29.963536527908204",
    "geocoded_column": {
      "latitude": "29.963536527908204",
      "longitude": "-90.08006553872458"
    }
  },
  {
    "service_request": "2022-946243",
    "request_type": "Trash/Recycling",
    "request_reason": "Order Recycling Cart",
    "date_created": "2022-11-23T15:46:10.000",
    "date_modified": "2022-11-23T15:46:10.000",
    "request_status": "Pending",
    "responsible_agency": "Department of Sanitation",
    "final_address": "2209 Pauline St",
    "address_councildis": "D",
    "status": "Pending",
    "rowid": "946243",
    "final_x": "3692304.52585",
    "final_y": "539667.646794",
    "longitude": "-90.03366184517374",
    "latitude": "29.97756636571809",
    "geocoded_column": {
      "latitude": "29.97756636571809",
      "longitude": "-90.03366184517374"
    }
  },
  {
    "service_request": "2022-946242",
    "request_type": "Trash/Recycling",
    "request_reason": "Order Recycling Cart",
    "date_created": "2022-11-23T15:40:34.000",
    "date_modified": "2022-11-23T15:40:34.000",
    "request_status": "Pending",
    "responsible_agency": "Department of Sanitation",
    "final_address": "5167 St Roch Ave",
    "address_councildis": "D",
    "status": "Pending",
    "rowid": "946242",
    "final_x": "3685259.21429",
    "final_y": "552038.806934",
    "longitude": "-90.05547754221375",
    "latitude": "30.011800475279227",
    "geocoded_column": {
      "latitude": "30.011800475279227",
      "longitude": "-90.05547754221375"
    }
  },
  {
    "service_request": "2022-946241",
    "request_type": "Trash/Recycling",
    "request_reason": "Repair Recycling Cart",
    "date_created": "2022-11-23T15:40:30.000",
    "date_modified": "2022-11-23T15:40:30.000",
    "request_status": "Pending",
    "responsible_agency": "Department of Sanitation",
    "final_address": "6926 Fleur-De-Lis Dr",
    "address_councildis": "A",
    "status": "Pending",
    "rowid": "946241",
    "final_x": "3665388.784",
    "final_y": "553885.833687",
    "longitude": "-90.11819500222674",
    "latitude": "30.01747349851833",
    "geocoded_column": {
      "latitude": "30.01747349851833",
      "longitude": "-90.11819500222674"
    }
  },
  {
    "service_request": "2022-946240",
    "request_type": "Abandoned Vehicles",
    "request_reason": "Abandoned/Junk Vehicles",
    "date_created": "2022-11-23T15:40:04.000",
    "date_modified": "2022-11-23T15:42:16.000",
    "request_status": "Pending",
    "responsible_agency": "Department of Public Works",
    "final_address": "3230 Palmyra St",
    "address_councildis": "B",
    "status": "Pending",
    "rowid": "946240",
    "final_x": "3673133.7259",
    "final_y": "535700.204039",
    "longitude": "-90.094345324432",
    "latitude": "29.96724121407924",
    "geocoded_column": {
      "latitude": "29.96724121407924",
      "longitude": "-90.094345324432"
    }
  },
  {
    "service_request": "2022-946239",
    "request_type": "Trash/Recycling",
    "request_reason": "Missed Trash Pick-Up",
    "date_created": "2022-11-23T15:38:40.000",
    "date_modified": "2022-11-23T15:38:41.000",
    "request_status": "Pending",
    "responsible_agency": "Department of Sanitation",
    "final_address": "4711 Coronado Dr",
    "address_councildis": "E",
    "status": "Assigned to Contractor",
    "contractor": "Waste Pro",
    "rowid": "946239",
    "final_x": "3714206.37464",
    "final_y": "556359.593114",
    "longitude": "-89.96385908324322",
    "latitude": "30.02276153286843",
    "geocoded_column": {
      "latitude": "30.02276153286843",
      "longitude": "-89.96385908324322"
    }
  },
  {
    "service_request": "2022-946238",
    "request_type": "Trash/Recycling",
    "request_reason": "Order Trash Cart",
    "date_created": "2022-11-23T15:38:04.000",
    "date_modified": "2022-11-23T16:38:58.000",
    "request_status": "Pending",
    "responsible_agency": "Department of Sanitation",
    "final_address": "4621 Pineda St, New Orleans, Louisiana, 70126",
    "address_councildis": "D",
    "status": "Assigned to Contractor",
    "contractor": "IV Waste",
    "rowid": "946238",
    "final_x": "3690805.68406",
    "final_y": "552609.985302",
    "longitude": "-90.03793356214616",
    "latitude": "30.01319975955612",
    "geocoded_column": {
      "latitude": "30.01319975955612",
      "longitude": "-90.03793356214616"
    }
  },
  {
    "service_request": "2022-946237",
    "request_type": "Trash/Recycling",
    "request_reason": "Order Recycling Cart",
    "date_created": "2022-11-23T15:33:22.000",
    "date_modified": "2022-11-23T15:33:23.000",
    "request_status": "Pending",
    "responsible_agency": "Department of Sanitation",
    "final_address": "4902 Treves St",
    "address_councildis": "E",
    "status": "Pending",
    "rowid": "946237",
    "final_x": "3729883.90016",
    "final_y": "562716.755296",
    "longitude": "-89.91407371955931",
    "latitude": "30.03971657738039",
    "geocoded_column": {
      "latitude": "30.03971657738039",
      "longitude": "-89.91407371955931"
    }
  },
  {
    "service_request": "2022-946236",
    "request_type": "Roads/Drainage",
    "request_reason": "Damaged Sidewalk",
    "date_created": "2022-11-23T15:31:10.000",
    "date_modified": "2022-11-23T15:31:12.000",
    "request_status": "Pending",
    "responsible_agency": "Department of Public Works",
    "final_address": "726 St Maurice Ave",
    "address_councildis": "E",
    "status": "Pending",
    "rowid": "946236",
    "final_x": "3699322.1672",
    "final_y": "532010.735171",
    "longitude": "-90.01177681236935",
    "latitude": "29.956291873546146",
    "geocoded_column": {
      "latitude": "29.956291873546146",
      "longitude": "-90.01177681236935"
    }
  },
  {
    "service_request": "2022-946235",
    "request_type": "Trash/Recycling",
    "request_reason": "Order Trash Cart",
    "date_created": "2022-11-23T15:27:48.000",
    "date_modified": "2022-11-23T15:27:49.000",
    "request_status": "Pending",
    "responsible_agency": "Department of Sanitation",
    "final_address": "4108 Cadillac St",
    "address_councildis": "D",
    "status": "Assigned to Contractor",
    "contractor": "IV Waste",
    "rowid": "946235",
    "final_x": "3676858.49019",
    "final_y": "547268.920273",
    "longitude": "-90.08218354927534",
    "latitude": "29.99893990966965",
    "geocoded_column": {
      "latitude": "29.99893990966965",
      "longitude": "-90.08218354927534"
    }
  },
  {
    "service_request": "2022-946234",
    "request_type": "Trash/Recycling",
    "request_reason": "Order Trash Cart",
    "date_created": "2022-11-23T15:27:31.000",
    "date_modified": "2022-11-23T15:27:31.000",
    "request_status": "Pending",
    "responsible_agency": "Department of Sanitation",
    "final_address": "4108 Cadillac St",
    "address_councildis": "D",
    "status": "Assigned to Contractor",
    "contractor": "IV Waste",
    "rowid": "946234",
    "final_x": "3676858.49019",
    "final_y": "547268.920273",
    "longitude": "-90.08218354927534",
    "latitude": "29.99893990966965",
    "geocoded_column": {
      "latitude": "29.99893990966965",
      "longitude": "-90.08218354927534"
    }
  },
  {
    "service_request": "2022-946233",
    "request_type": "Trash/Recycling",
    "request_reason": "Order Trash Cart",
    "date_created": "2022-11-23T15:27:12.000",
    "date_modified": "2022-11-23T15:27:13.000",
    "request_status": "Pending",
    "responsible_agency": "Department of Sanitation",
    "final_address": "4108 Cadillac St",
    "address_councildis": "D",
    "status": "Assigned to Contractor",
    "contractor": "IV Waste",
    "rowid": "946233",
    "final_x": "3676858.49019",
    "final_y": "547268.920273",
    "longitude": "-90.08218354927534",
    "latitude": "29.99893990966965",
    "geocoded_column": {
      "latitude": "29.99893990966965",
      "longitude": "-90.08218354927534"
    }
  },
  {
    "service_request": "2022-946232",
    "request_type": "Trash/Recycling",
    "request_reason": "Request a Large Item Pick Up",
    "date_created": "2022-11-23T15:25:03.000",
    "date_modified": "2022-11-23T15:26:28.000",
    "request_status": "Pending",
    "responsible_agency": "Department of Sanitation",
    "final_address": "1310 Jourdan Ave",
    "address_councildis": "E",
    "status": "Assigned to Contractor",
    "contractor": "Waste Pro",
    "rowid": "946232",
    "final_x": "3695177.06026",
    "final_y": "535444.35687",
    "longitude": "-90.02474178522274",
    "latitude": "29.965863925149044",
    "geocoded_column": {
      "latitude": "29.965863925149044",
      "longitude": "-90.02474178522274"
    }
  },
  {
    "service_request": "2022-946231",
    "request_type": "Traffic Signals/Signs/Striping/Streetlights",
    "request_reason": "Street Light Outage/Malfunction",
    "date_created": "2022-11-23T15:23:48.000",
    "date_modified": "2022-11-23T15:23:49.000",
    "request_status": "Pending",
    "responsible_agency": "Department of Public Works",
    "final_address": "4108 Cadillac St",
    "address_councildis": "D",
    "status": "Pending",
    "contractor": "Legacy Professional Services",
    "rowid": "946231",
    "final_x": "3676858.49019",
    "final_y": "547268.920273",
    "longitude": "-90.08218354927534",
    "latitude": "29.99893990966965",
    "geocoded_column": {
      "latitude": "29.99893990966965",
      "longitude": "-90.08218354927534"
    }
  },
  {
    "service_request": "2022-946230",
    "request_type": "Mosquito, Termite & Rodent Control",
    "request_reason": "Rodent Complaint (Rats)",
    "date_created": "2022-11-23T15:21:28.000",
    "date_modified": "2022-11-23T15:21:28.000",
    "request_status": "Pending",
    "responsible_agency": "Mosquito, Termite & Rodent Control Board",
    "final_address": "6301 Canal Blvd",
    "address_councildis": "A",
    "status": "Pending",
    "rowid": "946230",
    "final_x": "3668805.38932",
    "final_y": "549369.744083",
    "longitude": "-90.10755250041724",
    "latitude": "30.004955769971186",
    "geocoded_column": {
      "latitude": "30.004955769971186",
      "longitude": "-90.10755250041724"
    }
  },
  {
    "service_request": "2022-946229",
    "request_type": "Abandoned Vehicles",
    "request_reason": "Abandoned/Junk Vehicles",
    "date_created": "2022-11-23T15:16:18.000",
    "date_modified": "2022-11-24T09:50:34.000",
    "request_status": "Pending",
    "responsible_agency": "Department of Public Works",
    "final_address": "2524 Nashville Ave",
    "address_councildis": "A",
    "status": "Inspected",
    "rowid": "946229",
    "final_x": "3667163.60749",
    "final_y": "525408.409853",
    "longitude": "-90.11354508756749",
    "latitude": "29.939118292278273",
    "geocoded_column": {
      "latitude": "29.939118292278273",
      "longitude": "-90.11354508756749"
    }
  },
  {
    "service_request": "2022-946227",
    "request_type": "Trash/Recycling",
    "request_reason": "Request a Large Item Pick Up",
    "date_created": "2022-11-23T15:09:39.000",
    "date_modified": "2022-11-23T15:09:40.000",
    "request_status": "Pending",
    "responsible_agency": "Department of Sanitation",
    "final_address": "6934 Thor Ct",
    "address_councildis": "E",
    "status": "Assigned to Contractor",
    "contractor": "Waste Pro",
    "rowid": "946227",
    "final_x": "3702743.68881",
    "final_y": "558546.894364",
    "longitude": "-89.99999784247949",
    "latitude": "30.029147479529087",
    "geocoded_column": {
      "latitude": "30.029147479529087",
      "longitude": "-89.99999784247949"
    }
  },
  {
    "service_request": "2022-946226",
    "request_type": "Roads/Drainage",
    "request_reason": "Road Shoulder Repair",
    "date_created": "2022-11-23T15:08:22.000",
    "date_modified": "2022-11-23T15:08:22.000",
    "request_status": "Pending",
    "responsible_agency": "Department of Public Works",
    "final_address": "555 Audubon St",
    "address_councildis": "A",
    "status": "Pending",
    "rowid": "946226",
    "final_x": "3663007.13319",
    "final_y": "524080.931836",
    "longitude": "-90.12671177949672",
    "latitude": "29.935589159545028",
    "geocoded_column": {
      "latitude": "29.935589159545028",
      "longitude": "-90.12671177949672"
    }
  },
  {
    "service_request": "2022-946225",
    "request_type": "Trash/Recycling",
    "request_reason": "Repair Trash Cart",
    "date_created": "2022-11-23T15:08:10.000",
    "date_modified": "2022-11-23T15:08:11.000",
    "request_status": "Pending",
    "responsible_agency": "Department of Sanitation",
    "final_address": "4850 Evangeline Dr",
    "address_councildis": "E",
    "status": "Assigned to Contractor",
    "contractor": "Waste Pro",
    "rowid": "946225",
    "final_x": "3708965.50008",
    "final_y": "556460.564442",
    "longitude": "-89.9804151180667",
    "latitude": "30.023210352586062",
    "geocoded_column": {
      "latitude": "30.023210352586062",
      "longitude": "-89.9804151180667"
    }
  },
  {
    "service_request": "2022-946224",
    "request_type": "Trash/Recycling",
    "request_reason": "Request a Large Item Pick Up",
    "date_created": "2022-11-23T15:04:26.000",
    "date_modified": "2022-11-23T15:04:27.000",
    "request_status": "Pending",
    "responsible_agency": "Department of Sanitation",
    "final_address": "4154 St Peter St",
    "address_councildis": "A",
    "status": "Assigned to Contractor",
    "contractor": "Richards Disposal",
    "rowid": "946224",
    "final_x": "3672081.21652",
    "final_y": "540241.632779",
    "longitude": "-90.09751448722544",
    "latitude": "29.979759857653892",
    "geocoded_column": {
      "latitude": "29.979759857653892",
      "longitude": "-90.09751448722544"
    }
  },
  {
    "service_request": "2022-946223",
    "request_type": "Trash/Recycling",
    "request_reason": "Request a Large Item Pick Up",
    "date_created": "2022-11-23T15:04:16.000",
    "date_modified": "2022-11-23T15:04:17.000",
    "request_status": "Pending",
    "responsible_agency": "Department of Sanitation",
    "final_address": "1520 Leonidas St",
    "address_councildis": "A",
    "status": "Assigned to Contractor",
    "contractor": "Richards Disposal",
    "rowid": "946223",
    "final_x": "3661433.00781",
    "final_y": "530496.156866",
    "longitude": "-90.13146890333454",
    "latitude": "29.953274470274106",
    "geocoded_column": {
      "latitude": "29.953274470274106",
      "longitude": "-90.13146890333454"
    }
  },
  {
    "service_request": "2022-946222",
    "request_type": "Trash/Recycling",
    "request_reason": "Missed Trash Pick-Up",
    "date_created": "2022-11-23T15:03:46.000",
    "date_modified": "2022-11-23T15:03:47.000",
    "request_status": "Pending",
    "responsible_agency": "Department of Sanitation",
    "final_address": "4610 Hauck Dr",
    "address_councildis": "E",
    "status": "Assigned to Contractor",
    "contractor": "Waste Pro",
    "rowid": "946222",
    "final_x": "3714568.4556",
    "final_y": "555977.686873",
    "longitude": "-89.96272943798138",
    "latitude": "30.021699537776662",
    "geocoded_column": {
      "latitude": "30.021699537776662",
      "longitude": "-89.96272943798138"
    }
  },
  {
    "service_request": "2022-946221",
    "request_type": "Trash/Recycling",
    "request_reason": "Replace Trash Cart",
    "date_created": "2022-11-23T15:03:40.000",
    "date_modified": "2022-11-23T15:03:41.000",
    "request_status": "Pending",
    "responsible_agency": "Department of Sanitation",
    "final_address": "4970 Eastern St",
    "address_councildis": "D",
    "status": "Assigned to Contractor",
    "contractor": "IV Waste",
    "rowid": "946221",
    "final_x": "3687894.28713",
    "final_y": "551598.616149",
    "longitude": "-90.04716786667792",
    "latitude": "30.010509046304186",
    "geocoded_column": {
      "latitude": "30.010509046304186",
      "longitude": "-90.04716786667792"
    }
  },
  {
    "service_request": "2022-946220",
    "request_type": "Roads/Drainage",
    "request_reason": "Catch Basin - Clogged",
    "date_created": "2022-11-23T15:02:02.000",
    "date_modified": "2022-11-23T15:02:02.000",
    "request_status": "Pending",
    "responsible_agency": "Department of Public Works",
    "final_address": "1522 Leonidas St",
    "address_councildis": "A",
    "status": "Pending",
    "rowid": "946220",
    "final_x": "3661436.67578",
    "final_y": "530501.628098",
    "longitude": "-90.13145714019625",
    "latitude": "29.95328940861233",
    "geocoded_column": {
      "latitude": "29.95328940861233",
      "longitude": "-90.13145714019625"
    }
  },
  {
    "service_request": "2022-946219",
    "request_type": "Abandoned Vehicles",
    "request_reason": "Abandoned/Junk Vehicles",
    "date_created": "2022-11-23T15:01:05.000",
    "date_modified": "2022-11-23T15:02:59.000",
    "request_status": "Pending",
    "responsible_agency": "Department of Public Works",
    "final_address": "5752 Wickfield Dr",
    "address_councildis": "D",
    "status": "Pending",
    "rowid": "946219",
    "final_x": "3680945.78331",
    "final_y": "554290.188184",
    "longitude": "-90.06902700098861",
    "latitude": "30.01812251976629",
    "geocoded_column": {
      "latitude": "30.01812251976629",
      "longitude": "-90.06902700098861"
    }
  },
  {
    "service_request": "2022-946217",
    "request_type": "Trash/Recycling",
    "request_reason": "Order Recycling Cart",
    "date_created": "2022-11-23T14:54:37.000",
    "date_modified": "2022-11-23T14:54:37.000",
    "request_status": "Pending",
    "responsible_agency": "Department of Sanitation",
    "final_address": "3113 N Derbigny St",
    "address_councildis": "D",
    "status": "Pending",
    "rowid": "946217",
    "final_x": "3689740.78582",
    "final_y": "538246.844169",
    "longitude": "-90.0418095566294",
    "latitude": "29.97373937016249",
    "geocoded_column": {
      "latitude": "29.97373937016249",
      "longitude": "-90.0418095566294"
    }
  },
  {
    "service_request": "2022-946216",
    "request_type": "Trash/Recycling",
    "request_reason": "Request a Large Item Pick Up",
    "date_created": "2022-11-23T14:51:00.000",
    "date_modified": "2022-11-23T14:51:01.000",
    "case_close_date": "2021-02-03T18:00:00.000",
    "request_status": "Pending",
    "responsible_agency": "Department of Sanitation",
    "final_address": "32 Neron Pl",
    "address_councildis": "A",
    "status": "Assigned to Contractor",
    "contractor": "Richards Disposal",
    "rowid": "946216",
    "final_x": "3665183.99482",
    "final_y": "530615.581698",
    "longitude": "-90.11962085703018",
    "latitude": "29.953494134175052",
    "geocoded_column": {
      "latitude": "29.953494134175052",
      "longitude": "-90.11962085703018"
    }
  },
  {
    "service_request": "2022-946214",
    "request_type": "Trash/Recycling",
    "request_reason": "Request a Large Item Pick Up",
    "date_created": "2022-11-23T14:44:27.000",
    "date_modified": "2022-11-23T14:44:28.000",
    "request_status": "Pending",
    "responsible_agency": "Department of Sanitation",
    "final_address": "5641 Hawthorne Pl",
    "address_councildis": "A",
    "status": "Assigned to Contractor",
    "contractor": "IV Waste",
    "rowid": "946214",
    "final_x": "3667953.40404",
    "final_y": "544943.140815",
    "longitude": "-90.11039336159016",
    "latitude": "29.992809173182646",
    "geocoded_column": {
      "latitude": "29.992809173182646",
      "longitude": "-90.11039336159016"
    }
  },
  {
    "service_request": "2022-946213",
    "request_type": "Traffic Signals/Signs/Striping/Streetlights",
    "request_reason": "Street Light Outage/Malfunction",
    "date_created": "2022-11-23T14:43:56.000",
    "date_modified": "2022-11-23T18:17:00.000",
    "request_status": "Pending",
    "responsible_agency": "Department of Public Works",
    "final_address": "New Orleans,LA",
    "address_councildis": "B",
    "status": "Pending",
    "contractor": "Legacy Professional Services",
    "rowid": "946213",
    "final_x": "3678643.78869",
    "final_y": "527122.004735",
    "longitude": "-90.07724144505916",
    "latitude": "29.94348907901209",
    "geocoded_column": {
      "latitude": "29.94348907901209",
      "longitude": "-90.07724144505916"
    }
  },
  {
    "service_request": "2022-946212",
    "request_type": "Trash/Recycling",
    "request_reason": "Replace Trash Cart",
    "date_created": "2022-11-23T14:39:45.000",
    "date_modified": "2022-11-23T14:39:46.000",
    "request_status": "Pending",
    "responsible_agency": "Department of Sanitation",
    "final_address": "6149 Memphis St",
    "address_councildis": "A",
    "status": "Assigned to Contractor",
    "contractor": "IV Waste",
    "rowid": "946212",
    "final_x": "3669354.87642",
    "final_y": "548233.276946",
    "longitude": "-90.10585501392514",
    "latitude": "30.001814706784923",
    "geocoded_column": {
      "latitude": "30.001814706784923",
      "longitude": "-90.10585501392514"
    }
  },
  {
    "service_request": "2022-946211",
    "request_type": "Trash/Recycling",
    "request_reason": "Missed Trash Pick-Up",
    "date_created": "2022-11-23T14:35:07.000",
    "date_modified": "2022-11-23T14:35:08.000",
    "request_status": "Pending",
    "responsible_agency": "Department of Sanitation",
    "final_address": "400 BLK Hillary St",
    "address_councildis": "A",
    "status": "Assigned to Contractor",
    "contractor": "Richards Disposal",
    "rowid": "946211",
    "final_x": "3661520.44037",
    "final_y": "525211.512357",
    "longitude": "-90.13136786749038",
    "latitude": "29.93874086274785",
    "geocoded_column": {
      "latitude": "29.93874086274785",
      "longitude": "-90.13136786749038"
    }
  },
  {
    "service_request": "2022-946210",
    "request_type": "Trash/Recycling",
    "request_reason": "Order Recycling Cart",
    "date_created": "2022-11-23T14:34:34.000",
    "date_modified": "2022-11-23T14:34:35.000",
    "request_status": "Pending",
    "responsible_agency": "Department of Sanitation",
    "final_address": "6421 St Roch Ave",
    "address_councildis": "D",
    "status": "Pending",
    "rowid": "946210",
    "final_x": "3684939.28585",
    "final_y": "556877.910234",
    "longitude": "-90.05631793943733",
    "latitude": "30.025116036126857",
    "geocoded_column": {
      "latitude": "30.025116036126857",
      "longitude": "-90.05631793943733"
    }
  },
  {
    "service_request": "2022-946209",
    "request_type": "Trash/Recycling",
    "request_reason": "Return Trash Cart",
    "date_created": "2022-11-23T14:33:32.000",
    "date_modified": "2022-11-23T14:33:32.000",
    "request_status": "Pending",
    "responsible_agency": "Department of Sanitation",
    "final_address": "6421 St Roch Ave",
    "address_councildis": "D",
    "status": "Assigned to Contractor",
    "contractor": "IV Waste",
    "rowid": "946209",
    "final_x": "3684939.28585",
    "final_y": "556877.910234",
    "longitude": "-90.05631793943733",
    "latitude": "30.025116036126857",
    "geocoded_column": {
      "latitude": "30.025116036126857",
      "longitude": "-90.05631793943733"
    }
  },
  {
    "service_request": "2022-946208",
    "request_type": "Trash/Recycling",
    "request_reason": "Missed Trash Pick-Up",
    "date_created": "2022-11-23T14:33:18.000",
    "date_modified": "2022-11-23T14:33:18.000",
    "request_status": "Pending",
    "responsible_agency": "Department of Sanitation",
    "final_address": "5496 Patio Way",
    "address_councildis": "E",
    "status": "Assigned to Contractor",
    "contractor": "Waste Pro",
    "rowid": "946208",
    "final_x": "3725370.69939",
    "final_y": "563688.435105",
    "longitude": "-89.92829895426132",
    "latitude": "30.04254122954568",
    "geocoded_column": {
      "latitude": "30.04254122954568",
      "longitude": "-89.92829895426132"
    }
  },
  {
    "service_request": "2022-946207",
    "request_type": "Trash/Recycling",
    "request_reason": "MIssed Recycling Pick-Up",
    "date_created": "2022-11-23T14:28:39.000",
    "date_modified": "2022-11-23T14:28:40.000",
    "request_status": "Pending",
    "responsible_agency": "Department of Sanitation",
    "final_address": "6201 S Prieur St",
    "address_councildis": "A",
    "status": "Assigned to Contractor",
    "contractor": "Richards Disposal",
    "rowid": "946207",
    "final_x": "3666848.48871",
    "final_y": "527254.544703",
    "longitude": "-90.11447796078625",
    "latitude": "29.944203789132395",
    "geocoded_column": {
      "latitude": "29.944203789132395",
      "longitude": "-90.11447796078625"
    }
  },
  {
    "service_request": "2022-946206",
    "request_type": "Trash/Recycling",
    "request_reason": "Order Recycling Cart",
    "date_created": "2022-11-23T14:26:04.000",
    "date_modified": "2022-11-23T14:26:04.000",
    "request_status": "Pending",
    "responsible_agency": "Department of Sanitation",
    "final_address": "1039 Louisa St",
    "address_councildis": "C",
    "status": "Pending",
    "rowid": "946206",
    "final_x": "3689583.36284",
    "final_y": "535725.027271",
    "longitude": "-90.04239646066863",
    "latitude": "29.966810138537507",
    "geocoded_column": {
      "latitude": "29.966810138537507",
      "longitude": "-90.04239646066863"
    }
  },
  {
    "service_request": "2022-946205",
    "request_type": "Trash/Recycling",
    "request_reason": "Missed Trash Pick-Up",
    "date_created": "2022-11-23T14:17:09.000",
    "date_modified": "2022-11-23T14:17:10.000",
    "request_status": "Pending",
    "responsible_agency": "Department of Sanitation",
    "final_address": "4851 Evangeline Dr",
    "address_councildis": "E",
    "status": "Assigned to Contractor",
    "contractor": "Waste Pro",
    "rowid": "946205",
    "final_x": "3709098.21022",
    "final_y": "556477.056794",
    "longitude": "-89.97999517114921",
    "latitude": "30.02325139094855",
    "geocoded_column": {
      "latitude": "30.02325139094855",
      "longitude": "-89.97999517114921"
    }
  },
  {
    "service_request": "2022-946204",
    "request_type": "Trash/Recycling",
    "request_reason": "Missed Trash Pick-Up",
    "date_created": "2022-11-23T14:15:05.000",
    "date_modified": "2022-11-23T14:15:06.000",
    "request_status": "Pending",
    "responsible_agency": "Department of Sanitation",
    "final_address": "10901 Morrison Rd",
    "address_councildis": "E",
    "status": "Assigned to Contractor",
    "contractor": "Waste Pro",
    "rowid": "946204",
    "final_x": "3710752.20824",
    "final_y": "564858.67101",
    "longitude": "-89.97445486473423",
    "latitude": "30.046243680097923",
    "geocoded_column": {
      "latitude": "30.046243680097923",
      "longitude": "-89.97445486473423"
    }
  },
  {
    "service_request": "2022-946203",
    "request_type": "Trash/Recycling",
    "request_reason": "Repair Recycling Cart",
    "date_created": "2022-11-23T14:13:36.000",
    "date_modified": "2022-11-23T14:13:37.000",
    "request_status": "Pending",
    "responsible_agency": "Department of Sanitation",
    "final_address": "1812 S Rendon St",
    "address_councildis": "B",
    "status": "Pending",
    "rowid": "946203",
    "final_x": "3669495.5122",
    "final_y": "530478.047938",
    "longitude": "-90.10601152276895",
    "latitude": "29.952989682591888",
    "geocoded_column": {
      "latitude": "29.952989682591888",
      "longitude": "-90.10601152276895"
    }
  },
  {
    "service_request": "2022-946202",
    "request_type": "Trash/Recycling",
    "request_reason": "Repair Trash Cart",
    "date_created": "2022-11-23T14:12:42.000",
    "date_modified": "2022-11-23T14:12:43.000",
    "request_status": "Pending",
    "responsible_agency": "Department of Sanitation",
    "final_address": "1812 S Rendon St",
    "address_councildis": "B",
    "status": "Assigned to Contractor",
    "contractor": "Richards Disposal",
    "rowid": "946202",
    "final_x": "3669495.5122",
    "final_y": "530478.047938",
    "longitude": "-90.10601152276895",
    "latitude": "29.952989682591888",
    "geocoded_column": {
      "latitude": "29.952989682591888",
      "longitude": "-90.10601152276895"
    }
  },
  {
    "service_request": "2022-946201",
    "request_type": "Roads/Drainage",
    "request_reason": "Pothole",
    "date_created": "2022-11-23T14:08:25.000",
    "date_modified": "2022-11-23T14:08:25.000",
    "request_status": "Pending",
    "responsible_agency": "Department of Public Works",
    "final_address": "3129 Jefferson Ave",
    "address_councildis": "B",
    "status": "Pending",
    "rowid": "946201",
    "final_x": "3668597.80468",
    "final_y": "526838.441406",
    "longitude": "-90.10896889620489",
    "latitude": "29.943008358478135",
    "geocoded_column": {
      "latitude": "29.943008358478135",
      "longitude": "-90.10896889620489"
    }
  },