[
  {
    "service_request": "2023-998710",
    "request_type": "Traffic Signals/Signs/Striping/Streetlights",
    "request_reason": "Street Light Outage/Malfunction",
    "date_created": "2023-05-11T01:37:24.000",
    "date_modified": "2023-05-11T01:37:24.000",
    "request_status": "Pending",
    "responsible_agency": "Department of Public Works",
    "final_address": "914 Vallette St",
    "address_councildis": "C",
    "status": "Assigned to Contractor",
    "contractor": "Legacy Professional Services",
    "rowid": "998710",
    "final_x": "3687515.46876",
    "final_y": "528210.728384",
    "longitude": "-90.04919279236768",
    "latitude": "29.946212303849283",
    "geocoded_column": {
      "latitude": "29.946212303849283",
      "longitude": "-90.04919279236768"
    }
  },
  {
    "service_request": "2023-998709",
    "request_type": "Trash/Recycling",
    "request_reason": "Request a Large Item Pick Up",
    "date_created": "2023-05-10T23:56:56.000",
    "date_modified": "2023-05-10T23:56:57.000",
    "request_status": "Pending",
    "responsible_agency": "Department of Sanitation",
    "final_address": "5227 Lakeview Ct",
    "address_councildis": "E",
    "status": "Assigned to Contractor",
    "contractor": "Waste Pro",
    "rowid": "998709",
    "final_x": "3699140.54436",
    "final_y": "556629.27881",
    "longitude": "-90.0114535134275",
    "latitude": "30.02398956450945",
    "geocoded_column": {
      "latitude": "30.02398956450945",
      "longitude": "-90.0114535134275"
    }
  },
  {
    "service_request": "2023-998708",
    "request_type": "Trash/Recycling",
    "request_reason": "Request a Large Item Pick Up",
    "date_created": "2023-05-10T21:46:26.000",
    "date_modified": "2023-05-10T21:46:27.000",
    "request_status": "Pending",
    "responsible_agency": "Department of Sanitation",
    "final_address": "2332 Jefferson Ave",
    "address_councildis": "A",
    "status": "Assigned to Contractor",
    "contractor": "Richards Disposal",
    "rowid": "998708",
    "final_x": "3667911.02119",
    "final_y": "524261.608956",
    "longitude": "-90.11122401939735",
    "latitude": "29.9359430592205",
    "geocoded_column": {
      "latitude": "29.9359430592205",
      "longitude": "-90.11122401939735"
    }
  },
  {
    "service_request": "2023-998707",
    "request_type": "Safety & Permits",
    "request_reason": "Short term Rental (Enforcement)",
    "date_created": "2023-05-10T21:35:12.000",
    "date_modified": "2023-05-10T21:35:12.000",
    "request_status": "Pending",
    "responsible_agency": "Safety and Permits",
    "final_address": "1834 Frenchmen St",
    "address_councildis": "D",
    "status": "Pending",
    "rowid": "998707",
    "final_x": "3684327.33577",
    "final_y": "539144.193674",
    "longitude": "-90.05887485997403",
    "latitude": "29.976373433707767",
    "geocoded_column": {
      "latitude": "29.976373433707767",
      "longitude": "-90.05887485997403"
    }
  },
  {
    "service_request": "2023-998706",
    "request_type": "Roads/Drainage",
    "request_reason": "Catch Basin - Clogged",
    "date_created": "2023-05-10T21:19:44.000",
    "date_modified": "2023-05-10T21:19:44.000",
    "request_status": "Pending",
    "responsible_agency": "Department of Public Works",
    "final_address": "300 BLK Neil Ave",
    "address_councildis": "C",
    "status": "Pending",
    "rowid": "998706",
    "final_x": "3707331.81102",
    "final_y": "518738.26218",
    "longitude": "-89.98697769985353",
    "latitude": "29.919540839668112",
    "geocoded_column": {
      "latitude": "29.919540839668112",
      "longitude": "-89.98697769985353"
    }
  },
  {
    "service_request": "2023-998705",
    "request_type": "Roads/Drainage",
    "request_reason": "Drainage Issue (Catch Basins, Culverts, Ditches, and Manhole Covers)",
    "date_created": "2023-05-10T21:18:29.000",
    "date_modified": "2023-05-10T21:18:29.000",
    "request_status": "Pending",
    "responsible_agency": "Department of Public Works",
    "final_address": "6015 Milne Blvd",
    "address_councildis": "A",
    "status": "Pending",
    "rowid": "998705",
    "final_x": "3667105.63853",
    "final_y": "547568.298386",
    "longitude": "-90.11298299432832",
    "latitude": "30.000052306226408",
    "geocoded_column": {
      "latitude": "30.000052306226408",
      "longitude": "-90.11298299432832"
    }
  },
  {
    "service_request": "2023-998704",
    "request_type": "Roads/Drainage",
    "request_reason": "Drainage Issue (Catch Basins, Culverts, Ditches, and Manhole Covers)",
    "date_created": "2023-05-10T21:16:40.000",
    "date_modified": "2023-05-10T21:16:40.000",
    "request_status": "Pending",
    "responsible_agency": "Department of Public Works",
    "final_address": "6015 Milne Blvd",
    "address_councildis": "A",
    "status": "Pending",
    "rowid": "998704",
    "final_x": "3667105.63853",
    "final_y": "547568.298386",
    "longitude": "-90.11298299432832",
    "latitude": "30.000052306226408",
    "geocoded_column": {
      "latitude": "30.000052306226408",
      "longitude": "-90.11298299432832"
    }
  },
  {
    "service_request": "2023-998703",
    "request_type": "Abandoned Vehicles",
    "request_reason": "Vehicle Blocking Your Driveway",
    "date_created": "2023-05-10T21:08:04.000",
    "date_modified": "2023-05-10T21:08:04.000",
    "request_status": "Pending",
    "responsible_agency": "Department of Public Works",
    "final_address": "4116 S Derbigny St",
    "address_councildis": "B",
    "status": "Pending",
    "rowid": "998703",
    "final_x": "3671225.7634",
    "final_y": "526307.868094",
    "longitude": "-90.10068978777376",
    "latitude": "29.941471980835352",
    "geocoded_column": {
      "latitude": "29.941471980835352",
      "longitude": "-90.10068978777376"
    }
  },
  {
    "service_request": "2023-998702",
    "request_type": "Trash/Recycling",
    "request_reason": "Replace Recycling Cart",
    "date_created": "2023-05-10T20:29:47.000",
    "date_modified": "2023-05-10T20:29:47.000",
    "request_status": "Pending",
    "responsible_agency": "Department of Sanitation",
    "final_address": "2915 Broadway St",
    "address_councildis": "B",
    "status": "Pending",
    "rowid": "998702",
    "final_x": "3667602.52346",
    "final_y": "531662.589507",
    "longitude": "-90.11194890153254",
    "latitude": "29.956302400645303",
    "geocoded_column": {
      "latitude": "29.956302400645303",
      "longitude": "-90.11194890153254"
    }
  },
  {
    "service_request": "2023-998701",
    "request_type": "Trash/Recycling",
    "request_reason": "Missed Trash Pick-Up",
    "date_created": "2023-05-10T20:29:03.000",
    "date_modified": "2023-05-10T20:29:03.000",
    "request_status": "Pending",
    "responsible_agency": "Department of Sanitation",
    "final_address": "931 Fats Domino Ave",
    "address_councildis": "E",
    "status": "Assigned to Contractor",
    "contractor": "Waste Pro",
    "rowid": "998701",
    "final_x": "3697938.54954",
    "final_y": "533236.147332",
    "longitude": "-90.01610130606541",
    "latitude": "29.95970512949963",
    "geocoded_column": {
      "latitude": "29.95970512949963",
      "longitude": "-90.01610130606541"
    }
  },
  {
    "service_request": "2023-998700",
    "request_type": "Trash/Recycling",
    "request_reason": "Missed Trash Pick-Up",
    "date_created": "2023-05-10T20:18:26.000",
    "date_modified": "2023-05-10T20:18:27.000",
    "request_status": "Pending",
    "responsible_agency": "Department of Sanitation",
    "final_address": "4601 Corinne St",
    "address_councildis": "E",
    "status": "Assigned to Contractor",
    "contractor": "Waste Pro",
    "rowid": "998700",
    "final_x": "3715206.14418",
    "final_y": "556170.715098",
    "longitude": "-89.96070722703887",
    "latitude": "30.022209300116703",
    "geocoded_column": {
      "latitude": "30.022209300116703",
      "longitude": "-89.96070722703887"
    }
  },
  {
    "service_request": "2023-998699",
    "request_type": "Roads/Drainage",
    "request_reason": "Mud covering the street",
    "date_created": "2023-05-10T20:09:50.000",
    "date_modified": "2023-05-10T20:09:50.000",
    "request_status": "Pending",
    "responsible_agency": "Department of Public Works",
    "final_address": "1029 Port St",
    "address_councildis": "C",
    "status": "Pending",
    "rowid": "998699",
    "final_x": "3687396.0767",
    "final_y": "536185.994503",
    "longitude": "-90.04928757534358",
    "latitude": "29.968145215056435",
    "geocoded_column": {
      "latitude": "29.968145215056435",
      "longitude": "-90.04928757534358"
    }
  },
  {
    "service_request": "2023-998698",
    "request_type": "Roads/Drainage",
    "request_reason": "Mud covering the street",
    "date_created": "2023-05-10T20:08:35.000",
    "date_modified": "2023-05-10T20:08:35.000",
    "request_status": "Pending",
    "responsible_agency": "Department of Public Works",
    "final_address": "1029 Port St",
    "address_councildis": "C",
    "status": "Pending",
    "rowid": "998698",
    "final_x": "3687396.0767",
    "final_y": "536185.994503",
    "longitude": "-90.04928757534358",
    "latitude": "29.968145215056435",
    "geocoded_column": {
      "latitude": "29.968145215056435",
      "longitude": "-90.04928757534358"
    }
  },
  {
    "service_request": "2023-998697",
    "request_type": "Roads/Drainage",
    "request_reason": "Pothole",
    "date_created": "2023-05-10T20:08:14.000",
    "date_modified": "2023-05-10T20:08:14.000",
    "request_status": "Pending",
    "responsible_agency": "Department of Public Works",
    "final_address": "1500 BLK Adams St",
    "address_councildis": "A",
    "status": "Pending",
    "rowid": "998697",
    "final_x": "3663879.76669",
    "final_y": "528288.69321",
    "longitude": "-90.12381663240991",
    "latitude": "29.947133863429766",
    "geocoded_column": {
      "latitude": "29.947133863429766",
      "longitude": "-90.12381663240991"
    }
  },
  {
    "service_request": "2023-998696",
    "request_type": "Property Maintenance",
    "request_reason": "Property Maintenance",
    "date_created": "2023-05-10T19:59:45.000",
    "date_modified": "2023-05-10T19:59:45.000",
    "request_status": "Pending",
    "responsible_agency": "Department of Code Enforcement",
    "final_address": "516 Josephine St",
    "address_councildis": "B",
    "status": "Pending",
    "rowid": "998696",
    "final_x": "3680410.20655",
    "final_y": "520632.44876",
    "longitude": "-90.07188996996925",
    "latitude": "29.925591581529062",
    "geocoded_column": {
      "latitude": "29.925591581529062",
      "longitude": "-90.07188996996925"
    }
  },
  {
    "service_request": "2023-998695",
    "request_type": "Property Maintenance",
    "request_reason": "Property Maintenance",
    "date_created": "2023-05-10T19:53:57.000",
    "date_modified": "2023-05-10T19:53:57.000",
    "request_status": "Pending",
    "responsible_agency": "Department of Code Enforcement",
    "final_address": "511 Jackson Ave",
    "address_councildis": "B",
    "status": "Pending",
    "rowid": "998695",
    "final_x": "3680174.4381",
    "final_y": "520445.8862",
    "longitude": "-90.07264069810714",
    "latitude": "29.925085730265863",
    "geocoded_column": {
      "latitude": "29.925085730265863",
      "longitude": "-90.07264069810714"
    }
  },
  {
    "service_request": "2023-998693",
    "request_type": "Trash/Recycling",
    "request_reason": "Repair Trash Cart",
    "date_created": "2023-05-10T19:25:09.000",
    "date_modified": "2023-05-10T19:25:09.000",
    "request_status": "Pending",
    "responsible_agency": "Department of Sanitation",
    "final_address": "334 Broadway St",
    "address_councildis": "A",
    "status": "Assigned to Contractor",
    "contractor": "Richards Disposal",
    "rowid": "998693",
    "final_x": "3661585.68838",
    "final_y": "522741.624698",
    "longitude": "-90.13124367637386",
    "latitude": "29.931947568263265",
    "geocoded_column": {
      "latitude": "29.931947568263265",
      "longitude": "-90.13124367637386"
    }
  },
  {
    "service_request": "2023-998692",
    "request_type": "Mosquito, Termite & Rodent Control",
    "request_reason": "Non-Rodent Complaint (Mice, Possums, Snakes)",
    "date_created": "2023-05-10T19:02:13.000",
    "date_modified": "2023-05-10T19:02:13.000",
    "request_status": "Pending",
    "responsible_agency": "Mosquito, Termite & Rodent Control Board",
    "final_address": "8 Eugenie Ct",
    "address_councildis": "C",
    "status": "Pending",
    "rowid": "998692",
    "final_x": "3700428.93418",
    "final_y": "511765.689904",
    "longitude": "-90.00902087532002",
    "latitude": "29.900589844708975",
    "geocoded_column": {
      "latitude": "29.900589844708975",
      "longitude": "-90.00902087532002"
    }
  },
  {
    "service_request": "2023-998691",
    "request_type": "Trash/Recycling",
    "request_reason": "MIssed Recycling Pick-Up",
    "date_created": "2023-05-10T18:54:29.000",
    "date_modified": "2023-05-10T18:54:30.000",
    "request_status": "Pending",
    "responsible_agency": "Department of Sanitation",
    "final_address": "2233 Washington Ave",
    "address_councildis": "B",
    "status": "Assigned to Contractor",
    "contractor": "Richards Disposal",
    "rowid": "998691",
    "final_x": "3674625.65736",
    "final_y": "524567.716476",
    "longitude": "-90.09001525431059",
    "latitude": "29.936586127445302",
    "geocoded_column": {
      "latitude": "29.936586127445302",
      "longitude": "-90.09001525431059"
    }
  },
  {
    "service_request": "2023-998689",
    "request_type": "Parks & Parkways",
    "request_reason": "Request Tree Service (Right of Way/Public Property)",
    "date_created": "2023-05-10T18:41:25.000",
    "date_modified": "2023-05-10T18:41:25.000",
    "request_status": "Pending",
    "responsible_agency": "Department of Parks & Parkway",
    "final_address": "5334 Tullis Dr",
    "address_councildis": "C",
    "status": "Pending",
    "rowid": "998689",
    "final_x": "3703548.15486",
    "final_y": "511979.035952",
    "longitude": "-89.99916915066947",
    "latitude": "29.901076978296985",
    "geocoded_column": {
      "latitude": "29.901076978296985",
      "longitude": "-89.99916915066947"
    }
  },
  {
    "service_request": "2023-998688",
    "request_type": "Trash/Recycling",
    "request_reason": "Request a Large Item Pick Up",
    "date_created": "2023-05-10T18:39:49.000",
    "date_modified": "2023-05-10T18:39:50.000",
    "request_status": "Pending",
    "responsible_agency": "Department of Sanitation",
    "final_address": "424 S Clark St",
    "address_councildis": "B",
    "status": "Assigned to Contractor",
    "contractor": "Richards Disposal",
    "rowid": "998688",
    "final_x": "3672019.82311",
    "final_y": "535830.823047",
    "longitude": "-90.0978586022843",
    "latitude": "29.967633443856453",
    "geocoded_column": {
      "latitude": "29.967633443856453",
      "longitude": "-90.0978586022843"
    }
  },
  {
    "service_request": "2023-998687",
    "request_type": "Trash/Recycling",
    "request_reason": "Replace Recycling Cart",
    "date_created": "2023-05-10T18:27:51.000",
    "date_modified": "2023-05-10T18:27:51.000",
    "request_status": "Pending",
    "responsible_agency": "Department of Sanitation",
    "final_address": "2027 Milan St",
    "address_councildis": "B",
    "status": "Pending",
    "rowid": "998687",
    "final_x": "3671475.94894",
    "final_y": "522634.737466",
    "longitude": "-90.10002472158145",
    "latitude": "29.931364657613248",
    "geocoded_column": {
      "latitude": "29.931364657613248",
      "longitude": "-90.10002472158145"
    }
  },
  {
    "service_request": "2023-998686",
    "request_type": "Roads/Drainage",
    "request_reason": "Street Subsidence (Sinking)",
    "date_created": "2023-05-10T18:23:32.000",
    "date_modified": "2023-05-10T18:23:32.000",
    "request_status": "Pending",
    "responsible_agency": "Department of Public Works",
    "final_address": "4802 Constance St",
    "address_councildis": "B",
    "status": "Pending",
    "rowid": "998686",
    "final_x": "3669586.51719",
    "final_y": "518235.30079",
    "longitude": "-90.10613818734679",
    "latitude": "29.919323390114982",
    "geocoded_column": {
      "latitude": "29.919323390114982",
      "longitude": "-90.10613818734679"
    }
  },
  {
    "service_request": "2023-998685",
    "request_type": "Trash/Recycling",
    "request_reason": "Illegal Dumping",
    "date_created": "2023-05-10T18:21:52.000",
    "date_modified": "2023-05-10T18:21:52.000",
    "request_status": "Pending",
    "responsible_agency": "Department of Sanitation",
    "final_address": "923 Nunez St",
    "address_councildis": "C",
    "status": "Pending",
    "rowid": "998685",
    "final_x": "3686903.88738",
    "final_y": "528062.896063",
    "longitude": "-90.05112898502138",
    "latitude": "29.945824647201132",
    "geocoded_column": {
      "latitude": "29.945824647201132",
      "longitude": "-90.05112898502138"
    }
  },
  {
    "service_request": "2023-998684",
    "request_type": "Property Maintenance",
    "request_reason": "Property Maintenance",
    "date_created": "2023-05-10T18:19:20.000",
    "date_modified": "2023-05-10T18:19:20.000",
    "request_status": "Pending",
    "responsible_agency": "Department of Code Enforcement",
    "final_address": "3533 S Liberty St",
    "address_councildis": "B",
    "status": "Pending",
    "rowid": "998684",
    "final_x": "3672561.85659",
    "final_y": "523643.558523",
    "longitude": "-90.09656226379872",
    "latitude": "29.93410640661636",
    "geocoded_column": {
      "latitude": "29.93410640661636",
      "longitude": "-90.09656226379872"
    }
  },
  {
    "service_request": "2023-998683",
    "request_type": "Trash/Recycling",
    "request_reason": "Missed Trash Pick-Up",
    "date_created": "2023-05-10T17:53:29.000",
    "date_modified": "2023-05-10T17:53:30.000",
    "request_status": "Pending",
    "responsible_agency": "Department of Sanitation",
    "final_address": "2312 Audubon St",
    "address_councildis": "A",
    "status": "Assigned to Contractor",
    "contractor": "Richards Disposal",
    "rowid": "998683",
    "final_x": "3666663.74497",
    "final_y": "529728.874945",
    "longitude": "-90.1149781855271",
    "latitude": "29.951012798098585",
    "geocoded_column": {
      "latitude": "29.951012798098585",
      "longitude": "-90.1149781855271"
    }
  },
  {
    "service_request": "2023-998682",
    "request_type": "Roads/Drainage",
    "request_reason": "Street Flooding / Drainage",
    "date_created": "2023-05-10T17:50:38.000",
    "date_modified": "2023-05-10T17:50:38.000",
    "request_status": "Pending",
    "responsible_agency": "Department of Public Works",
    "final_address": "208 Walnut St Apt A",
    "address_councildis": "A",
    "status": "Pending",
    "rowid": "998682",
    "final_x": "3661203.91725",
    "final_y": "521129.098809",
    "longitude": "-90.13250224304706",
    "latitude": "29.927524633972396",
    "geocoded_column": {
      "latitude": "29.927524633972396",
      "longitude": "-90.13250224304706"
    }
  },
  {
    "service_request": "2023-998680",
    "request_type": "Roads/Drainage",
    "request_reason": "Damaged Sidewalk",
    "date_created": "2023-05-10T17:45:08.000",
    "date_modified": "2023-05-10T17:45:08.000",
    "request_status": "Pending",
    "responsible_agency": "Department of Public Works",
    "final_address": "715 N Murat St",
    "address_councildis": "A",
    "status": "Pending",
    "rowid": "998680",
    "final_x": "3671051.96718",
    "final_y": "541236.561164",
    "longitude": "-90.10073148104026",
    "latitude": "29.982526054896482",
    "geocoded_column": {
      "latitude": "29.982526054896482",
      "longitude": "-90.10073148104026"
    }
  },
  {
    "service_request": "2023-998679",
    "request_type": "Abandoned Vehicles",
    "request_reason": "Abandoned/Junk Vehicles",
    "date_created": "2023-05-10T17:30:53.000",
    "date_modified": "2023-05-10T17:33:51.000",
    "request_status": "Pending",
    "responsible_agency": "Department of Public Works",
    "final_address": "7890 S Coronet Ct",
    "address_councildis": "E",
    "status": "Pending",
    "rowid": "998679",
    "final_x": "3703635.49777",
    "final_y": "557408.969435",
    "longitude": "-89.99722170155901",
    "latitude": "30.0259900634018",
    "geocoded_column": {
      "latitude": "30.0259900634018",
      "longitude": "-89.99722170155901"
    }
  },
  {
    "service_request": "2023-998678",
    "request_type": "Roads/Drainage",
    "request_reason": "Pothole",
    "date_created": "2023-05-10T17:27:11.000",
    "date_modified": "2023-05-10T17:27:12.000",
    "request_status": "Pending",
    "responsible_agency": "Department of Public Works",
    "final_address": "4108 S Claiborne Ave",
    "address_councildis": "B",
    "status": "Pending",
    "rowid": "998678",
    "final_x": "3671338.25787",
    "final_y": "525800.168893",
    "longitude": "-90.10035186789985",
    "latitude": "29.940072645070572",
    "geocoded_column": {
      "latitude": "29.940072645070572",
      "longitude": "-90.10035186789985"
    }
  },
  {
    "service_request": "2023-998676",
    "request_type": "Abandoned Vehicles",
    "request_reason": "Abandoned/Junk Vehicles",
    "date_created": "2023-05-10T17:23:13.000",
    "date_modified": "2023-05-10T17:23:13.000",
    "request_status": "Pending",
    "responsible_agency": "Department of Public Works",
    "final_address": "1225 St Ferdinand St",
    "address_councildis": "C",
    "status": "Pending",
    "rowid": "998676",
    "final_x": "3687893.47849",
    "final_y": "536861.439048",
    "longitude": "-90.04769283138789",
    "latitude": "29.969987115478734",
    "geocoded_column": {
      "latitude": "29.969987115478734",
      "longitude": "-90.04769283138789"
    }
  },
  {
    "service_request": "2023-998675",
    "request_type": "Roads/Drainage",
    "request_reason": "Catch Basin - Clogged",
    "date_created": "2023-05-10T17:20:59.000",
    "date_modified": "2023-05-10T17:20:59.000",
    "request_status": "Pending",
    "responsible_agency": "Department of Public Works",
    "final_address": "2640 Dreux Ave",
    "address_councildis": "D",
    "status": "Pending",
    "rowid": "998675",
    "final_x": "3687126.06582",
    "final_y": "552226.533846",
    "longitude": "-90.0495727388708",
    "latitude": "30.012259277592594",
    "geocoded_column": {
      "latitude": "30.012259277592594",
      "longitude": "-90.0495727388708"
    }
  },
  {
    "service_request": "2023-998673",
    "request_type": "Trash/Recycling",
    "request_reason": "Repair Trash Cart",
    "date_created": "2023-05-10T17:17:02.000",
    "date_modified": "2023-05-10T17:17:02.000",
    "request_status": "Pending",
    "responsible_agency": "Department of Sanitation",
    "final_address": "1036 City Park Ave",
    "address_councildis": "A",
    "status": "Assigned to Contractor",
    "contractor": "Richards Disposal",
    "rowid": "998673",
    "final_x": "3672804.91528",
    "final_y": "541501.878732",
    "longitude": "-90.09518573674775",
    "latitude": "29.983203621193166",
    "geocoded_column": {
      "latitude": "29.983203621193166",
      "longitude": "-90.09518573674775"
    }
  },
  {
    "service_request": "2023-998672",
    "request_type": "Parks & Parkways",
    "request_reason": "Request Tree Service (Right of Way/Public Property)",
    "date_created": "2023-05-10T17:16:05.000",
    "date_modified": "2023-05-10T17:16:05.000",
    "request_status": "Pending",
    "responsible_agency": "Department of Parks & Parkway",
    "final_address": "1864 N Salcedo St",
    "address_councildis": "A",
    "status": "Pending",
    "rowid": "998672",
    "final_x": "3677434.4251",
    "final_y": "543038.886861",
    "longitude": "-90.08051026487212",
    "latitude": "29.98729149711546",
    "geocoded_column": {
      "latitude": "29.98729149711546",
      "longitude": "-90.08051026487212"
    }
  },
  {
    "service_request": "2023-998671",
    "request_type": "Trash/Recycling",
    "request_reason": "Repair Trash Cart",
    "date_created": "2023-05-10T17:15:40.000",
    "date_modified": "2023-05-10T17:15:41.000",
    "request_status": "Pending",
    "responsible_agency": "Department of Sanitation",
    "final_address": "1036 City Park Ave",
    "address_councildis": "A",
    "status": "Assigned to Contractor",
    "contractor": "Richards Disposal",
    "rowid": "998671",
    "final_x": "3672804.91528",
    "final_y": "541501.878732",
    "longitude": "-90.09518573674775",
    "latitude": "29.983203621193166",
    "geocoded_column": {
      "latitude": "29.983203621193166",
      "longitude": "-90.09518573674775"
    }
  },
  {
    "service_request": "2023-998670",
    "request_type": "Trash/Recycling",
    "request_reason": "Repair Trash Cart",
    "date_created": "2023-05-10T17:14:13.000",
    "date_modified": "2023-05-10T17:14:14.000",
    "request_status": "Pending",
    "responsible_agency": "Department of Sanitation",
    "final_address": "1036 City Park Ave",
    "address_councildis": "A",
    "status": "Assigned to Contractor",
    "contractor": "Richards Disposal",
    "rowid": "998670",
    "final_x": "3672804.91528",
    "final_y": "541501.878732",
    "longitude": "-90.09518573674775",
    "latitude": "29.983203621193166",
    "geocoded_column": {
      "latitude": "29.983203621193166",
      "longitude": "-90.09518573674775"
    }
  },
  {
    "service_request": "2023-998669",
    "request_type": "Trash/Recycling",
    "request_reason": "Request a Large Item Pick Up",
    "date_created": "2023-05-10T17:13:41.000",
    "date_modified": "2023-05-10T17:13:42.000",
    "request_status": "Pending",
    "responsible_agency": "Department of Sanitation",
    "final_address": "3429 Fern St",
    "address_councildis": "B",
    "status": "Assigned to Contractor",
    "contractor": "Richards Disposal",
    "rowid": "998669",
    "final_x": "3668025.68698",
    "final_y": "533799.248197",
    "longitude": "-90.11054068861405",
    "latitude": "29.962165098671267",
    "geocoded_column": {
      "latitude": "29.962165098671267",
      "longitude": "-90.11054068861405"
    }
  },
  {
    "service_request": "2023-998668",
    "request_type": "Trash/Recycling",
    "request_reason": "Request a Large Item Pick Up",
    "date_created": "2023-05-10T17:07:42.000",
    "date_modified": "2023-05-10T17:07:42.000",
    "request_status": "Pending",
    "responsible_agency": "Department of Sanitation",
    "final_address": "7160 Edgefield Dr",
    "address_councildis": "E",
    "status": "Assigned to Contractor",
    "contractor": "Waste Pro",
    "rowid": "998668",
    "final_x": "3718291.53913",
    "final_y": "569683.056422",
    "longitude": "-89.95044298258121",
    "latitude": "30.059260749424876",
    "geocoded_column": {
      "latitude": "30.059260749424876",
      "longitude": "-89.95044298258121"
    }
  },
  {
    "service_request": "2023-998667",
    "request_type": "Roads/Drainage",
    "request_reason": "Catch Basin - Clogged",
    "date_created": "2023-05-10T17:06:03.000",
    "date_modified": "2023-05-10T17:06:03.000",
    "request_status": "Pending",
    "responsible_agency": "Department of Public Works",
    "final_address": "4350 Wellington Ave",
    "address_councildis": "D",
    "status": "Pending",
    "rowid": "998667",
    "final_x": "3677150.58997",
    "final_y": "548461.972754",
    "longitude": "-90.08121961685012",
    "latitude": "30.002211609038202",
    "geocoded_column": {
      "latitude": "30.002211609038202",
      "longitude": "-90.08121961685012"
    }
  },
  {
    "service_request": "2023-998666",
    "request_type": "Trash/Recycling",
    "request_reason": "Missed Trash Pick-Up",
    "date_created": "2023-05-10T16:52:06.000",
    "date_modified": "2023-05-10T16:52:06.000",
    "request_status": "Pending",
    "responsible_agency": "Department of Sanitation",
    "final_address": "8451 Aberdeen Rd",
    "address_councildis": "E",
    "status": "Assigned to Contractor",
    "contractor": "Waste Pro",
    "rowid": "998666",
    "final_x": "3703854.73028",
    "final_y": "561937.428895",
    "longitude": "-89.9963619985466",
    "latitude": "30.03843452893687",
    "geocoded_column": {
      "latitude": "30.03843452893687",
      "longitude": "-89.9963619985466"
    }
  },
  {
    "service_request": "2023-998665",
    "request_type": "Trash/Recycling",
    "request_reason": "Order Recycling Cart",
    "date_created": "2023-05-10T16:51:16.000",
    "date_modified": "2023-05-10T16:51:17.000",
    "request_status": "Pending",
    "responsible_agency": "Department of Sanitation",
    "final_address": "7430 Burke Ave",
    "address_councildis": "E",
    "status": "Pending",
    "rowid": "998665",
    "final_x": "3705772.94411",
    "final_y": "562263.231007",
    "longitude": "-89.99028791410657",
    "latitude": "30.039268675107483",
    "geocoded_column": {
      "latitude": "30.039268675107483",
      "longitude": "-89.99028791410657"
    }
  },
  {
    "service_request": "2023-998664",
    "request_type": "Trash/Recycling",
    "request_reason": "Dead Animal Pick Up",
    "date_created": "2023-05-10T16:51:01.000",
    "date_modified": "2023-05-10T16:51:32.000",
    "request_status": "Pending",
    "responsible_agency": "Department of Sanitation",
    "final_address": "12301 Six Flags Prkwy",
    "address_councildis": "E",
    "status": "Assigned to Contractor",
    "contractor": "Waste Pro",
    "rowid": "998664",
    "final_x": "3723545.58534",
    "final_y": "567766.645412",
    "longitude": "-89.93390954575591",
    "latitude": "30.05381602307878",
    "geocoded_column": {
      "latitude": "30.05381602307878",
      "longitude": "-89.93390954575591"
    }
  },
  {
    "service_request": "2023-998663",
    "request_type": "Trash/Recycling",
    "request_reason": "Missed Trash Pick-Up",
    "date_created": "2023-05-10T16:48:32.000",
    "date_modified": "2023-05-10T16:48:32.000",
    "request_status": "Pending",
    "responsible_agency": "Department of Sanitation",
    "final_address": "6410 General Haig St",
    "address_councildis": "A",
    "status": "Assigned to Contractor",
    "contractor": "IV Waste",
    "rowid": "998663",
    "final_x": "3670712.59393",
    "final_y": "549972.6173",
    "longitude": "-90.10150675823077",
    "latitude": "30.00655722216863",
    "geocoded_column": {
      "latitude": "30.00655722216863",
      "longitude": "-90.10150675823077"
    }
  },
  {
    "service_request": "2023-998662",
    "request_type": "Trash/Recycling",
    "request_reason": "Request a Large Item Pick Up",
    "date_created": "2023-05-10T16:43:42.000",
    "date_modified": "2023-05-10T16:43:43.000",
    "request_status": "Pending",
    "responsible_agency": "Department of Sanitation",
    "final_address": "2339 Lafreniere St",
    "address_councildis": "D",
    "status": "Assigned to Contractor",
    "contractor": "IV Waste",
    "rowid": "998662",
    "final_x": "3685328.62114",
    "final_y": "545671.697808",
    "longitude": "-90.05548259654232",
    "latitude": "29.994291098322243",
    "geocoded_column": {
      "latitude": "29.994291098322243",
      "longitude": "-90.05548259654232"
    }
  },
  {
    "service_request": "2023-998661",
    "request_type": "Parks & Parkways",
    "request_reason": "Request Tree Service (Right of Way/Public Property)",
    "date_created": "2023-05-10T16:43:33.000",
    "date_modified": "2023-05-10T16:43:34.000",
    "request_status": "Pending",
    "responsible_agency": "Department of Parks & Parkway",
    "final_address": "1491 Granada Dr",
    "address_councildis": "D",
    "status": "Pending",
    "rowid": "998661",
    "final_x": "3678496.65928",
    "final_y": "550710.922901",
    "longitude": "-90.0768893182766",
    "latitude": "30.008354906198434",
    "geocoded_column": {
      "latitude": "30.008354906198434",
      "longitude": "-90.0768893182766"
    }
  },
  {
    "service_request": "2023-998660",
    "request_type": "Roads/Drainage",
    "request_reason": "Leaking Hydrant",
    "date_created": "2023-05-10T16:42:38.000",
    "date_modified": "2023-05-10T16:44:46.000",
    "request_status": "Pending",
    "responsible_agency": "Department of Public Works",
    "final_address": "New Orleans,LA",
    "address_councildis": "B",
    "rowid": "998660",
    "final_x": "3671890.39835",
    "final_y": "535717.196295",
    "longitude": "-90.09827119745249",
    "latitude": "29.967324844934616",
    "geocoded_column": {
      "latitude": "29.967324844934616",
      "longitude": "-90.09827119745249"
    }
  },
  {
    "service_request": "2023-998659",
    "request_type": "Trash/Recycling",
    "request_reason": "Request a Large Item Pick Up",
    "date_created": "2023-05-10T16:41:05.000",
    "date_modified": "2023-05-10T16:41:06.000",
    "request_status": "Pending",
    "responsible_agency": "Department of Sanitation",
    "final_address": "7812 St Charles Ave",
    "address_councildis": "A",
    "status": "Assigned to Contractor",
    "contractor": "Richards Disposal",
    "rowid": "998659",
    "final_x": "3661275.93709",
    "final_y": "526101.01395",
    "longitude": "-90.13211035537171",
    "latitude": "29.94119376046885",
    "geocoded_column": {
      "latitude": "29.94119376046885",
      "longitude": "-90.13211035537171"
    }
  },
  {
    "service_request": "2023-998658",
    "request_type": "Roads/Drainage",
    "request_reason": "Pothole",
    "date_created": "2023-05-10T16:39:28.000",
    "date_modified": "2023-05-10T16:39:28.000",
    "request_status": "Pending",
    "responsible_agency": "Department of Public Works",
    "final_address": "3410 Allen St",
    "address_councildis": "D",
    "status": "Pending",
    "rowid": "998658",
    "final_x": "3681981.00725",
    "final_y": "545051.333647",
    "longitude": "-90.06607893069277",
    "latitude": "29.99268754433676",
    "geocoded_column": {
      "latitude": "29.99268754433676",
      "longitude": "-90.06607893069277"
    }
  },
  {
    "service_request": "2023-998657",
    "request_type": "Trash/Recycling",
    "request_reason": "MIssed Recycling Pick-Up",
    "date_created": "2023-05-10T16:37:42.000",
    "date_modified": "2023-05-10T16:37:43.000",
    "request_status": "Pending",
    "responsible_agency": "Department of Sanitation",
    "final_address": "717 Antonine St, New Orleans, Louisiana, 70115",
    "address_councildis": "B",
    "status": "Assigned to Contractor",
    "contractor": "Richards Disposal",
    "rowid": "998657",
    "final_x": "3674352.20654",
    "final_y": "517952.924406",
    "longitude": "-90.09110494997314",
    "latitude": "29.918405740116842",
    "geocoded_column": {
      "latitude": "29.918405740116842",
      "longitude": "-90.09110494997314"
    }
  },
  {
    "service_request": "2023-998656",
    "request_type": "Trash/Recycling",
    "request_reason": "Request a Large Item Pick Up",
    "date_created": "2023-05-10T16:36:00.000",
    "date_modified": "2023-05-10T16:36:01.000",
    "request_status": "Pending",
    "responsible_agency": "Department of Sanitation",
    "final_address": "5613 N Villere St",
    "address_councildis": "E",
    "status": "Assigned to Contractor",
    "contractor": "Waste Pro",
    "rowid": "998656",
    "final_x": "3698479.05207",
    "final_y": "534893.31303",
    "longitude": "-90.01433429450884",
    "latitude": "29.964244649031198",
    "geocoded_column": {
      "latitude": "29.964244649031198",
      "longitude": "-90.01433429450884"
    }
  },
  {
    "service_request": "2023-998655",
    "request_type": "Trash/Recycling",
    "request_reason": "Request a Large Item Pick Up",
    "date_created": "2023-05-10T16:35:21.000",
    "date_modified": "2023-05-10T16:35:22.000",
    "request_status": "Pending",
    "responsible_agency": "Department of Sanitation",
    "final_address": "1319 Lamanche St",
    "address_councildis": "E",
    "status": "Assigned to Contractor",
    "contractor": "Waste Pro",
    "rowid": "998655",
    "final_x": "3698646.07735",
    "final_y": "534584.521669",
    "longitude": "-90.01381807512259",
    "latitude": "29.963390295306056",
    "geocoded_column": {
      "latitude": "29.963390295306056",
      "longitude": "-90.01381807512259"
    }
  },
  {
    "service_request": "2023-998653",
    "request_type": "Trash/Recycling",
    "request_reason": "Request a Large Item Pick Up",
    "date_created": "2023-05-10T16:32:37.000",
    "date_modified": "2023-05-10T16:32:38.000",
    "request_status": "Pending",
    "responsible_agency": "Department of Sanitation",
    "final_address": "640 Desire St",
    "address_councildis": "C",
    "status": "Assigned to Contractor",
    "contractor": "IV Waste",
    "rowid": "998653",
    "final_x": "3689756.42895",
    "final_y": "534178.099589",
    "longitude": "-90.04190497891697",
    "latitude": "29.962551265797355",
    "geocoded_column": {
      "latitude": "29.962551265797355",
      "longitude": "-90.04190497891697"
    }
  },
  {
    "service_request": "2023-998652",
    "request_type": "Abandoned Vehicles",
    "request_reason": "Abandoned/Junk Vehicles",
    "date_created": "2023-05-10T16:29:10.000",
    "date_modified": "2023-05-10T16:29:10.000",
    "request_status": "Pending",
    "responsible_agency": "Department of Public Works",
    "final_address": "251 Belleville St",
    "address_councildis": "C",
    "status": "Pending",
    "rowid": "998652",
    "final_x": "3687857.67324",
    "final_y": "531024.253378",
    "longitude": "-90.04801269121403",
    "latitude": "29.9539379846844",
    "geocoded_column": {
      "latitude": "29.9539379846844",
      "longitude": "-90.04801269121403"
    }
  },
  {
    "service_request": "2023-998651",
    "request_type": "Trash/Recycling",
    "request_reason": "Order Recycling Cart",
    "date_created": "2023-05-10T16:19:04.000",
    "date_modified": "2023-05-10T16:19:05.000",
    "request_status": "Pending",
    "responsible_agency": "Department of Sanitation",
    "final_address": "13051 Calais St",
    "address_councildis": "E",
    "status": "Pending",
    "rowid": "998651",
    "final_x": "3724200.93017",
    "final_y": "560558.34659",
    "longitude": "-89.93211680551508",
    "latitude": "30.033974161720778",
    "geocoded_column": {
      "latitude": "30.033974161720778",
      "longitude": "-89.93211680551508"
    }
  },
  {
    "service_request": "2023-998650",
    "request_type": "Trash/Recycling",
    "request_reason": "Replace Trash Cart",
    "date_created": "2023-05-10T16:17:19.000",
    "date_modified": "2023-05-10T16:18:37.000",
    "request_status": "Pending",
    "responsible_agency": "Department of Sanitation",
    "final_address": "2618 Josephine St",
    "address_councildis": "B",
    "status": "Assigned to Contractor",
    "contractor": "Richards Disposal",
    "rowid": "998650",
    "final_x": "3675592.20488",
    "final_y": "526906.00051",
    "longitude": "-90.08688351782043",
    "latitude": "29.942986767802573",
    "geocoded_column": {
      "latitude": "29.942986767802573",
      "longitude": "-90.08688351782043"
    }
  },
  {
    "service_request": "2023-998649",
    "request_type": "Trash/Recycling",
    "request_reason": "Request a Large Item Pick Up",
    "date_created": "2023-05-10T16:17:07.000",
    "date_modified": "2023-05-10T16:17:08.000",
    "request_status": "Pending",
    "responsible_agency": "Department of Sanitation",
    "final_address": "710 Burdette St",
    "address_councildis": "A",
    "status": "Assigned to Contractor",
    "contractor": "Richards Disposal",
    "rowid": "998649",
    "final_x": "3661688.77869",
    "final_y": "526456.236734",
    "longitude": "-90.13079516030061",
    "latitude": "29.94215860334788",
    "geocoded_column": {
      "latitude": "29.94215860334788",
      "longitude": "-90.13079516030061"
    }
  },
  {
    "service_request": "2023-998648",
    "request_type": "Trash/Recycling",
    "request_reason": "Missed Trash Pick-Up",
    "date_created": "2023-05-10T16:13:24.000",
    "date_modified": "2023-05-10T16:13:25.000",
    "request_status": "Pending",
    "responsible_agency": "Department of Sanitation",
    "final_address": "3630 Toledano St",
    "address_councildis": "B",
    "status": "Assigned to Contractor",
    "contractor": "Richards Disposal",
    "rowid": "998648",
    "final_x": "3671512.37364",
    "final_y": "528751.11936",
    "longitude": "-90.09970185251366",
    "latitude": "29.948181642428704",
    "geocoded_column": {
      "latitude": "29.948181642428704",
      "longitude": "-90.09970185251366"
    }
  },
  {
    "service_request": "2023-998647",
    "request_type": "Trash/Recycling",
    "request_reason": "Request a Large Item Pick Up",
    "date_created": "2023-05-10T16:13:17.000",
    "date_modified": "2023-05-10T16:13:18.000",
    "request_status": "Pending",
    "responsible_agency": "Department of Sanitation",
    "final_address": "3140 St Ann St",
    "address_councildis": "A",
    "status": "Assigned to Contractor",
    "contractor": "Richards Disposal",
    "rowid": "998647",
    "final_x": "3675183.14485",
    "final_y": "538489.905545",
    "longitude": "-90.08777746200244",
    "latitude": "29.97485085287875",
    "geocoded_column": {
      "latitude": "29.97485085287875",
      "longitude": "-90.08777746200244"
    }
  },
  {
    "service_request": "2023-998646",
    "request_type": "Trash/Recycling",
    "request_reason": "Request a Large Item Pick Up",
    "date_created": "2023-05-10T16:12:34.000",
    "date_modified": "2023-05-10T16:12:52.000",
    "request_status": "Pending",
    "responsible_agency": "Department of Sanitation",
    "final_address": "2858 Chestnut St",
    "address_councildis": "B",
    "status": "Assigned to Contractor",
    "contractor": "Richards Disposal",
    "rowid": "998646",
    "final_x": "3676308.80769",
    "final_y": "521156.164921",
    "longitude": "-90.08481882889659",
    "latitude": "29.927155147057988",
    "geocoded_column": {
      "latitude": "29.927155147057988",
      "longitude": "-90.08481882889659"
    }
  },
  {
    "service_request": "2023-998645",
    "request_type": "Roads/Drainage",
    "request_reason": "Catch Basin - Clogged",
    "date_created": "2023-05-10T16:10:23.000",
    "date_modified": "2023-05-10T16:10:23.000",
    "request_status": "Pending",
    "responsible_agency": "Department of Public Works",
    "final_address": "104 Liberty Terrace Dr",
    "address_councildis": "D",
    "status": "Pending",
    "rowid": "998645",
    "final_x": "3689491.97033",
    "final_y": "545381.228816",
    "longitude": "-90.04234150567703",
    "latitude": "29.9933640904693",
    "geocoded_column": {
      "latitude": "29.9933640904693",
      "longitude": "-90.04234150567703"
    }
  },
  {
    "service_request": "2023-998644",
    "request_type": "Roads/Drainage",
    "request_reason": "Construction debris",
    "date_created": "2023-05-10T16:09:50.000",
    "date_modified": "2023-05-10T16:09:50.000",
    "request_status": "Pending",
    "responsible_agency": "Department of Public Works",
    "final_address": "1767 N Tonti St",
    "address_councildis": "D",
    "status": "Pending",
    "rowid": "998644",
    "final_x": "3681114.99221",
    "final_y": "540479.494027",
    "longitude": "-90.06897386587184",
    "latitude": "29.980142897305015",
    "geocoded_column": {
      "latitude": "29.980142897305015",
      "longitude": "-90.06897386587184"
    }
  },
  {
    "service_request": "2023-998643",
    "request_type": "Trash/Recycling",
    "request_reason": "Dead Animal Pick Up",
    "date_created": "2023-05-10T16:07:04.000",
    "date_modified": "2023-05-10T16:07:05.000",
    "request_status": "Pending",
    "responsible_agency": "Department of Sanitation",
    "final_address": "2929 Kabel Dr",
    "address_councildis": "C",
    "status": "Assigned to Contractor",
    "contractor": "Richards Disposal",
    "rowid": "998643",
    "final_x": "3700575.60957",
    "final_y": "520395.240824",
    "longitude": "-90.00824304180405",
    "latitude": "29.924313516086716",
    "geocoded_column": {
      "latitude": "29.924313516086716",
      "longitude": "-90.00824304180405"
    }
  },
  {
    "service_request": "2023-998642",
    "request_type": "Trash/Recycling",
    "request_reason": "Replace Trash Cart",
    "date_created": "2023-05-10T16:01:37.000",
    "date_modified": "2023-05-10T16:01:38.000",
    "request_status": "Pending",
    "responsible_agency": "Department of Sanitation",
    "final_address": "1132 N Gayoso St",
    "address_councildis": "A",
    "status": "Assigned to Contractor",
    "contractor": "Richards Disposal",
    "rowid": "998642",
    "final_x": "3676665.28053",
    "final_y": "539185.518218",
    "longitude": "-90.08307252853405",
    "latitude": "29.976719165719885",
    "geocoded_column": {
      "latitude": "29.976719165719885",
      "longitude": "-90.08307252853405"
    }
  },
  {
    "service_request": "2023-998641",
    "request_type": "Traffic Signals/Signs/Striping/Streetlights",
    "request_reason": "Traffic Signal Malfunctioning/Damaged",
    "date_created": "2023-05-10T15:57:38.000",
    "date_modified": "2023-05-10T15:57:38.000",
    "request_status": "Pending",
    "responsible_agency": "Department of Public Works",
    "final_address": "3000 BLK Jefferson Ave",
    "address_councildis": "B",
    "status": "Pending",
    "rowid": "998641",
    "final_x": "3668484.9563",
    "final_y": "526476.684367",
    "longitude": "-90.10933738792008",
    "latitude": "29.94201695875765",
    "geocoded_column": {
      "latitude": "29.94201695875765",
      "longitude": "-90.10933738792008"
    }
  },
  {
    "service_request": "2023-998640",
    "request_type": "Traffic Signals/Signs/Striping/Streetlights",
    "request_reason": "Street Light Outage/Malfunction",
    "date_created": "2023-05-10T15:57:01.000",
    "date_modified": "2023-05-10T15:57:02.000",
    "request_status": "Pending",
    "responsible_agency": "Department of Public Works",
    "final_address": "6238 Memphis St",
    "address_councildis": "A",
    "status": "Assigned to Contractor",
    "contractor": "Legacy Professional Services",
    "rowid": "998640",
    "final_x": "3669268.51911",
    "final_y": "548886.437523",
    "longitude": "-90.10610572698643",
    "latitude": "30.00361321446988",
    "geocoded_column": {
      "latitude": "30.00361321446988",
      "longitude": "-90.10610572698643"
    }
  },
  {
    "service_request": "2023-998639",
    "request_type": "Trash/Recycling",
    "request_reason": "Replace Trash Cart",
    "date_created": "2023-05-10T15:56:36.000",
    "date_modified": "2023-05-10T15:56:37.000",
    "request_status": "Pending",
    "responsible_agency": "Department of Sanitation",
    "final_address": "1132 N Gayoso St",
    "address_councildis": "A",
    "status": "Assigned to Contractor",
    "contractor": "Richards Disposal",
    "rowid": "998639",
    "final_x": "3676665.28053",
    "final_y": "539185.518218",
    "longitude": "-90.08307252853405",
    "latitude": "29.976719165719885",
    "geocoded_column": {
      "latitude": "29.976719165719885",
      "longitude": "-90.08307252853405"
    }
  },
  {
    "service_request": "2023-998638",
    "request_type": "Trash/Recycling",
    "request_reason": "Request a Large Item Pick Up",
    "date_created": "2023-05-10T15:56:20.000",
    "date_modified": "2023-05-10T15:56:21.000",
    "request_status": "Pending",
    "responsible_agency": "Department of Sanitation",
    "final_address": "1409 Saint Mary St, New Orleans, Louisiana, 70130",
    "status": "Assigned to Contractor",
    "rowid": "998638",
    "longitude": "0.0",
    "latitude": "0.0",
    "geocoded_column": {
      "latitude": "0.0",
      "longitude": "0.0"
    }
  },
  {
    "service_request": "2023-998636",
    "request_type": "Trash/Recycling",
    "request_reason": "Request a Large Item Pick Up",
    "date_created": "2023-05-10T15:43:58.000",
    "date_modified": "2023-05-10T15:43:58.000",
    "request_status": "Pending",
    "responsible_agency": "Department of Sanitation",
    "final_address": "4323 Downman Rd",
    "address_councildis": "D",
    "status": "Assigned to Contractor",
    "contractor": "Waste Pro",
    "rowid": "998636",
    "final_x": "3696207.92855",
    "final_y": "553046.302999",
    "longitude": "-90.02084964972676",
    "latitude": "30.014230432858835",
    "geocoded_column": {
      "latitude": "30.014230432858835",
      "longitude": "-90.02084964972676"
    }
  },
  {
    "service_request": "2023-998635",
    "request_type": "Traffic Signals/Signs/Striping/Streetlights",
    "request_reason": "Traffic Sign Missing/Damaged",
    "date_created": "2023-05-10T15:35:41.000",
    "date_modified": "2023-05-10T15:35:41.000",
    "request_status": "Pending",
    "responsible_agency": "Department of Public Works",
    "final_address": "CHEF MENTEUR HWY & LOUISA ST",
    "address_councildis": "D",
    "status": "Pending",
    "rowid": "998635",
    "final_x": "3691347.4",
    "final_y": "549732.88",
    "longitude": "-90.03632492843472",
    "latitude": "30.00527193180098",
    "geocoded_column": {
      "latitude": "30.00527193180098",
      "longitude": "-90.03632492843472"
    }
  },
  {
    "service_request": "2023-998634",
    "request_type": "Trash/Recycling",
    "request_reason": "Illegal Dumping",
    "date_created": "2023-05-10T15:35:21.000",
    "date_modified": "2023-05-10T15:35:37.000",
    "request_status": "Pending",
    "responsible_agency": "Department of Sanitation",
    "final_address": "4314 N Derbigny St",
    "address_councildis": "D",
    "status": "Pending",
    "rowid": "998634",
    "final_x": "3693395.84131",
    "final_y": "537207.219592",
    "longitude": "-90.03030348545148",
    "latitude": "29.970766986985588",
    "geocoded_column": {
      "latitude": "29.970766986985588",
      "longitude": "-90.03030348545148"
    }
  },
  {
    "service_request": "2023-998633",
    "request_type": "Trash/Recycling",
    "request_reason": "Order Recycling Cart",
    "date_created": "2023-05-10T15:34:13.000",
    "date_modified": "2023-05-10T15:34:14.000",
    "request_status": "Pending",
    "responsible_agency": "Department of Sanitation",
    "final_address": "2506 St Anthony St",
    "address_councildis": "D",
    "status": "Pending",
    "rowid": "998633",
    "final_x": "3683053.18274",
    "final_y": "541416.914252",
    "longitude": "-90.06281942427127",
    "latitude": "29.982661526051803",
    "geocoded_column": {
      "latitude": "29.982661526051803",
      "longitude": "-90.06281942427127"
    }
  },
  {
    "service_request": "2023-998632",
    "request_type": "Trash/Recycling",
    "request_reason": "Order Trash Cart",
    "date_created": "2023-05-10T15:33:47.000",
    "date_modified": "2023-05-10T15:33:48.000",
    "request_status": "Pending",
    "responsible_agency": "Department of Sanitation",
    "final_address": "2506 St Anthony St",
    "address_councildis": "D",
    "status": "Assigned to Contractor",
    "contractor": "IV Waste",
    "rowid": "998632",
    "final_x": "3683053.18274",
    "final_y": "541416.914252",
    "longitude": "-90.06281942427127",
    "latitude": "29.982661526051803",
    "geocoded_column": {
      "latitude": "29.982661526051803",
      "longitude": "-90.06281942427127"
    }
  },
  {
    "service_request": "2023-998631",
    "request_type": "Property Maintenance",
    "request_reason": "Property Maintenance",
    "date_created": "2023-05-10T15:33:24.000",
    "date_modified": "2023-05-10T15:33:24.000",
    "request_status": "Pending",
    "responsible_agency": "Department of Code Enforcement",
    "final_address": "2509 Memorial Park Dr",
    "address_councildis": "C",
    "status": "Pending",
    "rowid": "998631",
    "final_x": "3692667.34697",
    "final_y": "521156.961721",
    "longitude": "-90.03317930093436",
    "latitude": "29.92665709085535",
    "geocoded_column": {
      "latitude": "29.92665709085535",
      "longitude": "-90.03317930093436"
    }
  },
  {
    "service_request": "2023-998630",
    "request_type": "Traffic Signals/Signs/Striping/Streetlights",
    "request_reason": "Traffic Sign Missing/Damaged",
    "date_created": "2023-05-10T15:33:06.000",
    "date_modified": "2023-05-10T15:33:06.000",
    "request_status": "Pending",
    "responsible_agency": "Department of Public Works",
    "final_address": "OLD GENTILLY RD & LOUISA ST",
    "address_councildis": "D",
    "status": "Pending",
    "rowid": "998630",
    "final_x": "3691562.7",
    "final_y": "549283.78",
    "longitude": "-90.03566081991953",
    "latitude": "30.004030369093243",
    "geocoded_column": {
      "latitude": "30.004030369093243",
      "longitude": "-90.03566081991953"
    }
  },
  {
    "service_request": "2023-998629",
    "request_type": "Property Maintenance",
    "request_reason": "Property Maintenance",
    "date_created": "2023-05-10T15:32:34.000",
    "date_modified": "2023-05-10T15:32:34.000",
    "request_status": "Pending",
    "responsible_agency": "Department of Code Enforcement",
    "final_address": "4118 N Roman St",
    "address_councildis": "D",
    "status": "Pending",
    "rowid": "998629",
    "final_x": "3692951.8223",
    "final_y": "537764.63604",
    "longitude": "-90.03168574865765",
    "latitude": "29.972313560670244",
    "geocoded_column": {
      "latitude": "29.972313560670244",
      "longitude": "-90.03168574865765"
    }
  },
  {
    "service_request": "2023-998628",
    "request_type": "Roads/Drainage",
    "request_reason": "Street Flooding / Drainage",
    "date_created": "2023-05-10T15:27:23.000",
    "date_modified": "2023-05-10T15:27:23.000",
    "request_status": "Pending",
    "responsible_agency": "Department of Public Works",
    "final_address": "7000 BLK Freret St",
    "address_councildis": "A",
    "status": "Pending",
    "rowid": "998628",
    "final_x": "3664302.67005",
    "final_y": "525545.974942",
    "longitude": "-90.12257286627987",
    "latitude": "29.9395799855605",
    "geocoded_column": {
      "latitude": "29.9395799855605",
      "longitude": "-90.12257286627987"
    }
  },
  {
    "service_request": "2023-998627",
    "request_type": "Trash/Recycling",
    "request_reason": "Order Recycling Cart",
    "date_created": "2023-05-10T15:23:55.000",
    "date_modified": "2023-05-10T15:23:56.000",
    "request_status": "Pending",
    "responsible_agency": "Department of Sanitation",
    "final_address": "4644 Dodt Ave",
    "address_councildis": "E",
    "status": "Pending",
    "rowid": "998627",
    "final_x": "3705412.65124",
    "final_y": "554766.646424",
    "longitude": "-89.99170393038018",
    "latitude": "30.01866759916598",
    "geocoded_column": {
      "latitude": "30.01866759916598",
      "longitude": "-89.99170393038018"
    }
  },
  {
    "service_request": "2023-998626",
    "request_type": "Abandoned Vehicles",
    "request_reason": "Abandoned/Junk Vehicles",
    "date_created": "2023-05-10T15:20:47.000",
    "date_modified": "2023-05-10T15:20:47.000",
    "request_status": "Pending",
    "responsible_agency": "Department of Public Works",
    "final_address": "7900 BLK Forshey St",
    "address_councildis": "B",
    "status": "Pending",
    "rowid": "998626",
    "final_x": "3667462.77987",
    "final_y": "533502.765459",
    "longitude": "-90.11232824824039",
    "latitude": "29.96136637448739",
    "geocoded_column": {
      "latitude": "29.96136637448739",
      "longitude": "-90.11232824824039"
    }
  },
  {
    "service_request": "2023-998625",
    "request_type": "Trash/Recycling",
    "request_reason": "Repair Trash Cart",
    "date_created": "2023-05-10T15:17:39.000",
    "date_modified": "2023-05-10T15:17:39.000",
    "request_status": "Pending",
    "responsible_agency": "Department of Sanitation",
    "final_address": "5839 Catina St",
    "address_councildis": "A",
    "status": "Assigned to Contractor",
    "contractor": "IV Waste",
    "rowid": "998625",
    "final_x": "3666794.58855",
    "final_y": "546693.233617",
    "longitude": "-90.11399503744758",
    "latitude": "29.997655284755094",
    "geocoded_column": {
      "latitude": "29.997655284755094",
      "longitude": "-90.11399503744758"
    }
  },
  {
    "service_request": "2023-998624",
    "request_type": "Trash/Recycling",
    "request_reason": "Request a Large Item Pick Up",
    "date_created": "2023-05-10T15:17:09.000",
    "date_modified": "2023-05-10T15:17:09.000",
    "request_status": "Pending",
    "responsible_agency": "Department of Sanitation",
    "final_address": "5839 Catina St",
    "address_councildis": "A",
    "status": "Assigned to Contractor",
    "contractor": "IV Waste",
    "rowid": "998624",
    "final_x": "3666794.58855",
    "final_y": "546693.233617",
    "longitude": "-90.11399503744758",
    "latitude": "29.997655284755094",
    "geocoded_column": {
      "latitude": "29.997655284755094",
      "longitude": "-90.11399503744758"
    }
  },
  {
    "service_request": "2023-998623",
    "request_type": "Trash/Recycling",
    "request_reason": "Repair Recycling Cart",
    "date_created": "2023-05-10T15:16:20.000",
    "date_modified": "2023-05-10T15:16:20.000",
    "request_status": "Pending",
    "responsible_agency": "Department of Sanitation",
    "final_address": "6309 Magazine St",
    "address_councildis": "A",
    "status": "Pending",
    "rowid": "998623",
    "final_x": "3663394.7456",
    "final_y": "519865.857464",
    "longitude": "-90.12562833250834",
    "latitude": "29.923987802418626",
    "geocoded_column": {
      "latitude": "29.923987802418626",
      "longitude": "-90.12562833250834"
    }
  },
  {
    "service_request": "2023-998622",
    "request_type": "Abandoned Vehicles",
    "request_reason": "Abandoned/Junk Vehicles",
    "date_created": "2023-05-10T15:13:34.000",
    "date_modified": "2023-05-10T15:13:34.000",
    "request_status": "Pending",
    "responsible_agency": "Department of Public Works",
    "final_address": "7900 BLK Forshey St",
    "address_councildis": "B",
    "status": "Pending",
    "rowid": "998622",
    "final_x": "3667462.77987",
    "final_y": "533502.765459",
    "longitude": "-90.11232824824039",
    "latitude": "29.96136637448739",
    "geocoded_column": {
      "latitude": "29.96136637448739",
      "longitude": "-90.11232824824039"
    }
  },
  {
    "service_request": "2023-998620",
    "request_type": "Trash/Recycling",
    "request_reason": "Order Trash Cart",
    "date_created": "2023-05-10T15:08:02.000",
    "date_modified": "2023-05-10T15:08:03.000",
    "request_status": "Pending",
    "responsible_agency": "Department of Sanitation",
    "final_address": "11001 Chef Menteur Hwy",
    "address_councildis": "E",
    "status": "Assigned to Contractor",
    "contractor": "Waste Pro",
    "rowid": "998620",
    "final_x": "3716193.24895",
    "final_y": "556009.300185",
    "longitude": "-89.95759438072872",
    "latitude": "30.021732922624327",
    "geocoded_column": {
      "latitude": "30.021732922624327",
      "longitude": "-89.95759438072872"
    }
  },
  {
    "service_request": "2023-998619",
    "request_type": "Trash/Recycling",
    "request_reason": "Repair Trash Cart",
    "date_created": "2023-05-10T15:08:01.000",
    "date_modified": "2023-05-10T15:08:02.000",
    "request_status": "Pending",
    "responsible_agency": "Department of Sanitation",
    "final_address": "2838 Bristol Pl",
    "address_councildis": "C",
    "status": "Assigned to Contractor",
    "contractor": "Richards Disposal",
    "rowid": "998619",
    "final_x": "3702623.15434",
    "final_y": "520475.617528",
    "longitude": "-90.00177675096779",
    "latitude": "29.924469257357643",
    "geocoded_column": {
      "latitude": "29.924469257357643",
      "longitude": "-90.00177675096779"
    }
  },
  {
    "service_request": "2023-998618",
    "request_type": "Trash/Recycling",
    "request_reason": "Request a Large Item Pick Up",
    "date_created": "2023-05-10T15:07:15.000",
    "date_modified": "2023-05-10T15:07:16.000",
    "request_status": "Pending",
    "responsible_agency": "Department of Sanitation",
    "final_address": "8226 Nelson St",
    "address_councildis": "A",
    "status": "Assigned to Contractor",
    "contractor": "Richards Disposal",
    "rowid": "998618",
    "final_x": "3664661.19648",
    "final_y": "532209.057411",
    "longitude": "-90.12121841446167",
    "latitude": "29.95789089027641",
    "geocoded_column": {
      "latitude": "29.95789089027641",
      "longitude": "-90.12121841446167"
    }
  },
  {
    "service_request": "2023-998617",
    "request_type": "Trash/Recycling",
    "request_reason": "Request a Large Item Pick Up",
    "date_created": "2023-05-10T15:07:11.000",
    "date_modified": "2023-05-10T15:21:23.000",
    "case_close_date": "2023-05-10T10:21:23.000",
    "request_status": "Closed",
    "responsible_agency": "Department of Sanitation",
    "final_address": "4635 Cerise Ave",
    "address_councildis": "E",
    "status": "Assigned to Contractor",
    "contractor": "Waste Pro",
    "contractor_action": "Completed",
    "rowid": "998617",
    "final_x": "3708746.98059",
    "final_y": "555012.183577",
    "longitude": "-89.98115959267832",
    "latitude": "30.019234962154407",
    "geocoded_column": {
      "latitude": "30.019234962154407",
      "longitude": "-89.98115959267832"
    }
  },
  {
    "service_request": "2023-998616",
    "request_type": "Traffic Signals/Signs/Striping/Streetlights",
    "request_reason": "Street Light Outage/Malfunction",
    "date_created": "2023-05-10T15:06:34.000",
    "date_modified": "2023-05-10T15:06:35.000",
    "request_status": "Pending",
    "responsible_agency": "Department of Public Works",
    "final_address": "4869 Feliciana Dr",
    "address_councildis": "D",
    "status": "Assigned to Contractor",
    "contractor": "Legacy Professional Services",
    "rowid": "998616",
    "final_x": "3690144.97507",
    "final_y": "551317.976725",
    "longitude": "-90.04006711582906",
    "latitude": "30.009667734709847",
    "geocoded_column": {
      "latitude": "30.009667734709847",
      "longitude": "-90.04006711582906"
    }
  },
  {
    "service_request": "2023-998615",
    "request_type": "Property Maintenance",
    "request_reason": "Property Maintenance",
    "date_created": "2023-05-10T15:05:59.000",
    "date_modified": "2023-05-10T15:05:59.000",
    "request_status": "Pending",
    "responsible_agency": "Department of Code Enforcement",
    "final_address": "7928 Forshey St",
    "address_councildis": "B",
    "status": "Pending",
    "rowid": "998615",
    "final_x": "3667392.80314",
    "final_y": "533521.207045",
    "longitude": "-90.11254860288972",
    "latitude": "29.961419132925258",
    "geocoded_column": {
      "latitude": "29.961419132925258",
      "longitude": "-90.11254860288972"
    }
  },
  {
    "service_request": "2023-998614",
    "request_type": "Traffic Signals/Signs/Striping/Streetlights",
    "request_reason": "Street Light Outage/Malfunction",
    "date_created": "2023-05-10T15:02:44.000",
    "date_modified": "2023-05-10T15:02:45.000",
    "request_status": "Pending",
    "responsible_agency": "Department of Public Works",
    "final_address": "6240 Bellaire Dr",
    "address_councildis": "A",
    "status": "Assigned to Contractor",
    "contractor": "Legacy Professional Services",
    "rowid": "998614",
    "final_x": "3664304.81344",
    "final_y": "549260.230227",
    "longitude": "-90.12177446639936",
    "latitude": "30.00478626028447",
    "geocoded_column": {
      "latitude": "30.00478626028447",
      "longitude": "-90.12177446639936"
    }
  },
  {
    "service_request": "2023-998613",
    "request_type": "Trash/Recycling",
    "request_reason": "MIssed Recycling Pick-Up",
    "date_created": "2023-05-10T15:02:26.000",
    "date_modified": "2023-05-10T15:02:27.000",
    "request_status": "Pending",
    "responsible_agency": "Department of Sanitation",
    "final_address": "4401 Patterson St",
    "address_councildis": "C",
    "status": "Assigned to Contractor",
    "contractor": "Richards Disposal",
    "rowid": "998613",
    "final_x": "3700213.35351",
    "final_y": "525776.161789",
    "longitude": "-90.00919026340016",
    "latitude": "29.939120699783555",
    "geocoded_column": {
      "latitude": "29.939120699783555",
      "longitude": "-90.00919026340016"
    }
  },
  {
    "service_request": "2023-998612",
    "request_type": "Trash/Recycling",
    "request_reason": "MIssed Recycling Pick-Up",
    "date_created": "2023-05-10T15:01:47.000",
    "date_modified": "2023-05-10T15:01:48.000",
    "request_status": "Pending",
    "responsible_agency": "Department of Sanitation",
    "final_address": "1305 Charbonnet St",
    "address_councildis": "E",
    "status": "Assigned to Contractor",
    "contractor": "Waste Pro",
    "rowid": "998612",
    "final_x": "3698876.30071",
    "final_y": "534391.205701",
    "longitude": "-90.01309809339149",
    "latitude": "29.962851453541646",
    "geocoded_column": {
      "latitude": "29.962851453541646",
      "longitude": "-90.01309809339149"
    }
  },
  {
    "service_request": "2023-998611",
    "request_type": "Trash/Recycling",
    "request_reason": "Replace Trash Cart",
    "date_created": "2023-05-10T15:01:33.000",
    "date_modified": "2023-05-10T15:01:34.000",
    "request_status": "Pending",
    "responsible_agency": "Department of Sanitation",
    "final_address": "3342 Piedmont Dr",
    "address_councildis": "D",
    "status": "Assigned to Contractor",
    "contractor": "IV Waste",
    "rowid": "998611",
    "final_x": "3686380.31273",
    "final_y": "545278.112207",
    "longitude": "-90.05217435010509",
    "latitude": "29.993176587722772",
    "geocoded_column": {
      "latitude": "29.993176587722772",
      "longitude": "-90.05217435010509"
    }
  },
  {
    "service_request": "2023-998610",
    "request_type": "Trash/Recycling",
    "request_reason": "Request a Large Item Pick Up",
    "date_created": "2023-05-10T14:58:51.000",
    "date_modified": "2023-05-10T14:58:52.000",
    "request_status": "Pending",
    "responsible_agency": "Department of Sanitation",
    "final_address": "717 Port St",
    "address_councildis": "C",
    "status": "Assigned to Contractor",
    "contractor": "IV Waste",
    "rowid": "998610",
    "final_x": "3687097.79682",
    "final_y": "535030.073734",
    "longitude": "-90.05027042899933",
    "latitude": "29.96497602285105",
    "geocoded_column": {
      "latitude": "29.96497602285105",
      "longitude": "-90.05027042899933"
    }
  },
  {
    "service_request": "2023-998609",
    "request_type": "Trash/Recycling",
    "request_reason": "Missed Trash Pick-Up",
    "date_created": "2023-05-10T14:58:22.000",
    "date_modified": "2023-05-10T14:58:23.000",
    "request_status": "Pending",
    "responsible_agency": "Department of Sanitation",
    "final_address": "5387 Pratt Dr",
    "address_councildis": "D",
    "status": "Assigned to Contractor",
    "contractor": "IV Waste",
    "rowid": "998609",
    "final_x": "3680485.37128",
    "final_y": "552336.817366",
    "longitude": "-90.07054974687786",
    "latitude": "30.0127654190267",
    "geocoded_column": {
      "latitude": "30.0127654190267",
      "longitude": "-90.07054974687786"
    }
  },
  {
    "service_request": "2023-998608",
    "request_type": "Abandoned Vehicles",
    "request_reason": "Abandoned/Junk Vehicles",
    "date_created": "2023-05-10T14:57:35.000",
    "date_modified": "2023-05-10T15:00:22.000",
    "request_status": "Pending",
    "responsible_agency": "Department of Public Works",
    "final_address": "BIENVILLE ST & N LOPEZ ST",
    "address_councildis": "B",
    "status": "Pending",
    "rowid": "998608",
    "final_x": "3674340.17",
    "final_y": "536850.89",
    "longitude": "-90.09049593947982",
    "latitude": "29.970369286218297",
    "geocoded_column": {
      "latitude": "29.970369286218297",
      "longitude": "-90.09049593947982"
    }
  },
  {
    "service_request": "2023-998607",
    "request_type": "Trash/Recycling",
    "request_reason": "Order Trash Cart",
    "date_created": "2023-05-10T14:55:39.000",
    "date_modified": "2023-05-10T14:55:40.000",
    "request_status": "Pending",
    "responsible_agency": "Department of Sanitation",
    "final_address": "3954 Constance St",
    "address_councildis": "B",
    "status": "Assigned to Contractor",
    "contractor": "Richards Disposal",
    "rowid": "998607",
    "final_x": "3672721.76392",
    "final_y": "518538.463991",
    "longitude": "-90.09623144350866",
    "latitude": "29.92006428998432",
    "geocoded_column": {
      "latitude": "29.92006428998432",
      "longitude": "-90.09623144350866"
    }
  },
  {
    "service_request": "2023-998606",
    "request_type": "Trash/Recycling",
    "request_reason": "Repair Trash Cart",
    "date_created": "2023-05-10T14:53:40.000",
    "date_modified": "2023-05-10T14:53:41.000",
    "request_status": "Pending",
    "responsible_agency": "Department of Sanitation",
    "final_address": "4626 Gabriel Dr",
    "address_councildis": "E",
    "status": "Assigned to Contractor",
    "contractor": "Waste Pro",
    "rowid": "998606",
    "final_x": "3708890.73316",
    "final_y": "554967.887832",
    "longitude": "-89.98070704012913",
    "latitude": "30.01910850087669",
    "geocoded_column": {
      "latitude": "30.01910850087669",
      "longitude": "-89.98070704012913"
    }
  },
  {
    "service_request": "2023-998605",
    "request_type": "Trash/Recycling",
    "request_reason": "Order Trash Cart",
    "date_created": "2023-05-10T14:50:51.000",
    "date_modified": "2023-05-10T14:50:52.000",
    "request_status": "Pending",
    "responsible_agency": "Department of Sanitation",
    "final_address": "1235 Annette St",
    "address_councildis": "C",
    "status": "Assigned to Contractor",
    "contractor": "IV Waste",
    "rowid": "998605",
    "final_x": "3683169.09474",
    "final_y": "536447.590407",
    "longitude": "-90.06262737665233",
    "latitude": "29.968994082589475",
    "geocoded_column": {
      "latitude": "29.968994082589475",
      "longitude": "-90.06262737665233"
    }
  },
  {
    "service_request": "2023-998604",
    "request_type": "Parks & Parkways",
    "request_reason": "Request Tree Service (Right of Way/Public Property)",
    "date_created": "2023-05-10T14:46:36.000",
    "date_modified": "2023-05-10T14:47:23.000",
    "request_status": "Pending",
    "responsible_agency": "Department of Parks & Parkway",
    "final_address": "2541 Jasmine St",
    "address_councildis": "D",
    "status": "Pending",
    "rowid": "998604",
    "final_x": "3686570.86697",
    "final_y": "548101.718418",
    "longitude": "-90.05147264168903",
    "latitude": "30.00093462856447",
    "geocoded_column": {
      "latitude": "30.00093462856447",
      "longitude": "-90.05147264168903"
    }
  },
  {
    "service_request": "2023-998602",
    "request_type": "Roads/Drainage",
    "request_reason": "Damaged Sidewalk",
    "date_created": "2023-05-10T14:46:21.000",
    "date_modified": "2023-05-10T16:35:01.000",
    "request_status": "Pending",
    "responsible_agency": "Department of Public Works",
    "final_address": "4418 Camelot Dr",
    "address_councildis": "E",
    "status": "Inspected",
    "rowid": "998602",
    "final_x": "3708474.20964",
    "final_y": "553862.250263",
    "longitude": "-89.98206429552363",
    "latitude": "30.01608193952952",
    "geocoded_column": {
      "latitude": "30.01608193952952",
      "longitude": "-89.98206429552363"
    }
  },
  {
    "service_request": "2023-998601",
    "request_type": "Roads/Drainage",
    "request_reason": "Catch Basin - Clogged",
    "date_created": "2023-05-10T14:44:26.000",
    "date_modified": "2023-05-10T14:44:56.000",
    "case_close_date": "2023-05-10T09:44:56.000",
    "request_status": "Closed",
    "responsible_agency": "Department of Public Works",
    "final_address": "8000 BLK Downman Rd",
    "address_councildis": "D",
    "status": "Resolved",
    "rowid": "998601",
    "final_x": "3694221.92221",
    "final_y": "559680.743287",
    "longitude": "-90.02688541083296",
    "latitude": "30.032535036742978",
    "geocoded_column": {
      "latitude": "30.032535036742978",
      "longitude": "-90.02688541083296"
    }
  },
  {
    "service_request": "2023-998599",
    "request_type": "Roads/Drainage",
    "request_reason": "Catch Basin - Broken/Damage",
    "date_created": "2023-05-10T14:42:49.000",
    "date_modified": "2023-05-10T14:42:51.000",
    "request_status": "Pending",
    "responsible_agency": "Department of Public Works",
    "final_address": "7744 Belfast St",
    "address_councildis": "A",
    "status": "Pending",
    "rowid": "998599",
    "final_x": "3666429.67949",
    "final_y": "531542.907075",
    "longitude": "-90.11565638058077",
    "latitude": "29.95600763642238",
    "geocoded_column": {
      "latitude": "29.95600763642238",
      "longitude": "-90.11565638058077"
    }
  },
  {
    "service_request": "2023-998598",
    "request_type": "Trash/Recycling",
    "request_reason": "Repair Trash Cart",
    "date_created": "2023-05-10T14:41:44.000",
    "date_modified": "2023-05-10T14:41:45.000",
    "request_status": "Pending",
    "responsible_agency": "Department of Sanitation",
    "final_address": "13645 N Nemours St",
    "address_councildis": "E",
    "status": "Assigned to Contractor",
    "contractor": "Waste Pro",
    "rowid": "998598",
    "final_x": "3726251.90726",
    "final_y": "563161.157536",
    "longitude": "-89.925534503654",
    "latitude": "30.041061694862254",
    "geocoded_column": {
      "latitude": "30.041061694862254",
      "longitude": "-89.925534503654"
    }
  },
  {
    "service_request": "2023-998597",
    "request_type": "Trash/Recycling",
    "request_reason": "Order Trash Cart",
    "date_created": "2023-05-10T14:40:40.000",
    "date_modified": "2023-05-10T14:40:41.000",
    "request_status": "Pending",
    "responsible_agency": "Department of Sanitation",
    "final_address": "13643 N Nemours St",
    "address_councildis": "E",
    "status": "Assigned to Contractor",
    "contractor": "Waste Pro",
    "rowid": "998597",
    "final_x": "3726232.81004",
    "final_y": "563147.702688",
    "longitude": "-89.92559537904293",
    "latitude": "30.04102534474024",
    "geocoded_column": {
      "latitude": "30.04102534474024",
      "longitude": "-89.92559537904293"
    }
  },
  {
    "service_request": "2023-998596",
    "request_type": "Trash/Recycling",
    "request_reason": "Repair Trash Cart",
    "date_created": "2023-05-10T14:37:57.000",
    "date_modified": "2023-05-10T14:37:58.000",
    "request_status": "Pending",
    "responsible_agency": "Department of Sanitation",
    "final_address": "4153 Vincennes Pl",
    "address_councildis": "B",
    "status": "Assigned to Contractor",
    "contractor": "Richards Disposal",
    "rowid": "998596",
    "final_x": "3668701.87246",
    "final_y": "530819.415362",
    "longitude": "-90.10850597428482",
    "latitude": "29.95395168150606",
    "geocoded_column": {
      "latitude": "29.95395168150606",
      "longitude": "-90.10850597428482"
    }
  },
  {
    "service_request": "2023-998593",
    "request_type": "Parks & Parkways",
    "request_reason": "Request Tree Service (Right of Way/Public Property)",
    "date_created": "2023-05-10T14:33:53.000",
    "date_modified": "2023-05-10T14:44:11.000",
    "request_status": "Pending",
    "responsible_agency": "Department of Parks & Parkway",
    "final_address": "4418 Camelot Dr",
    "address_councildis": "E",
    "status": "Pending",
    "rowid": "998593",
    "final_x": "3708474.20964",
    "final_y": "553862.250263",
    "longitude": "-89.98206429552363",
    "latitude": "30.01608193952952",
    "geocoded_column": {
      "latitude": "30.01608193952952",
      "longitude": "-89.98206429552363"
    }
  },
  {
    "service_request": "2023-998592",
    "request_type": "Trash/Recycling",
    "request_reason": "Request a Large Item Pick Up",
    "date_created": "2023-05-10T14:29:40.000",
    "date_modified": "2023-05-10T14:30:25.000",
    "request_status": "Pending",
    "responsible_agency": "Department of Sanitation",
    "final_address": "5130 Mandeville St",
    "address_councildis": "D",
    "status": "Assigned to Contractor",
    "contractor": "IV Waste",
    "rowid": "998592",
    "final_x": "3684515.53999",
    "final_y": "551653.205269",
    "longitude": "-90.05784068096372",
    "latitude": "30.010762994478192",
    "geocoded_column": {
      "latitude": "30.010762994478192",
      "longitude": "-90.05784068096372"
    }
  },
  {
    "service_request": "2023-998591",
    "request_type": "Trash/Recycling",
    "request_reason": "Order Trash Cart",
    "date_created": "2023-05-10T14:28:57.000",
    "date_modified": "2023-05-10T14:29:39.000",
    "request_status": "Pending",
    "responsible_agency": "Department of Sanitation",
    "final_address": "373 Broadway St",
    "address_councildis": "A",
    "status": "Assigned to Contractor",
    "contractor": "Richards Disposal",
    "rowid": "998591",
    "final_x": "3661942.95904",
    "final_y": "523076.300219",
    "longitude": "-90.1301047101303",
    "latitude": "29.932857509821893",
    "geocoded_column": {
      "latitude": "29.932857509821893",
      "longitude": "-90.1301047101303"
    }
  },
  {
    "service_request": "2023-998590",
    "request_type": "Traffic Signals/Signs/Striping/Streetlights",
    "request_reason": "Street Light Outage/Malfunction",
    "date_created": "2023-05-10T14:26:47.000",
    "date_modified": "2023-05-10T14:26:48.000",
    "request_status": "Pending",
    "responsible_agency": "Department of Public Works",
    "final_address": "8812 Palm St",
    "address_councildis": "A",
    "status": "Assigned to Contractor",
    "contractor": "Legacy Professional Services",
    "rowid": "998590",
    "final_x": "3665769.26759",
    "final_y": "536424.086727",
    "longitude": "-90.1175782070085",
    "latitude": "29.96944855571501",
    "geocoded_column": {
      "latitude": "29.96944855571501",
      "longitude": "-90.1175782070085"
    }
  },
  {
    "service_request": "2023-998589",
    "request_type": "Trash/Recycling",
    "request_reason": "Illegal Dumping",
    "date_created": "2023-05-10T14:22:47.000",
    "date_modified": "2023-05-10T14:22:51.000",
    "request_status": "Pending",
    "responsible_agency": "Department of Sanitation",
    "final_address": "SUMNER ST & PTOLEMY ST",
    "address_councildis": "C",
    "status": "Pending",
    "rowid": "998589",
    "final_x": "3691013.6",
    "final_y": "525898.48",
    "longitude": "-90.03823053658337",
    "latitude": "29.939746152549933",
    "geocoded_column": {
      "latitude": "29.939746152549933",
      "longitude": "-90.03823053658337"
    }
  },
  {
    "service_request": "2023-998588",
    "request_type": "Trash/Recycling",
    "request_reason": "Request a Large Item Pick Up",
    "date_created": "2023-05-10T14:19:42.000",
    "date_modified": "2023-05-10T14:19:43.000",
    "request_status": "Pending",
    "responsible_agency": "Department of Sanitation",
    "final_address": "4918 Charmes Ct",
    "address_councildis": "E",
    "status": "Assigned to Contractor",
    "contractor": "Waste Pro",
    "rowid": "998588",
    "final_x": "3726361.18221",
    "final_y": "561906.338463",
    "longitude": "-89.92523789470413",
    "latitude": "30.037607769749616",
    "geocoded_column": {
      "latitude": "30.037607769749616",
      "longitude": "-89.92523789470413"
    }
  },
  {
    "service_request": "2023-998587",
    "request_type": "Property Maintenance",
    "request_reason": "Property Maintenance",
    "date_created": "2023-05-10T14:18:09.000",
    "date_modified": "2023-05-10T14:18:09.000",
    "request_status": "Pending",
    "responsible_agency": "Department of Code Enforcement",
    "final_address": "2415 Republic St",
    "address_councildis": "D",
    "status": "Pending",
    "rowid": "998587",
    "final_x": "3680859.88213",
    "final_y": "540938.522827",
    "longitude": "-90.06976362257899",
    "latitude": "29.98141280425899",
    "geocoded_column": {
      "latitude": "29.98141280425899",
      "longitude": "-90.06976362257899"
    }
  },
  {
    "service_request": "2023-998586",
    "request_type": "Abandoned Vehicles",
    "request_reason": "Abandoned/Junk Vehicles",
    "date_created": "2023-05-10T14:16:17.000",
    "date_modified": "2023-05-10T14:16:17.000",
    "request_status": "Pending",
    "responsible_agency": "Department of Public Works",
    "final_address": "7001 Bundy Rd",
    "address_councildis": "E",
    "status": "Pending",
    "rowid": "998586",
    "final_x": "3707172.18622",
    "final_y": "561290.770526",
    "longitude": "-89.985902077464",
    "latitude": "30.036549623983145",
    "geocoded_column": {
      "latitude": "30.036549623983145",
      "longitude": "-89.985902077464"
    }
  },
  {
    "service_request": "2023-998585",
    "request_type": "Property Maintenance",
    "request_reason": "Property Maintenance",
    "date_created": "2023-05-10T14:12:04.000",
    "date_modified": "2023-05-10T14:12:04.000",
    "request_status": "Pending",
    "responsible_agency": "Department of Code Enforcement",
    "final_address": "6805 Mayo Rd",
    "address_councildis": "E",
    "status": "Pending",
    "rowid": "998585",
    "final_x": "3702118.3057",
    "final_y": "557219.767707",
    "longitude": "-90.00202274630222",
    "latitude": "30.025518388787955",
    "geocoded_column": {
      "latitude": "30.025518388787955",
      "longitude": "-90.00202274630222"
    }
  },
  {
    "service_request": "2023-998584",
    "request_type": "Property Maintenance",
    "request_reason": "Property Maintenance",
    "date_created": "2023-05-10T14:11:43.000",
    "date_modified": "2023-05-10T14:11:44.000",
    "request_status": "Pending",
    "responsible_agency": "Department of Code Enforcement",
    "final_address": "6801 Mayo Rd",
    "address_councildis": "E",
    "status": "Pending",
    "rowid": "998584",
    "final_x": "3702182.34026",
    "final_y": "557172.671771",
    "longitude": "-90.00182213699544",
    "latitude": "30.025386847267303",
    "geocoded_column": {
      "latitude": "30.025386847267303",
      "longitude": "-90.00182213699544"
    }
  },
  {
    "service_request": "2023-998583",
    "request_type": "Roads/Drainage",
    "request_reason": "Accessibility Ramps, Curbs and Sidewalk Repair",
    "date_created": "2023-05-10T14:06:06.000",
    "date_modified": "2023-05-10T14:06:06.000",
    "request_status": "Pending",
    "responsible_agency": "Department of Public Works",
    "final_address": "1540 Jefferson Ave",
    "address_councildis": "A",
    "status": "Pending",
    "rowid": "998583",
    "final_x": "3667178.51028",
    "final_y": "520904.758073",
    "longitude": "-90.1136493865619",
    "latitude": "29.92673424980759",
    "geocoded_column": {
      "latitude": "29.92673424980759",
      "longitude": "-90.1136493865619"
    }
  },
  {
    "service_request": "2023-998582",
    "request_type": "Trash/Recycling",
    "request_reason": "Repair Recycling Cart",
    "date_created": "2023-05-10T14:04:54.000",
    "date_modified": "2023-05-10T14:04:54.000",
    "request_status": "Pending",
    "responsible_agency": "Department of Sanitation",
    "final_address": "3507 Camp St",
    "address_councildis": "B",
    "status": "Pending",
    "rowid": "998582",
    "final_x": "3674255.19508",
    "final_y": "519768.564344",
    "longitude": "-90.0913490450715",
    "latitude": "29.92340105988629",
    "geocoded_column": {
      "latitude": "29.92340105988629",
      "longitude": "-90.0913490450715"
    }
  },
  {
    "service_request": "2023-998581",
    "request_type": "Trash/Recycling",
    "request_reason": "Missed Trash Pick-Up",
    "date_created": "2023-05-10T13:59:45.000",
    "date_modified": "2023-05-10T13:59:48.000",
    "request_status": "Pending",
    "responsible_agency": "Department of Sanitation",
    "final_address": "1022 Aline St",
    "address_councildis": "B",
    "status": "Assigned to Contractor",
    "contractor": "Richards Disposal",
    "rowid": "998581",
    "final_x": "3674474.30075",
    "final_y": "519221.030327",
    "longitude": "-90.09067615367596",
    "latitude": "29.921888985136974",
    "geocoded_column": {
      "latitude": "29.921888985136974",
      "longitude": "-90.09067615367596"
    }
  },
  {
    "service_request": "2023-998580",
    "request_type": "Parks & Parkways",
    "request_reason": "Request Tree Service (Right of Way/Public Property)",
    "date_created": "2023-05-10T13:59:42.000",
    "date_modified": "2023-05-10T13:59:42.000",
    "request_status": "Pending",
    "responsible_agency": "Department of Parks & Parkway",
    "final_address": "7533 Willow St",
    "address_councildis": "A",
    "status": "Pending",
    "rowid": "998580",
    "final_x": "3663882.69696",
    "final_y": "527653.116287",
    "longitude": "-90.1238285629642",
    "latitude": "29.94538614596453",
    "geocoded_column": {
      "latitude": "29.94538614596453",
      "longitude": "-90.1238285629642"
    }
  },
  {
    "service_request": "2023-998579",
    "request_type": "Abandoned Vehicles",
    "request_reason": "Abandoned/Junk Vehicles",
    "date_created": "2023-05-10T13:55:29.000",
    "date_modified": "2023-05-10T13:59:03.000",
    "request_status": "Pending",
    "responsible_agency": "Department of Public Works",
    "final_address": "HOWARD AVE & S TELEMACHUS ST",
    "address_councildis": "B",
    "status": "Pending",
    "rowid": "998579",
    "final_x": "3670169.3",
    "final_y": "534529.28",
    "longitude": "-90.10374672168983",
    "latitude": "29.964109368600393",
    "geocoded_column": {
      "latitude": "29.964109368600393",
      "longitude": "-90.10374672168983"
    }
  },
  {
    "service_request": "2023-998578",
    "request_type": "Roads/Drainage",
    "request_reason": "Street Flooding / Drainage",
    "date_created": "2023-05-10T13:54:53.000",
    "date_modified": "2023-05-10T13:54:53.000",
    "request_status": "Pending",
    "responsible_agency": "Department of Public Works",
    "final_address": "5400 BLK Atlanta St",
    "address_councildis": "A",
    "status": "Pending",
    "rowid": "998578",
    "final_x": "3667047.98312",
    "final_y": "520885.998042",
    "longitude": "-90.11406205722672",
    "latitude": "29.926686485387396",
    "geocoded_column": {
      "latitude": "29.926686485387396",
      "longitude": "-90.11406205722672"
    }
  },
  {
    "service_request": "2023-998577",
    "request_type": "Trash/Recycling",
    "request_reason": "Illegal Dumping",
    "date_created": "2023-05-10T13:51:07.000",
    "date_modified": "2023-05-10T13:57:10.000",
    "request_status": "Pending",
    "responsible_agency": "Department of Sanitation",
    "final_address": "3730 Toledano St",
    "address_councildis": "B",
    "status": "Pending",
    "rowid": "998577",
    "final_x": "3671392.02254",
    "final_y": "529008.193152",
    "longitude": "-90.1000731148503",
    "latitude": "29.94889207326688",
    "geocoded_column": {
      "latitude": "29.94889207326688",
      "longitude": "-90.1000731148503"
    }
  },
  {
    "service_request": "2023-998576",
    "request_type": "Trash/Recycling",
    "request_reason": "MIssed Recycling Pick-Up",
    "date_created": "2023-05-10T13:48:59.000",
    "date_modified": "2023-05-10T13:49:00.000",
    "request_status": "Pending",
    "responsible_agency": "Department of Sanitation",
    "final_address": "4310 Hamilton St",
    "address_councildis": "A",
    "status": "Assigned to Contractor",
    "contractor": "Richards Disposal",
    "rowid": "998576",
    "final_x": "3666799.35412",
    "final_y": "538983.911818",
    "longitude": "-90.11423908817946",
    "latitude": "29.976457127899355",
    "geocoded_column": {
      "latitude": "29.976457127899355",
      "longitude": "-90.11423908817946"
    }
  },
  {
    "service_request": "2023-998575",
    "request_type": "Trash/Recycling",
    "request_reason": "Order Recycling Cart",
    "date_created": "2023-05-10T13:48:45.000",
    "date_modified": "2023-05-10T13:48:45.000",
    "request_status": "Pending",
    "responsible_agency": "Department of Sanitation",
    "final_address": "32 St Claude Ct",
    "address_councildis": "E",
    "status": "Pending",
    "rowid": "998575",
    "final_x": "3697404.93635",
    "final_y": "533534.405829",
    "longitude": "-90.01777551263658",
    "latitude": "29.960542091064625",
    "geocoded_column": {
      "latitude": "29.960542091064625",
      "longitude": "-90.01777551263658"
    }
  },
  {
    "service_request": "2023-998574",
    "request_type": "Trash/Recycling",
    "request_reason": "Order Trash Cart",
    "date_created": "2023-05-10T13:45:17.000",
    "date_modified": "2023-05-10T13:45:18.000",
    "request_status": "Pending",
    "responsible_agency": "Department of Sanitation",
    "final_address": "4310 Hamilton St",
    "address_councildis": "A",
    "status": "Assigned to Contractor",
    "contractor": "Richards Disposal",
    "rowid": "998574",
    "final_x": "3666799.35412",
    "final_y": "538983.911818",
    "longitude": "-90.11423908817946",
    "latitude": "29.976457127899355",
    "geocoded_column": {
      "latitude": "29.976457127899355",
      "longitude": "-90.11423908817946"
    }
  },
  {
    "service_request": "2023-998573",
    "request_type": "Trash/Recycling",
    "request_reason": "Repair Trash Cart",
    "date_created": "2023-05-10T13:42:25.000",
    "date_modified": "2023-05-10T13:42:26.000",
    "request_status": "Pending",
    "responsible_agency": "Department of Sanitation",
    "final_address": "1600 S Saratoga St",
    "address_councildis": "B",
    "status": "Assigned to Contractor",
    "contractor": "Richards Disposal",
    "rowid": "998573",
    "final_x": "3677384.10862",
    "final_y": "526271.997822",
    "longitude": "-90.08124791012656",
    "latitude": "29.94118975073034",
    "geocoded_column": {
      "latitude": "29.94118975073034",
      "longitude": "-90.08124791012656"
    }
  },
  {
    "service_request": "2023-998572",
    "request_type": "Trash/Recycling",
    "request_reason": "Repair Recycling Cart",
    "date_created": "2023-05-10T13:41:24.000",
    "date_modified": "2023-05-10T13:41:24.000",
    "request_status": "Pending",
    "responsible_agency": "Department of Sanitation",
    "final_address": "4630 Arts St",
    "address_councildis": "D",
    "status": "Pending",
    "rowid": "998572",
    "final_x": "3685892.23298",
    "final_y": "549826.874452",
    "longitude": "-90.05355562583006",
    "latitude": "30.005699040664812",
    "geocoded_column": {
      "latitude": "30.005699040664812",
      "longitude": "-90.05355562583006"
    }
  },
  {
    "service_request": "2023-998571",
    "request_type": "Trash/Recycling",
    "request_reason": "Missed Trash Pick-Up",
    "date_created": "2023-05-10T13:40:26.000",
    "date_modified": "2023-05-10T13:40:27.000",
    "request_status": "Pending",
    "responsible_agency": "Department of Sanitation",
    "final_address": "4630 Arts St",
    "address_councildis": "D",
    "status": "Assigned to Contractor",
    "contractor": "IV Waste",
    "rowid": "998571",
    "final_x": "3685892.23298",
    "final_y": "549826.874452",
    "longitude": "-90.05355562583006",
    "latitude": "30.005699040664812",
    "geocoded_column": {
      "latitude": "30.005699040664812",
      "longitude": "-90.05355562583006"
    }
  },
  {
    "service_request": "2023-998570",
    "request_type": "Traffic Signals/Signs/Striping/Streetlights",
    "request_reason": "Street Light Outage/Malfunction",
    "date_created": "2023-05-10T13:39:57.000",
    "date_modified": "2023-05-10T13:39:57.000",
    "request_status": "Pending",
    "responsible_agency": "Department of Public Works",
    "final_address": "7810 Allison Rd",
    "address_councildis": "E",
    "status": "Assigned to Contractor",
    "contractor": "Legacy Professional Services",
    "rowid": "998570",
    "final_x": "3699750.29296",
    "final_y": "561001.967774",
    "longitude": "-90.00936718972112",
    "latitude": "30.03599341729774",
    "geocoded_column": {
      "latitude": "30.03599341729774",
      "longitude": "-90.00936718972112"
    }
  },
  {
    "service_request": "2023-998569",
    "request_type": "Trash/Recycling",
    "request_reason": "Replace Trash Cart",
    "date_created": "2023-05-10T13:39:50.000",
    "date_modified": "2023-05-10T13:39:51.000",
    "request_status": "Pending",
    "responsible_agency": "Department of Sanitation",
    "final_address": "1826 Third St",
    "address_councildis": "B",
    "status": "Assigned to Contractor",
    "contractor": "Richards Disposal",
    "rowid": "998569",
    "final_x": "3675876.17531",
    "final_y": "523669.133115",
    "longitude": "-90.08609819201435",
    "latitude": "29.934077947364862",
    "geocoded_column": {
      "latitude": "29.934077947364862",
      "longitude": "-90.08609819201435"
    }
  },
  {
    "service_request": "2023-998568",
    "request_type": "Trash/Recycling",
    "request_reason": "Replace Trash Cart",
    "date_created": "2023-05-10T13:37:43.000",
    "date_modified": "2023-05-10T13:37:44.000",
    "request_status": "Pending",
    "responsible_agency": "Department of Sanitation",
    "final_address": "7579 Forest Glen Rd",
    "address_councildis": "E",
    "status": "Assigned to Contractor",
    "contractor": "Waste Pro",
    "rowid": "998568",
    "final_x": "3709790.39262",
    "final_y": "564868.418082",
    "longitude": "-89.97749430259309",
    "latitude": "30.046301808744325",
    "geocoded_column": {
      "latitude": "30.046301808744325",
      "longitude": "-89.97749430259309"
    }
  },
  {
    "service_request": "2023-998567",
    "request_type": "Trash/Recycling",
    "request_reason": "Request a Large Item Pick Up",
    "date_created": "2023-05-10T13:37:32.000",
    "date_modified": "2023-05-10T13:37:32.000",
    "request_status": "Pending",
    "responsible_agency": "Department of Sanitation",
    "final_address": "10336 Deerfield Dr",
    "address_councildis": "E",
    "status": "Assigned to Contractor",
    "contractor": "Waste Pro",
    "rowid": "998567",
    "final_x": "3710329.35973",
    "final_y": "563637.228257",
    "longitude": "-89.97583700473423",
    "latitude": "30.042898984656638",
    "geocoded_column": {
      "latitude": "30.042898984656638",
      "longitude": "-89.97583700473423"
    }
  },
  {
    "service_request": "2023-998566",
    "request_type": "Trash/Recycling",
    "request_reason": "Request a Large Item Pick Up",
    "date_created": "2023-05-10T13:37:10.000",
    "date_modified": "2023-05-10T13:37:11.000",
    "request_status": "Pending",
    "responsible_agency": "Department of Sanitation",
    "final_address": "7519 Pearl St",
    "address_councildis": "A",
    "status": "Assigned to Contractor",
    "contractor": "Richards Disposal",
    "rowid": "998566",
    "final_x": "3661813.44384",
    "final_y": "525240.245501",
    "longitude": "-90.13044186628471",
    "latitude": "29.938811415275012",
    "geocoded_column": {
      "latitude": "29.938811415275012",
      "longitude": "-90.13044186628471"
    }
  },
  {
    "service_request": "2023-998565",
    "request_type": "Traffic Signals/Signs/Striping/Streetlights",
    "request_reason": "Street Light Outage/Malfunction",
    "date_created": "2023-05-10T13:36:50.000",
    "date_modified": "2023-05-10T13:36:51.000",
    "request_status": "Pending",
    "responsible_agency": "Department of Public Works",
    "final_address": "4238 Dumaine St",
    "address_councildis": "A",
    "status": "Assigned to Contractor",
    "contractor": "Legacy Professional Services",
    "rowid": "998565",
    "final_x": "3672132.78382",
    "final_y": "541275.153932",
    "longitude": "-90.09731640452183",
    "latitude": "29.9826001585595",
    "geocoded_column": {
      "latitude": "29.9826001585595",
      "longitude": "-90.09731640452183"
    }
  },
  {
    "service_request": "2023-998564",
    "request_type": "Trash/Recycling",
    "request_reason": "Replace Trash Cart",
    "date_created": "2023-05-10T13:33:08.000",
    "date_modified": "2023-05-10T13:33:09.000",
    "request_status": "Pending",
    "responsible_agency": "Department of Sanitation",
    "final_address": "3 Rue Le Ville",
    "address_councildis": "A",
    "status": "Assigned to Contractor",
    "contractor": "IV Waste",
    "rowid": "998564",
    "final_x": "3666344.15297",
    "final_y": "554468.651224",
    "longitude": "-90.11515682753537",
    "latitude": "30.019048148876657",
    "geocoded_column": {
      "latitude": "30.019048148876657",
      "longitude": "-90.11515682753537"
    }
  },
  {
    "service_request": "2023-998563",
    "request_type": "Property Maintenance",
    "request_reason": "Property Maintenance",
    "date_created": "2023-05-10T13:33:05.000",
    "date_modified": "2023-05-10T13:33:05.000",
    "request_status": "Pending",
    "responsible_agency": "Department of Code Enforcement",
    "final_address": "2771 Dreux Ave",
    "address_councildis": "D",
    "status": "Pending",
    "rowid": "998563",
    "final_x": "3687955.09347",
    "final_y": "552372.973654",
    "longitude": "-90.046948291104",
    "latitude": "30.012636368135574",
    "geocoded_column": {
      "latitude": "30.012636368135574",
      "longitude": "-90.046948291104"
    }
  },
  {
    "service_request": "2023-998562",
    "request_type": "Trash/Recycling",
    "request_reason": "Repair Trash Cart",
    "date_created": "2023-05-10T13:31:53.000",
    "date_modified": "2023-05-10T13:31:53.000",
    "request_status": "Pending",
    "responsible_agency": "Department of Sanitation",
    "final_address": "2617 Laurel St",
    "address_councildis": "B",
    "status": "Assigned to Contractor",
    "contractor": "Richards Disposal",
    "rowid": "998562",
    "final_x": "3677836.89307",
    "final_y": "520493.393464",
    "longitude": "-90.08001793779636",
    "latitude": "29.925286870251444",
    "geocoded_column": {
      "latitude": "29.925286870251444",
      "longitude": "-90.08001793779636"
    }
  },
  {
    "service_request": "2023-998561",
    "request_type": "Abandoned Vehicles",
    "request_reason": "Abandoned/Junk Vehicles",
    "date_created": "2023-05-10T13:30:24.000",
    "date_modified": "2023-05-10T13:30:24.000",
    "request_status": "Pending",
    "responsible_agency": "Department of Public Works",
    "final_address": "3624 Third St",
    "address_councildis": "B",
    "status": "Pending",
    "rowid": "998561",
    "final_x": "3672408.4731",
    "final_y": "528909.851392",
    "longitude": "-90.09686708648758",
    "latitude": "29.948591545312546",
    "geocoded_column": {
      "latitude": "29.948591545312546",
      "longitude": "-90.09686708648758"
    }
  },