[
  {
    "service_request": "2026-1279150",
    "request_type": "Health Related Request",
    "request_reason": "Noise Ordinance Complaint",
    "date_created": "2026-05-05T23:26:45.000",
    "date_modified": "2026-05-05T23:26:46.000",
    "request_status": "Pending",
    "responsible_agency": "Health Department",
    "final_address": "2122 Pine St, New Orleans, Louisiana, 70118",
    "address_councildis": "A",
    "status": "Pending",
    "rowid": "1279150",
    "final_x": "3665779.16256",
    "final_y": "529485.652545",
    "longitude": "-90.11777941092338",
    "latitude": "29.950369848114935",
    "geocoded_column": {
      "latitude": "29.950369848114935",
      "longitude": "-90.11777941092338"
    }
  },
  {
    "service_request": "2026-1279149",
    "request_type": "Trash/Recycling",
    "request_reason": "Request a Large Item Pick Up",
    "date_created": "2026-05-05T23:24:25.000",
    "date_modified": "2026-05-05T23:24:28.000",
    "request_status": "Pending",
    "responsible_agency": "Department of Sanitation",
    "final_address": "614 Esplanade Ave",
    "address_councildis": "C",
    "status": "Assigned to Contractor",
    "contractor": "IV Waste",
    "rowid": "1279149",
    "final_x": "3684193.25231",
    "final_y": "534226.798277",
    "longitude": "-90.05947099322388",
    "latitude": "29.962856401929088",
    "geocoded_column": {
      "latitude": "29.962856401929088",
      "longitude": "-90.05947099322388"
    }
  },
  {
    "service_request": "2026-1279148",
    "request_type": "Trash/Recycling",
    "request_reason": "Request a Large Item Pick Up",
    "date_created": "2026-05-05T23:10:44.000",
    "date_modified": "2026-05-05T23:10:46.000",
    "request_status": "Pending",
    "responsible_agency": "Department of Sanitation",
    "final_address": "5941 Winchester Park Dr",
    "address_councildis": "E",
    "status": "Assigned to Contractor",
    "contractor": "Waste Pro",
    "rowid": "1279148",
    "final_x": "3714730.15858",
    "final_y": "562856.308064",
    "longitude": "-89.96195837966957",
    "latitude": "30.040607678670828",
    "geocoded_column": {
      "latitude": "30.040607678670828",
      "longitude": "-89.96195837966957"
    }
  },
  {
    "service_request": "2026-1279147",
    "request_type": "Trash/Recycling",
    "request_reason": "Request a Large Item Pick Up",
    "date_created": "2026-05-05T23:03:14.000",
    "date_modified": "2026-05-05T23:03:16.000",
    "request_status": "Pending",
    "responsible_agency": "Department of Sanitation",
    "final_address": "87 Yosemite Dr",
    "address_councildis": "C",
    "status": "Assigned to Contractor",
    "contractor": "Richards Disposal",
    "rowid": "1279147",
    "final_x": "3699350.36471",
    "final_y": "515868.586868",
    "longitude": "-90.01227543201345",
    "latitude": "29.911905663181845",
    "geocoded_column": {
      "latitude": "29.911905663181845",
      "longitude": "-90.01227543201345"
    }
  },
  {
    "service_request": "2026-1279146",
    "request_type": "Health Related Request",
    "request_reason": "Noise Ordinance Complaint",
    "date_created": "2026-05-05T22:39:16.000",
    "date_modified": "2026-05-05T22:39:19.000",
    "request_status": "Pending",
    "responsible_agency": "Health Department",
    "final_address": "800 Bourbon St, New Orleans, Louisiana, 70116",
    "address_councildis": "C",
    "status": "Pending",
    "rowid": "1279146",
    "final_x": "3682553.51528",
    "final_y": "533013.631428",
    "longitude": "-90.06469148499534",
    "latitude": "29.95957063099051",
    "geocoded_column": {
      "latitude": "29.95957063099051",
      "longitude": "-90.06469148499534"
    }
  },
  {
    "service_request": "2026-1279145",
    "request_type": "General Services",
    "request_reason": "General Service Request",
    "date_created": "2026-05-05T22:28:39.000",
    "date_modified": "2026-05-05T22:28:43.000",
    "request_status": "Pending",
    "responsible_agency": "Orleans Parish Communication District",
    "final_address": "4951 Bundy Rd",
    "address_councildis": "E",
    "status": "Pending",
    "rowid": "1279145",
    "final_x": "3709298.35582",
    "final_y": "556975.31529",
    "longitude": "-89.97934415620982",
    "latitude": "30.024614905456694",
    "geocoded_column": {
      "latitude": "30.024614905456694",
      "longitude": "-89.97934415620982"
    }
  },
  {
    "service_request": "2026-1279144",
    "request_type": "Abandoned Vehicles",
    "request_reason": "Abandoned/Junk Vehicles",
    "date_created": "2026-05-05T22:14:53.000",
    "date_modified": "2026-05-05T22:14:55.000",
    "request_status": "Pending",
    "responsible_agency": "Department of Public Works",
    "final_address": "224 Jewel St",
    "address_councildis": "D",
    "status": "Pending",
    "rowid": "1279144",
    "final_x": "3667252.381",
    "final_y": "555740.882905",
    "longitude": "-90.11224429474247",
    "latitude": "30.022519754616077",
    "geocoded_column": {
      "latitude": "30.022519754616077",
      "longitude": "-90.11224429474247"
    }
  },
  {
    "service_request": "2026-1279143",
    "request_type": "Abandoned Vehicles",
    "request_reason": "Abandoned/Junk Vehicles",
    "date_created": "2026-05-05T22:03:46.000",
    "date_modified": "2026-05-05T22:03:47.000",
    "request_status": "Pending",
    "responsible_agency": "Department of Public Works",
    "final_address": "315 Jewel St",
    "address_councildis": "D",
    "status": "Pending",
    "rowid": "1279143",
    "final_x": "3667574.57441",
    "final_y": "555897.912985",
    "longitude": "-90.11122094463724",
    "latitude": "30.02294208666563",
    "geocoded_column": {
      "latitude": "30.02294208666563",
      "longitude": "-90.11122094463724"
    }
  },
  {
    "service_request": "2026-1279142",
    "request_type": "Abandoned Vehicles",
    "request_reason": "Abandoned/Junk Vehicles",
    "date_created": "2026-05-05T21:58:00.000",
    "date_modified": "2026-05-05T21:58:02.000",
    "request_status": "Pending",
    "responsible_agency": "Department of Public Works",
    "final_address": "101 Allen Toussaint Blvd",
    "address_councildis": "D",
    "status": "Pending",
    "rowid": "1279142",
    "final_x": "3667078.52308",
    "final_y": "555294.448409",
    "longitude": "-90.11280867210165",
    "latitude": "30.02129731128112",
    "geocoded_column": {
      "latitude": "30.02129731128112",
      "longitude": "-90.11280867210165"
    }
  },
  {
    "service_request": "2026-1279141",
    "request_type": "Streetlights",
    "request_reason": "Streetlight Outage/Malfunction",
    "date_created": "2026-05-05T21:46:37.000",
    "date_modified": "2026-05-05T21:46:40.000",
    "request_status": "Pending",
    "responsible_agency": "Department of Public Works",
    "final_address": "CAMEO ST & SAPPHIRE ST",
    "address_councildis": "D",
    "status": "Pending",
    "rowid": "1279141",
    "final_x": "3667543.5",
    "final_y": "555229.28",
    "longitude": "-90.11134166456019",
    "latitude": "30.02110449456024",
    "geocoded_column": {
      "latitude": "30.02110449456024",
      "longitude": "-90.11134166456019"
    }
  },
  {
    "service_request": "2026-1279140",
    "request_type": "Streetlights",
    "request_reason": "Streetlight Outage/Malfunction",
    "date_created": "2026-05-05T21:39:38.000",
    "date_modified": "2026-05-05T21:39:39.000",
    "request_status": "Pending",
    "responsible_agency": "Department of Public Works",
    "final_address": "ROBERT E LEE BLVD & WEST END BLVD",
    "address_councildis": "A",
    "status": "Pending",
    "rowid": "1279140",
    "final_x": "3666970.6",
    "final_y": "554841.58",
    "longitude": "-90.1131649180437",
    "latitude": "30.02005524389593",
    "geocoded_column": {
      "latitude": "30.02005524389593",
      "longitude": "-90.1131649180437"
    }
  },
  {
    "service_request": "2026-1279139",
    "request_type": "Streetlights",
    "request_reason": "Streetlight Outage/Malfunction",
    "date_created": "2026-05-05T21:37:26.000",
    "date_modified": "2026-05-05T21:37:29.000",
    "request_status": "Pending",
    "responsible_agency": "Department of Public Works",
    "final_address": "ROBERT E LEE BLVD & CATINA ST",
    "address_councildis": "A",
    "status": "Pending",
    "rowid": "1279139",
    "final_x": "3667179.4",
    "final_y": "554821.78",
    "longitude": "-90.11250584022375",
    "latitude": "30.019994685578936",
    "geocoded_column": {
      "latitude": "30.019994685578936",
      "longitude": "-90.11250584022375"
    }
  },
  {
    "service_request": "2026-1279138",
    "request_type": "Streetlights",
    "request_reason": "Streetlight Outage/Malfunction",
    "date_created": "2026-05-05T21:31:24.000",
    "date_modified": "2026-05-05T21:31:26.000",
    "request_status": "Pending",
    "responsible_agency": "Department of Public Works",
    "final_address": "WEST END BLVD & CRYSTAL ST",
    "address_councildis": "D",
    "status": "Pending",
    "rowid": "1279138",
    "final_x": "3667090.8",
    "final_y": "556127.18",
    "longitude": "-90.11274185172893",
    "latitude": "30.023586668150784",
    "geocoded_column": {
      "latitude": "30.023586668150784",
      "longitude": "-90.11274185172893"
    }
  },
  {
    "service_request": "2026-1279137",
    "request_type": "Streetlights",
    "request_reason": "Streetlight Outage/Malfunction",
    "date_created": "2026-05-05T21:28:55.000",
    "date_modified": "2026-05-05T21:28:57.000",
    "request_status": "Pending",
    "responsible_agency": "Department of Public Works",
    "final_address": "WEST END BLVD & JEWEL ST",
    "address_councildis": "D",
    "status": "Pending",
    "rowid": "1279137",
    "final_x": "3667066.5",
    "final_y": "555845.58",
    "longitude": "-90.1128281128501",
    "latitude": "30.02281307987026",
    "geocoded_column": {
      "latitude": "30.02281307987026",
      "longitude": "-90.1128281128501"
    }
  },
  {
    "service_request": "2026-1279136",
    "request_type": "Streetlights",
    "request_reason": "Streetlight Outage/Malfunction",
    "date_created": "2026-05-05T21:24:46.000",
    "date_modified": "2026-05-05T21:24:48.000",
    "request_status": "Pending",
    "responsible_agency": "Department of Public Works",
    "final_address": "RING ST & ROBERT E LEE BLVD & VICKSBURG ST",
    "address_councildis": "A",
    "status": "Pending",
    "rowid": "1279136",
    "final_x": "3669545.4",
    "final_y": "554614.48",
    "longitude": "-90.10503703224065",
    "latitude": "30.019355158106666",
    "geocoded_column": {
      "latitude": "30.019355158106666",
      "longitude": "-90.10503703224065"
    }
  },
  {
    "service_request": "2026-1279135",
    "request_type": "Trash/Recycling",
    "request_reason": "Replace Trash Cart",
    "date_created": "2026-05-05T21:14:19.000",
    "date_modified": "2026-05-05T21:14:21.000",
    "request_status": "Pending",
    "responsible_agency": "Department of Sanitation",
    "final_address": "5723 Canal Blvd",
    "address_councildis": "A",
    "status": "Assigned to Contractor",
    "contractor": "IV Waste",
    "rowid": "1279135",
    "final_x": "3668442.10318",
    "final_y": "545619.71528",
    "longitude": "-90.10882680448029",
    "latitude": "29.994655169761177",
    "geocoded_column": {
      "latitude": "29.994655169761177",
      "longitude": "-90.10882680448029"
    }
  },
  {
    "service_request": "2026-1279134",
    "request_type": "Trash/Recycling",
    "request_reason": "Repair Trash Cart",
    "date_created": "2026-05-05T20:40:00.000",
    "date_modified": "2026-05-05T20:40:02.000",
    "request_status": "Pending",
    "responsible_agency": "Department of Sanitation",
    "final_address": "0 BLK Charlotte Dr",
    "address_councildis": "D",
    "status": "Assigned to Contractor",
    "contractor": "IV Waste",
    "rowid": "1279134",
    "final_x": "3680306.04421",
    "final_y": "551384.304171",
    "longitude": "-90.07114947197744",
    "latitude": "30.010151784319163",
    "geocoded_column": {
      "latitude": "30.010151784319163",
      "longitude": "-90.07114947197744"
    }
  },
  {
    "service_request": "2026-1279133",
    "request_type": "Trash/Recycling",
    "request_reason": "Request a Large Item Pick Up",
    "date_created": "2026-05-05T20:00:54.000",
    "date_modified": "2026-05-05T20:00:55.000",
    "request_status": "Pending",
    "responsible_agency": "Department of Sanitation",
    "final_address": "4991 N Dorgenois St",
    "address_councildis": "E",
    "status": "Assigned to Contractor",
    "contractor": "Waste Pro",
    "rowid": "1279133",
    "final_x": "3697371.69251",
    "final_y": "539578.59937",
    "longitude": "-90.01766133735484",
    "latitude": "29.97716250993233",
    "geocoded_column": {
      "latitude": "29.97716250993233",
      "longitude": "-90.01766133735484"
    }
  },
  {
    "service_request": "2026-1279132",
    "request_type": "Trash/Recycling",
    "request_reason": "Request a Large Item Pick Up",
    "date_created": "2026-05-05T19:56:26.000",
    "date_modified": "2026-05-05T19:56:27.000",
    "request_status": "Pending",
    "responsible_agency": "Department of Sanitation",
    "final_address": "2400 Lark St",
    "address_councildis": "D",
    "status": "Assigned to Contractor",
    "contractor": "IV Waste",
    "rowid": "1279132",
    "final_x": "3684695.16681",
    "final_y": "557823.207323",
    "longitude": "-90.05705604616055",
    "latitude": "30.02772273089625",
    "geocoded_column": {
      "latitude": "30.02772273089625",
      "longitude": "-90.05705604616055"
    }
  },
  {
    "service_request": "2026-1279131",
    "request_type": "Trash/Recycling",
    "request_reason": "MIssed Recycling Pick-Up",
    "date_created": "2026-05-05T19:53:41.000",
    "date_modified": "2026-05-05T19:53:42.000",
    "request_status": "Pending",
    "responsible_agency": "Department of Sanitation",
    "final_address": "219 N Tonti St",
    "address_councildis": "B",
    "status": "Assigned to Contractor",
    "contractor": "IV Waste",
    "rowid": "1279131",
    "final_x": "3676761.86241",
    "final_y": "534794.441094",
    "longitude": "-90.08291883342508",
    "latitude": "29.964642303216188",
    "geocoded_column": {
      "latitude": "29.964642303216188",
      "longitude": "-90.08291883342508"
    }
  },
  {
    "service_request": "2026-1279130",
    "request_type": "Abandoned Vehicles",
    "request_reason": "Abandoned/Junk Vehicles",
    "date_created": "2026-05-05T19:50:15.000",
    "date_modified": "2026-05-05T19:50:17.000",
    "request_status": "Pending",
    "responsible_agency": "Department of Public Works",
    "final_address": "838 Congress St",
    "address_councildis": "C",
    "status": "Pending",
    "rowid": "1279130",
    "final_x": "3690480.98659",
    "final_y": "534743.814022",
    "longitude": "-90.03959676268546",
    "latitude": "29.96408430856361",
    "geocoded_column": {
      "latitude": "29.96408430856361",
      "longitude": "-90.03959676268546"
    }
  },
  {
    "service_request": "2026-1279129",
    "request_type": "Property Maintenance",
    "request_reason": "Property Maintenance",
    "date_created": "2026-05-05T19:33:43.000",
    "date_modified": "2026-05-05T19:33:44.000",
    "request_status": "Pending",
    "responsible_agency": "Department of Code Enforcement",
    "final_address": "2632 N Derbigny St",
    "address_councildis": "D",
    "status": "Pending",
    "rowid": "1279129",
    "final_x": "3687960.511",
    "final_y": "538614.977865",
    "longitude": "-90.0474189884875",
    "latitude": "29.974806663293624",
    "geocoded_column": {
      "latitude": "29.974806663293624",
      "longitude": "-90.0474189884875"
    }
  },
  {
    "service_request": "2026-1279128",
    "request_type": "Trash/Recycling",
    "request_reason": "Request a Large Item Pick Up",
    "date_created": "2026-05-05T19:33:16.000",
    "date_modified": "2026-05-05T19:33:20.000",
    "request_status": "Pending",
    "responsible_agency": "Department of Sanitation",
    "final_address": "615 Lyons St",
    "address_councildis": "B",
    "status": "Assigned to Contractor",
    "contractor": "IV Waste",
    "rowid": "1279128",
    "final_x": "3669370.63412",
    "final_y": "517710.506614",
    "longitude": "-90.10683735448791",
    "latitude": "29.9178867275067",
    "geocoded_column": {
      "latitude": "29.9178867275067",
      "longitude": "-90.10683735448791"
    }
  },
  {
    "service_request": "2026-1279127",
    "request_type": "General Services",
    "request_reason": "General Service Request",
    "date_created": "2026-05-05T19:22:54.000",
    "date_modified": "2026-05-05T19:22:55.000",
    "request_status": "Pending",
    "responsible_agency": "Orleans Parish Communication District",
    "final_address": "105 Wilshire Pl",
    "address_councildis": "D",
    "status": "Pending",
    "rowid": "1279127",
    "final_x": "3677538.78107",
    "final_y": "544338.542159",
    "longitude": "-90.08013574335342",
    "latitude": "29.99086195769874",
    "geocoded_column": {
      "latitude": "29.99086195769874",
      "longitude": "-90.08013574335342"
    }
  },
  {
    "service_request": "2026-1279126",
    "request_type": "Trash/Recycling",
    "request_reason": "Request a Large Item Pick Up",
    "date_created": "2026-05-05T19:22:42.000",
    "date_modified": "2026-05-05T19:22:43.000",
    "request_status": "Pending",
    "responsible_agency": "Department of Sanitation",
    "final_address": "4915 Spain St",
    "address_councildis": "D",
    "status": "Assigned to Contractor",
    "contractor": "IV Waste",
    "rowid": "1279126",
    "final_x": "3684994.38882",
    "final_y": "550995.100565",
    "longitude": "-90.05635098536239",
    "latitude": "30.00893878104121",
    "geocoded_column": {
      "latitude": "30.00893878104121",
      "longitude": "-90.05635098536239"
    }
  },
  {
    "service_request": "2026-1279125",
    "request_type": "Trash/Recycling",
    "request_reason": "Request a Large Item Pick Up",
    "date_created": "2026-05-05T19:22:41.000",
    "date_modified": "2026-05-05T19:22:43.000",
    "request_status": "Pending",
    "responsible_agency": "Department of Sanitation",
    "final_address": "6507 Center St",
    "address_councildis": "A",
    "status": "Assigned to Contractor",
    "contractor": "IV Waste",
    "rowid": "1279125",
    "final_x": "3664941.1545",
    "final_y": "551299.556565",
    "longitude": "-90.11969589054587",
    "latitude": "30.010375184878175",
    "geocoded_column": {
      "latitude": "30.010375184878175",
      "longitude": "-90.11969589054587"
    }
  },
  {
    "service_request": "2026-1279124",
    "request_type": "Streetlights",
    "request_reason": "Streetlight Outage/Malfunction",
    "date_created": "2026-05-05T19:18:03.000",
    "date_modified": "2026-05-05T19:18:06.000",
    "request_status": "Pending",
    "responsible_agency": "Department of Public Works",
    "final_address": "120 Portage Pl",
    "address_councildis": "D",
    "status": "Pending",
    "rowid": "1279124",
    "final_x": "3677874.92296",
    "final_y": "544613.229647",
    "longitude": "-90.07906445381924",
    "latitude": "29.99160713908717",
    "geocoded_column": {
      "latitude": "29.99160713908717",
      "longitude": "-90.07906445381924"
    }
  },
  {
    "service_request": "2026-1279123",
    "request_type": "Drainage",
    "request_reason": "Catch Basin Not Draining",
    "date_created": "2026-05-05T19:09:15.000",
    "date_modified": "2026-05-05T19:09:17.000",
    "request_status": "Pending",
    "responsible_agency": "Sewerage & Water Board",
    "final_address": "11643 N Adams Ct",
    "address_councildis": "E",
    "status": "Pending",
    "rowid": "1279123",
    "final_x": "3718724.32409",
    "final_y": "557613.858139",
    "longitude": "-89.94953572078866",
    "latitude": "30.026061014045407",
    "geocoded_column": {
      "latitude": "30.026061014045407",
      "longitude": "-89.94953572078866"
    }
  },
  {
    "service_request": "2026-1279122",
    "request_type": "Property Maintenance",
    "request_reason": "Property Maintenance",
    "date_created": "2026-05-05T19:06:40.000",
    "date_modified": "2026-05-05T19:06:42.000",
    "request_status": "Pending",
    "responsible_agency": "Department of Code Enforcement",
    "final_address": "1140 Frenchmen St",
    "address_councildis": "C",
    "status": "Pending",
    "rowid": "1279122",
    "final_x": "3684532.95471",
    "final_y": "536589.508423",
    "longitude": "-90.05831523526206",
    "latitude": "29.96934264931081",
    "geocoded_column": {
      "latitude": "29.96934264931081",
      "longitude": "-90.05831523526206"
    }
  },
  {
    "service_request": "2026-1279121",
    "request_type": "Drainage",
    "request_reason": "Catch Basin Not Draining",
    "date_created": "2026-05-05T19:02:25.000",
    "date_modified": "2026-05-05T19:02:27.000",
    "request_status": "Pending",
    "responsible_agency": "Sewerage & Water Board",
    "final_address": "11643 N Adams Ct",
    "address_councildis": "E",
    "status": "Pending",
    "rowid": "1279121",
    "final_x": "3718724.32409",
    "final_y": "557613.858139",
    "longitude": "-89.94953572078866",
    "latitude": "30.026061014045407",
    "geocoded_column": {
      "latitude": "30.026061014045407",
      "longitude": "-89.94953572078866"
    }
  },
  {
    "service_request": "2026-1279120",
    "request_type": "Trash/Recycling",
    "request_reason": "Order Trash Cart",
    "date_created": "2026-05-05T19:01:47.000",
    "date_modified": "2026-05-05T19:01:50.000",
    "request_status": "Pending",
    "responsible_agency": "Department of Sanitation",
    "final_address": "12931 Chanelle Ct",
    "address_councildis": "E",
    "status": "Assigned to Contractor",
    "contractor": "Waste Pro",
    "rowid": "1279120",
    "final_x": "3717055.63692",
    "final_y": "567483.821156",
    "longitude": "-89.95443318702804",
    "latitude": "30.0532547157596",
    "geocoded_column": {
      "latitude": "30.0532547157596",
      "longitude": "-89.95443318702804"
    }
  },
  {
    "service_request": "2026-1279119",
    "request_type": "General Services",
    "request_reason": "General Service Request",
    "date_created": "2026-05-05T18:56:16.000",
    "date_modified": "2026-05-05T18:56:21.000",
    "request_status": "Pending",
    "responsible_agency": "Orleans Parish Communication District",
    "final_address": "7900 Sandpiper Dr",
    "address_councildis": "E",
    "status": "Pending",
    "rowid": "1279119",
    "final_x": "3715319.95218",
    "final_y": "570376.098855",
    "longitude": "-89.95980958385081",
    "latitude": "30.061264605113873",
    "geocoded_column": {
      "latitude": "30.061264605113873",
      "longitude": "-89.95980958385081"
    }
  },
  {
    "service_request": "2026-1279118",
    "request_type": "Trash/Recycling",
    "request_reason": "Missed Trash Pick-Up",
    "date_created": "2026-05-05T18:42:47.000",
    "date_modified": "2026-05-05T18:42:49.000",
    "request_status": "Pending",
    "responsible_agency": "Department of Sanitation",
    "final_address": "614 Esplanade Ave, New Orleans, Louisiana, 70116",
    "address_councildis": "C",
    "status": "Assigned to Contractor",
    "contractor": "IV Waste",
    "rowid": "1279118",
    "final_x": "3684193.25231",
    "final_y": "534226.798277",
    "longitude": "-90.05947099322388",
    "latitude": "29.962856401929088",
    "geocoded_column": {
      "latitude": "29.962856401929088",
      "longitude": "-90.05947099322388"
    }
  },
  {
    "service_request": "2026-1279117",
    "request_type": "Trash/Recycling",
    "request_reason": "Return Trash Cart",
    "date_created": "2026-05-05T18:40:28.000",
    "date_modified": "2026-05-05T18:40:30.000",
    "request_status": "Pending",
    "responsible_agency": "Department of Sanitation",
    "final_address": "7616 Plum St",
    "address_councildis": "A",
    "status": "Assigned to Contractor",
    "contractor": "IV Waste",
    "rowid": "1279117",
    "final_x": "3663470.39015",
    "final_y": "527432.209599",
    "longitude": "-90.12513770789843",
    "latitude": "29.94479068389249",
    "geocoded_column": {
      "latitude": "29.94479068389249",
      "longitude": "-90.12513770789843"
    }
  },
  {
    "service_request": "2026-1279116",
    "request_type": "Trash/Recycling",
    "request_reason": "Damaged Caused By Contractor",
    "date_created": "2026-05-05T18:31:21.000",
    "date_modified": "2026-05-05T18:31:23.000",
    "request_status": "Pending",
    "responsible_agency": "Department of Sanitation",
    "final_address": "4678 Spain St",
    "address_councildis": "D",
    "status": "Assigned to Contractor",
    "contractor": "IV Waste",
    "rowid": "1279116",
    "final_x": "3684964.23791",
    "final_y": "550113.314644",
    "longitude": "-90.0564772858009",
    "latitude": "30.006515113880017",
    "geocoded_column": {
      "latitude": "30.006515113880017",
      "longitude": "-90.0564772858009"
    }
  },
  {
    "service_request": "2026-1279115",
    "request_type": "Abandoned Vehicles",
    "request_reason": "Abandoned/Junk Vehicles",
    "date_created": "2026-05-05T18:17:37.000",
    "date_modified": "2026-05-05T18:17:39.000",
    "request_status": "Pending",
    "responsible_agency": "Department of Public Works",
    "final_address": "7217 St Charles Ave",
    "address_councildis": "A",
    "status": "Pending",
    "rowid": "1279115",
    "final_x": "3662897.3721",
    "final_y": "524902.371324",
    "longitude": "-90.12703099668803",
    "latitude": "29.937851035585837",
    "geocoded_column": {
      "latitude": "29.937851035585837",
      "longitude": "-90.12703099668803"
    }
  },
  {
    "service_request": "2026-1279114",
    "request_type": "Trash/Recycling",
    "request_reason": "Request a Large Item Pick Up",
    "date_created": "2026-05-05T18:09:30.000",
    "date_modified": "2026-05-05T18:09:32.000",
    "request_status": "Pending",
    "responsible_agency": "Department of Sanitation",
    "final_address": "3410 Blair St",
    "address_councildis": "C",
    "status": "Assigned to Contractor",
    "contractor": "Richards Disposal",
    "rowid": "1279114",
    "final_x": "3709452.84824",
    "final_y": "518200.203382",
    "longitude": "-89.98030275854161",
    "latitude": "29.91799266839776",
    "geocoded_column": {
      "latitude": "29.91799266839776",
      "longitude": "-89.98030275854161"
    }
  },
  {
    "service_request": "2026-1279113",
    "request_type": "Trash/Recycling",
    "request_reason": "Replace Trash Cart",
    "date_created": "2026-05-05T17:57:28.000",
    "date_modified": "2026-05-05T17:57:29.000",
    "request_status": "Pending",
    "responsible_agency": "Department of Sanitation",
    "final_address": "4584 Francisco Verrett Dr",
    "address_councildis": "E",
    "status": "Assigned to Contractor",
    "contractor": "Waste Pro",
    "rowid": "1279113",
    "final_x": "3704282.19748",
    "final_y": "554215.07708",
    "longitude": "-89.99529608008426",
    "latitude": "30.017187341456616",
    "geocoded_column": {
      "latitude": "30.017187341456616",
      "longitude": "-89.99529608008426"
    }
  },
  {
    "service_request": "2026-1279112",
    "request_type": "Trash/Recycling",
    "request_reason": "Request a Large Item Pick Up",
    "date_created": "2026-05-05T17:56:45.000",
    "date_modified": "2026-05-05T17:56:48.000",
    "request_status": "Pending",
    "responsible_agency": "Department of Sanitation",
    "final_address": "11601 River Rd",
    "address_councildis": "C",
    "status": "Assigned to Contractor",
    "contractor": "Richards Disposal",
    "rowid": "1279112",
    "final_x": "3728489.784",
    "final_y": "515072.233523",
    "longitude": "-89.92033625138534",
    "latitude": "29.908760066297063",
    "geocoded_column": {
      "latitude": "29.908760066297063",
      "longitude": "-89.92033625138534"
    }
  },
  {
    "service_request": "2026-1279111",
    "request_type": "Roads and Streets",
    "request_reason": "Pothole",
    "date_created": "2026-05-05T17:49:15.000",
    "date_modified": "2026-05-05T17:49:17.000",
    "request_status": "Pending",
    "responsible_agency": "Department of Public Works",
    "final_address": "1518 N Dupre St",
    "address_councildis": "D",
    "status": "Pending",
    "rowid": "1279111",
    "final_x": "3677337.40718",
    "final_y": "540087.387403",
    "longitude": "-90.080918608843",
    "latitude": "29.97917881287847",
    "geocoded_column": {
      "latitude": "29.97917881287847",
      "longitude": "-90.080918608843"
    }
  },
  {
    "service_request": "2026-1279110",
    "request_type": "Street and Traffic Signs",
    "request_reason": "Traffic or Parking Sign Damaged or Missing",
    "date_created": "2026-05-05T17:36:55.000",
    "date_modified": "2026-05-05T17:36:58.000",
    "request_status": "Pending",
    "responsible_agency": "Department of Public Works",
    "final_address": "500 BLK Common St",
    "address_councildis": "B",
    "status": "Pending",
    "rowid": "1279110",
    "final_x": "3681516.86003",
    "final_y": "530040.023369",
    "longitude": "-90.06806868663317",
    "latitude": "29.951425735844232",
    "geocoded_column": {
      "latitude": "29.951425735844232",
      "longitude": "-90.06806868663317"
    }
  },
  {
    "service_request": "2026-1279109",
    "request_type": "Trash/Recycling",
    "request_reason": "Order Second Trash Cart",
    "date_created": "2026-05-05T17:26:31.000",
    "date_modified": "2026-05-05T17:26:33.000",
    "request_status": "Pending",
    "responsible_agency": "Department of Sanitation",
    "final_address": "7601 Stonewood St",
    "address_councildis": "E",
    "status": "Assigned to Contractor",
    "contractor": "Waste Pro",
    "rowid": "1279109",
    "final_x": "3719621.99084",
    "final_y": "572386.265833",
    "longitude": "-89.94613413220472",
    "latitude": "30.06664922632796",
    "geocoded_column": {
      "latitude": "30.06664922632796",
      "longitude": "-89.94613413220472"
    }
  },
  {
    "service_request": "2026-1279108",
    "request_type": "Trash/Recycling",
    "request_reason": "Order Recycling Cart",
    "date_created": "2026-05-05T17:04:07.000",
    "date_modified": "2026-05-05T17:04:09.000",
    "request_status": "Pending",
    "responsible_agency": "Department of Sanitation",
    "final_address": "625 Cherokee St",
    "address_councildis": "A",
    "status": "Pending",
    "rowid": "1279108",
    "final_x": "3662331.87495",
    "final_y": "525508.038589",
    "longitude": "-90.12879622535576",
    "latitude": "29.939532786195613",
    "geocoded_column": {
      "latitude": "29.939532786195613",
      "longitude": "-90.12879622535576"
    }
  },
  {
    "service_request": "2026-1279107",
    "request_type": "Property Maintenance",
    "request_reason": "Property Maintenance",
    "date_created": "2026-05-05T17:01:50.000",
    "date_modified": "2026-05-05T17:01:52.000",
    "request_status": "Pending",
    "responsible_agency": "Department of Code Enforcement",
    "final_address": "918 Bellecastle St",
    "address_councildis": "B",
    "status": "Pending",
    "rowid": "1279107",
    "final_x": "3667663.24225",
    "final_y": "518796.822519",
    "longitude": "-90.11219012821331",
    "latitude": "29.92092389671253",
    "geocoded_column": {
      "latitude": "29.92092389671253",
      "longitude": "-90.11219012821331"
    }
  },
  {
    "service_request": "2026-1279106",
    "request_type": "Street and Traffic Signs",
    "request_reason": "Street Name Sign Damaged or Missing",
    "date_created": "2026-05-05T16:59:36.000",
    "date_modified": "2026-05-05T16:59:38.000",
    "request_status": "Pending",
    "responsible_agency": "Department of Public Works",
    "final_address": "CHARTRES ST & FRANCE ST",
    "address_councildis": "C",
    "status": "Pending",
    "rowid": "1279106",
    "final_x": "3691923.1",
    "final_y": "533314.98",
    "longitude": "-90.03509383616296",
    "latitude": "29.96011066567116",
    "geocoded_column": {
      "latitude": "29.96011066567116",
      "longitude": "-90.03509383616296"
    }
  },
  {
    "service_request": "2026-1279105",
    "request_type": "Property Maintenance",
    "request_reason": "Property Maintenance",
    "date_created": "2026-05-05T16:57:22.000",
    "date_modified": "2026-05-05T16:57:24.000",
    "request_status": "Pending",
    "responsible_agency": "Department of Code Enforcement",
    "final_address": "4507 Cartier Ave",
    "address_councildis": "D",
    "status": "Pending",
    "rowid": "1279105",
    "final_x": "3678013.75714",
    "final_y": "549080.058771",
    "longitude": "-90.07847138439726",
    "latitude": "30.003885162421827",
    "geocoded_column": {
      "latitude": "30.003885162421827",
      "longitude": "-90.07847138439726"
    }
  },
  {
    "service_request": "2026-1279104",
    "request_type": "Property Maintenance",
    "request_reason": "Property Maintenance",
    "date_created": "2026-05-05T16:56:34.000",
    "date_modified": "2026-05-05T16:56:35.000",
    "request_status": "Pending",
    "responsible_agency": "Department of Code Enforcement",
    "final_address": "5163 St Anthony Ave",
    "address_councildis": "D",
    "status": "Pending",
    "rowid": "1279104",
    "final_x": "3682330.31784",
    "final_y": "551857.60559",
    "longitude": "-90.0647374928952",
    "latitude": "30.011391724716745",
    "geocoded_column": {
      "latitude": "30.011391724716745",
      "longitude": "-90.0647374928952"
    }
  },
  {
    "service_request": "2026-1279103",
    "request_type": "Tree Service",
    "request_reason": "Tree Trim",
    "date_created": "2026-05-05T16:51:38.000",
    "date_modified": "2026-05-05T16:51:39.000",
    "request_status": "Pending",
    "responsible_agency": "Department of Parks & Parkways",
    "final_address": "S DERBIGNY ST & MILAN ST",
    "address_councildis": "B",
    "status": "Pending",
    "rowid": "1279103",
    "final_x": "3671062.3",
    "final_y": "526324.28",
    "longitude": "-90.10120531788726",
    "latitude": "29.941521942428444",
    "geocoded_column": {
      "latitude": "29.941521942428444",
      "longitude": "-90.10120531788726"
    }
  },
  {
    "service_request": "2026-1279102",
    "request_type": "Streetlights",
    "request_reason": "Streetlight Outage/Malfunction",
    "date_created": "2026-05-05T16:51:13.000",
    "date_modified": "2026-05-05T16:51:16.000",
    "request_status": "Pending",
    "responsible_agency": "Department of Public Works",
    "final_address": "GENTILLY BLVD & ELYSIAN FIELDS AVE",
    "address_councildis": "D",
    "status": "Pending",
    "rowid": "1279102",
    "final_x": "3684064.37",
    "final_y": "547517.16",
    "longitude": "-90.05941138101605",
    "latitude": "29.999404165790484",
    "geocoded_column": {
      "latitude": "29.999404165790484",
      "longitude": "-90.05941138101605"
    }
  },
  {
    "service_request": "2026-1279101",
    "request_type": "Trash/Recycling",
    "request_reason": "Replace Trash Cart",
    "date_created": "2026-05-05T16:48:06.000",
    "date_modified": "2026-05-05T16:48:08.000",
    "request_status": "Pending",
    "responsible_agency": "Department of Sanitation",
    "final_address": "406 38Th St",
    "address_councildis": "A",
    "status": "Assigned to Contractor",
    "contractor": "IV Waste",
    "rowid": "1279101",
    "final_x": "3664918.89773",
    "final_y": "552657.589334",
    "longitude": "-90.11972076524341",
    "latitude": "30.01410994978017",
    "geocoded_column": {
      "latitude": "30.01410994978017",
      "longitude": "-90.11972076524341"
    }
  },
  {
    "service_request": "2026-1279100",
    "request_type": "Trash/Recycling",
    "request_reason": "Request a Large Item Pick Up",
    "date_created": "2026-05-05T16:46:36.000",
    "date_modified": "2026-05-05T16:46:38.000",
    "request_status": "Pending",
    "responsible_agency": "Department of Sanitation",
    "final_address": "1434 St Andrew St",
    "address_councildis": "B",
    "status": "Assigned to Contractor",
    "contractor": "IV Waste",
    "rowid": "1279100",
    "final_x": "3678618.71541",
    "final_y": "523589.703419",
    "longitude": "-90.07744284298361",
    "latitude": "29.93377717299945",
    "geocoded_column": {
      "latitude": "29.93377717299945",
      "longitude": "-90.07744284298361"
    }
  },
  {
    "service_request": "2026-1279099",
    "request_type": "Trash/Recycling",
    "request_reason": "Request a Large Item Pick Up",
    "date_created": "2026-05-05T16:45:56.000",
    "date_modified": "2026-05-05T16:45:58.000",
    "request_status": "Pending",
    "responsible_agency": "Department of Sanitation",
    "final_address": "3508 Banks St",
    "address_councildis": "B",
    "status": "Assigned to Contractor",
    "contractor": "IV Waste",
    "rowid": "1279099",
    "final_x": "3672004.40276",
    "final_y": "536037.232199",
    "longitude": "-90.09790027209536",
    "latitude": "29.968201456826456",
    "geocoded_column": {
      "latitude": "29.968201456826456",
      "longitude": "-90.09790027209536"
    }
  },
  {
    "service_request": "2026-1279098",
    "request_type": "Trash/Recycling",
    "request_reason": "Request a Large Item Pick Up",
    "date_created": "2026-05-05T16:39:58.000",
    "date_modified": "2026-05-05T16:40:00.000",
    "request_status": "Pending",
    "responsible_agency": "Department of Sanitation",
    "final_address": "2462 N Robertson St",
    "address_councildis": "C",
    "status": "Assigned to Contractor",
    "contractor": "IV Waste",
    "rowid": "1279098",
    "final_x": "3686950.66345",
    "final_y": "537903.387785",
    "longitude": "-90.05063349107802",
    "latitude": "29.972881163326683",
    "geocoded_column": {
      "latitude": "29.972881163326683",
      "longitude": "-90.05063349107802"
    }
  },
  {
    "service_request": "2026-1279097",
    "request_type": "Streetlights",
    "request_reason": "Streetlight Knocked Down/Leaning",
    "date_created": "2026-05-05T16:34:11.000",
    "date_modified": "2026-05-05T16:34:13.000",
    "request_status": "Pending",
    "responsible_agency": "Department of Public Works",
    "final_address": "7061 W Renaissance Ct",
    "address_councildis": "E",
    "status": "Pending",
    "rowid": "1279097",
    "final_x": "3716869.49701",
    "final_y": "567304.35978",
    "longitude": "-89.9550283421899",
    "latitude": "30.05276742862535",
    "geocoded_column": {
      "latitude": "30.05276742862535",
      "longitude": "-89.9550283421899"
    }
  },
  {
    "service_request": "2026-1279096",
    "request_type": "Trash/Recycling",
    "request_reason": "Request a Large Item Pick Up",
    "date_created": "2026-05-05T16:28:21.000",
    "date_modified": "2026-05-05T16:28:23.000",
    "request_status": "Pending",
    "responsible_agency": "Department of Sanitation",
    "final_address": "2309 Annette St",
    "address_councildis": "D",
    "status": "Assigned to Contractor",
    "contractor": "IV Waste",
    "rowid": "1279096",
    "final_x": "3682826.09365",
    "final_y": "540679.874315",
    "longitude": "-90.0635624815246",
    "latitude": "29.980641846163056",
    "geocoded_column": {
      "latitude": "29.980641846163056",
      "longitude": "-90.0635624815246"
    }
  },
  {
    "service_request": "2026-1279095",
    "request_type": "Streetlights",
    "request_reason": "Streetlight Outage/Malfunction",
    "date_created": "2026-05-05T16:22:32.000",
    "date_modified": "2026-05-05T16:22:34.000",
    "request_status": "Pending",
    "responsible_agency": "Department of Public Works",
    "final_address": "6588 Catina St",
    "address_councildis": "A",
    "status": "Pending",
    "rowid": "1279095",
    "final_x": "3666957.33492",
    "final_y": "551576.444821",
    "longitude": "-90.11331667834615",
    "latitude": "30.01107765877296",
    "geocoded_column": {
      "latitude": "30.01107765877296",
      "longitude": "-90.11331667834615"
    }
  },
  {
    "service_request": "2026-1279094",
    "request_type": "Trash/Recycling",
    "request_reason": "Request a Large Item Pick Up",
    "date_created": "2026-05-05T16:21:26.000",
    "date_modified": "2026-05-05T16:21:28.000",
    "request_status": "Pending",
    "responsible_agency": "Department of Sanitation",
    "final_address": "173 Lakewood Estates Dr",
    "address_councildis": "C",
    "status": "Assigned to Contractor",
    "contractor": "Richards Disposal",
    "rowid": "1279094",
    "final_x": "3700921.43441",
    "final_y": "512392.570609",
    "longitude": "-90.00744371018908",
    "latitude": "29.902297895252044",
    "geocoded_column": {
      "latitude": "29.902297895252044",
      "longitude": "-90.00744371018908"
    }
  },
  {
    "service_request": "2026-1279093",
    "request_type": "Streetlights",
    "request_reason": "New Streetlight Request",
    "date_created": "2026-05-05T16:20:15.000",
    "date_modified": "2026-05-05T16:20:17.000",
    "request_status": "Pending",
    "responsible_agency": "Department of Public Works",
    "final_address": "ELYSIAN FIELDS AVE & GENTILLY BLVD",
    "address_councildis": "D",
    "status": "Pending",
    "rowid": "1279093",
    "final_x": "3684156.09",
    "final_y": "547683.17",
    "longitude": "-90.0591158033759",
    "latitude": "29.999857829487908",
    "geocoded_column": {
      "latitude": "29.999857829487908",
      "longitude": "-90.0591158033759"
    }
  },
  {
    "service_request": "2026-1279092",
    "request_type": "Trash/Recycling",
    "request_reason": "Replace Trash Cart",
    "date_created": "2026-05-05T16:14:55.000",
    "date_modified": "2026-05-05T16:14:57.000",
    "request_status": "Pending",
    "responsible_agency": "Department of Sanitation",
    "final_address": "3029 Allen St",
    "address_councildis": "D",
    "status": "Assigned to Contractor",
    "contractor": "IV Waste",
    "rowid": "1279092",
    "final_x": "3682214.72149",
    "final_y": "543721.96123",
    "longitude": "-90.0653871381464",
    "latitude": "29.989025131141208",
    "geocoded_column": {
      "latitude": "29.989025131141208",
      "longitude": "-90.0653871381464"
    }
  },
  {
    "service_request": "2026-1279091",
    "request_type": "Healthy Homes",
    "request_reason": "Healthy Homes",
    "date_created": "2026-05-05T16:08:16.000",
    "date_modified": "2026-05-05T16:08:17.000",
    "request_status": "Pending",
    "responsible_agency": "Department of Code Enforcement",
    "final_address": "3725 Dauphine St Apt 121",
    "address_councildis": "C",
    "status": "Pending",
    "rowid": "1279091",
    "final_x": "3690874.91932",
    "final_y": "534376.253125",
    "longitude": "-90.03836588024707",
    "latitude": "29.96306140903522",
    "geocoded_column": {
      "latitude": "29.96306140903522",
      "longitude": "-90.03836588024707"
    }
  },
  {
    "service_request": "2026-1279090",
    "request_type": "Trash/Recycling",
    "request_reason": "Order Second Trash Cart",
    "date_created": "2026-05-05T16:07:28.000",
    "date_modified": "2026-05-05T16:07:30.000",
    "request_status": "Pending",
    "responsible_agency": "Department of Sanitation",
    "final_address": "10901 Yardley Rd",
    "address_councildis": "E",
    "status": "Assigned to Contractor",
    "contractor": "Waste Pro",
    "rowid": "1279090",
    "final_x": "3711674.33573",
    "final_y": "563552.152672",
    "longitude": "-89.97158957086548",
    "latitude": "30.042621179575246",
    "geocoded_column": {
      "latitude": "30.042621179575246",
      "longitude": "-89.97158957086548"
    }
  },
  {
    "service_request": "2026-1279089",
    "request_type": "Street and Traffic Signs",
    "request_reason": "One Way Sign Missing or Damaged",
    "date_created": "2026-05-05T16:05:37.000",
    "date_modified": "2026-05-05T16:05:39.000",
    "request_status": "Pending",
    "responsible_agency": "Department of Public Works",
    "final_address": "ROUSSELIN DR & BRUXELLES ST & ST BERNARD AVE",
    "address_councildis": "D",
    "status": "Pending",
    "rowid": "1279089",
    "final_x": "3680401.1",
    "final_y": "541344.38",
    "longitude": "-90.07119854727983",
    "latitude": "29.982542673053608",
    "geocoded_column": {
      "latitude": "29.982542673053608",
      "longitude": "-90.07119854727983"
    }
  },
  {
    "service_request": "2026-1279088",
    "request_type": "Trash/Recycling",
    "request_reason": "Request a Large Item Pick Up",
    "date_created": "2026-05-05T16:03:36.000",
    "date_modified": "2026-05-05T16:03:39.000",
    "request_status": "Pending",
    "responsible_agency": "Department of Sanitation",
    "final_address": "1617 Duels St",
    "address_councildis": "D",
    "status": "Assigned to Contractor",
    "contractor": "IV Waste",
    "rowid": "1279088",
    "final_x": "3680129.60239",
    "final_y": "542253.405197",
    "longitude": "-90.07202446630043",
    "latitude": "29.985050395097968",
    "geocoded_column": {
      "latitude": "29.985050395097968",
      "longitude": "-90.07202446630043"
    }
  },
  {
    "service_request": "2026-1279087",
    "request_type": "Roads and Streets",
    "request_reason": "Abandoned Service Cut",
    "date_created": "2026-05-05T16:02:57.000",
    "date_modified": "2026-05-05T16:02:59.000",
    "request_status": "Pending",
    "responsible_agency": "Department of Public Works",
    "final_address": "3304 Bienville Ave",
    "address_councildis": "B",
    "status": "Pending",
    "rowid": "1279087",
    "final_x": "3673965.21134",
    "final_y": "537069.949256",
    "longitude": "-90.09167260559684",
    "latitude": "29.970982802483128",
    "geocoded_column": {
      "latitude": "29.970982802483128",
      "longitude": "-90.09167260559684"
    }
  },
  {
    "service_request": "2026-1279086",
    "request_type": "Trash/Recycling",
    "request_reason": "Request a Large Item Pick Up",
    "date_created": "2026-05-05T16:02:40.000",
    "date_modified": "2026-05-05T16:02:42.000",
    "request_status": "Pending",
    "responsible_agency": "Department of Sanitation",
    "final_address": "3611 Gentilly Blvd",
    "address_councildis": "D",
    "status": "Assigned to Contractor",
    "contractor": "IV Waste",
    "rowid": "1279086",
    "final_x": "3686177.22998",
    "final_y": "548966.219987",
    "longitude": "-90.05268564581608",
    "latitude": "30.003323797677236",
    "geocoded_column": {
      "latitude": "30.003323797677236",
      "longitude": "-90.05268564581608"
    }
  },
  {
    "service_request": "2026-1279085",
    "request_type": "Parks & Grass Service",
    "request_reason": "Request Grass Cutting Service (City Owned Property)",
    "date_created": "2026-05-05T16:02:37.000",
    "date_modified": "2026-05-05T16:02:39.000",
    "request_status": "Pending",
    "responsible_agency": "Department of Parks & Parkways",
    "final_address": "4500 Ray Ave",
    "address_councildis": "E",
    "status": "Pending",
    "rowid": "1279085",
    "final_x": "3698804.77239",
    "final_y": "553050.273111",
    "longitude": "-90.01264482840634",
    "latitude": "30.014159305364696",
    "geocoded_column": {
      "latitude": "30.014159305364696",
      "longitude": "-90.01264482840634"
    }
  },
  {
    "service_request": "2026-1279084",
    "request_type": "Trash/Recycling",
    "request_reason": "Request a Large Item Pick Up",
    "date_created": "2026-05-05T16:01:03.000",
    "date_modified": "2026-05-05T16:01:06.000",
    "request_status": "Pending",
    "responsible_agency": "Department of Sanitation",
    "final_address": "7821 Sail St",
    "address_councildis": "E",
    "status": "Assigned to Contractor",
    "contractor": "Waste Pro",
    "rowid": "1279084",
    "final_x": "3720142.61842",
    "final_y": "574034.065578",
    "longitude": "-89.94442522703972",
    "latitude": "30.071162639563813",
    "geocoded_column": {
      "latitude": "30.071162639563813",
      "longitude": "-89.94442522703972"
    }
  },
  {
    "service_request": "2026-1279083",
    "request_type": "Trash/Recycling",
    "request_reason": "Repair Trash Cart",
    "date_created": "2026-05-05T16:00:23.000",
    "date_modified": "2026-05-05T16:00:25.000",
    "request_status": "Pending",
    "responsible_agency": "Department of Sanitation",
    "final_address": "4425 Wellington Ave",
    "address_councildis": "D",
    "status": "Assigned to Contractor",
    "contractor": "IV Waste",
    "rowid": "1279083",
    "final_x": "3677283.29109",
    "final_y": "548688.372819",
    "longitude": "-90.08079257974812",
    "latitude": "30.002830141060805",
    "geocoded_column": {
      "latitude": "30.002830141060805",
      "longitude": "-90.08079257974812"
    }
  },
  {
    "service_request": "2026-1279082",
    "request_type": "Trash/Recycling",
    "request_reason": "Request a Large Item Pick Up",
    "date_created": "2026-05-05T15:59:13.000",
    "date_modified": "2026-05-05T15:59:15.000",
    "request_status": "Pending",
    "responsible_agency": "Department of Sanitation",
    "final_address": "7040 Lake Barrington Dr",
    "address_councildis": "E",
    "status": "Assigned to Contractor",
    "contractor": "Waste Pro",
    "rowid": "1279082",
    "final_x": "3712507.37707",
    "final_y": "563837.295905",
    "longitude": "-89.96894612504661",
    "latitude": "30.04337796091714",
    "geocoded_column": {
      "latitude": "30.04337796091714",
      "longitude": "-89.96894612504661"
    }
  },
  {
    "service_request": "2026-1279081",
    "request_type": "Trash/Recycling",
    "request_reason": "Request a Large Item Pick Up",
    "date_created": "2026-05-05T15:58:37.000",
    "date_modified": "2026-05-05T15:58:38.000",
    "request_status": "Pending",
    "responsible_agency": "Department of Sanitation",
    "final_address": "4425 Wellington Ave",
    "address_councildis": "D",
    "status": "Assigned to Contractor",
    "contractor": "IV Waste",
    "rowid": "1279081",
    "final_x": "3677283.29109",
    "final_y": "548688.372819",
    "longitude": "-90.08079257974812",
    "latitude": "30.002830141060805",
    "geocoded_column": {
      "latitude": "30.002830141060805",
      "longitude": "-90.08079257974812"
    }
  },
  {
    "service_request": "2026-1279080",
    "request_type": "Street and Traffic Signs",
    "request_reason": "Stop Sign Missing or Damaged",
    "date_created": "2026-05-05T15:58:25.000",
    "date_modified": "2026-05-05T15:58:27.000",
    "request_status": "Pending",
    "responsible_agency": "Department of Public Works",
    "final_address": "ROBERT E LEE BLVD & ST ANTHONY AVE",
    "address_councildis": "D",
    "status": "Pending",
    "rowid": "1279080",
    "final_x": "3681923.0",
    "final_y": "555573.58",
    "longitude": "-90.06589451388542",
    "latitude": "30.02162169360641",
    "geocoded_column": {
      "latitude": "30.02162169360641",
      "longitude": "-90.06589451388542"
    }
  },
  {
    "service_request": "2026-1279079",
    "request_type": "Property Maintenance",
    "request_reason": "Property Maintenance",
    "date_created": "2026-05-05T15:57:24.000",
    "date_modified": "2026-05-05T15:57:25.000",
    "request_status": "Pending",
    "responsible_agency": "Department of Code Enforcement",
    "final_address": "0 BLK Dwyer Rd",
    "address_councildis": "E",
    "status": "Pending",
    "rowid": "1279079",
    "final_x": "3717176.06889",
    "final_y": "558469.101353",
    "longitude": "-89.95439543147795",
    "latitude": "30.02846391186081",
    "geocoded_column": {
      "latitude": "30.02846391186081",
      "longitude": "-89.95439543147795"
    }
  },
  {
    "service_request": "2026-1279078",
    "request_type": "Trash/Recycling",
    "request_reason": "Repair Trash Cart",
    "date_created": "2026-05-05T15:57:21.000",
    "date_modified": "2026-05-05T15:57:23.000",
    "request_status": "Pending",
    "responsible_agency": "Department of Sanitation",
    "final_address": "7811 Pebble Dr",
    "address_councildis": "E",
    "status": "Assigned to Contractor",
    "contractor": "Waste Pro",
    "rowid": "1279078",
    "final_x": "3714747.82898",
    "final_y": "569625.646374",
    "longitude": "-89.96164643648557",
    "latitude": "30.05922001521166",
    "geocoded_column": {
      "latitude": "30.05922001521166",
      "longitude": "-89.96164643648557"
    }
  },
  {
    "service_request": "2026-1279077",
    "request_type": "Trash/Recycling",
    "request_reason": "Request a Large Item Pick Up",
    "date_created": "2026-05-05T15:57:13.000",
    "date_modified": "2026-05-05T15:57:15.000",
    "request_status": "Pending",
    "responsible_agency": "Department of Sanitation",
    "final_address": "8501 Chase St",
    "address_councildis": "E",
    "status": "Assigned to Contractor",
    "contractor": "Waste Pro",
    "rowid": "1279077",
    "final_x": "3703316.9633",
    "final_y": "563325.3736",
    "longitude": "-89.99801035663695",
    "latitude": "30.04226807287689",
    "geocoded_column": {
      "latitude": "30.04226807287689",
      "longitude": "-89.99801035663695"
    }
  },
  {
    "service_request": "2026-1279076",
    "request_type": "Trash/Recycling",
    "request_reason": "Repair Trash Cart",
    "date_created": "2026-05-05T15:54:22.000",
    "date_modified": "2026-05-05T15:54:25.000",
    "request_status": "Pending",
    "responsible_agency": "Department of Sanitation",
    "final_address": "5721 Abbey Dr",
    "address_councildis": "C",
    "status": "Assigned to Contractor",
    "contractor": "Richards Disposal",
    "rowid": "1279076",
    "final_x": "3704783.30948",
    "final_y": "521039.323769",
    "longitude": "-89.99493714882166",
    "latitude": "29.92595005261294",
    "geocoded_column": {
      "latitude": "29.92595005261294",
      "longitude": "-89.99493714882166"
    }
  },
  {
    "service_request": "2026-1279075",
    "request_type": "Abandoned Vehicles",
    "request_reason": "Abandoned/Junk Vehicles",
    "date_created": "2026-05-05T15:53:48.000",
    "date_modified": "2026-05-05T15:53:50.000",
    "request_status": "Pending",
    "responsible_agency": "Department of Public Works",
    "final_address": "8518 Forshey St",
    "address_councildis": "A",
    "status": "Pending",
    "rowid": "1279075",
    "final_x": "3665789.58784",
    "final_y": "534981.668358",
    "longitude": "-90.1175623666376",
    "latitude": "29.96548178956115",
    "geocoded_column": {
      "latitude": "29.96548178956115",
      "longitude": "-90.1175623666376"
    }
  },
  {
    "service_request": "2026-1279074",
    "request_type": "Tree Service",
    "request_reason": "Dead or Dying Tree",
    "date_created": "2026-05-05T15:51:59.000",
    "date_modified": "2026-05-05T15:52:00.000",
    "request_status": "Pending",
    "responsible_agency": "Department of Parks & Parkways",
    "final_address": "3380 State Street Dr",
    "address_councildis": "A",
    "status": "Pending",
    "rowid": "1279074",
    "final_x": "3667801.35137",
    "final_y": "528940.208576",
    "longitude": "-90.11141273887227",
    "latitude": "29.948810913428446",
    "geocoded_column": {
      "latitude": "29.948810913428446",
      "longitude": "-90.11141273887227"
    }
  },
  {
    "service_request": "2026-1279073",
    "request_type": "Tree Service",
    "request_reason": "Street or Sidewalk Blocked",
    "date_created": "2026-05-05T15:51:33.000",
    "date_modified": "2026-05-05T15:51:35.000",
    "request_status": "Pending",
    "responsible_agency": "Department of Parks & Parkways",
    "final_address": "2245 N Villere St",
    "address_councildis": "C",
    "status": "Pending",
    "rowid": "1279073",
    "final_x": "3685383.82524",
    "final_y": "537484.903176",
    "longitude": "-90.05559659254367",
    "latitude": "29.971778612073933",
    "geocoded_column": {
      "latitude": "29.971778612073933",
      "longitude": "-90.05559659254367"
    }
  },
  {
    "service_request": "2026-1279072",
    "request_type": "Trash/Recycling",
    "request_reason": "Request a Large Item Pick Up",
    "date_created": "2026-05-05T15:49:34.000",
    "date_modified": "2026-05-05T15:49:35.000",
    "request_status": "Pending",
    "responsible_agency": "Department of Sanitation",
    "final_address": "4975 Redwood St",
    "address_councildis": "E",
    "status": "Assigned to Contractor",
    "contractor": "Waste Pro",
    "rowid": "1279072",
    "final_x": "3712414.6492",
    "final_y": "557643.141659",
    "longitude": "-89.96947218977422",
    "latitude": "30.026349544272808",
    "geocoded_column": {
      "latitude": "30.026349544272808",
      "longitude": "-89.96947218977422"
    }
  },
  {
    "service_request": "2026-1279071",
    "request_type": "Mosquito, Termite & Rodent Control",
    "request_reason": "Rodent Complaint (Mice & Rats)",
    "date_created": "2026-05-05T15:49:19.000",
    "date_modified": "2026-05-05T15:49:21.000",
    "request_status": "Pending",
    "responsible_agency": "Mosquito, Termite & Rodent Control Board",
    "final_address": "2424 Tulane Ave",
    "address_councildis": "B",
    "status": "Pending",
    "rowid": "1279071",
    "final_x": "3675255.82997",
    "final_y": "533201.61498",
    "longitude": "-90.0877294629103",
    "latitude": "29.96030767169834",
    "geocoded_column": {
      "latitude": "29.96030767169834",
      "longitude": "-90.0877294629103"
    }
  },
  {
    "service_request": "2026-1279070",
    "request_type": "Property Maintenance",
    "request_reason": "Property Maintenance",
    "date_created": "2026-05-05T15:46:13.000",
    "date_modified": "2026-05-05T15:46:15.000",
    "request_status": "Pending",
    "responsible_agency": "Department of Code Enforcement",
    "final_address": "2424 Tulane Ave",
    "address_councildis": "B",
    "status": "Pending",
    "rowid": "1279070",
    "final_x": "3675255.82997",
    "final_y": "533201.61498",
    "longitude": "-90.0877294629103",
    "latitude": "29.96030767169834",
    "geocoded_column": {
      "latitude": "29.96030767169834",
      "longitude": "-90.0877294629103"
    }
  },
  {
    "service_request": "2026-1279069",
    "request_type": "Trash/Recycling",
    "request_reason": "Order Trash Cart",
    "date_created": "2026-05-05T15:42:47.000",
    "date_modified": "2026-05-05T15:42:48.000",
    "request_status": "Pending",
    "responsible_agency": "Department of Sanitation",
    "final_address": "7820 Tulsa St",
    "address_councildis": "E",
    "status": "Assigned to Contractor",
    "contractor": "Waste Pro",
    "rowid": "1279069",
    "final_x": "3704028.67678",
    "final_y": "553400.935959",
    "longitude": "-89.99612711566834",
    "latitude": "30.01495690309417",
    "geocoded_column": {
      "latitude": "30.01495690309417",
      "longitude": "-89.99612711566834"
    }
  },
  {
    "service_request": "2026-1279068",
    "request_type": "Trash/Recycling",
    "request_reason": "Request a Large Item Pick Up",
    "date_created": "2026-05-05T15:37:41.000",
    "date_modified": "2026-05-05T15:51:10.000",
    "request_status": "Pending",
    "responsible_agency": "Department of Sanitation",
    "final_address": "2445 N Villere St",
    "address_councildis": "C",
    "status": "Assigned to Contractor",
    "contractor": "IV Waste",
    "rowid": "1279068",
    "final_x": "3686859.58876",
    "final_y": "537604.373448",
    "longitude": "-90.05093169049088",
    "latitude": "29.972061781653462",
    "geocoded_column": {
      "latitude": "29.972061781653462",
      "longitude": "-90.05093169049088"
    }
  },
  {
    "service_request": "2026-1279067",
    "request_type": "Property Maintenance",
    "request_reason": "Property Maintenance",
    "date_created": "2026-05-05T15:36:29.000",
    "date_modified": "2026-05-05T15:37:39.000",
    "request_status": "Pending",
    "responsible_agency": "Department of Code Enforcement",
    "final_address": "5966 N Miro St",
    "address_councildis": "E",
    "status": "Pending",
    "rowid": "1279067",
    "final_x": "3700560.37834",
    "final_y": "537405.784328",
    "longitude": "-90.00766989000344",
    "latitude": "29.97108699844227",
    "geocoded_column": {
      "latitude": "29.97108699844227",
      "longitude": "-90.00766989000344"
    }
  },
  {
    "service_request": "2026-1279066",
    "request_type": "Trash/Recycling",
    "request_reason": "Request a Large Item Pick Up",
    "date_created": "2026-05-05T15:33:50.000",
    "date_modified": "2026-05-05T15:33:51.000",
    "request_status": "Pending",
    "responsible_agency": "Department of Sanitation",
    "final_address": "4949 Chrysler St",
    "address_councildis": "E",
    "status": "Assigned to Contractor",
    "contractor": "Waste Pro",
    "rowid": "1279066",
    "final_x": "3715285.84504",
    "final_y": "557820.083547",
    "longitude": "-89.96039295010296",
    "latitude": "30.026741783059006",
    "geocoded_column": {
      "latitude": "30.026741783059006",
      "longitude": "-89.96039295010296"
    }
  },
  {
    "service_request": "2026-1279065",
    "request_type": "Streetlights",
    "request_reason": "Streetlight Knocked Down/Leaning",
    "date_created": "2026-05-05T15:29:46.000",
    "date_modified": "2026-05-05T15:29:48.000",
    "request_status": "Pending",
    "responsible_agency": "Department of Public Works",
    "final_address": "3010 Pauger St",
    "address_councildis": "D",
    "status": "Pending",
    "rowid": "1279065",
    "final_x": "3683480.42242",
    "final_y": "540739.921291",
    "longitude": "-90.0614937237381",
    "latitude": "29.980787000371134",
    "geocoded_column": {
      "latitude": "29.980787000371134",
      "longitude": "-90.0614937237381"
    }
  },
  {
    "service_request": "2026-1279064",
    "request_type": "Trash/Recycling",
    "request_reason": "Illegal Dumping",
    "date_created": "2026-05-05T15:28:34.000",
    "date_modified": "2026-05-05T15:31:50.000",
    "request_status": "Pending",
    "responsible_agency": "Department of Sanitation",
    "final_address": "7000 BLK Wright Rd",
    "address_councildis": "E",
    "status": "Pending",
    "rowid": "1279064",
    "final_x": "3712258.13942",
    "final_y": "563871.388777",
    "longitude": "-89.9697325310015",
    "latitude": "30.0434798603976",
    "geocoded_column": {
      "latitude": "30.0434798603976",
      "longitude": "-89.9697325310015"
    }
  },
  {
    "service_request": "2026-1279063",
    "request_type": "Trash/Recycling",
    "request_reason": "Illegal Dumping",
    "date_created": "2026-05-05T15:27:02.000",
    "date_modified": "2026-05-05T15:31:53.000",
    "request_status": "Pending",
    "responsible_agency": "Department of Sanitation",
    "final_address": "KINNEIL RD & WRIGHT RD",
    "address_councildis": "E",
    "status": "Pending",
    "rowid": "1279063",
    "final_x": "3711764.5",
    "final_y": "564530.38",
    "longitude": "-89.97126786899389",
    "latitude": "30.045307964270908",
    "geocoded_column": {
      "latitude": "30.045307964270908",
      "longitude": "-89.97126786899389"
    }
  },
  {
    "service_request": "2026-1279062",
    "request_type": "Trash/Recycling",
    "request_reason": "Request a Large Item Pick Up",
    "date_created": "2026-05-05T15:25:22.000",
    "date_modified": "2026-05-05T16:23:46.000",
    "request_status": "Pending",
    "responsible_agency": "Department of Sanitation",
    "final_address": "1900 Evergreen Ave",
    "address_councildis": "C",
    "status": "Pending",
    "contractor": "Richards Disposal",
    "rowid": "1279062",
    "final_x": "3688207.71107",
    "final_y": "524922.722748",
    "longitude": "-90.04712368087218",
    "latitude": "29.937150054821476",
    "geocoded_column": {
      "latitude": "29.937150054821476",
      "longitude": "-90.04712368087218"
    }
  },
  {
    "service_request": "2026-1279061",
    "request_type": "Abandoned Vehicles",
    "request_reason": "Abandoned/Junk Vehicles",
    "date_created": "2026-05-05T15:23:47.000",
    "date_modified": "2026-05-05T15:23:49.000",
    "request_status": "Pending",
    "responsible_agency": "Department of Public Works",
    "final_address": "4202 Franklin Ave",
    "address_councildis": "D",
    "status": "Pending",
    "rowid": "1279061",
    "final_x": "3686893.70844",
    "final_y": "548436.569746",
    "longitude": "-90.05044091915734",
    "latitude": "30.001845413761433",
    "geocoded_column": {
      "latitude": "30.001845413761433",
      "longitude": "-90.05044091915734"
    }
  },
  {
    "service_request": "2026-1279060",
    "request_type": "Trash/Recycling",
    "request_reason": "Illegal Dumping",
    "date_created": "2026-05-05T15:21:59.000",
    "date_modified": "2026-05-05T15:22:01.000",
    "request_status": "Pending",
    "responsible_agency": "Department of Sanitation",
    "final_address": "CHEF MENTEUR HWY & CROWDER BLVD",
    "address_councildis": "E",
    "status": "Pending",
    "rowid": "1279060",
    "final_x": "3706525.0",
    "final_y": "553188.98",
    "longitude": "-89.9882478551619",
    "latitude": "30.01429376640613",
    "geocoded_column": {
      "latitude": "30.01429376640613",
      "longitude": "-89.9882478551619"
    }
  },
  {
    "service_request": "2026-1279059",
    "request_type": "Business Issues",
    "request_reason": "Illegal Business",
    "date_created": "2026-05-05T15:20:49.000",
    "date_modified": "2026-05-05T15:41:11.000",
    "case_close_date": "2026-05-05T10:41:10.000",
    "request_status": "Closed",
    "responsible_agency": "Bureau of Revenue",
    "final_address": "2316 Wisteria St",
    "address_councildis": "D",
    "status": "Resolved",
    "rowid": "1279059",
    "final_x": "3685328.94249",
    "final_y": "548209.628242",
    "longitude": "-90.05539216906844",
    "latitude": "30.0012694853782",
    "geocoded_column": {
      "latitude": "30.0012694853782",
      "longitude": "-90.05539216906844"
    }
  },
  {
    "service_request": "2026-1279058",
    "request_type": "Trash/Recycling",
    "request_reason": "Illegal Dumping",
    "date_created": "2026-05-05T15:14:45.000",
    "date_modified": "2026-05-05T15:21:52.000",
    "request_status": "Pending",
    "responsible_agency": "Department of Sanitation",
    "final_address": "CHEF MENTEUR HWY & READ BLVD",
    "address_councildis": "E",
    "status": "Pending",
    "rowid": "1279058",
    "final_x": "3712879.3",
    "final_y": "554816.48",
    "longitude": "-89.96811038290976",
    "latitude": "30.018562123005566",
    "geocoded_column": {
      "latitude": "30.018562123005566",
      "longitude": "-89.96811038290976"
    }
  },
  {
    "service_request": "2026-1279057",
    "request_type": "Roads and Streets",
    "request_reason": "Pothole",
    "date_created": "2026-05-05T15:14:27.000",
    "date_modified": "2026-05-05T15:14:28.000",
    "request_status": "Pending",
    "responsible_agency": "Department of Public Works",
    "final_address": "600 BLK S Telemachus St",
    "address_councildis": "B",
    "status": "Pending",
    "rowid": "1279057",
    "final_x": "3671019.11167",
    "final_y": "535663.480954",
    "longitude": "-90.10102456428727",
    "latitude": "29.967202939862773",
    "geocoded_column": {
      "latitude": "29.967202939862773",
      "longitude": "-90.10102456428727"
    }
  },
  {
    "service_request": "2026-1279056",
    "request_type": "Roads and Streets",
    "request_reason": "Pothole",
    "date_created": "2026-05-05T15:13:13.000",
    "date_modified": "2026-05-05T15:13:14.000",
    "request_status": "Pending",
    "responsible_agency": "Department of Public Works",
    "final_address": "4900 BLK Western St",
    "address_councildis": "D",
    "status": "Pending",
    "rowid": "1279056",
    "final_x": "3684067.35657",
    "final_y": "551044.869155",
    "longitude": "-90.05927803520744",
    "latitude": "30.00910400141602",
    "geocoded_column": {
      "latitude": "30.00910400141602",
      "longitude": "-90.05927803520744"
    }
  },
  {
    "service_request": "2026-1279055",
    "request_type": "Trash/Recycling",
    "request_reason": "Replace Trash Cart",
    "date_created": "2026-05-05T15:09:36.000",
    "date_modified": "2026-05-05T15:09:38.000",
    "request_status": "Pending",
    "responsible_agency": "Department of Sanitation",
    "final_address": "812 N Dupre St",
    "address_councildis": "C",
    "status": "Assigned to Contractor",
    "contractor": "IV Waste",
    "rowid": "1279055",
    "final_x": "3676297.76603",
    "final_y": "537826.48628",
    "longitude": "-90.08428004362302",
    "latitude": "29.972993314300705",
    "geocoded_column": {
      "latitude": "29.972993314300705",
      "longitude": "-90.08428004362302"
    }
  },
  {
    "service_request": "2026-1279054",
    "request_type": "Trash/Recycling",
    "request_reason": "Illegal Dumping",
    "date_created": "2026-05-05T15:08:36.000",
    "date_modified": "2026-05-05T15:08:38.000",
    "request_status": "Pending",
    "responsible_agency": "Department of Sanitation",
    "final_address": "2100 St Andrew St Apt A",
    "address_councildis": "B",
    "status": "Pending",
    "rowid": "1279054",
    "final_x": "3676972.43733",
    "final_y": "525668.049853",
    "longitude": "-90.08256844818295",
    "latitude": "29.939541455642104",
    "geocoded_column": {
      "latitude": "29.939541455642104",
      "longitude": "-90.08256844818295"
    }
  },
  {
    "service_request": "2026-1279053",
    "request_type": "Trash/Recycling",
    "request_reason": "Request a Large Item Pick Up",
    "date_created": "2026-05-05T15:06:38.000",
    "date_modified": "2026-05-05T15:06:40.000",
    "request_status": "Pending",
    "responsible_agency": "Department of Sanitation",
    "final_address": "1234 N Dorgenois St",
    "address_councildis": "C",
    "status": "Assigned to Contractor",
    "contractor": "IV Waste",
    "rowid": "1279053",
    "final_x": "3678464.2029",
    "final_y": "538288.262473",
    "longitude": "-90.07742203021935",
    "latitude": "29.974197926942203",
    "geocoded_column": {
      "latitude": "29.974197926942203",
      "longitude": "-90.07742203021935"
    }
  },
  {
    "service_request": "2026-1279052",
    "request_type": "Trash/Recycling",
    "request_reason": "Request a Large Item Pick Up",
    "date_created": "2026-05-05T15:05:23.000",
    "date_modified": "2026-05-05T15:05:24.000",
    "request_status": "Pending",
    "responsible_agency": "Department of Sanitation",
    "final_address": "4716 Wright Rd",
    "address_councildis": "E",
    "status": "Assigned to Contractor",
    "contractor": "Waste Pro",
    "rowid": "1279052",
    "final_x": "3716611.95564",
    "final_y": "556884.449178",
    "longitude": "-89.95623816024403",
    "latitude": "30.024125405022623",
    "geocoded_column": {
      "latitude": "30.024125405022623",
      "longitude": "-89.95623816024403"
    }
  },
  {
    "service_request": "2026-1279051",
    "request_type": "Streetlights",
    "request_reason": "Streetlight Outage/Malfunction",
    "date_created": "2026-05-05T15:04:50.000",
    "date_modified": "2026-05-05T15:04:52.000",
    "request_status": "Pending",
    "responsible_agency": "Department of Public Works",
    "final_address": "5200 BLK N Prieur St",
    "address_councildis": "E",
    "status": "Pending",
    "rowid": "1279051",
    "final_x": "3697502.64269",
    "final_y": "537078.574909",
    "longitude": "-90.01733844032988",
    "latitude": "29.970284207353615",
    "geocoded_column": {
      "latitude": "29.970284207353615",
      "longitude": "-90.01733844032988"
    }
  },
  {
    "service_request": "2026-1279050",
    "request_type": "Healthy Homes",
    "request_reason": "Healthy Homes",
    "date_created": "2026-05-05T15:03:22.000",
    "date_modified": "2026-05-05T15:03:23.000",
    "request_status": "Pending",
    "responsible_agency": "Department of Code Enforcement",
    "final_address": "1302 Bienville St",
    "address_councildis": "C",
    "status": "Pending",
    "rowid": "1279050",
    "final_x": "3679923.12488",
    "final_y": "532444.334276",
    "longitude": "-90.07301742115195",
    "latitude": "29.958085072881524",
    "geocoded_column": {
      "latitude": "29.958085072881524",
      "longitude": "-90.07301742115195"
    }
  },
  {
    "service_request": "2026-1279049",
    "request_type": "Trash/Recycling",
    "request_reason": "Request a Large Item Pick Up",
    "date_created": "2026-05-05T15:00:35.000",
    "date_modified": "2026-05-05T15:00:37.000",
    "request_status": "Pending",
    "responsible_agency": "Department of Sanitation",
    "final_address": "1411 Benton St",
    "address_councildis": "E",
    "status": "Assigned to Contractor",
    "contractor": "Waste Pro",
    "rowid": "1279049",
    "final_x": "3699320.5841",
    "final_y": "534709.788166",
    "longitude": "-90.01168350777426",
    "latitude": "29.963713358452054",
    "geocoded_column": {
      "latitude": "29.963713358452054",
      "longitude": "-90.01168350777426"
    }
  },
  {
    "service_request": "2026-1279048",
    "request_type": "Property Maintenance",
    "request_reason": "Property Maintenance",
    "date_created": "2026-05-05T15:00:18.000",
    "date_modified": "2026-05-05T15:00:20.000",
    "request_status": "Pending",
    "responsible_agency": "Department of Code Enforcement",
    "final_address": "3740 Rue Renee",
    "address_councildis": "C",
    "status": "Pending",
    "rowid": "1279048",
    "final_x": "3705302.16836",
    "final_y": "516619.184565",
    "longitude": "-89.99346243526398",
    "latitude": "29.91377952658826",
    "geocoded_column": {
      "latitude": "29.91377952658826",
      "longitude": "-89.99346243526398"
    }
  },
  {
    "service_request": "2026-1279047",
    "request_type": "Trash/Recycling",
    "request_reason": "Request a Large Item Pick Up",
    "date_created": "2026-05-05T14:55:27.000",
    "date_modified": "2026-05-05T14:55:28.000",
    "request_status": "Pending",
    "responsible_agency": "Department of Sanitation",
    "final_address": "8120 Sycamore St",
    "address_councildis": "A",
    "status": "Assigned to Contractor",
    "contractor": "IV Waste",
    "rowid": "1279047",
    "final_x": "3664190.83738",
    "final_y": "531044.240578",
    "longitude": "-90.1227425415519",
    "latitude": "29.954701695780706",
    "geocoded_column": {
      "latitude": "29.954701695780706",
      "longitude": "-90.1227425415519"
    }
  },
  {
    "service_request": "2026-1279046",
    "request_type": "Tree Service",
    "request_reason": "Tree Trim",
    "date_created": "2026-05-05T14:54:38.000",
    "date_modified": "2026-05-05T14:54:40.000",
    "request_status": "Pending",
    "responsible_agency": "Department of Parks & Parkways",
    "final_address": "2028 Napoleon Ave",
    "address_councildis": "B",
    "status": "Pending",
    "rowid": "1279046",
    "final_x": "3670548.69575",
    "final_y": "522509.378682",
    "longitude": "-90.10295620241098",
    "latitude": "29.93104737134897",
    "geocoded_column": {
      "latitude": "29.93104737134897",
      "longitude": "-90.10295620241098"
    }
  },
  {
    "service_request": "2026-1279045",
    "request_type": "Trash/Recycling",
    "request_reason": "Illegal Dumping",
    "date_created": "2026-05-05T14:51:01.000",
    "date_modified": "2026-05-05T14:51:02.000",
    "request_status": "Pending",
    "responsible_agency": "Department of Sanitation",
    "final_address": "6153 Carlisle Ct",
    "address_councildis": "C",
    "status": "Pending",
    "rowid": "1279045",
    "final_x": "3706792.22238",
    "final_y": "516403.656373",
    "longitude": "-89.98876737033036",
    "latitude": "29.913138904969",
    "geocoded_column": {
      "latitude": "29.913138904969",
      "longitude": "-89.98876737033036"
    }
  },
  {
    "service_request": "2026-1279044",
    "request_type": "Property Maintenance",
    "request_reason": "Property Maintenance",
    "date_created": "2026-05-05T14:49:43.000",
    "date_modified": "2026-05-05T14:50:30.000",
    "request_status": "Pending",
    "responsible_agency": "Department of Code Enforcement",
    "final_address": "5970 N Miro St",
    "address_councildis": "E",
    "status": "Pending",
    "rowid": "1279044",
    "final_x": "3700585.69156",
    "final_y": "537378.776008",
    "longitude": "-90.00759093488628",
    "latitude": "29.97101193004534",
    "geocoded_column": {
      "latitude": "29.97101193004534",
      "longitude": "-90.00759093488628"
    }
  },
  {
    "service_request": "2026-1279043",
    "request_type": "Safety & Permits",
    "request_reason": "Licenses & Permits",
    "date_created": "2026-05-05T14:47:11.000",
    "date_modified": "2026-05-05T15:28:17.000",
    "case_close_date": "2026-05-05T10:28:15.000",
    "request_status": "Closed",
    "responsible_agency": "Safety and Permits",
    "final_address": "2628 Chippewa St",
    "address_councildis": "B",
    "status": "Resolved",
    "rowid": "1279043",
    "final_x": "3678212.18606",
    "final_y": "519752.345528",
    "longitude": "-90.07885886625844",
    "latitude": "29.923237936527542",
    "geocoded_column": {
      "latitude": "29.923237936527542",
      "longitude": "-90.07885886625844"
    }
  },
  {
    "service_request": "2026-1279042",
    "request_type": "Trash/Recycling",
    "request_reason": "Repair Trash Cart",
    "date_created": "2026-05-05T14:47:11.000",
    "date_modified": "2026-05-05T14:47:17.000",
    "request_status": "Pending",
    "responsible_agency": "Department of Sanitation",
    "final_address": "3820 Dauphine St",
    "address_councildis": "C",
    "status": "Assigned to Contractor",
    "contractor": "IV Waste",
    "rowid": "1279042",
    "final_x": "3691101.64201",
    "final_y": "534232.903301",
    "longitude": "-90.03765503873642",
    "latitude": "29.96266019981189",
    "geocoded_column": {
      "latitude": "29.96266019981189",
      "longitude": "-90.03765503873642"
    }
  },
  {
    "service_request": "2026-1279041",
    "request_type": "Trash/Recycling",
    "request_reason": "Replace Recycling Cart",
    "date_created": "2026-05-05T14:43:08.000",
    "date_modified": "2026-05-05T14:43:09.000",
    "request_status": "Pending",
    "responsible_agency": "Department of Sanitation",
    "final_address": "3820 Dauphine St",
    "address_councildis": "C",
    "status": "Pending",
    "rowid": "1279041",
    "final_x": "3691101.64201",
    "final_y": "534232.903301",
    "longitude": "-90.03765503873642",
    "latitude": "29.96266019981189",
    "geocoded_column": {
      "latitude": "29.96266019981189",
      "longitude": "-90.03765503873642"
    }
  },
  {
    "service_request": "2026-1279040",
    "request_type": "Trash/Recycling",
    "request_reason": "Repair Trash Cart",
    "date_created": "2026-05-05T14:42:23.000",
    "date_modified": "2026-05-05T14:42:25.000",
    "request_status": "Pending",
    "responsible_agency": "Department of Sanitation",
    "final_address": "5711 Eastover Dr",
    "address_councildis": "E",
    "status": "Assigned to Contractor",
    "contractor": "Waste Pro",
    "rowid": "1279040",
    "final_x": "3719031.65164",
    "final_y": "563048.147232",
    "longitude": "-89.94835706375503",
    "latitude": "30.040992902164035",
    "geocoded_column": {
      "latitude": "30.040992902164035",
      "longitude": "-89.94835706375503"
    }
  },
  {
    "service_request": "2026-1279039",
    "request_type": "Trash/Recycling",
    "request_reason": "Order Trash Cart",
    "date_created": "2026-05-05T14:41:53.000",
    "date_modified": "2026-05-05T14:41:54.000",
    "request_status": "Pending",
    "responsible_agency": "Department of Sanitation",
    "final_address": "1036 Leonidas St",
    "address_councildis": "A",
    "status": "Assigned to Contractor",
    "contractor": "IV Waste",
    "rowid": "1279039",
    "final_x": "3660351.72307",
    "final_y": "529308.102337",
    "longitude": "-90.13492238903464",
    "latitude": "29.95003884210137",
    "geocoded_column": {
      "latitude": "29.95003884210137",
      "longitude": "-90.13492238903464"
    }
  },
  {
    "service_request": "2026-1279038",
    "request_type": "Trash/Recycling",
    "request_reason": "Repair Trash Cart",
    "date_created": "2026-05-05T14:40:25.000",
    "date_modified": "2026-05-05T14:40:26.000",
    "request_status": "Pending",
    "responsible_agency": "Department of Sanitation",
    "final_address": "6229 Wadsworth Dr",
    "address_councildis": "D",
    "status": "Assigned to Contractor",
    "contractor": "IV Waste",
    "rowid": "1279038",
    "final_x": "3681666.41096",
    "final_y": "555996.114521",
    "longitude": "-90.06669050777617",
    "latitude": "30.02279131009338",
    "geocoded_column": {
      "latitude": "30.02279131009338",
      "longitude": "-90.06669050777617"
    }
  },
  {
    "service_request": "2026-1279037",
    "request_type": "Trash/Recycling",
    "request_reason": "Request a Large Item Pick Up",
    "date_created": "2026-05-05T14:40:14.000",
    "date_modified": "2026-05-05T14:40:16.000",
    "request_status": "Pending",
    "responsible_agency": "Department of Sanitation",
    "final_address": "10714 Dreux Ave",
    "address_councildis": "E",
    "status": "Assigned to Contractor",
    "contractor": "Waste Pro",
    "rowid": "1279037",
    "final_x": "3715221.80773",
    "final_y": "555936.225369",
    "longitude": "-89.96066661064356",
    "latitude": "30.02156403023815",
    "geocoded_column": {
      "latitude": "30.02156403023815",
      "longitude": "-89.96066661064356"
    }
  },
  {
    "service_request": "2026-1279036",
    "request_type": "Abandoned Vehicles",
    "request_reason": "Abandoned/Junk Vehicles",
    "date_created": "2026-05-05T14:39:46.000",
    "date_modified": "2026-05-05T14:47:04.000",
    "request_status": "Pending",
    "responsible_agency": "Department of Public Works",
    "final_address": "5700 BLK Louis Prima Dr E",
    "address_councildis": "E",
    "status": "Inspected",
    "rowid": "1279036",
    "final_x": "3715946.24392",
    "final_y": "562521.350139",
    "longitude": "-89.95812789178447",
    "latitude": "30.039646604647086",
    "geocoded_column": {
      "latitude": "30.039646604647086",
      "longitude": "-89.95812789178447"
    }
  },
  {
    "service_request": "2026-1279035",
    "request_type": "Trash/Recycling",
    "request_reason": "Request a Large Item Pick Up",
    "date_created": "2026-05-05T14:39:17.000",
    "date_modified": "2026-05-05T14:39:20.000",
    "request_status": "Pending",
    "responsible_agency": "Department of Sanitation",
    "final_address": "8523 Curran Rd",
    "address_councildis": "E",
    "status": "Assigned to Contractor",
    "contractor": "Waste Pro",
    "rowid": "1279035",
    "final_x": "3703855.62462",
    "final_y": "562473.227871",
    "longitude": "-89.99633941481731",
    "latitude": "30.039907736667878",
    "geocoded_column": {
      "latitude": "30.039907736667878",
      "longitude": "-89.99633941481731"
    }
  },
  {
    "service_request": "2026-1279034",
    "request_type": "Trash/Recycling",
    "request_reason": "Order Trash Cart",
    "date_created": "2026-05-05T14:37:42.000",
    "date_modified": "2026-05-05T14:37:44.000",
    "request_status": "Pending",
    "responsible_agency": "Department of Sanitation",
    "final_address": "4876 Coronado Dr",
    "address_councildis": "E",
    "status": "Assigned to Contractor",
    "contractor": "Waste Pro",
    "rowid": "1279034",
    "final_x": "3713990.90962",
    "final_y": "557135.811994",
    "longitude": "-89.96451059603554",
    "latitude": "30.024902906744064",
    "geocoded_column": {
      "latitude": "30.024902906744064",
      "longitude": "-89.96451059603554"
    }
  },
  {
    "service_request": "2026-1279033",
    "request_type": "Trash/Recycling",
    "request_reason": "Repair Trash Cart",
    "date_created": "2026-05-05T14:37:41.000",
    "date_modified": "2026-05-05T14:37:44.000",
    "request_status": "Pending",
    "responsible_agency": "Department of Sanitation",
    "final_address": "7670 Dune Dr",
    "address_councildis": "E",
    "status": "Assigned to Contractor",
    "contractor": "Waste Pro",
    "rowid": "1279033",
    "final_x": "3715144.08312",
    "final_y": "569229.430822",
    "longitude": "-89.96040892707116",
    "latitude": "30.05811753698532",
    "geocoded_column": {
      "latitude": "30.05811753698532",
      "longitude": "-89.96040892707116"
    }
  },
  {
    "service_request": "2026-1279032",
    "request_type": "Drainage",
    "request_reason": "Catch Basin Not Draining",
    "date_created": "2026-05-05T14:35:21.000",
    "date_modified": "2026-05-05T15:40:03.000",
    "request_status": "Pending",
    "responsible_agency": "Sewerage & Water Board",
    "final_address": "4635 Gawain Dr",
    "address_councildis": "E",
    "status": "Pending",
    "rowid": "1279032",
    "final_x": "3707122.87665",
    "final_y": "554669.191704",
    "longitude": "-89.9863039009194",
    "latitude": "30.01834446556006",
    "geocoded_column": {
      "latitude": "30.01834446556006",
      "longitude": "-89.9863039009194"
    }
  },
  {
    "service_request": "2026-1279031",
    "request_type": "Trash/Recycling",
    "request_reason": "Request a Large Item Pick Up",
    "date_created": "2026-05-05T14:34:36.000",
    "date_modified": "2026-05-05T15:30:23.000",
    "request_status": "Pending",
    "responsible_agency": "Department of Sanitation",
    "final_address": "5320 Baccich St",
    "address_councildis": "D",
    "status": "Assigned to Contractor",
    "contractor": "IV Waste",
    "rowid": "1279031",
    "final_x": "3687526.97295",
    "final_y": "552494.939158",
    "longitude": "-90.04829659103243",
    "latitude": "30.012984937141223",
    "geocoded_column": {
      "latitude": "30.012984937141223",
      "longitude": "-90.04829659103243"
    }
  },
  {
    "service_request": "2026-1279030",
    "request_type": "Trash/Recycling",
    "request_reason": "Return Trash Cart",
    "date_created": "2026-05-05T14:32:13.000",
    "date_modified": "2026-05-05T14:32:15.000",
    "request_status": "Pending",
    "responsible_agency": "Department of Sanitation",
    "final_address": "1720 St Charles Ave",
    "address_councildis": "B",
    "status": "Assigned to Contractor",
    "contractor": "IV Waste",
    "rowid": "1279030",
    "final_x": "3678851.32475",
    "final_y": "524807.80582",
    "longitude": "-90.07666633188111",
    "latitude": "29.937119541078165",
    "geocoded_column": {
      "latitude": "29.937119541078165",
      "longitude": "-90.07666633188111"
    }
  },
  {
    "service_request": "2026-1279029",
    "request_type": "Utility Poles",
    "request_reason": "Utility Pole Leaning",
    "date_created": "2026-05-05T14:31:35.000",
    "date_modified": "2026-05-05T14:31:37.000",
    "request_status": "Pending",
    "responsible_agency": "Utility Company Collective",
    "final_address": "3724 Napoleon Ave",
    "address_councildis": "B",
    "status": "Pending",
    "rowid": "1279029",
    "final_x": "3669967.59706",
    "final_y": "528356.067648",
    "longitude": "-90.10459273253215",
    "latitude": "29.94714101947418",
    "geocoded_column": {
      "latitude": "29.94714101947418",
      "longitude": "-90.10459273253215"
    }
  },
  {
    "service_request": "2026-1279028",
    "request_type": "Trash/Recycling",
    "request_reason": "Order Trash Cart",
    "date_created": "2026-05-05T14:31:15.000",
    "date_modified": "2026-05-05T14:31:18.000",
    "request_status": "Pending",
    "responsible_agency": "Department of Sanitation",
    "final_address": "1625 Mandeville St",
    "address_councildis": "D",
    "status": "Assigned to Contractor",
    "contractor": "IV Waste",
    "rowid": "1279028",
    "final_x": "3685648.66178",
    "final_y": "538411.002633",
    "longitude": "-90.05472756281512",
    "latitude": "29.97431693899596",
    "geocoded_column": {
      "latitude": "29.97431693899596",
      "longitude": "-90.05472756281512"
    }
  },
  {
    "service_request": "2026-1279027",
    "request_type": "Abandoned Vehicles",
    "request_reason": "Abandoned/Junk Vehicles",
    "date_created": "2026-05-05T14:28:30.000",
    "date_modified": "2026-05-05T14:31:15.000",
    "request_status": "Pending",
    "responsible_agency": "Department of Public Works",
    "final_address": "3719 Washington Ave",
    "address_councildis": "B",
    "status": "Pending",
    "rowid": "1279027",
    "final_x": "3671775.74107",
    "final_y": "528897.750784",
    "longitude": "-90.09886530424671",
    "latitude": "29.948577031502875",
    "geocoded_column": {
      "latitude": "29.948577031502875",
      "longitude": "-90.09886530424671"
    }
  },
  {
    "service_request": "2026-1279026",
    "request_type": "Health Related Request",
    "request_reason": "Noise Ordinance Complaint",
    "date_created": "2026-05-05T14:26:18.000",
    "date_modified": "2026-05-05T14:32:46.000",
    "case_close_date": "2026-05-05T09:32:46.000",
    "request_status": "Closed",
    "responsible_agency": "Health Department",
    "final_address": "7427 Hampson St",
    "address_councildis": "A",
    "status": "Not Enough Information- Resubmittal Required",
    "rowid": "1279026",
    "final_x": "3662564.42247",
    "final_y": "525538.308349",
    "longitude": "-90.12806103262017",
    "latitude": "29.93960929452242",
    "geocoded_column": {
      "latitude": "29.93960929452242",
      "longitude": "-90.12806103262017"
    }
  },
  {
    "service_request": "2026-1279025",
    "request_type": "Trash/Recycling",
    "request_reason": "Request a Large Item Pick Up",
    "date_created": "2026-05-05T14:26:14.000",
    "date_modified": "2026-05-05T14:26:17.000",
    "request_status": "Pending",
    "responsible_agency": "Department of Sanitation",
    "final_address": "4726 Lurline St",
    "address_councildis": "E",
    "status": "Assigned to Contractor",
    "contractor": "Waste Pro",
    "rowid": "1279025",
    "final_x": "3711909.07442",
    "final_y": "555997.779545",
    "longitude": "-89.97113153918296",
    "latitude": "30.02184198316532",
    "geocoded_column": {
      "latitude": "30.02184198316532",
      "longitude": "-89.97113153918296"
    }
  },
  {
    "service_request": "2026-1279024",
    "request_type": "Trash/Recycling",
    "request_reason": "Request a Large Item Pick Up",
    "date_created": "2026-05-05T14:22:28.000",
    "date_modified": "2026-05-05T14:22:29.000",
    "request_status": "Pending",
    "responsible_agency": "Department of Sanitation",
    "final_address": "2220 Upperline St",
    "address_councildis": "B",
    "status": "Assigned to Contractor",
    "contractor": "IV Waste",
    "rowid": "1279024",
    "final_x": "3669054.38446",
    "final_y": "523008.323259",
    "longitude": "-90.10765670950495",
    "latitude": "29.932463344799533",
    "geocoded_column": {
      "latitude": "29.932463344799533",
      "longitude": "-90.10765670950495"
    }
  },
  {
    "service_request": "2026-1279023",
    "request_type": "Trash/Recycling",
    "request_reason": "Order Recycling Cart",
    "date_created": "2026-05-05T14:21:53.000",
    "date_modified": "2026-05-05T14:21:54.000",
    "request_status": "Pending",
    "responsible_agency": "Department of Sanitation",
    "final_address": "4531 S Miro St",
    "address_councildis": "B",
    "status": "Pending",
    "rowid": "1279023",
    "final_x": "3669479.61511",
    "final_y": "527806.343615",
    "longitude": "-90.1061520682981",
    "latitude": "29.945643837074634",
    "geocoded_column": {
      "latitude": "29.945643837074634",
      "longitude": "-90.1061520682981"
    }
  },
  {
    "service_request": "2026-1279022",
    "request_type": "Streetlights",
    "request_reason": "Streetlight Outage/Malfunction",
    "date_created": "2026-05-05T14:20:29.000",
    "date_modified": "2026-05-05T14:20:30.000",
    "request_status": "Pending",
    "responsible_agency": "Department of Public Works",
    "final_address": "2060 Hyman Pl",
    "address_councildis": "C",
    "status": "Pending",
    "rowid": "1279022",
    "final_x": "3701169.9194",
    "final_y": "523137.015995",
    "longitude": "-90.00626678778346",
    "latitude": "29.93183353854292",
    "geocoded_column": {
      "latitude": "29.93183353854292",
      "longitude": "-90.00626678778346"
    }
  },
  {
    "service_request": "2026-1279021",
    "request_type": "Streetlights",
    "request_reason": "New Streetlight Request",
    "date_created": "2026-05-05T14:10:22.000",
    "date_modified": "2026-05-05T14:10:24.000",
    "request_status": "Pending",
    "responsible_agency": "Department of Public Works",
    "final_address": "197 Pinewood Ct",
    "address_councildis": "C",
    "status": "Pending",
    "rowid": "1279021",
    "final_x": "3696099.84669",
    "final_y": "523629.403067",
    "longitude": "-90.02225458747301",
    "latitude": "29.933347919598276",
    "geocoded_column": {
      "latitude": "29.933347919598276",
      "longitude": "-90.02225458747301"
    }
  },
  {
    "service_request": "2026-1279020",
    "request_type": "New Orleans Recreation Development Commission (NORDC)",
    "request_reason": "Facilities and Parks Maintenance/Clean Up",
    "date_created": "2026-05-05T14:06:44.000",
    "date_modified": "2026-05-05T14:06:47.000",
    "request_status": "Pending",
    "responsible_agency": "New Orleans Recreation Development Commission",
    "final_address": "3400 Hamilton St",
    "address_councildis": "A",
    "status": "Pending",
    "rowid": "1279020",
    "final_x": "3664779.09408",
    "final_y": "536795.652168",
    "longitude": "-90.1206928505599",
    "latitude": "29.97049908819629",
    "geocoded_column": {
      "latitude": "29.97049908819629",
      "longitude": "-90.1206928505599"
    }
  },
  {
    "service_request": "2026-1279019",
    "request_type": "Roads and Streets",
    "request_reason": "Abandoned Service Cut",
    "date_created": "2026-05-05T14:04:05.000",
    "date_modified": "2026-05-05T14:04:08.000",
    "request_status": "Pending",
    "responsible_agency": "Department of Public Works",
    "final_address": "2413 Joseph St",
    "address_councildis": "A",
    "status": "Pending",
    "rowid": "1279019",
    "final_x": "3667495.14401",
    "final_y": "524946.817213",
    "longitude": "-90.11251390940009",
    "latitude": "29.937839352117035",
    "geocoded_column": {
      "latitude": "29.937839352117035",
      "longitude": "-90.11251390940009"
    }
  },
  {
    "service_request": "2026-1279018",
    "request_type": "Property Maintenance",
    "request_reason": "Property Maintenance",
    "date_created": "2026-05-05T14:00:34.000",
    "date_modified": "2026-05-05T14:00:36.000",
    "request_status": "Pending",
    "responsible_agency": "Department of Code Enforcement",
    "final_address": "2339 N Claiborne Ave",
    "address_councildis": "D",
    "status": "Pending",
    "rowid": "1279018",
    "final_x": "3685937.22511",
    "final_y": "538266.679433",
    "longitude": "-90.05382130352159",
    "latitude": "29.973911243728107",
    "geocoded_column": {
      "latitude": "29.973911243728107",
      "longitude": "-90.05382130352159"
    }
  },
  {
    "service_request": "2026-1279017",
    "request_type": "Trash/Recycling",
    "request_reason": "Replace Trash Cart",
    "date_created": "2026-05-05T13:57:23.000",
    "date_modified": "2026-05-05T13:57:25.000",
    "request_status": "Pending",
    "responsible_agency": "Department of Sanitation",
    "final_address": "4919 S Galvez St",
    "address_councildis": "B",
    "status": "Assigned to Contractor",
    "contractor": "IV Waste",
    "rowid": "1279017",
    "final_x": "3669099.01268",
    "final_y": "527403.937983",
    "longitude": "-90.10736735244042",
    "latitude": "29.944548555070416",
    "geocoded_column": {
      "latitude": "29.944548555070416",
      "longitude": "-90.10736735244042"
    }
  },
  {
    "service_request": "2026-1279016",
    "request_type": "Trash/Recycling",
    "request_reason": "Request a Large Item Pick Up",
    "date_created": "2026-05-05T13:57:20.000",
    "date_modified": "2026-05-05T13:57:23.000",
    "request_status": "Pending",
    "responsible_agency": "Department of Sanitation",
    "final_address": "11331 N Parkwood Ct",
    "address_councildis": "E",
    "status": "Assigned to Contractor",
    "contractor": "Waste Pro",
    "rowid": "1279016",
    "final_x": "3716868.63269",
    "final_y": "559562.229021",
    "longitude": "-89.95532536199815",
    "latitude": "30.03147974410775",
    "geocoded_column": {
      "latitude": "30.03147974410775",
      "longitude": "-89.95532536199815"
    }
  },
  {
    "service_request": "2026-1279015",
    "request_type": "Streetlights",
    "request_reason": "Streetlight Outage/Malfunction",
    "date_created": "2026-05-05T13:56:56.000",
    "date_modified": "2026-05-05T13:56:58.000",
    "request_status": "Pending",
    "responsible_agency": "Department of Public Works",
    "final_address": "2923 Leonidas St",
    "address_councildis": "A",
    "status": "Pending",
    "rowid": "1279015",
    "final_x": "3664901.59175",
    "final_y": "534187.791173",
    "longitude": "-90.12039316949125",
    "latitude": "29.96332476561196",
    "geocoded_column": {
      "latitude": "29.96332476561196",
      "longitude": "-90.12039316949125"
    }
  },
  {
    "service_request": "2026-1279014",
    "request_type": "Health Related Request",
    "request_reason": "Noise Ordinance Complaint",
    "date_created": "2026-05-05T13:51:33.000",
    "date_modified": "2026-05-05T13:55:36.000",
    "request_status": "Pending",
    "responsible_agency": "Health Department",
    "final_address": "2900 Ben Weiner Dr",
    "address_councildis": "A",
    "status": "Pending",
    "rowid": "1279014",
    "final_x": "3666177.13485",
    "final_y": "527414.132415",
    "longitude": "-90.11659227248413",
    "latitude": "29.944662223150356",
    "geocoded_column": {
      "latitude": "29.944662223150356",
      "longitude": "-90.11659227248413"
    }
  },
  {
    "service_request": "2026-1279013",
    "request_type": "Streetlights",
    "request_reason": "Streetlight Outage/Malfunction",
    "date_created": "2026-05-05T13:48:24.000",
    "date_modified": "2026-05-05T13:48:26.000",
    "request_status": "Pending",
    "responsible_agency": "Department of Public Works",
    "final_address": "1125 Horace St",
    "address_councildis": "C",
    "status": "Pending",
    "rowid": "1279013",
    "final_x": "3696339.55709",
    "final_y": "527110.799871",
    "longitude": "-90.02137200113803",
    "latitude": "29.94291301512303",
    "geocoded_column": {
      "latitude": "29.94291301512303",
      "longitude": "-90.02137200113803"
    }
  },
  {
    "service_request": "2026-1279012",
    "request_type": "Trash/Recycling",
    "request_reason": "Order Recycling Cart",
    "date_created": "2026-05-05T13:47:20.000",
    "date_modified": "2026-05-05T13:47:21.000",
    "request_status": "Pending",
    "responsible_agency": "Department of Sanitation",
    "final_address": "8121 Oak St",
    "address_councildis": "A",
    "status": "Pending",
    "rowid": "1279012",
    "final_x": "3661845.7104",
    "final_y": "528532.144256",
    "longitude": "-90.13023087377533",
    "latitude": "29.947862157115193",
    "geocoded_column": {
      "latitude": "29.947862157115193",
      "longitude": "-90.13023087377533"
    }
  },