[
  {
    "service_request": "2025-1207275",
    "request_type": "Trash/Recycling",
    "request_reason": "Repair Trash Cart",
    "date_created": "2025-07-07T23:10:20.000",
    "date_modified": "2025-07-07T23:10:23.000",
    "request_status": "Pending",
    "responsible_agency": "Department of Sanitation",
    "final_address": "2318 Amelia St",
    "address_councildis": "B",
    "status": "Assigned to Contractor",
    "contractor": "IV Waste",
    "rowid": "1207275",
    "final_x": "3672461.90273",
    "final_y": "523747.753275",
    "longitude": "-90.09687426556789",
    "latitude": "29.934395874592052",
    "geocoded_column": {
      "latitude": "29.934395874592052",
      "longitude": "-90.09687426556789"
    }
  },
  {
    "service_request": "2025-1207274",
    "request_type": "Trash/Recycling",
    "request_reason": "Order Trash Cart",
    "date_created": "2025-07-07T23:07:20.000",
    "date_modified": "2025-07-07T23:07:23.000",
    "request_status": "Pending",
    "responsible_agency": "Department of Sanitation",
    "final_address": "211 N Salcedo St",
    "address_councildis": "B",
    "status": "Assigned to Contractor",
    "contractor": "IV Waste",
    "rowid": "1207274",
    "final_x": "3674340.04193",
    "final_y": "536531.464711",
    "longitude": "-90.09050728559514",
    "latitude": "29.969490978702105",
    "geocoded_column": {
      "latitude": "29.969490978702105",
      "longitude": "-90.09050728559514"
    }
  },
  {
    "service_request": "2025-1207273",
    "request_type": "Streetlights",
    "request_reason": "Streetlight Outage/Malfunction",
    "date_created": "2025-07-07T22:10:25.000",
    "date_modified": "2025-07-07T22:10:28.000",
    "request_status": "Pending",
    "responsible_agency": "Department of Public Works",
    "final_address": "41 Winners Cir",
    "address_councildis": "E",
    "status": "Pending",
    "contractor": "Legacy Professional Services",
    "rowid": "1207273",
    "final_x": "3715781.78943",
    "final_y": "570200.939879",
    "longitude": "-89.95835638172908",
    "latitude": "30.060767760390632",
    "geocoded_column": {
      "latitude": "30.060767760390632",
      "longitude": "-89.95835638172908"
    }
  },
  {
    "service_request": "2025-1207272",
    "request_type": "Roads and Streets",
    "request_reason": "Pothole",
    "date_created": "2025-07-07T22:05:56.000",
    "date_modified": "2025-07-07T22:05:58.000",
    "request_status": "Pending",
    "responsible_agency": "Department of Public Works",
    "final_address": "622 Valence St",
    "address_councildis": "B",
    "status": "Pending",
    "rowid": "1207272",
    "final_x": "3669972.0971",
    "final_y": "517860.520438",
    "longitude": "-90.1049337849221",
    "latitude": "29.918281502012675",
    "geocoded_column": {
      "latitude": "29.918281502012675",
      "longitude": "-90.1049337849221"
    }
  },
  {
    "service_request": "2025-1207271",
    "request_type": "Property Maintenance",
    "request_reason": "Property Maintenance",
    "date_created": "2025-07-07T21:35:03.000",
    "date_modified": "2025-07-07T21:35:05.000",
    "request_status": "Pending",
    "responsible_agency": "Department of Code Enforcement",
    "final_address": "4918 Haik Dr",
    "address_councildis": "D",
    "status": "Pending",
    "rowid": "1207271",
    "final_x": "3681923.22946",
    "final_y": "550797.418837",
    "longitude": "-90.06606069612111",
    "latitude": "30.008488980809023",
    "geocoded_column": {
      "latitude": "30.008488980809023",
      "longitude": "-90.06606069612111"
    }
  },
  {
    "service_request": "2025-1207270",
    "request_type": "Trash/Recycling",
    "request_reason": "Order Second Trash Cart",
    "date_created": "2025-07-07T21:33:12.000",
    "date_modified": "2025-07-07T21:33:14.000",
    "request_status": "Pending",
    "responsible_agency": "Department of Sanitation",
    "final_address": "7322 Vanderkloot Ave",
    "address_councildis": "E",
    "status": "Assigned to Contractor",
    "contractor": "Waste Pro",
    "rowid": "1207270",
    "final_x": "3706216.77694",
    "final_y": "562417.318047",
    "longitude": "-89.98887957062172",
    "latitude": "30.039678042004443",
    "geocoded_column": {
      "latitude": "30.039678042004443",
      "longitude": "-89.98887957062172"
    }
  },
  {
    "service_request": "2025-1207269",
    "request_type": "Streetlights",
    "request_reason": "Streetlight Outage/Malfunction",
    "date_created": "2025-07-07T21:24:10.000",
    "date_modified": "2025-07-07T21:24:22.000",
    "request_status": "Pending",
    "responsible_agency": "Department of Public Works",
    "final_address": "6125 Dauphine St",
    "address_councildis": "E",
    "status": "Pending",
    "contractor": "Legacy Professional Services",
    "rowid": "1207269",
    "final_x": "3699285.53303",
    "final_y": "532232.959939",
    "longitude": "-90.01188439756717",
    "latitude": "29.956904074567028",
    "geocoded_column": {
      "latitude": "29.956904074567028",
      "longitude": "-90.01188439756717"
    }
  },
  {
    "service_request": "2025-1207268",
    "request_type": "Drainage",
    "request_reason": "Catch Basin Clogged",
    "date_created": "2025-07-07T21:20:30.000",
    "date_modified": "2025-07-07T21:20:32.000",
    "request_status": "Pending",
    "responsible_agency": "Sewerage & Water Board",
    "final_address": "3202 Grand-Route St John St",
    "address_councildis": "A",
    "status": "Pending",
    "rowid": "1207268",
    "final_x": "3676140.46139",
    "final_y": "540286.706827",
    "longitude": "-90.08469217320349",
    "latitude": "29.97976279141716",
    "geocoded_column": {
      "latitude": "29.97976279141716",
      "longitude": "-90.08469217320349"
    }
  },
  {
    "service_request": "2025-1207267",
    "request_type": "Drainage",
    "request_reason": "Catch Basin Clogged",
    "date_created": "2025-07-07T21:17:02.000",
    "date_modified": "2025-07-07T21:17:05.000",
    "request_status": "Pending",
    "responsible_agency": "Sewerage & Water Board",
    "final_address": "810 Hagan St",
    "address_councildis": "A",
    "status": "Pending",
    "rowid": "1207267",
    "final_x": "3674981.66702",
    "final_y": "538828.655625",
    "longitude": "-90.08840215687268",
    "latitude": "29.975788320455532",
    "geocoded_column": {
      "latitude": "29.975788320455532",
      "longitude": "-90.08840215687268"
    }
  },
  {
    "service_request": "2025-1207265",
    "request_type": "Streetlights",
    "request_reason": "Streetlight Outage/Malfunction",
    "date_created": "2025-07-07T21:07:53.000",
    "date_modified": "2025-07-07T21:08:59.000",
    "request_status": "Pending",
    "responsible_agency": "Department of Public Works",
    "final_address": "3437 River Oaks Dr",
    "address_councildis": "C",
    "status": "Pending",
    "contractor": "Legacy Professional Services",
    "rowid": "1207265",
    "final_x": "3701349.66397",
    "final_y": "518401.964406",
    "longitude": "-90.0058725308825",
    "latitude": "29.91880805458499",
    "geocoded_column": {
      "latitude": "29.91880805458499",
      "longitude": "-90.0058725308825"
    }
  },
  {
    "service_request": "2025-1207264",
    "request_type": "Streetlights",
    "request_reason": "Streetlight Outage/Malfunction",
    "date_created": "2025-07-07T20:53:27.000",
    "date_modified": "2025-07-07T20:53:29.000",
    "request_status": "Pending",
    "responsible_agency": "Department of Public Works",
    "final_address": "9026 Colapissa St",
    "address_councildis": "A",
    "status": "Pending",
    "contractor": "Legacy Professional Services",
    "rowid": "1207264",
    "final_x": "3664001.65837",
    "final_y": "535660.14919",
    "longitude": "-90.1231859659006",
    "latitude": "29.967399429881773",
    "geocoded_column": {
      "latitude": "29.967399429881773",
      "longitude": "-90.1231859659006"
    }
  },
  {
    "service_request": "2025-1207263",
    "request_type": "Trash/Recycling",
    "request_reason": "Replace Trash Cart",
    "date_created": "2025-07-07T20:47:59.000",
    "date_modified": "2025-07-07T20:48:01.000",
    "request_status": "Pending",
    "responsible_agency": "Department of Sanitation",
    "final_address": "2621 St Philip St",
    "address_councildis": "D",
    "status": "Assigned to Contractor",
    "contractor": "IV Waste",
    "rowid": "1207263",
    "final_x": "3677699.46574",
    "final_y": "537664.029704",
    "longitude": "-90.07985881513483",
    "latitude": "29.9725045262947",
    "geocoded_column": {
      "latitude": "29.9725045262947",
      "longitude": "-90.07985881513483"
    }
  },
  {
    "service_request": "2025-1207262",
    "request_type": "Trash/Recycling",
    "request_reason": "Replace Trash Cart",
    "date_created": "2025-07-07T20:44:24.000",
    "date_modified": "2025-07-07T20:44:27.000",
    "request_status": "Pending",
    "responsible_agency": "Department of Sanitation",
    "final_address": "6 Versailles Blvd",
    "address_councildis": "A",
    "status": "Assigned to Contractor",
    "contractor": "IV Waste",
    "rowid": "1207262",
    "final_x": "3666880.78317",
    "final_y": "528948.648064",
    "longitude": "-90.11431909423497",
    "latitude": "29.948861080424685",
    "geocoded_column": {
      "latitude": "29.948861080424685",
      "longitude": "-90.11431909423497"
    }
  },
  {
    "service_request": "2025-1207261",
    "request_type": "Trash/Recycling",
    "request_reason": "Illegal Dumping",
    "date_created": "2025-07-07T20:29:18.000",
    "date_modified": "2025-07-07T20:29:21.000",
    "request_status": "Pending",
    "responsible_agency": "Department of Sanitation",
    "final_address": "1624 Thalia St",
    "address_councildis": "B",
    "status": "Pending",
    "rowid": "1207261",
    "final_x": "3679161.67189",
    "final_y": "525889.629053",
    "longitude": "-90.07564906028038",
    "latitude": "29.940084834590113",
    "geocoded_column": {
      "latitude": "29.940084834590113",
      "longitude": "-90.07564906028038"
    }
  },
  {
    "service_request": "2025-1207260",
    "request_type": "General Services",
    "request_reason": "General Service Request",
    "date_created": "2025-07-07T20:25:58.000",
    "date_modified": "2025-07-07T20:26:00.000",
    "request_status": "Pending",
    "responsible_agency": "Orleans Parish Communication District",
    "final_address": "1401 Carondelet St",
    "address_councildis": "B",
    "status": "Pending",
    "rowid": "1207260",
    "final_x": "3678919.21838",
    "final_y": "526039.423678",
    "longitude": "-90.0764093352963",
    "latitude": "29.940504035361574",
    "geocoded_column": {
      "latitude": "29.940504035361574",
      "longitude": "-90.0764093352963"
    }
  },
  {
    "service_request": "2025-1207259",
    "request_type": "Trash/Recycling",
    "request_reason": "Replace Recycling Cart",
    "date_created": "2025-07-07T20:11:28.000",
    "date_modified": "2025-07-07T20:11:29.000",
    "request_status": "Pending",
    "responsible_agency": "Department of Sanitation",
    "final_address": "9700 River Rd",
    "address_councildis": "C",
    "status": "Pending",
    "rowid": "1207259",
    "final_x": "3721261.99046",
    "final_y": "518359.03839",
    "longitude": "-89.94302216289488",
    "latitude": "29.918040699790303",
    "geocoded_column": {
      "latitude": "29.918040699790303",
      "longitude": "-89.94302216289488"
    }
  },
  {
    "service_request": "2025-1207258",
    "request_type": "Trash/Recycling",
    "request_reason": "Return Recycling Cart",
    "date_created": "2025-07-07T20:07:23.000",
    "date_modified": "2025-07-07T20:07:25.000",
    "request_status": "Pending",
    "responsible_agency": "Department of Sanitation",
    "final_address": "1716 Robert St",
    "address_councildis": "B",
    "status": "Pending",
    "rowid": "1207258",
    "final_x": "3668667.2978",
    "final_y": "521959.097594",
    "longitude": "-90.10891410626141",
    "latitude": "29.9295896888786",
    "geocoded_column": {
      "latitude": "29.9295896888786",
      "longitude": "-90.10891410626141"
    }
  },
  {
    "service_request": "2025-1207256",
    "request_type": "Trash/Recycling",
    "request_reason": "Order Second Trash Cart",
    "date_created": "2025-07-07T19:49:14.000",
    "date_modified": "2025-07-07T19:49:15.000",
    "request_status": "Pending",
    "responsible_agency": "Department of Sanitation",
    "final_address": "6744 Milne Blvd",
    "address_councildis": "A",
    "status": "Assigned to Contractor",
    "contractor": "IV Waste",
    "rowid": "1207256",
    "final_x": "3667420.83501",
    "final_y": "552575.32367",
    "longitude": "-90.11181864839507",
    "latitude": "30.013810647551065",
    "geocoded_column": {
      "latitude": "30.013810647551065",
      "longitude": "-90.11181864839507"
    }
  },
  {
    "service_request": "2025-1207255",
    "request_type": "Trash/Recycling",
    "request_reason": "Replace Trash Cart",
    "date_created": "2025-07-07T19:48:30.000",
    "date_modified": "2025-07-07T19:48:32.000",
    "request_status": "Pending",
    "responsible_agency": "Department of Sanitation",
    "final_address": "4342 Randolph Ave",
    "address_councildis": "D",
    "status": "Assigned to Contractor",
    "contractor": "IV Waste",
    "rowid": "1207255",
    "final_x": "3677652.88763",
    "final_y": "548450.73589",
    "longitude": "-90.07963318655467",
    "latitude": "30.00216560971806",
    "geocoded_column": {
      "latitude": "30.00216560971806",
      "longitude": "-90.07963318655467"
    }
  },
  {
    "service_request": "2025-1207254",
    "request_type": "Trash/Recycling",
    "request_reason": "Order Recycling Cart",
    "date_created": "2025-07-07T19:42:57.000",
    "date_modified": "2025-07-07T19:42:58.000",
    "request_status": "Pending",
    "responsible_agency": "Department of Sanitation",
    "final_address": "1822 Broadway St",
    "address_councildis": "A",
    "status": "Pending",
    "rowid": "1207254",
    "final_x": "3665368.46624",
    "final_y": "528544.825792",
    "longitude": "-90.11910766009585",
    "latitude": "29.947794852280172",
    "geocoded_column": {
      "latitude": "29.947794852280172",
      "longitude": "-90.11910766009585"
    }
  },
  {
    "service_request": "2025-1207253",
    "request_type": "Trash/Recycling",
    "request_reason": "Return Trash Cart",
    "date_created": "2025-07-07T19:40:38.000",
    "date_modified": "2025-07-07T19:40:41.000",
    "request_status": "Pending",
    "responsible_agency": "Department of Sanitation",
    "final_address": "7032 Queensway Dr",
    "address_councildis": "E",
    "status": "Assigned to Contractor",
    "contractor": "Waste Pro",
    "rowid": "1207253",
    "final_x": "3719173.50674",
    "final_y": "569395.83063",
    "longitude": "-89.94766616239347",
    "latitude": "30.058441700970505",
    "geocoded_column": {
      "latitude": "30.058441700970505",
      "longitude": "-89.94766616239347"
    }
  },
  {
    "service_request": "2025-1207252",
    "request_type": "Trash/Recycling",
    "request_reason": "Missed Trash Pick-Up",
    "date_created": "2025-07-07T19:34:17.000",
    "date_modified": "2025-07-07T19:34:18.000",
    "request_status": "Pending",
    "responsible_agency": "Department of Sanitation",
    "final_address": "7032 Queensway Dr",
    "address_councildis": "E",
    "status": "Assigned to Contractor",
    "contractor": "Waste Pro",
    "rowid": "1207252",
    "final_x": "3719173.50674",
    "final_y": "569395.83063",
    "longitude": "-89.94766616239347",
    "latitude": "30.058441700970505",
    "geocoded_column": {
      "latitude": "30.058441700970505",
      "longitude": "-89.94766616239347"
    }
  },
  {
    "service_request": "2025-1207251",
    "request_type": "Abandoned Vehicles",
    "request_reason": "Abandoned/Junk Vehicles",
    "date_created": "2025-07-07T19:34:11.000",
    "date_modified": "2025-07-07T19:34:13.000",
    "request_status": "Pending",
    "responsible_agency": "Department of Public Works",
    "final_address": "4214 Dauphine St",
    "address_councildis": "C",
    "status": "Pending",
    "rowid": "1207251",
    "final_x": "3692218.83344",
    "final_y": "533950.161861",
    "longitude": "-90.03413723489696",
    "latitude": "29.961847976798374",
    "geocoded_column": {
      "latitude": "29.961847976798374",
      "longitude": "-90.03413723489696"
    }
  },
  {
    "service_request": "2025-1207250",
    "request_type": "Property Maintenance",
    "request_reason": "Property Maintenance",
    "date_created": "2025-07-07T19:31:25.000",
    "date_modified": "2025-07-07T19:31:27.000",
    "request_status": "Pending",
    "responsible_agency": "Department of Code Enforcement",
    "final_address": "7085 Edgefield Dr",
    "address_councildis": "E",
    "status": "Pending",
    "rowid": "1207250",
    "final_x": "3718645.95647",
    "final_y": "569448.667174",
    "longitude": "-89.94933165820608",
    "latitude": "30.05860451055662",
    "geocoded_column": {
      "latitude": "30.05860451055662",
      "longitude": "-89.94933165820608"
    }
  },
  {
    "service_request": "2025-1207249",
    "request_type": "Abandoned Vehicles",
    "request_reason": "Abandoned/Junk Vehicles",
    "date_created": "2025-07-07T19:30:45.000",
    "date_modified": "2025-07-07T19:30:47.000",
    "request_status": "Pending",
    "responsible_agency": "Department of Public Works",
    "final_address": "3000 Cleveland Ave",
    "address_councildis": "B",
    "status": "Pending",
    "rowid": "1207249",
    "final_x": "3674060.6235",
    "final_y": "535532.77319",
    "longitude": "-90.09142389734028",
    "latitude": "29.9667532447974",
    "geocoded_column": {
      "latitude": "29.9667532447974",
      "longitude": "-90.09142389734028"
    }
  },
  {
    "service_request": "2025-1207248",
    "request_type": "Trash/Recycling",
    "request_reason": "Request a Large Item Pick Up",
    "date_created": "2025-07-07T19:26:57.000",
    "date_modified": "2025-07-07T19:26:59.000",
    "request_status": "Pending",
    "responsible_agency": "Department of Sanitation",
    "final_address": "1027 N Villere St",
    "address_councildis": "C",
    "status": "Assigned to Contractor",
    "contractor": "IV Waste",
    "rowid": "1207248",
    "final_x": "3681063.14165",
    "final_y": "535303.039878",
    "longitude": "-90.06931798753098",
    "latitude": "29.965911010304673",
    "geocoded_column": {
      "latitude": "29.965911010304673",
      "longitude": "-90.06931798753098"
    }
  },
  {
    "service_request": "2025-1207247",
    "request_type": "Abandoned Vehicles",
    "request_reason": "Abandoned/Junk Vehicles",
    "date_created": "2025-07-07T19:18:17.000",
    "date_modified": "2025-07-07T19:18:19.000",
    "request_status": "Pending",
    "responsible_agency": "Department of Public Works",
    "final_address": "109 Brunswick Ct",
    "address_councildis": "C",
    "status": "Pending",
    "rowid": "1207247",
    "final_x": "3705877.62679",
    "final_y": "516973.832373",
    "longitude": "-89.99163301199972",
    "latitude": "29.91473617054154",
    "geocoded_column": {
      "latitude": "29.91473617054154",
      "longitude": "-89.99163301199972"
    }
  },
  {
    "service_request": "2025-1207246",
    "request_type": "Abandoned Vehicles",
    "request_reason": "Abandoned/Junk Vehicles",
    "date_created": "2025-07-07T19:16:07.000",
    "date_modified": "2025-07-07T19:16:14.000",
    "request_status": "Pending",
    "responsible_agency": "Department of Public Works",
    "final_address": "109 Brunswick Ct",
    "address_councildis": "C",
    "status": "Pending",
    "rowid": "1207246",
    "final_x": "3705877.62679",
    "final_y": "516973.832373",
    "longitude": "-89.99163301199972",
    "latitude": "29.91473617054154",
    "geocoded_column": {
      "latitude": "29.91473617054154",
      "longitude": "-89.99163301199972"
    }
  },
  {
    "service_request": "2025-1207245",
    "request_type": "Trash/Recycling",
    "request_reason": "Request a Large Item Pick Up",
    "date_created": "2025-07-07T19:13:34.000",
    "date_modified": "2025-07-07T19:13:35.000",
    "request_status": "Pending",
    "responsible_agency": "Department of Sanitation",
    "final_address": "10920 Guildford Rd",
    "address_councildis": "E",
    "status": "Assigned to Contractor",
    "contractor": "Waste Pro",
    "rowid": "1207245",
    "final_x": "3711517.40606",
    "final_y": "563941.332385",
    "longitude": "-89.97207091423772",
    "latitude": "30.043696394401042",
    "geocoded_column": {
      "latitude": "30.043696394401042",
      "longitude": "-89.97207091423772"
    }
  },
  {
    "service_request": "2025-1207244",
    "request_type": "Property Maintenance",
    "request_reason": "Property Maintenance",
    "date_created": "2025-07-07T19:12:19.000",
    "date_modified": "2025-07-07T19:12:22.000",
    "request_status": "Pending",
    "responsible_agency": "Department of Code Enforcement",
    "final_address": "201 Fairfax Pl",
    "address_councildis": "C",
    "status": "Pending",
    "rowid": "1207244",
    "final_x": "3706050.75531",
    "final_y": "517360.152181",
    "longitude": "-89.99107227844776",
    "latitude": "29.915792841230783",
    "geocoded_column": {
      "latitude": "29.915792841230783",
      "longitude": "-89.99107227844776"
    }
  },
  {
    "service_request": "2025-1207243",
    "request_type": "Trash/Recycling",
    "request_reason": "Request a Large Item Pick Up",
    "date_created": "2025-07-07T19:10:10.000",
    "date_modified": "2025-07-07T19:10:12.000",
    "request_status": "Pending",
    "responsible_agency": "Department of Sanitation",
    "final_address": "5610 Chamberlain Dr",
    "address_councildis": "D",
    "status": "Assigned to Contractor",
    "contractor": "IV Waste",
    "rowid": "1207243",
    "final_x": "3679326.19707",
    "final_y": "553068.697879",
    "longitude": "-90.07418669322648",
    "latitude": "30.014812901303078",
    "geocoded_column": {
      "latitude": "30.014812901303078",
      "longitude": "-90.07418669322648"
    }
  },
  {
    "service_request": "2025-1207242",
    "request_type": "Drainage",
    "request_reason": "Street Flooding",
    "date_created": "2025-07-07T18:32:47.000",
    "date_modified": "2025-07-07T18:32:48.000",
    "request_status": "Pending",
    "responsible_agency": "Sewerage & Water Board",
    "final_address": "2610 St Peter St",
    "address_councildis": "D",
    "status": "Pending",
    "rowid": "1207242",
    "final_x": "3676978.48648",
    "final_y": "536532.755719",
    "longitude": "-90.08217480914124",
    "latitude": "29.969415575955576",
    "geocoded_column": {
      "latitude": "29.969415575955576",
      "longitude": "-90.08217480914124"
    }
  },
  {
    "service_request": "2025-1207241",
    "request_type": "Abandoned Vehicles",
    "request_reason": "Abandoned/Junk Vehicles",
    "date_created": "2025-07-07T18:30:20.000",
    "date_modified": "2025-07-07T18:30:23.000",
    "request_status": "Pending",
    "responsible_agency": "Department of Public Works",
    "final_address": "2712 Dryades St",
    "address_councildis": "B",
    "status": "Pending",
    "rowid": "1207241",
    "final_x": "3675515.08347",
    "final_y": "523528.713915",
    "longitude": "-90.08724296745676",
    "latitude": "29.93370264284388",
    "geocoded_column": {
      "latitude": "29.93370264284388",
      "longitude": "-90.08724296745676"
    }
  },
  {
    "service_request": "2025-1207240",
    "request_type": "Abandoned Vehicles",
    "request_reason": "Abandoned/Junk Vehicles",
    "date_created": "2025-07-07T18:29:08.000",
    "date_modified": "2025-07-07T18:29:10.000",
    "request_status": "Pending",
    "responsible_agency": "Department of Public Works",
    "final_address": "2712 Dryades St",
    "address_councildis": "B",
    "status": "Pending",
    "rowid": "1207240",
    "final_x": "3675515.08347",
    "final_y": "523528.713915",
    "longitude": "-90.08724296745676",
    "latitude": "29.93370264284388",
    "geocoded_column": {
      "latitude": "29.93370264284388",
      "longitude": "-90.08724296745676"
    }
  },
  {
    "service_request": "2025-1207239",
    "request_type": "Abandoned Vehicles",
    "request_reason": "Abandoned/Junk Vehicles",
    "date_created": "2025-07-07T18:28:32.000",
    "date_modified": "2025-07-07T18:28:34.000",
    "request_status": "Pending",
    "responsible_agency": "Department of Public Works",
    "final_address": "2712 Dryades St",
    "address_councildis": "B",
    "status": "Pending",
    "rowid": "1207239",
    "final_x": "3675515.08347",
    "final_y": "523528.713915",
    "longitude": "-90.08724296745676",
    "latitude": "29.93370264284388",
    "geocoded_column": {
      "latitude": "29.93370264284388",
      "longitude": "-90.08724296745676"
    }
  },
  {
    "service_request": "2025-1207238",
    "request_type": "Trash/Recycling",
    "request_reason": "Request a Large Item Pick Up",
    "date_created": "2025-07-07T18:27:17.000",
    "date_modified": "2025-07-07T18:27:19.000",
    "request_status": "Pending",
    "responsible_agency": "Department of Sanitation",
    "final_address": "6944 Pontchartrain Blvd",
    "address_councildis": "A",
    "status": "Assigned to Contractor",
    "contractor": "IV Waste",
    "rowid": "1207238",
    "final_x": "3666384.15482",
    "final_y": "554032.939736",
    "longitude": "-90.11504507255154",
    "latitude": "30.017848926446984",
    "geocoded_column": {
      "latitude": "30.017848926446984",
      "longitude": "-90.11504507255154"
    }
  },
  {
    "service_request": "2025-1207237",
    "request_type": "Abandoned Vehicles",
    "request_reason": "Abandoned/Junk Vehicles",
    "date_created": "2025-07-07T18:26:00.000",
    "date_modified": "2025-07-07T18:26:01.000",
    "request_status": "Pending",
    "responsible_agency": "Department of Public Works",
    "final_address": "2714 Dryades St",
    "address_councildis": "B",
    "status": "Pending",
    "rowid": "1207237",
    "final_x": "3675496.28347",
    "final_y": "523516.312315",
    "longitude": "-90.087302743938",
    "latitude": "29.933669104638085",
    "geocoded_column": {
      "latitude": "29.933669104638085",
      "longitude": "-90.087302743938"
    }
  },
  {
    "service_request": "2025-1207236",
    "request_type": "Utility Poles",
    "request_reason": "Wires Sagging/Hanging Low",
    "date_created": "2025-07-07T18:25:56.000",
    "date_modified": "2025-07-07T18:25:58.000",
    "request_status": "Pending",
    "responsible_agency": "Utility Company Collective",
    "final_address": "6166 Elysian Fields Ave",
    "address_councildis": "D",
    "status": "Pending",
    "rowid": "1207236",
    "final_x": "3683306.46268",
    "final_y": "555569.062425",
    "longitude": "-90.06152330426633",
    "latitude": "30.021567122321617",
    "geocoded_column": {
      "latitude": "30.021567122321617",
      "longitude": "-90.06152330426633"
    }
  },
  {
    "service_request": "2025-1207235",
    "request_type": "Roads and Streets",
    "request_reason": "Push-up/Pavement Expansion",
    "date_created": "2025-07-07T18:24:05.000",
    "date_modified": "2025-07-07T18:24:07.000",
    "request_status": "Pending",
    "responsible_agency": "Department of Public Works",
    "final_address": "124 Wren St",
    "address_councildis": "D",
    "status": "Pending",
    "rowid": "1207235",
    "final_x": "3673327.76468",
    "final_y": "556215.459994",
    "longitude": "-90.09303126220661",
    "latitude": "30.023645249905254",
    "geocoded_column": {
      "latitude": "30.023645249905254",
      "longitude": "-90.09303126220661"
    }
  },
  {
    "service_request": "2025-1207234",
    "request_type": "Abandoned Vehicles",
    "request_reason": "Abandoned/Junk Vehicles",
    "date_created": "2025-07-07T18:22:42.000",
    "date_modified": "2025-07-07T18:22:44.000",
    "request_status": "Pending",
    "responsible_agency": "Department of Public Works",
    "final_address": "13034 Calais St",
    "address_councildis": "E",
    "status": "Pending",
    "rowid": "1207234",
    "final_x": "3724099.53356",
    "final_y": "560393.842078",
    "longitude": "-89.93244358252178",
    "latitude": "30.033525250636956",
    "geocoded_column": {
      "latitude": "30.033525250636956",
      "longitude": "-89.93244358252178"
    }
  },
  {
    "service_request": "2025-1207233",
    "request_type": "Trash/Recycling",
    "request_reason": "Order Trash Cart",
    "date_created": "2025-07-07T18:15:21.000",
    "date_modified": "2025-07-07T18:15:23.000",
    "request_status": "Pending",
    "responsible_agency": "Department of Sanitation",
    "final_address": "1219 Eagle St",
    "address_councildis": "A",
    "status": "Assigned to Contractor",
    "contractor": "IV Waste",
    "rowid": "1207233",
    "final_x": "3660257.23066",
    "final_y": "530134.058369",
    "longitude": "-90.13519347771933",
    "latitude": "29.95231267387117",
    "geocoded_column": {
      "latitude": "29.95231267387117",
      "longitude": "-90.13519347771933"
    }
  },
  {
    "service_request": "2025-1207232",
    "request_type": "Drainage",
    "request_reason": "Catch Basin Clogged",
    "date_created": "2025-07-07T18:07:17.000",
    "date_modified": "2025-07-07T18:07:18.000",
    "request_status": "Pending",
    "responsible_agency": "Sewerage & Water Board",
    "final_address": "71 N Park Pl",
    "address_councildis": "A",
    "status": "Pending",
    "rowid": "1207232",
    "final_x": "3669926.71662",
    "final_y": "544918.355727",
    "longitude": "-90.10416084294206",
    "latitude": "29.992682965027477",
    "geocoded_column": {
      "latitude": "29.992682965027477",
      "longitude": "-90.10416084294206"
    }
  },
  {
    "service_request": "2025-1207231",
    "request_type": "Abandoned Vehicles",
    "request_reason": "Abandoned/Junk Vehicles",
    "date_created": "2025-07-07T18:04:48.000",
    "date_modified": "2025-07-07T18:04:50.000",
    "request_status": "Pending",
    "responsible_agency": "Department of Public Works",
    "final_address": "703 Henry Clay Ave",
    "address_councildis": "A",
    "status": "Pending",
    "rowid": "1207231",
    "final_x": "3663745.3145",
    "final_y": "519267.768823",
    "longitude": "-90.12454162324882",
    "latitude": "29.92233308100814",
    "geocoded_column": {
      "latitude": "29.92233308100814",
      "longitude": "-90.12454162324882"
    }
  },
  {
    "service_request": "2025-1207230",
    "request_type": "Abandoned Vehicles",
    "request_reason": "Abandoned/Junk Vehicles",
    "date_created": "2025-07-07T17:52:46.000",
    "date_modified": "2025-07-07T17:52:49.000",
    "request_status": "Pending",
    "responsible_agency": "Department of Public Works",
    "final_address": "3240 Constance St",
    "address_councildis": "B",
    "status": "Pending",
    "rowid": "1207230",
    "final_x": "3675654.14081",
    "final_y": "519473.131447",
    "longitude": "-90.08694323773106",
    "latitude": "29.922546946414577",
    "geocoded_column": {
      "latitude": "29.922546946414577",
      "longitude": "-90.08694323773106"
    }
  },
  {
    "service_request": "2025-1207229",
    "request_type": "Trash/Recycling",
    "request_reason": "Request a Large Item Pick Up",
    "date_created": "2025-07-07T17:50:18.000",
    "date_modified": "2025-07-07T17:50:20.000",
    "request_status": "Pending",
    "responsible_agency": "Department of Sanitation",
    "final_address": "516 David St",
    "address_councildis": "A",
    "status": "Assigned to Contractor",
    "contractor": "IV Waste",
    "rowid": "1207229",
    "final_x": "3671959.53857",
    "final_y": "539769.805514",
    "longitude": "-90.09791486389993",
    "latitude": "29.978466101210817",
    "geocoded_column": {
      "latitude": "29.978466101210817",
      "longitude": "-90.09791486389993"
    }
  },
  {
    "service_request": "2025-1207228",
    "request_type": "Roads and Streets",
    "request_reason": "Street Subsidence (Sinking)",
    "date_created": "2025-07-07T17:48:42.000",
    "date_modified": "2025-07-07T17:48:44.000",
    "request_status": "Pending",
    "responsible_agency": "Department of Public Works",
    "final_address": "5 Yosemite Dr",
    "address_councildis": "C",
    "status": "Pending",
    "rowid": "1207228",
    "final_x": "3699429.76663",
    "final_y": "517716.636406",
    "longitude": "-90.01195755558766",
    "latitude": "29.916984654818734",
    "geocoded_column": {
      "latitude": "29.916984654818734",
      "longitude": "-90.01195755558766"
    }
  },
  {
    "service_request": "2025-1207227",
    "request_type": "Trash/Recycling",
    "request_reason": "Replace Trash Cart",
    "date_created": "2025-07-07T17:17:45.000",
    "date_modified": "2025-07-07T17:17:47.000",
    "request_status": "Pending",
    "responsible_agency": "Department of Sanitation",
    "final_address": "7043 Bunker Hill Rd",
    "address_councildis": "E",
    "status": "Assigned to Contractor",
    "contractor": "Waste Pro",
    "rowid": "1207227",
    "final_x": "3705915.45579",
    "final_y": "560537.82595",
    "longitude": "-89.98990146982118",
    "latitude": "30.034519897573364",
    "geocoded_column": {
      "latitude": "30.034519897573364",
      "longitude": "-89.98990146982118"
    }
  },
  {
    "service_request": "2025-1207226",
    "request_type": "Trash/Recycling",
    "request_reason": "Illegal Dumping",
    "date_created": "2025-07-07T17:16:20.000",
    "date_modified": "2025-07-07T17:16:22.000",
    "request_status": "Pending",
    "responsible_agency": "Department of Sanitation",
    "final_address": "1335 Atlantic Ave",
    "address_councildis": "C",
    "status": "Pending",
    "rowid": "1207226",
    "final_x": "3688596.60015",
    "final_y": "526442.147198",
    "longitude": "-90.04584203931907",
    "latitude": "29.94131594822395",
    "geocoded_column": {
      "latitude": "29.94131594822395",
      "longitude": "-90.04584203931907"
    }
  },
  {
    "service_request": "2025-1207225",
    "request_type": "Trash/Recycling",
    "request_reason": "Illegal Dumping",
    "date_created": "2025-07-07T17:10:01.000",
    "date_modified": "2025-07-07T17:10:02.000",
    "request_status": "Pending",
    "responsible_agency": "Department of Sanitation",
    "final_address": "2200 BLK Dauphine St",
    "address_councildis": "C",
    "status": "Pending",
    "rowid": "1207225",
    "final_x": "3685319.86817",
    "final_y": "535245.11729",
    "longitude": "-90.05587743937357",
    "latitude": "29.965621939928646",
    "geocoded_column": {
      "latitude": "29.965621939928646",
      "longitude": "-90.05587743937357"
    }
  },
  {
    "service_request": "2025-1207224",
    "request_type": "Mosquito, Termite & Rodent Control",
    "request_reason": "Rodent Complaint (Mice & Rats)",
    "date_created": "2025-07-07T17:09:51.000",
    "date_modified": "2025-07-07T17:09:53.000",
    "request_status": "Pending",
    "responsible_agency": "Mosquito, Termite & Rodent Control Board",
    "final_address": "7431 Eastmore Rd",
    "address_councildis": "E",
    "status": "Pending",
    "rowid": "1207224",
    "final_x": "3700477.36503",
    "final_y": "560023.063901",
    "longitude": "-90.00710532496453",
    "latitude": "30.033278692190322",
    "geocoded_column": {
      "latitude": "30.033278692190322",
      "longitude": "-90.00710532496453"
    }
  },
  {
    "service_request": "2025-1207223",
    "request_type": "Trash/Recycling",
    "request_reason": "Order Recycling Cart",
    "date_created": "2025-07-07T17:06:40.000",
    "date_modified": "2025-07-07T17:06:41.000",
    "request_status": "Pending",
    "responsible_agency": "Department of Sanitation",
    "final_address": "7431 Eastmore Rd",
    "address_councildis": "E",
    "status": "Pending",
    "rowid": "1207223",
    "final_x": "3700477.36503",
    "final_y": "560023.063901",
    "longitude": "-90.00710532496453",
    "latitude": "30.033278692190322",
    "geocoded_column": {
      "latitude": "30.033278692190322",
      "longitude": "-90.00710532496453"
    }
  },
  {
    "service_request": "2025-1207222",
    "request_type": "Trash/Recycling",
    "request_reason": "Order Trash Cart",
    "date_created": "2025-07-07T17:04:35.000",
    "date_modified": "2025-07-07T17:04:37.000",
    "request_status": "Pending",
    "responsible_agency": "Department of Sanitation",
    "final_address": "7431 Eastmore Rd",
    "address_councildis": "E",
    "status": "Assigned to Contractor",
    "contractor": "Waste Pro",
    "rowid": "1207222",
    "final_x": "3700477.36503",
    "final_y": "560023.063901",
    "longitude": "-90.00710532496453",
    "latitude": "30.033278692190322",
    "geocoded_column": {
      "latitude": "30.033278692190322",
      "longitude": "-90.00710532496453"
    }
  },
  {
    "service_request": "2025-1207221",
    "request_type": "Parks & Parkways",
    "request_reason": "Request Tree Service (Right of Way/Public Property)",
    "date_created": "2025-07-07T16:59:32.000",
    "date_modified": "2025-07-07T16:59:34.000",
    "request_status": "Pending",
    "responsible_agency": "Department of Parks & Parkway",
    "final_address": "6335 Painters St",
    "address_councildis": "D",
    "status": "Pending",
    "rowid": "1207221",
    "final_x": "3686019.41532",
    "final_y": "556673.848538",
    "longitude": "-90.05291211093393",
    "latitude": "30.024521798456895",
    "geocoded_column": {
      "latitude": "30.024521798456895",
      "longitude": "-90.05291211093393"
    }
  },
  {
    "service_request": "2025-1207220",
    "request_type": "Drainage",
    "request_reason": "Ditch and Culvert Maintenance",
    "date_created": "2025-07-07T16:57:36.000",
    "date_modified": "2025-07-07T16:57:37.000",
    "request_status": "Pending",
    "responsible_agency": "Department of Public Works",
    "final_address": "9014 Heaton St",
    "address_councildis": "A",
    "status": "Pending",
    "rowid": "1207220",
    "final_x": "3666924.38874",
    "final_y": "538684.323721",
    "longitude": "-90.11385425947444",
    "latitude": "29.9756297026302",
    "geocoded_column": {
      "latitude": "29.9756297026302",
      "longitude": "-90.11385425947444"
    }
  },
  {
    "service_request": "2025-1207219",
    "request_type": "Trash/Recycling",
    "request_reason": "Return Recycling Cart",
    "date_created": "2025-07-07T16:56:55.000",
    "date_modified": "2025-07-07T16:56:56.000",
    "request_status": "Pending",
    "responsible_agency": "Department of Sanitation",
    "final_address": "4674 Nottingham Dr",
    "address_councildis": "E",
    "status": "Pending",
    "rowid": "1207219",
    "final_x": "3716349.64421",
    "final_y": "556564.402842",
    "longitude": "-89.95707915191436",
    "latitude": "30.023254070482793",
    "geocoded_column": {
      "latitude": "30.023254070482793",
      "longitude": "-89.95707915191436"
    }
  },
  {
    "service_request": "2025-1207218",
    "request_type": "Drainage",
    "request_reason": "Street Flooding",
    "date_created": "2025-07-07T16:56:39.000",
    "date_modified": "2025-07-07T16:56:41.000",
    "request_status": "Pending",
    "responsible_agency": "Sewerage & Water Board",
    "final_address": "1628 Elizardi Blvd",
    "address_councildis": "C",
    "status": "Pending",
    "rowid": "1207218",
    "final_x": "3694744.33066",
    "final_y": "525108.449085",
    "longitude": "-90.02648059505415",
    "latitude": "29.937457366581793",
    "geocoded_column": {
      "latitude": "29.937457366581793",
      "longitude": "-90.02648059505415"
    }
  },
  {
    "service_request": "2025-1207217",
    "request_type": "Trash/Recycling",
    "request_reason": "Repair Trash Cart",
    "date_created": "2025-07-07T16:53:27.000",
    "date_modified": "2025-07-07T16:53:30.000",
    "request_status": "Pending",
    "responsible_agency": "Department of Sanitation",
    "final_address": "923 Philip St",
    "address_councildis": "B",
    "status": "Assigned to Contractor",
    "contractor": "IV Waste",
    "rowid": "1207217",
    "final_x": "3678900.55323",
    "final_y": "521431.654457",
    "longitude": "-90.07662781451171",
    "latitude": "29.927834748646372",
    "geocoded_column": {
      "latitude": "29.927834748646372",
      "longitude": "-90.07662781451171"
    }
  },
  {
    "service_request": "2025-1207216",
    "request_type": "Parks & Parkways",
    "request_reason": "Request Tree Service (Right of Way/Public Property)",
    "date_created": "2025-07-07T16:52:47.000",
    "date_modified": "2025-07-07T16:52:49.000",
    "request_status": "Pending",
    "responsible_agency": "Department of Parks & Parkway",
    "final_address": "1013 Poland Ave",
    "address_councildis": "C",
    "status": "Pending",
    "rowid": "1207216",
    "final_x": "3693020.6168",
    "final_y": "534670.04679",
    "longitude": "-90.03157951536245",
    "latitude": "29.963802385926662",
    "geocoded_column": {
      "latitude": "29.963802385926662",
      "longitude": "-90.03157951536245"
    }
  },
  {
    "service_request": "2025-1207215",
    "request_type": "Property Maintenance",
    "request_reason": "Property Maintenance",
    "date_created": "2025-07-07T16:52:21.000",
    "date_modified": "2025-07-07T16:52:22.000",
    "request_status": "Pending",
    "responsible_agency": "Department of Code Enforcement",
    "final_address": "6200 Carlisle Ct",
    "address_councildis": "C",
    "status": "Pending",
    "rowid": "1207215",
    "final_x": "3706934.70692",
    "final_y": "516512.858101",
    "longitude": "-89.9883136043797",
    "latitude": "29.913434573875865",
    "geocoded_column": {
      "latitude": "29.913434573875865",
      "longitude": "-89.9883136043797"
    }
  },
  {
    "service_request": "2025-1207214",
    "request_type": "Trash/Recycling",
    "request_reason": "Request a Large Item Pick Up",
    "date_created": "2025-07-07T16:51:29.000",
    "date_modified": "2025-07-07T16:51:51.000",
    "request_status": "Pending",
    "responsible_agency": "Department of Sanitation",
    "final_address": "7661 Wave Dr",
    "address_councildis": "E",
    "status": "Assigned to Contractor",
    "contractor": "Waste Pro",
    "rowid": "1207214",
    "final_x": "3714906.95352",
    "final_y": "568974.38167",
    "longitude": "-89.9611681134045",
    "latitude": "30.057424067034063",
    "geocoded_column": {
      "latitude": "30.057424067034063",
      "longitude": "-89.9611681134045"
    }
  },
  {
    "service_request": "2025-1207213",
    "request_type": "Parks & Parkways",
    "request_reason": "Request Tree Service (Right of Way/Public Property)",
    "date_created": "2025-07-07T16:49:11.000",
    "date_modified": "2025-07-07T16:50:58.000",
    "request_status": "Pending",
    "responsible_agency": "Department of Parks & Parkway",
    "final_address": "6215 Carlisle Ct",
    "address_councildis": "C",
    "status": "Pending",
    "rowid": "1207213",
    "final_x": "3707016.03876",
    "final_y": "516413.143285",
    "longitude": "-89.98806059322851",
    "latitude": "29.913157767250752",
    "geocoded_column": {
      "latitude": "29.913157767250752",
      "longitude": "-89.98806059322851"
    }
  },
  {
    "service_request": "2025-1207212",
    "request_type": "Trash/Recycling",
    "request_reason": "Request a Large Item Pick Up",
    "date_created": "2025-07-07T16:47:13.000",
    "date_modified": "2025-07-07T16:47:15.000",
    "request_status": "Pending",
    "responsible_agency": "Department of Sanitation",
    "final_address": "7347 Read Blvd",
    "address_councildis": "E",
    "status": "Assigned to Contractor",
    "contractor": "Waste Pro",
    "rowid": "1207212",
    "final_x": "3709278.85413",
    "final_y": "563308.174176",
    "longitude": "-89.97916928963214",
    "latitude": "30.042028396015056",
    "geocoded_column": {
      "latitude": "30.042028396015056",
      "longitude": "-89.97916928963214"
    }
  },
  {
    "service_request": "2025-1207211",
    "request_type": "Parks & Parkways",
    "request_reason": "Request Grass Cutting Service (City Owned Property)",
    "date_created": "2025-07-07T16:47:09.000",
    "date_modified": "2025-07-07T16:47:12.000",
    "request_status": "Pending",
    "responsible_agency": "Department of Parks & Parkway",
    "final_address": "PARIS RD & EMORY RD",
    "address_councildis": "E",
    "status": "Pending",
    "rowid": "1207211",
    "final_x": "3721353.5",
    "final_y": "574136.68",
    "longitude": "-89.94059337083878",
    "latitude": "30.071404372914213",
    "geocoded_column": {
      "latitude": "30.071404372914213",
      "longitude": "-89.94059337083878"
    }
  },
  {
    "service_request": "2025-1207210",
    "request_type": "Trash/Recycling",
    "request_reason": "Repair Recycling Cart",
    "date_created": "2025-07-07T16:43:41.000",
    "date_modified": "2025-07-07T16:43:42.000",
    "request_status": "Pending",
    "responsible_agency": "Department of Sanitation",
    "final_address": "4810 Arthur Dr",
    "address_councildis": "E",
    "status": "Pending",
    "rowid": "1207210",
    "final_x": "3707563.51147",
    "final_y": "556056.792281",
    "longitude": "-89.98486007423516",
    "latitude": "30.022145577968118",
    "geocoded_column": {
      "latitude": "30.022145577968118",
      "longitude": "-89.98486007423516"
    }
  },
  {
    "service_request": "2025-1207209",
    "request_type": "Trash/Recycling",
    "request_reason": "Repair Trash Cart",
    "date_created": "2025-07-07T16:43:11.000",
    "date_modified": "2025-07-07T16:43:12.000",
    "request_status": "Pending",
    "responsible_agency": "Department of Sanitation",
    "final_address": "4810 Arthur Dr",
    "address_councildis": "E",
    "status": "Assigned to Contractor",
    "contractor": "Waste Pro",
    "rowid": "1207209",
    "final_x": "3707563.51147",
    "final_y": "556056.792281",
    "longitude": "-89.98486007423516",
    "latitude": "30.022145577968118",
    "geocoded_column": {
      "latitude": "30.022145577968118",
      "longitude": "-89.98486007423516"
    }
  },
  {
    "service_request": "2025-1207208",
    "request_type": "Trash/Recycling",
    "request_reason": "Request a Large Item Pick Up",
    "date_created": "2025-07-07T16:42:38.000",
    "date_modified": "2025-07-07T16:42:40.000",
    "request_status": "Pending",
    "responsible_agency": "Department of Sanitation",
    "final_address": "7851 Arcadia Ln",
    "address_councildis": "E",
    "status": "Assigned to Contractor",
    "contractor": "Waste Pro",
    "rowid": "1207208",
    "final_x": "3711942.15717",
    "final_y": "567781.825892",
    "longitude": "-89.97058417825644",
    "latitude": "30.054242314300815",
    "geocoded_column": {
      "latitude": "30.054242314300815",
      "longitude": "-89.97058417825644"
    }
  },
  {
    "service_request": "2025-1207207",
    "request_type": "Trash/Recycling",
    "request_reason": "Request a Large Item Pick Up",
    "date_created": "2025-07-07T16:41:19.000",
    "date_modified": "2025-07-07T16:41:21.000",
    "request_status": "Pending",
    "responsible_agency": "Department of Sanitation",
    "final_address": "5329 Magazine St",
    "address_councildis": "B",
    "status": "Assigned to Contractor",
    "contractor": "IV Waste",
    "rowid": "1207207",
    "final_x": "3667278.989",
    "final_y": "518740.792439",
    "longitude": "-90.11340492870518",
    "latitude": "29.92078108612122",
    "geocoded_column": {
      "latitude": "29.92078108612122",
      "longitude": "-90.11340492870518"
    }
  },
  {
    "service_request": "2025-1207206",
    "request_type": "Safety & Permits",
    "request_reason": "Zoning Enforcement",
    "date_created": "2025-07-07T16:38:24.000",
    "date_modified": "2025-07-07T16:38:26.000",
    "request_status": "Pending",
    "responsible_agency": "Safety and Permits",
    "final_address": "3500 Loyola Ave",
    "address_councildis": "B",
    "status": "Pending",
    "rowid": "1207206",
    "final_x": "3672958.26939",
    "final_y": "523315.194363",
    "longitude": "-90.09532200100921",
    "latitude": "29.93319174051027",
    "geocoded_column": {
      "latitude": "29.93319174051027",
      "longitude": "-90.09532200100921"
    }
  },
  {
    "service_request": "2025-1207205",
    "request_type": "Streetlights",
    "request_reason": "Streetlight Outage/Malfunction",
    "date_created": "2025-07-07T16:35:39.000",
    "date_modified": "2025-07-07T16:35:41.000",
    "request_status": "Pending",
    "responsible_agency": "Department of Public Works",
    "final_address": "847 Bungalow Ct",
    "address_councildis": "A",
    "status": "Pending",
    "contractor": "Legacy Professional Services",
    "rowid": "1207205",
    "final_x": "3672619.87028",
    "final_y": "540646.210763",
    "longitude": "-90.09579939482569",
    "latitude": "29.9808563237726",
    "geocoded_column": {
      "latitude": "29.9808563237726",
      "longitude": "-90.09579939482569"
    }
  },
  {
    "service_request": "2025-1207204",
    "request_type": "Mosquito, Termite & Rodent Control",
    "request_reason": "Mosquito Complaint",
    "date_created": "2025-07-07T16:35:14.000",
    "date_modified": "2025-07-07T16:35:15.000",
    "request_status": "Pending",
    "responsible_agency": "Mosquito, Termite & Rodent Control Board",
    "final_address": "9020 Heaton St",
    "address_councildis": "A",
    "status": "Pending",
    "rowid": "1207204",
    "final_x": "3666859.04948",
    "final_y": "538742.792073",
    "longitude": "-90.11405865478307",
    "latitude": "29.9757923829185",
    "geocoded_column": {
      "latitude": "29.9757923829185",
      "longitude": "-90.11405865478307"
    }
  },
  {
    "service_request": "2025-1207203",
    "request_type": "Property Maintenance",
    "request_reason": "Property Maintenance",
    "date_created": "2025-07-07T16:34:21.000",
    "date_modified": "2025-07-07T16:34:23.000",
    "request_status": "Pending",
    "responsible_agency": "Department of Code Enforcement",
    "final_address": "5909 Debore Dr",
    "address_councildis": "D",
    "status": "Pending",
    "rowid": "1207203",
    "final_x": "3691379.09251",
    "final_y": "555777.770969",
    "longitude": "-90.03600858737832",
    "latitude": "30.021892151971052",
    "geocoded_column": {
      "latitude": "30.021892151971052",
      "longitude": "-90.03600858737832"
    }
  },
  {
    "service_request": "2025-1207202",
    "request_type": "Trash/Recycling",
    "request_reason": "Order Trash Cart",
    "date_created": "2025-07-07T16:33:15.000",
    "date_modified": "2025-07-07T16:33:17.000",
    "request_status": "Pending",
    "responsible_agency": "Department of Sanitation",
    "final_address": "8018 Flounder St",
    "address_councildis": "E",
    "status": "Assigned to Contractor",
    "contractor": "Waste Pro",
    "rowid": "1207202",
    "final_x": "3699579.84797",
    "final_y": "561649.383199",
    "longitude": "-90.00988219386356",
    "latitude": "30.03777897220292",
    "geocoded_column": {
      "latitude": "30.03777897220292",
      "longitude": "-90.00988219386356"
    }
  },
  {
    "service_request": "2025-1207201",
    "request_type": "Trash/Recycling",
    "request_reason": "Order Trash Cart",
    "date_created": "2025-07-07T16:33:01.000",
    "date_modified": "2025-07-07T16:33:05.000",
    "request_status": "Pending",
    "responsible_agency": "Department of Sanitation",
    "final_address": "3517 Johnny Jackson Jr Blvd",
    "address_councildis": "D",
    "status": "Assigned to Contractor",
    "contractor": "IV Waste",
    "rowid": "1207201",
    "final_x": "3692014.97334",
    "final_y": "545422.814224",
    "longitude": "-90.03437028873475",
    "latitude": "29.993400032342198",
    "geocoded_column": {
      "latitude": "29.993400032342198",
      "longitude": "-90.03437028873475"
    }
  },
  {
    "service_request": "2025-1207200",
    "request_type": "Property Maintenance",
    "request_reason": "Property Maintenance",
    "date_created": "2025-07-07T16:30:12.000",
    "date_modified": "2025-07-07T16:30:18.000",
    "request_status": "Pending",
    "responsible_agency": "Department of Code Enforcement",
    "final_address": "11323 Morrison Rd",
    "address_councildis": "E",
    "status": "Pending",
    "rowid": "1207200",
    "final_x": "3711929.08037",
    "final_y": "565626.402594",
    "longitude": "-89.97070652760509",
    "latitude": "30.048316203237874",
    "geocoded_column": {
      "latitude": "30.048316203237874",
      "longitude": "-89.97070652760509"
    }
  },
  {
    "service_request": "2025-1207199",
    "request_type": "Healthy Homes",
    "request_reason": "Healthy Homes",
    "date_created": "2025-07-07T16:28:41.000",
    "date_modified": "2025-07-07T16:28:43.000",
    "request_status": "Pending",
    "responsible_agency": "Department of Code Enforcement",
    "final_address": "1943 N Rampart St",
    "address_councildis": "C",
    "status": "Pending",
    "rowid": "1207199",
    "final_x": "3684229.0758",
    "final_y": "535901.470151",
    "longitude": "-90.05929906686211",
    "latitude": "29.967460076499936",
    "geocoded_column": {
      "latitude": "29.967460076499936",
      "longitude": "-90.05929906686211"
    }
  },
  {
    "service_request": "2025-1207198",
    "request_type": "Trash/Recycling",
    "request_reason": "Request a Large Item Pick Up",
    "date_created": "2025-07-07T16:28:17.000",
    "date_modified": "2025-07-07T16:28:19.000",
    "request_status": "Pending",
    "responsible_agency": "Department of Sanitation",
    "final_address": "9930 E Rockton Cir",
    "address_councildis": "E",
    "status": "Assigned to Contractor",
    "contractor": "Waste Pro",
    "rowid": "1207198",
    "final_x": "3708608.03076",
    "final_y": "562702.971552",
    "longitude": "-89.98131189526949",
    "latitude": "30.040386111473406",
    "geocoded_column": {
      "latitude": "30.040386111473406",
      "longitude": "-89.98131189526949"
    }
  },
  {
    "service_request": "2025-1207197",
    "request_type": "Healthy Homes",
    "request_reason": "Healthy Homes",
    "date_created": "2025-07-07T16:25:58.000",
    "date_modified": "2025-07-07T16:26:00.000",
    "request_status": "Pending",
    "responsible_agency": "Department of Code Enforcement",
    "final_address": "1943 N Rampart St",
    "address_councildis": "C",
    "status": "Pending",
    "rowid": "1207197",
    "final_x": "3684229.0758",
    "final_y": "535901.470151",
    "longitude": "-90.05929906686211",
    "latitude": "29.967460076499936",
    "geocoded_column": {
      "latitude": "29.967460076499936",
      "longitude": "-90.05929906686211"
    }
  },
  {
    "service_request": "2025-1207196",
    "request_type": "Trash/Recycling",
    "request_reason": "Request a Large Item Pick Up",
    "date_created": "2025-07-07T16:24:41.000",
    "date_modified": "2025-07-07T16:24:43.000",
    "request_status": "Pending",
    "responsible_agency": "Department of Sanitation",
    "final_address": "7432 Briarheath Dr",
    "address_councildis": "E",
    "status": "Assigned to Contractor",
    "contractor": "Waste Pro",
    "rowid": "1207196",
    "final_x": "3714300.75506",
    "final_y": "566868.280036",
    "longitude": "-89.96316380955287",
    "latitude": "30.051653097031366",
    "geocoded_column": {
      "latitude": "30.051653097031366",
      "longitude": "-89.96316380955287"
    }
  },
  {
    "service_request": "2025-1207195",
    "request_type": "Trash/Recycling",
    "request_reason": "Request a Large Item Pick Up",
    "date_created": "2025-07-07T16:21:36.000",
    "date_modified": "2025-07-07T16:21:38.000",
    "request_status": "Pending",
    "responsible_agency": "Department of Sanitation",
    "final_address": "1520 Leonidas St",
    "address_councildis": "A",
    "status": "Assigned to Contractor",
    "contractor": "IV Waste",
    "rowid": "1207195",
    "final_x": "3661433.00781",
    "final_y": "530496.156866",
    "longitude": "-90.13146890333454",
    "latitude": "29.953274470274106",
    "geocoded_column": {
      "latitude": "29.953274470274106",
      "longitude": "-90.13146890333454"
    }
  },
  {
    "service_request": "2025-1207194",
    "request_type": "Abandoned Vehicles",
    "request_reason": "Abandoned/Junk Vehicles",
    "date_created": "2025-07-07T16:20:53.000",
    "date_modified": "2025-07-07T16:20:55.000",
    "request_status": "Pending",
    "responsible_agency": "Department of Public Works",
    "final_address": "6728 General Haig St",
    "address_councildis": "A",
    "status": "Pending",
    "rowid": "1207194",
    "final_x": "3670886.8107",
    "final_y": "552123.801046",
    "longitude": "-90.10088326301",
    "latitude": "30.01246706877233",
    "geocoded_column": {
      "latitude": "30.01246706877233",
      "longitude": "-90.10088326301"
    }
  },
  {
    "service_request": "2025-1207193",
    "request_type": "Property Maintenance",
    "request_reason": "Property Maintenance",
    "date_created": "2025-07-07T16:20:38.000",
    "date_modified": "2025-07-07T16:20:40.000",
    "request_status": "Pending",
    "responsible_agency": "Department of Code Enforcement",
    "final_address": "3051 N Miro St",
    "address_councildis": "D",
    "status": "Pending",
    "rowid": "1207193",
    "final_x": "3689934.12451",
    "final_y": "540285.295755",
    "longitude": "-90.04112635084297",
    "latitude": "29.97933839600155",
    "geocoded_column": {
      "latitude": "29.97933839600155",
      "longitude": "-90.04112635084297"
    }
  },
  {
    "service_request": "2025-1207192",
    "request_type": "Property Maintenance",
    "request_reason": "Property Maintenance",
    "date_created": "2025-07-07T16:20:08.000",
    "date_modified": "2025-07-07T16:20:10.000",
    "request_status": "Pending",
    "responsible_agency": "Department of Code Enforcement",
    "final_address": "2300 Annunciation St",
    "address_councildis": "B",
    "status": "Pending",
    "rowid": "1207192",
    "final_x": "3679203.73576",
    "final_y": "520930.837817",
    "longitude": "-90.07568809075114",
    "latitude": "29.926448519865996",
    "geocoded_column": {
      "latitude": "29.926448519865996",
      "longitude": "-90.07568809075114"
    }
  },
  {
    "service_request": "2025-1207191",
    "request_type": "Trash/Recycling",
    "request_reason": "Request a Large Item Pick Up",
    "date_created": "2025-07-07T16:17:53.000",
    "date_modified": "2025-07-07T16:17:54.000",
    "request_status": "Pending",
    "responsible_agency": "Department of Sanitation",
    "final_address": "4215 Magnolia St",
    "address_councildis": "B",
    "status": "Assigned to Contractor",
    "contractor": "IV Waste",
    "rowid": "1207191",
    "final_x": "3671084.87009",
    "final_y": "524833.83718",
    "longitude": "-90.10118466016225",
    "latitude": "29.937423040890632",
    "geocoded_column": {
      "latitude": "29.937423040890632",
      "longitude": "-90.10118466016225"
    }
  },
  {
    "service_request": "2025-1207190",
    "request_type": "Trash/Recycling",
    "request_reason": "Request a Large Item Pick Up",
    "date_created": "2025-07-07T16:17:07.000",
    "date_modified": "2025-07-07T16:17:13.000",
    "request_status": "Pending",
    "responsible_agency": "Department of Sanitation",
    "final_address": "6857 Vicksburg St",
    "address_councildis": "A",
    "status": "Assigned to Contractor",
    "contractor": "IV Waste",
    "rowid": "1207190",
    "final_x": "3669449.53447",
    "final_y": "553081.669079",
    "longitude": "-90.10539183766552",
    "latitude": "30.015143296611274",
    "geocoded_column": {
      "latitude": "30.015143296611274",
      "longitude": "-90.10539183766552"
    }
  },
  {
    "service_request": "2025-1207189",
    "request_type": "Trash/Recycling",
    "request_reason": "Request a Large Item Pick Up",
    "date_created": "2025-07-07T16:14:39.000",
    "date_modified": "2025-07-07T16:14:40.000",
    "request_status": "Pending",
    "responsible_agency": "Department of Sanitation",
    "final_address": "3164 Toulouse St",
    "address_councildis": "A",
    "status": "Assigned to Contractor",
    "contractor": "IV Waste",
    "rowid": "1207189",
    "final_x": "3674765.5707",
    "final_y": "537789.111432",
    "longitude": "-90.08912030135087",
    "latitude": "29.972936382261466",
    "geocoded_column": {
      "latitude": "29.972936382261466",
      "longitude": "-90.08912030135087"
    }
  },
  {
    "service_request": "2025-1207188",
    "request_type": "Trash/Recycling",
    "request_reason": "Request a Large Item Pick Up",
    "date_created": "2025-07-07T16:13:21.000",
    "date_modified": "2025-07-07T16:13:23.000",
    "request_status": "Pending",
    "responsible_agency": "Department of Sanitation",
    "final_address": "4251 Vincennes Pl",
    "address_councildis": "B",
    "status": "Assigned to Contractor",
    "contractor": "IV Waste",
    "rowid": "1207188",
    "final_x": "3668897.07482",
    "final_y": "531683.768387",
    "longitude": "-90.10786041363833",
    "latitude": "29.956322629478137",
    "geocoded_column": {
      "latitude": "29.956322629478137",
      "longitude": "-90.10786041363833"
    }
  },
  {
    "service_request": "2025-1207187",
    "request_type": "Trash/Recycling",
    "request_reason": "Request a Large Item Pick Up",
    "date_created": "2025-07-07T16:12:05.000",
    "date_modified": "2025-07-07T16:12:08.000",
    "request_status": "Pending",
    "responsible_agency": "Department of Sanitation",
    "final_address": "6920 Boston Dr",
    "address_councildis": "E",
    "status": "Assigned to Contractor",
    "contractor": "Waste Pro",
    "rowid": "1207187",
    "final_x": "3706579.40734",
    "final_y": "560255.010013",
    "longitude": "-89.98781380126108",
    "latitude": "30.033720844021715",
    "geocoded_column": {
      "latitude": "30.033720844021715",
      "longitude": "-89.98781380126108"
    }
  },
  {
    "service_request": "2025-1207186",
    "request_type": "Street and Traffic Signs",
    "request_reason": "Additional Signage Request",
    "date_created": "2025-07-07T16:09:15.000",
    "date_modified": "2025-07-07T16:09:16.000",
    "request_status": "Pending",
    "responsible_agency": "Department of Public Works",
    "final_address": "1838 N Claiborne Ave",
    "address_councildis": "C",
    "status": "Pending",
    "rowid": "1207186",
    "final_x": "3683662.96169",
    "final_y": "537871.484169",
    "longitude": "-90.06101778292398",
    "latitude": "29.97289422776593",
    "geocoded_column": {
      "latitude": "29.97289422776593",
      "longitude": "-90.06101778292398"
    }
  },
  {
    "service_request": "2025-1207185",
    "request_type": "Trash/Recycling",
    "request_reason": "Repair Trash Cart",
    "date_created": "2025-07-07T16:08:27.000",
    "date_modified": "2025-07-07T16:08:29.000",
    "request_status": "Pending",
    "responsible_agency": "Department of Sanitation",
    "final_address": "3117 Iberville St",
    "address_councildis": "B",
    "status": "Assigned to Contractor",
    "contractor": "IV Waste",
    "rowid": "1207185",
    "final_x": "3674255.60353",
    "final_y": "536529.860295",
    "longitude": "-90.09077400439573",
    "latitude": "29.969489085116702",
    "geocoded_column": {
      "latitude": "29.969489085116702",
      "longitude": "-90.09077400439573"
    }
  },
  {
    "service_request": "2025-1207184",
    "request_type": "Trash/Recycling",
    "request_reason": "Request a Large Item Pick Up",
    "date_created": "2025-07-07T16:08:09.000",
    "date_modified": "2025-07-07T16:08:10.000",
    "request_status": "Pending",
    "responsible_agency": "Department of Sanitation",
    "final_address": "1642 Andry St",
    "address_councildis": "E",
    "status": "Assigned to Contractor",
    "contractor": "Waste Pro",
    "rowid": "1207184",
    "final_x": "3697726.28701",
    "final_y": "536182.863879",
    "longitude": "-90.01666465620426",
    "latitude": "29.96781425836026",
    "geocoded_column": {
      "latitude": "29.96781425836026",
      "longitude": "-90.01666465620426"
    }
  },
  {
    "service_request": "2025-1207183",
    "request_type": "Streetlights",
    "request_reason": "Streetlight Outage/Malfunction",
    "date_created": "2025-07-07T16:06:56.000",
    "date_modified": "2025-07-07T16:06:58.000",
    "request_status": "Pending",
    "responsible_agency": "Department of Public Works",
    "final_address": "916 Hidalgo St",
    "address_councildis": "A",
    "status": "Pending",
    "contractor": "Legacy Professional Services",
    "rowid": "1207183",
    "final_x": "3669690.2354",
    "final_y": "543945.43035",
    "longitude": "-90.10494079308477",
    "latitude": "29.99001472773808",
    "geocoded_column": {
      "latitude": "29.99001472773808",
      "longitude": "-90.10494079308477"
    }
  },
  {
    "service_request": "2025-1207182",
    "request_type": "Abandoned Vehicles",
    "request_reason": "Abandoned/Junk Vehicles",
    "date_created": "2025-07-07T16:06:37.000",
    "date_modified": "2025-07-07T16:06:38.000",
    "request_status": "Pending",
    "responsible_agency": "Department of Public Works",
    "final_address": "6569 General Haig St",
    "address_councildis": "A",
    "status": "Pending",
    "rowid": "1207182",
    "final_x": "3670992.94401",
    "final_y": "551036.971285",
    "longitude": "-90.10058488218348",
    "latitude": "30.009475531231523",
    "geocoded_column": {
      "latitude": "30.009475531231523",
      "longitude": "-90.10058488218348"
    }
  },
  {
    "service_request": "2025-1207181",
    "request_type": "Trash/Recycling",
    "request_reason": "Request a Large Item Pick Up",
    "date_created": "2025-07-07T16:06:35.000",
    "date_modified": "2025-07-07T16:06:36.000",
    "request_status": "Pending",
    "responsible_agency": "Department of Sanitation",
    "final_address": "1643 Lauradale Dr",
    "address_councildis": "C",
    "status": "Assigned to Contractor",
    "contractor": "Richards Disposal",
    "rowid": "1207181",
    "final_x": "3692715.54902",
    "final_y": "525097.739197",
    "longitude": "-90.03288595631574",
    "latitude": "29.937491385654173",
    "geocoded_column": {
      "latitude": "29.937491385654173",
      "longitude": "-90.03288595631574"
    }
  },
  {
    "service_request": "2025-1207180",
    "request_type": "Trash/Recycling",
    "request_reason": "Repair Recycling Cart",
    "date_created": "2025-07-07T16:05:46.000",
    "date_modified": "2025-07-07T16:05:47.000",
    "request_status": "Pending",
    "responsible_agency": "Department of Sanitation",
    "final_address": "1494 Athis St",
    "address_councildis": "D",
    "status": "Pending",
    "rowid": "1207180",
    "final_x": "3678270.13813",
    "final_y": "553684.514647",
    "longitude": "-90.07750200674258",
    "latitude": "30.016538042042434",
    "geocoded_column": {
      "latitude": "30.016538042042434",
      "longitude": "-90.07750200674258"
    }
  },
  {
    "service_request": "2025-1207179",
    "request_type": "Trash/Recycling",
    "request_reason": "Request a Large Item Pick Up",
    "date_created": "2025-07-07T16:05:21.000",
    "date_modified": "2025-07-07T16:05:23.000",
    "request_status": "Pending",
    "responsible_agency": "Department of Sanitation",
    "final_address": "2127 Piety St",
    "address_councildis": "D",
    "status": "Assigned to Contractor",
    "contractor": "IV Waste",
    "rowid": "1207179",
    "final_x": "3690858.77244",
    "final_y": "539749.009802",
    "longitude": "-90.0382251028675",
    "latitude": "29.9778350959377",
    "geocoded_column": {
      "latitude": "29.9778350959377",
      "longitude": "-90.0382251028675"
    }
  },
  {
    "service_request": "2025-1207178",
    "request_type": "Trash/Recycling",
    "request_reason": "Request a Large Item Pick Up",
    "date_created": "2025-07-07T16:04:43.000",
    "date_modified": "2025-07-07T16:04:45.000",
    "request_status": "Pending",
    "responsible_agency": "Department of Sanitation",
    "final_address": "9830 Morrison Rd",
    "address_councildis": "E",
    "status": "Assigned to Contractor",
    "contractor": "Waste Pro",
    "rowid": "1207178",
    "final_x": "3707910.13188",
    "final_y": "562926.344224",
    "longitude": "-89.98350914893025",
    "latitude": "30.041022921529713",
    "geocoded_column": {
      "latitude": "30.041022921529713",
      "longitude": "-89.98350914893025"
    }
  },
  {
    "service_request": "2025-1207177",
    "request_type": "Parks & Parkways",
    "request_reason": "Request Tree Service (Right of Way/Public Property)",
    "date_created": "2025-07-07T16:03:58.000",
    "date_modified": "2025-07-07T16:03:59.000",
    "request_status": "Pending",
    "responsible_agency": "Department of Parks & Parkway",
    "final_address": "5545 Congress Dr",
    "address_councildis": "D",
    "status": "Pending",
    "rowid": "1207177",
    "final_x": "3691606.17948",
    "final_y": "554383.56604",
    "longitude": "-90.0353409567298",
    "latitude": "30.018051538509415",
    "geocoded_column": {
      "latitude": "30.018051538509415",
      "longitude": "-90.0353409567298"
    }
  },
  {
    "service_request": "2025-1207176",
    "request_type": "Trash/Recycling",
    "request_reason": "Request a Large Item Pick Up",
    "date_created": "2025-07-07T16:02:48.000",
    "date_modified": "2025-07-07T16:02:51.000",
    "request_status": "Pending",
    "responsible_agency": "Department of Sanitation",
    "final_address": "8621 Curran Rd",
    "address_councildis": "E",
    "status": "Assigned to Contractor",
    "contractor": "Waste Pro",
    "rowid": "1207176",
    "final_x": "3704107.14148",
    "final_y": "562596.909792",
    "longitude": "-89.99553998546284",
    "latitude": "30.04023974135024",
    "geocoded_column": {
      "latitude": "30.04023974135024",
      "longitude": "-89.99553998546284"
    }
  },
  {
    "service_request": "2025-1207175",
    "request_type": "Trash/Recycling",
    "request_reason": "Request a Large Item Pick Up",
    "date_created": "2025-07-07T15:59:12.000",
    "date_modified": "2025-07-07T15:59:15.000",
    "request_status": "Pending",
    "responsible_agency": "Department of Sanitation",
    "final_address": "7030 Boston Dr",
    "address_councildis": "E",
    "status": "Assigned to Contractor",
    "contractor": "Waste Pro",
    "rowid": "1207175",
    "final_x": "3706367.73963",
    "final_y": "560652.00067",
    "longitude": "-89.98846796591668",
    "latitude": "30.034819244756914",
    "geocoded_column": {
      "latitude": "30.034819244756914",
      "longitude": "-89.98846796591668"
    }
  },
  {
    "service_request": "2025-1207174",
    "request_type": "Trash/Recycling",
    "request_reason": "Request a Large Item Pick Up",
    "date_created": "2025-07-07T15:57:58.000",
    "date_modified": "2025-07-07T15:58:00.000",
    "request_status": "Pending",
    "responsible_agency": "Department of Sanitation",
    "final_address": "208 Topaz St",
    "address_councildis": "D",
    "status": "Assigned to Contractor",
    "contractor": "IV Waste",
    "rowid": "1207174",
    "final_x": "3667211.61748",
    "final_y": "556313.85993",
    "longitude": "-90.11235380626688",
    "latitude": "30.024096432280576",
    "geocoded_column": {
      "latitude": "30.024096432280576",
      "longitude": "-90.11235380626688"
    }
  },
  {
    "service_request": "2025-1207173",
    "request_type": "Trash/Recycling",
    "request_reason": "Return Trash Cart",
    "date_created": "2025-07-07T15:57:27.000",
    "date_modified": "2025-07-07T15:58:18.000",
    "request_status": "Pending",
    "responsible_agency": "Department of Sanitation",
    "final_address": "4326 Joycelyn Dr",
    "address_councildis": "C",
    "status": "Assigned to Contractor",
    "contractor": "Richards Disposal",
    "rowid": "1207173",
    "final_x": "3708234.04651",
    "final_y": "514622.842995",
    "longitude": "-89.98428275765816",
    "latitude": "29.90819568412872",
    "geocoded_column": {
      "latitude": "29.90819568412872",
      "longitude": "-89.98428275765816"
    }
  },
  {
    "service_request": "2025-1207172",
    "request_type": "Street and Traffic Signs",
    "request_reason": "Street Name Sign Damaged or Missing",
    "date_created": "2025-07-07T15:55:12.000",
    "date_modified": "2025-07-07T15:55:14.000",
    "request_status": "Pending",
    "responsible_agency": "Department of Public Works",
    "final_address": "BACCICH ST & FRANKFORT ST",
    "address_councildis": "D",
    "status": "Pending",
    "rowid": "1207172",
    "final_x": "3687340.8",
    "final_y": "557201.68",
    "longitude": "-90.04871807783971",
    "latitude": "30.025932471403365",
    "geocoded_column": {
      "latitude": "30.025932471403365",
      "longitude": "-90.04871807783971"
    }
  },
  {
    "service_request": "2025-1207171",
    "request_type": "Streetlights",
    "request_reason": "Streetlight Knocked Down/Leaning",
    "date_created": "2025-07-07T15:54:30.000",
    "date_modified": "2025-07-07T15:54:31.000",
    "request_status": "Pending",
    "responsible_agency": "Department of Public Works",
    "final_address": "13187 Sevres St",
    "address_councildis": "E",
    "status": "Pending",
    "contractor": "Legacy Professional Services",
    "rowid": "1207171",
    "final_x": "3724695.5527",
    "final_y": "560785.233054",
    "longitude": "-89.93054498160451",
    "latitude": "30.034581365850656",
    "geocoded_column": {
      "latitude": "30.034581365850656",
      "longitude": "-89.93054498160451"
    }
  },
  {
    "service_request": "2025-1207170",
    "request_type": "Streetlights",
    "request_reason": "Streetlight Knocked Down/Leaning",
    "date_created": "2025-07-07T15:54:29.000",
    "date_modified": "2025-07-07T15:54:31.000",
    "request_status": "Pending",
    "responsible_agency": "Department of Public Works",
    "final_address": "13187 Sevres St",
    "address_councildis": "E",
    "status": "Pending",
    "contractor": "Legacy Professional Services",
    "rowid": "1207170",
    "final_x": "3724695.5527",
    "final_y": "560785.233054",
    "longitude": "-89.93054498160451",
    "latitude": "30.034581365850656",
    "geocoded_column": {
      "latitude": "30.034581365850656",
      "longitude": "-89.93054498160451"
    }
  },
  {
    "service_request": "2025-1207169",
    "request_type": "Trash/Recycling",
    "request_reason": "Request a Large Item Pick Up",
    "date_created": "2025-07-07T15:54:28.000",
    "date_modified": "2025-07-07T15:54:30.000",
    "request_status": "Pending",
    "responsible_agency": "Department of Sanitation",
    "final_address": "4646 Rosalia dr ",
    "address_councildis": "E",
    "status": "Assigned to Contractor",
    "contractor": "Waste Pro",
    "rowid": "1207169",
    "final_x": "3711174.15179",
    "final_y": "555431.182873",
    "longitude": "-89.97347492745033",
    "latitude": "30.02030806713717",
    "geocoded_column": {
      "latitude": "30.02030806713717",
      "longitude": "-89.97347492745033"
    }
  },
  {
    "service_request": "2025-1207168",
    "request_type": "Trash/Recycling",
    "request_reason": "Request a Large Item Pick Up",
    "date_created": "2025-07-07T15:53:48.000",
    "date_modified": "2025-07-07T15:53:49.000",
    "request_status": "Pending",
    "responsible_agency": "Department of Sanitation",
    "final_address": "10940 Harrow Rd",
    "address_councildis": "E",
    "status": "Assigned to Contractor",
    "contractor": "Waste Pro",
    "rowid": "1207168",
    "final_x": "3711778.88235",
    "final_y": "563817.623201",
    "longitude": "-89.97124919197346",
    "latitude": "30.043347700071017",
    "geocoded_column": {
      "latitude": "30.043347700071017",
      "longitude": "-89.97124919197346"
    }
  },
  {
    "service_request": "2025-1207167",
    "request_type": "Trash/Recycling",
    "request_reason": "Request a Large Item Pick Up",
    "date_created": "2025-07-07T15:53:04.000",
    "date_modified": "2025-07-07T15:53:05.000",
    "request_status": "Pending",
    "responsible_agency": "Department of Sanitation",
    "final_address": "2217 Laurel St Unit 1",
    "address_councildis": "B",
    "status": "Assigned to Contractor",
    "contractor": "IV Waste",
    "rowid": "1207167",
    "final_x": "3679131.22914",
    "final_y": "521416.274809",
    "longitude": "-90.07590015765602",
    "latitude": "29.92778550109506",
    "geocoded_column": {
      "latitude": "29.92778550109506",
      "longitude": "-90.07590015765602"
    }
  },
  {
    "service_request": "2025-1207166",
    "request_type": "Trash/Recycling",
    "request_reason": "Request a Large Item Pick Up",
    "date_created": "2025-07-07T15:52:57.000",
    "date_modified": "2025-07-07T15:53:00.000",
    "request_status": "Pending",
    "responsible_agency": "Department of Sanitation",
    "final_address": "8913 Bunker Hill Rd",
    "address_councildis": "E",
    "status": "Assigned to Contractor",
    "contractor": "Waste Pro",
    "rowid": "1207166",
    "final_x": "3705884.18167",
    "final_y": "561645.729951",
    "longitude": "-89.9899592527617",
    "latitude": "30.037567205519174",
    "geocoded_column": {
      "latitude": "30.037567205519174",
      "longitude": "-89.9899592527617"
    }
  },
  {
    "service_request": "2025-1207165",
    "request_type": "Trash/Recycling",
    "request_reason": "Request a Large Item Pick Up",
    "date_created": "2025-07-07T15:52:27.000",
    "date_modified": "2025-07-07T15:52:29.000",
    "request_status": "Pending",
    "responsible_agency": "Department of Sanitation",
    "final_address": "1747 Oriole St",
    "address_councildis": "D",
    "status": "Assigned to Contractor",
    "contractor": "IV Waste",
    "rowid": "1207165",
    "final_x": "3678688.10824",
    "final_y": "558400.610588",
    "longitude": "-90.07601789465278",
    "latitude": "30.02949298422807",
    "geocoded_column": {
      "latitude": "30.02949298422807",
      "longitude": "-90.07601789465278"
    }
  },
  {
    "service_request": "2025-1207164",
    "request_type": "Trash/Recycling",
    "request_reason": "Return Trash Cart",
    "date_created": "2025-07-07T15:51:17.000",
    "date_modified": "2025-07-07T15:51:19.000",
    "request_status": "Pending",
    "responsible_agency": "Department of Sanitation",
    "final_address": "5708 Annunciation St",
    "address_councildis": "A",
    "status": "Assigned to Contractor",
    "contractor": "IV Waste",
    "rowid": "1207164",
    "final_x": "3665420.42644",
    "final_y": "517543.261238",
    "longitude": "-90.11931163319488",
    "latitude": "29.91754252760477",
    "geocoded_column": {
      "latitude": "29.91754252760477",
      "longitude": "-90.11931163319488"
    }
  },
  {
    "service_request": "2025-1207163",
    "request_type": "General Services",
    "request_reason": "General Service Request",
    "date_created": "2025-07-07T15:48:22.000",
    "date_modified": "2025-07-07T15:51:47.000",
    "case_close_date": "2025-07-07T10:51:45.000",
    "request_status": "Closed",
    "responsible_agency": "Orleans Parish Communication District",
    "final_address": "4500 Chef Menteur Hwy",
    "address_councildis": "D",
    "status": "Additional information requested from citizen",
    "rowid": "1207163",
    "final_x": "3691466.2294",
    "final_y": "549683.876884",
    "longitude": "-90.03595127500355",
    "latitude": "30.00513349227392",
    "geocoded_column": {
      "latitude": "30.00513349227392",
      "longitude": "-90.03595127500355"
    }
  },
  {
    "service_request": "2025-1207162",
    "request_type": "Trash/Recycling",
    "request_reason": "Request a Large Item Pick Up",
    "date_created": "2025-07-07T15:44:28.000",
    "date_modified": "2025-07-07T15:44:30.000",
    "request_status": "Pending",
    "responsible_agency": "Department of Sanitation",
    "final_address": "6218 Craigie Rd",
    "address_councildis": "E",
    "status": "Assigned to Contractor",
    "contractor": "Waste Pro",
    "rowid": "1207162",
    "final_x": "3696199.90595",
    "final_y": "558842.245596",
    "longitude": "-90.02066521297724",
    "latitude": "30.03016733060931",
    "geocoded_column": {
      "latitude": "30.03016733060931",
      "longitude": "-90.02066521297724"
    }
  },
  {
    "service_request": "2025-1207161",
    "request_type": "Roads and Streets",
    "request_reason": "Sidewalk Damaged or Missing",
    "date_created": "2025-07-07T15:42:05.000",
    "date_modified": "2025-07-07T15:42:06.000",
    "request_status": "Pending",
    "responsible_agency": "Department of Public Works",
    "final_address": "7724 Cohn St",
    "address_councildis": "A",
    "status": "Pending",
    "rowid": "1207161",
    "final_x": "3664525.04231",
    "final_y": "529313.320513",
    "longitude": "-90.12174503851607",
    "latitude": "29.949932513311712",
    "geocoded_column": {
      "latitude": "29.949932513311712",
      "longitude": "-90.12174503851607"
    }
  },
  {
    "service_request": "2025-1207160",
    "request_type": "Trash/Recycling",
    "request_reason": "Illegal Dumping",
    "date_created": "2025-07-07T15:41:54.000",
    "date_modified": "2025-07-07T15:41:55.000",
    "request_status": "Pending",
    "responsible_agency": "Department of Sanitation",
    "final_address": "1931 St Claude Ave",
    "address_councildis": "C",
    "status": "Pending",
    "rowid": "1207160",
    "final_x": "3684129.64098",
    "final_y": "536257.877191",
    "longitude": "-90.05960057173445",
    "latitude": "29.96844311212494",
    "geocoded_column": {
      "latitude": "29.96844311212494",
      "longitude": "-90.05960057173445"
    }
  },
  {
    "service_request": "2025-1207159",
    "request_type": "General Services",
    "request_reason": "General Service Request",
    "date_created": "2025-07-07T15:39:30.000",
    "date_modified": "2025-07-07T16:02:04.000",
    "case_close_date": "2025-07-07T11:02:02.000",
    "request_status": "Closed",
    "responsible_agency": "Orleans Parish Communication District",
    "final_address": "CATINA ST & HARRISON AVE",
    "address_councildis": "A",
    "status": "Referred to Risk Management",
    "rowid": "1207159",
    "final_x": "3666897.5",
    "final_y": "549482.58",
    "longitude": "-90.11357614258918",
    "latitude": "30.005322011720896",
    "geocoded_column": {
      "latitude": "30.005322011720896",
      "longitude": "-90.11357614258918"
    }
  },
  {
    "service_request": "2025-1207158",
    "request_type": "Trash/Recycling",
    "request_reason": "Request a Large Item Pick Up",
    "date_created": "2025-07-07T15:37:59.000",
    "date_modified": "2025-07-07T15:38:00.000",
    "request_status": "Pending",
    "responsible_agency": "Department of Sanitation",
    "final_address": "25608 Chef Menteur Hwy",
    "address_councildis": "E",
    "status": "Assigned to Contractor",
    "contractor": "Waste Pro",
    "rowid": "1207158",
    "final_x": "3781010.49138",
    "final_y": "600283.856899",
    "longitude": "-89.75086397419844",
    "latitude": "30.141167277982227",
    "geocoded_column": {
      "latitude": "30.141167277982227",
      "longitude": "-89.75086397419844"
    }
  },
  {
    "service_request": "2025-1207157",
    "request_type": "Roads and Streets",
    "request_reason": "Street Subsidence (Sinking)",
    "date_created": "2025-07-07T15:37:12.000",
    "date_modified": "2025-07-07T15:38:57.000",
    "request_status": "Pending",
    "responsible_agency": "Department of Public Works",
    "final_address": "5508 Wingate Dr",
    "address_councildis": "D",
    "status": "Pending",
    "rowid": "1207157",
    "final_x": "3681329.39848",
    "final_y": "553064.453527",
    "longitude": "-90.06785769471936",
    "latitude": "30.014740551306527",
    "geocoded_column": {
      "latitude": "30.014740551306527",
      "longitude": "-90.06785769471936"
    }
  },
  {
    "service_request": "2025-1207156",
    "request_type": "Trash/Recycling",
    "request_reason": "Missed Trash Pick-Up",
    "date_created": "2025-07-07T15:37:00.000",
    "date_modified": "2025-07-07T16:13:26.000",
    "case_close_date": "2025-07-07T11:13:25.000",
    "request_status": "Closed",
    "responsible_agency": "Department of Sanitation",
    "final_address": "4820 Carondelet St",
    "address_councildis": "B",
    "status": "Invalid Request",
    "contractor": "IV Waste",
    "contractor_action": "Invalid Request",
    "rowid": "1207156",
    "final_x": "3669162.42068",
    "final_y": "520989.668793",
    "longitude": "-90.10738383026269",
    "latitude": "29.926909511532198",
    "geocoded_column": {
      "latitude": "29.926909511532198",
      "longitude": "-90.10738383026269"
    }
  },
  {
    "service_request": "2025-1207155",
    "request_type": "Drainage",
    "request_reason": "Catch Basin Damaged",
    "date_created": "2025-07-07T15:34:44.000",
    "date_modified": "2025-07-07T15:34:45.000",
    "request_status": "Pending",
    "responsible_agency": "Sewerage & Water Board",
    "final_address": "9 Allard Blvd",
    "address_councildis": "A",
    "status": "Pending",
    "rowid": "1207155",
    "final_x": "3672850.14625",
    "final_y": "541364.835148",
    "longitude": "-90.09504755146446",
    "latitude": "29.982825454350575",
    "geocoded_column": {
      "latitude": "29.982825454350575",
      "longitude": "-90.09504755146446"
    }
  },
  {
    "service_request": "2025-1207154",
    "request_type": "Trash/Recycling",
    "request_reason": "Repair Trash Cart",
    "date_created": "2025-07-07T15:32:47.000",
    "date_modified": "2025-07-07T15:32:49.000",
    "request_status": "Pending",
    "responsible_agency": "Department of Sanitation",
    "final_address": "6130 Annunciation St",
    "address_councildis": "A",
    "status": "Assigned to Contractor",
    "contractor": "IV Waste",
    "rowid": "1207154",
    "final_x": "3663394.24487",
    "final_y": "518144.60063",
    "longitude": "-90.12568717789547",
    "latitude": "29.919254897298504",
    "geocoded_column": {
      "latitude": "29.919254897298504",
      "longitude": "-90.12568717789547"
    }
  },
  {
    "service_request": "2025-1207153",
    "request_type": "Trash/Recycling",
    "request_reason": "Request a Large Item Pick Up",
    "date_created": "2025-07-07T15:30:42.000",
    "date_modified": "2025-07-07T15:30:44.000",
    "request_status": "Pending",
    "responsible_agency": "Department of Sanitation",
    "final_address": "5411 Edenboro Rd",
    "address_councildis": "E",
    "status": "Assigned to Contractor",
    "contractor": "Waste Pro",
    "rowid": "1207153",
    "final_x": "3708380.44875",
    "final_y": "557795.508443",
    "longitude": "-89.98221399886887",
    "latitude": "30.02689990750971",
    "geocoded_column": {
      "latitude": "30.02689990750971",
      "longitude": "-89.98221399886887"
    }
  },
  {
    "service_request": "2025-1207152",
    "request_type": "Trash/Recycling",
    "request_reason": "Repair Trash Cart",
    "date_created": "2025-07-07T15:26:13.000",
    "date_modified": "2025-07-07T15:26:15.000",
    "request_status": "Pending",
    "responsible_agency": "Department of Sanitation",
    "final_address": "9014 Heaton St",
    "address_councildis": "A",
    "status": "Assigned to Contractor",
    "contractor": "IV Waste",
    "rowid": "1207152",
    "final_x": "3666924.38874",
    "final_y": "538684.323721",
    "longitude": "-90.11385425947444",
    "latitude": "29.9756297026302",
    "geocoded_column": {
      "latitude": "29.9756297026302",
      "longitude": "-90.11385425947444"
    }
  },
  {
    "service_request": "2025-1207151",
    "request_type": "Abandoned Vehicles",
    "request_reason": "Abandoned/Junk Vehicles",
    "date_created": "2025-07-07T15:25:21.000",
    "date_modified": "2025-07-07T15:26:11.000",
    "request_status": "Pending",
    "responsible_agency": "Department of Public Works",
    "final_address": "4516 Cleveland Ave",
    "address_councildis": "A",
    "status": "Pending",
    "rowid": "1207151",
    "final_x": "3669319.33639",
    "final_y": "539110.857098",
    "longitude": "-90.10627590287154",
    "latitude": "29.976732223291894",
    "geocoded_column": {
      "latitude": "29.976732223291894",
      "longitude": "-90.10627590287154"
    }
  },
  {
    "service_request": "2025-1207150",
    "request_type": "Streetlights",
    "request_reason": "Streetlight Outage/Malfunction",
    "date_created": "2025-07-07T15:19:57.000",
    "date_modified": "2025-07-07T15:19:59.000",
    "request_status": "Pending",
    "responsible_agency": "Department of Public Works",
    "final_address": "6229 Cameron Blvd",
    "address_councildis": "D",
    "status": "Pending",
    "contractor": "Legacy Professional Services",
    "rowid": "1207150",
    "final_x": "3682275.90652",
    "final_y": "556040.253593",
    "longitude": "-90.0647630993116",
    "latitude": "30.022894136500447",
    "geocoded_column": {
      "latitude": "30.022894136500447",
      "longitude": "-90.0647630993116"
    }
  },
  {
    "service_request": "2025-1207149",
    "request_type": "Trash/Recycling",
    "request_reason": "Request a Large Item Pick Up",
    "date_created": "2025-07-07T15:18:05.000",
    "date_modified": "2025-07-07T15:18:07.000",
    "request_status": "Pending",
    "responsible_agency": "Department of Sanitation",
    "final_address": "1036 Audubon St",
    "address_councildis": "A",
    "status": "Assigned to Contractor",
    "contractor": "IV Waste",
    "rowid": "1207149",
    "final_x": "3664132.56218",
    "final_y": "525975.233533",
    "longitude": "-90.12309560847775",
    "latitude": "29.940765251033618",
    "geocoded_column": {
      "latitude": "29.940765251033618",
      "longitude": "-90.12309560847775"
    }
  },
  {
    "service_request": "2025-1207148",
    "request_type": "Trash/Recycling",
    "request_reason": "Request a Large Item Pick Up",
    "date_created": "2025-07-07T15:16:45.000",
    "date_modified": "2025-07-07T15:16:47.000",
    "request_status": "Pending",
    "responsible_agency": "Department of Sanitation",
    "final_address": "4914 Painters St",
    "address_councildis": "D",
    "status": "Assigned to Contractor",
    "contractor": "IV Waste",
    "rowid": "1207148",
    "final_x": "3686090.6447",
    "final_y": "551041.114581",
    "longitude": "-90.05288593205997",
    "latitude": "30.009031664278808",
    "geocoded_column": {
      "latitude": "30.009031664278808",
      "longitude": "-90.05288593205997"
    }
  },
  {
    "service_request": "2025-1207147",
    "request_type": "Mosquito, Termite & Rodent Control",
    "request_reason": "Rodent Complaint (Mice & Rats)",
    "date_created": "2025-07-07T15:16:36.000",
    "date_modified": "2025-07-07T15:16:38.000",
    "request_status": "Pending",
    "responsible_agency": "Mosquito, Termite & Rodent Control Board",
    "final_address": "3441 Baronne St",
    "address_councildis": "B",
    "status": "Pending",
    "rowid": "1207147",
    "final_x": "3673567.30849",
    "final_y": "522123.806074",
    "longitude": "-90.0934399998805",
    "latitude": "29.929897700495513",
    "geocoded_column": {
      "latitude": "29.929897700495513",
      "longitude": "-90.0934399998805"
    }
  },
  {
    "service_request": "2025-1207146",
    "request_type": "Trash/Recycling",
    "request_reason": "Request a Large Item Pick Up",
    "date_created": "2025-07-07T15:15:28.000",
    "date_modified": "2025-07-07T15:15:30.000",
    "request_status": "Pending",
    "responsible_agency": "Department of Sanitation",
    "final_address": "3601 General Taylor St",
    "address_councildis": "B",
    "status": "Assigned to Contractor",
    "contractor": "IV Waste",
    "rowid": "1207146",
    "final_x": "3671029.34241",
    "final_y": "528009.566975",
    "longitude": "-90.10125215924026",
    "latitude": "29.946156906587582",
    "geocoded_column": {
      "latitude": "29.946156906587582",
      "longitude": "-90.10125215924026"
    }
  },
  {
    "service_request": "2025-1207145",
    "request_type": "Safety & Permits",
    "request_reason": "Licenses & Permits",
    "date_created": "2025-07-07T15:13:06.000",
    "date_modified": "2025-07-07T15:13:08.000",
    "request_status": "Pending",
    "responsible_agency": "Safety and Permits",
    "final_address": "3986 Tchoupitoulas St",
    "address_councildis": "B",
    "status": "Pending",
    "rowid": "1207145",
    "final_x": "3672704.1627",
    "final_y": "517571.521974",
    "longitude": "-90.09631995250675",
    "latitude": "29.917406029715433",
    "geocoded_column": {
      "latitude": "29.917406029715433",
      "longitude": "-90.09631995250675"
    }
  },
  {
    "service_request": "2025-1207144",
    "request_type": "Abandoned Vehicles",
    "request_reason": "Abandoned/Junk Vehicles",
    "date_created": "2025-07-07T15:12:58.000",
    "date_modified": "2025-07-07T15:13:00.000",
    "request_status": "Pending",
    "responsible_agency": "Department of Public Works",
    "final_address": "2028 Piety St",
    "address_councildis": "D",
    "status": "Pending",
    "rowid": "1207144",
    "final_x": "3690693.73168",
    "final_y": "539386.066186",
    "longitude": "-90.03875930794064",
    "latitude": "29.976842258178102",
    "geocoded_column": {
      "latitude": "29.976842258178102",
      "longitude": "-90.03875930794064"
    }
  },
  {
    "service_request": "2025-1207143",
    "request_type": "Trash/Recycling",
    "request_reason": "Request a Large Item Pick Up",
    "date_created": "2025-07-07T15:11:05.000",
    "date_modified": "2025-07-07T15:11:07.000",
    "request_status": "Pending",
    "responsible_agency": "Department of Sanitation",
    "final_address": "7610 Fieldston Rd",
    "address_councildis": "E",
    "status": "Assigned to Contractor",
    "contractor": "Waste Pro",
    "rowid": "1207143",
    "final_x": "3700425.876",
    "final_y": "560586.376798",
    "longitude": "-90.00724743309055",
    "latitude": "30.034829222613446",
    "geocoded_column": {
      "latitude": "30.034829222613446",
      "longitude": "-90.00724743309055"
    }
  },
  {
    "service_request": "2025-1207142",
    "request_type": "Trash/Recycling",
    "request_reason": "Missed Trash Pick-Up",
    "date_created": "2025-07-07T15:10:17.000",
    "date_modified": "2025-07-07T17:14:17.000",
    "case_close_date": "2025-07-07T12:14:16.000",
    "request_status": "Closed",
    "responsible_agency": "Department of Sanitation",
    "final_address": "201 N Broad St",
    "address_councildis": "B",
    "status": "Invalid Request",
    "contractor": "IV Waste",
    "contractor_action": "Invalid Request",
    "rowid": "1207142",
    "final_x": "3675567.72699",
    "final_y": "535544.461638",
    "longitude": "-90.086664063512",
    "latitude": "29.966740383381673",
    "geocoded_column": {
      "latitude": "29.966740383381673",
      "longitude": "-90.086664063512"
    }
  },
  {
    "service_request": "2025-1207141",
    "request_type": "Drainage",
    "request_reason": "Catch Basin Clogged",
    "date_created": "2025-07-07T15:09:21.000",
    "date_modified": "2025-07-07T15:09:23.000",
    "request_status": "Pending",
    "responsible_agency": "Sewerage & Water Board",
    "final_address": "900 N Dorgenois St",
    "address_councildis": "D",
    "status": "Pending",
    "rowid": "1207141",
    "final_x": "3677644.27285",
    "final_y": "537192.238472",
    "longitude": "-90.08004942135572",
    "latitude": "29.97120892193456",
    "geocoded_column": {
      "latitude": "29.97120892193456",
      "longitude": "-90.08004942135572"
    }
  },
  {
    "service_request": "2025-1207140",
    "request_type": "Trash/Recycling",
    "request_reason": "Request a Large Item Pick Up",
    "date_created": "2025-07-07T15:09:16.000",
    "date_modified": "2025-07-07T15:09:18.000",
    "request_status": "Pending",
    "responsible_agency": "Department of Sanitation",
    "final_address": "1616 Charlton Dr",
    "address_councildis": "D",
    "status": "Assigned to Contractor",
    "contractor": "IV Waste",
    "rowid": "1207140",
    "final_x": "3679897.72072",
    "final_y": "550664.678292",
    "longitude": "-90.07246453481575",
    "latitude": "30.008185432966",
    "geocoded_column": {
      "latitude": "30.008185432966",
      "longitude": "-90.07246453481575"
    }
  },
  {
    "service_request": "2025-1207139",
    "request_type": "Parks & Parkways",
    "request_reason": "Request Tree Service (Right of Way/Public Property)",
    "date_created": "2025-07-07T15:07:34.000",
    "date_modified": "2025-07-07T15:07:36.000",
    "request_status": "Pending",
    "responsible_agency": "Department of Parks & Parkway",
    "final_address": "1701 Mendez Dr",
    "address_councildis": "D",
    "status": "Pending",
    "rowid": "1207139",
    "final_x": "3679741.44891",
    "final_y": "553386.114391",
    "longitude": "-90.07286366571465",
    "latitude": "30.015673128282767",
    "geocoded_column": {
      "latitude": "30.015673128282767",
      "longitude": "-90.07286366571465"
    }
  },
  {
    "service_request": "2025-1207138",
    "request_type": "Property Maintenance",
    "request_reason": "Property Maintenance",
    "date_created": "2025-07-07T15:04:40.000",
    "date_modified": "2025-07-07T15:04:44.000",
    "request_status": "Pending",
    "responsible_agency": "Department of Code Enforcement",
    "final_address": "5655 Woodlawn Pl",
    "address_councildis": "A",
    "status": "Pending",
    "rowid": "1207138",
    "final_x": "3667605.97575",
    "final_y": "545117.768463",
    "longitude": "-90.11148494707139",
    "latitude": "29.993299530663293",
    "geocoded_column": {
      "latitude": "29.993299530663293",
      "longitude": "-90.11148494707139"
    }
  },
  {
    "service_request": "2025-1207137",
    "request_type": "Streetlights",
    "request_reason": "Streetlight Outage/Malfunction",
    "date_created": "2025-07-07T15:03:49.000",
    "date_modified": "2025-07-07T15:03:51.000",
    "request_status": "Pending",
    "responsible_agency": "Department of Public Works",
    "final_address": "5101 Metropolitan Dr",
    "address_councildis": "D",
    "status": "Pending",
    "contractor": "Legacy Professional Services",
    "rowid": "1207137",
    "final_x": "3690512.98083",
    "final_y": "552186.80495",
    "longitude": "-90.03887344946021",
    "latitude": "30.012045265675166",
    "geocoded_column": {
      "latitude": "30.012045265675166",
      "longitude": "-90.03887344946021"
    }
  },
  {
    "service_request": "2025-1207136",
    "request_type": "Drainage",
    "request_reason": "Catch Basin Clogged",
    "date_created": "2025-07-07T15:02:58.000",
    "date_modified": "2025-07-07T15:03:02.000",
    "request_status": "Pending",
    "responsible_agency": "Sewerage & Water Board",
    "final_address": "5760 Lincoln Beach Blvd",
    "address_councildis": "D",
    "status": "Pending",
    "rowid": "1207136",
    "final_x": "3694009.87459",
    "final_y": "559659.100317",
    "longitude": "-90.02755627448623",
    "latitude": "30.032482172889033",
    "geocoded_column": {
      "latitude": "30.032482172889033",
      "longitude": "-90.02755627448623"
    }
  },