[
  {
    "service_request": "2025-1205906",
    "request_type": "Trash/Recycling",
    "request_reason": "Request a Large Item Pick Up",
    "date_created": "2025-07-01T22:57:13.000",
    "date_modified": "2025-07-01T22:57:14.000",
    "request_status": "Pending",
    "responsible_agency": "Department of Sanitation",
    "final_address": "4735 Sherwood Dr",
    "address_councildis": "E",
    "status": "Assigned to Contractor",
    "contractor": "Waste Pro",
    "rowid": "1205906",
    "final_x": "3718084.70431",
    "final_y": "556817.537562",
    "longitude": "-89.95158715701086",
    "latitude": "30.023892674773005",
    "geocoded_column": {
      "latitude": "30.023892674773005",
      "longitude": "-89.95158715701086"
    }
  },
  {
    "service_request": "2025-1205905",
    "request_type": "Property Maintenance",
    "request_reason": "Property Maintenance",
    "date_created": "2025-07-01T22:56:51.000",
    "date_modified": "2025-07-01T22:56:53.000",
    "request_status": "Pending",
    "responsible_agency": "Department of Code Enforcement",
    "final_address": "2417 Jonquil St",
    "address_councildis": "D",
    "status": "Pending",
    "rowid": "1205905",
    "final_x": "3685895.38556",
    "final_y": "547160.161425",
    "longitude": "-90.05363975515361",
    "latitude": "29.99836644712251",
    "geocoded_column": {
      "latitude": "29.99836644712251",
      "longitude": "-90.05363975515361"
    }
  },
  {
    "service_request": "2025-1205904",
    "request_type": "Trash/Recycling",
    "request_reason": "Missed Trash Pick-Up",
    "date_created": "2025-07-01T22:47:39.000",
    "date_modified": "2025-07-01T22:47:42.000",
    "request_status": "Pending",
    "responsible_agency": "Department of Sanitation",
    "final_address": "4831 Suncrest Way, Fair Oaks, California, 95628",
    "status": "Assigned to Contractor",
    "rowid": "1205904",
    "longitude": "0.0",
    "latitude": "0.0",
    "geocoded_column": {
      "latitude": "0.0",
      "longitude": "0.0"
    }
  },
  {
    "service_request": "2025-1205903",
    "request_type": "Streetlights",
    "request_reason": "Streetlight Outage/Malfunction",
    "date_created": "2025-07-01T22:39:02.000",
    "date_modified": "2025-07-01T22:39:04.000",
    "request_status": "Pending",
    "responsible_agency": "Department of Public Works",
    "final_address": "2917 Bell St",
    "address_councildis": "A",
    "status": "Pending",
    "contractor": "Legacy Professional Services",
    "rowid": "1205903",
    "final_x": "3676848.82049",
    "final_y": "539287.253962",
    "longitude": "-90.08248934416054",
    "latitude": "29.97699339616135",
    "geocoded_column": {
      "latitude": "29.97699339616135",
      "longitude": "-90.08248934416054"
    }
  },
  {
    "service_request": "2025-1205902",
    "request_type": "Trash/Recycling",
    "request_reason": "Replace Trash Cart",
    "date_created": "2025-07-01T22:32:58.000",
    "date_modified": "2025-07-01T22:33:00.000",
    "request_status": "Pending",
    "responsible_agency": "Department of Sanitation",
    "final_address": "14 S Oak Ridge Ct",
    "address_councildis": "E",
    "status": "Assigned to Contractor",
    "contractor": "Waste Pro",
    "rowid": "1205902",
    "final_x": "3713485.67039",
    "final_y": "567654.245796",
    "longitude": "-89.9657103577628",
    "latitude": "30.05384095617917",
    "geocoded_column": {
      "latitude": "30.05384095617917",
      "longitude": "-89.9657103577628"
    }
  },
  {
    "service_request": "2025-1205901",
    "request_type": "Streetlights",
    "request_reason": "Streetlight Outage/Malfunction",
    "date_created": "2025-07-01T22:19:59.000",
    "date_modified": "2025-07-01T22:20:00.000",
    "request_status": "Pending",
    "responsible_agency": "Department of Public Works",
    "final_address": "2514 Lowerline St",
    "address_councildis": "A",
    "status": "Pending",
    "contractor": "Legacy Professional Services",
    "rowid": "1205901",
    "final_x": "3666368.55981",
    "final_y": "530918.618306",
    "longitude": "-90.11587032135319",
    "latitude": "29.954292831961865",
    "geocoded_column": {
      "latitude": "29.954292831961865",
      "longitude": "-90.11587032135319"
    }
  },
  {
    "service_request": "2025-1205899",
    "request_type": "Property Maintenance",
    "request_reason": "Property Maintenance",
    "date_created": "2025-07-01T21:38:42.000",
    "date_modified": "2025-07-01T21:38:44.000",
    "request_status": "Pending",
    "responsible_agency": "Department of Code Enforcement",
    "final_address": "2211 St Ann St",
    "address_councildis": "D",
    "status": "Pending",
    "rowid": "1205899",
    "final_x": "3678528.54203",
    "final_y": "536064.292103",
    "longitude": "-90.0772958253345",
    "latitude": "29.968080831381176",
    "geocoded_column": {
      "latitude": "29.968080831381176",
      "longitude": "-90.0772958253345"
    }
  },
  {
    "service_request": "2025-1205898",
    "request_type": "Abandoned Vehicles",
    "request_reason": "Abandoned/Junk Vehicles",
    "date_created": "2025-07-01T21:33:23.000",
    "date_modified": "2025-07-01T21:33:25.000",
    "request_status": "Pending",
    "responsible_agency": "Department of Public Works",
    "final_address": "2401 St Ann St",
    "address_councildis": "D",
    "status": "Pending",
    "rowid": "1205898",
    "final_x": "3678006.47618",
    "final_y": "536449.586183",
    "longitude": "-90.07893120924889",
    "latitude": "29.969155983851625",
    "geocoded_column": {
      "latitude": "29.969155983851625",
      "longitude": "-90.07893120924889"
    }
  },
  {
    "service_request": "2025-1205897",
    "request_type": "Trash/Recycling",
    "request_reason": "Request a Large Item Pick Up",
    "date_created": "2025-07-01T21:15:27.000",
    "date_modified": "2025-07-01T21:15:29.000",
    "request_status": "Pending",
    "responsible_agency": "Department of Sanitation",
    "final_address": "11020 Harrow Rd",
    "address_councildis": "E",
    "status": "Assigned to Contractor",
    "contractor": "Waste Pro",
    "rowid": "1205897",
    "final_x": "3711926.61662",
    "final_y": "563927.157921",
    "longitude": "-89.97077817766835",
    "latitude": "30.0436440468986",
    "geocoded_column": {
      "latitude": "30.0436440468986",
      "longitude": "-89.97077817766835"
    }
  },
  {
    "service_request": "2025-1205896",
    "request_type": "Trash/Recycling",
    "request_reason": "Request a Large Item Pick Up",
    "date_created": "2025-07-01T21:02:33.000",
    "date_modified": "2025-07-01T21:02:35.000",
    "request_status": "Pending",
    "responsible_agency": "Department of Sanitation",
    "final_address": "4965 Friar Tuck Dr",
    "address_councildis": "E",
    "status": "Assigned to Contractor",
    "contractor": "Waste Pro",
    "rowid": "1205896",
    "final_x": "3717683.411",
    "final_y": "558142.942427",
    "longitude": "-89.95280469252188",
    "latitude": "30.02755030794648",
    "geocoded_column": {
      "latitude": "30.02755030794648",
      "longitude": "-89.95280469252188"
    }
  },
  {
    "service_request": "2025-1205895",
    "request_type": "Trash/Recycling",
    "request_reason": "Start Trash Service",
    "date_created": "2025-07-01T20:59:15.000",
    "date_modified": "2025-07-01T20:59:17.000",
    "request_status": "Pending",
    "responsible_agency": "Department of Sanitation",
    "final_address": "205 Fairfax Pl",
    "address_councildis": "C",
    "status": "Assigned to Contractor",
    "contractor": "Richards Disposal",
    "rowid": "1205895",
    "final_x": "3706209.00587",
    "final_y": "517360.837877",
    "longitude": "-89.99057275774014",
    "latitude": "29.915789628427977",
    "geocoded_column": {
      "latitude": "29.915789628427977",
      "longitude": "-89.99057275774014"
    }
  },
  {
    "service_request": "2025-1205894",
    "request_type": "Streetlights",
    "request_reason": "Streetlight Outage/Malfunction",
    "date_created": "2025-07-01T20:56:38.000",
    "date_modified": "2025-07-01T20:56:39.000",
    "request_status": "Pending",
    "responsible_agency": "Department of Public Works",
    "final_address": "1115 Crete St",
    "address_councildis": "A",
    "status": "Pending",
    "contractor": "Legacy Professional Services",
    "rowid": "1205894",
    "final_x": "3677617.11163",
    "final_y": "538827.812617",
    "longitude": "-90.08007870441617",
    "latitude": "29.9757070068908",
    "geocoded_column": {
      "latitude": "29.9757070068908",
      "longitude": "-90.08007870441617"
    }
  },
  {
    "service_request": "2025-1205893",
    "request_type": "Abandoned Vehicles",
    "request_reason": "Abandoned/Junk Vehicles",
    "date_created": "2025-07-01T20:55:28.000",
    "date_modified": "2025-07-01T20:55:30.000",
    "request_status": "Pending",
    "responsible_agency": "Department of Public Works",
    "final_address": "2328 St Ann St",
    "address_councildis": "D",
    "status": "Pending",
    "rowid": "1205893",
    "final_x": "3678077.97326",
    "final_y": "536302.590151",
    "longitude": "-90.07871049919265",
    "latitude": "29.968749642578604",
    "geocoded_column": {
      "latitude": "29.968749642578604",
      "longitude": "-90.07871049919265"
    }
  },
  {
    "service_request": "2025-1205892",
    "request_type": "Trash/Recycling",
    "request_reason": "Request a Large Item Pick Up",
    "date_created": "2025-07-01T20:46:39.000",
    "date_modified": "2025-07-01T20:46:41.000",
    "request_status": "Pending",
    "responsible_agency": "Department of Sanitation",
    "final_address": "4674 Longfellow Dr",
    "address_councildis": "E",
    "status": "Assigned to Contractor",
    "contractor": "Waste Pro",
    "rowid": "1205892",
    "final_x": "3709592.67857",
    "final_y": "555433.364249",
    "longitude": "-89.97847176644403",
    "latitude": "30.0203655768501",
    "geocoded_column": {
      "latitude": "30.0203655768501",
      "longitude": "-89.97847176644403"
    }
  },
  {
    "service_request": "2025-1205891",
    "request_type": "Trash/Recycling",
    "request_reason": "Order Trash Cart",
    "date_created": "2025-07-01T20:40:54.000",
    "date_modified": "2025-07-01T20:40:56.000",
    "request_status": "Pending",
    "responsible_agency": "Department of Sanitation",
    "final_address": "3764 Inwood Ave",
    "address_councildis": "C",
    "status": "Assigned to Contractor",
    "contractor": "Richards Disposal",
    "rowid": "1205891",
    "final_x": "3704940.81534",
    "final_y": "514699.808499",
    "longitude": "-89.99467374805637",
    "latitude": "29.908513514502168",
    "geocoded_column": {
      "latitude": "29.908513514502168",
      "longitude": "-89.99467374805637"
    }
  },
  {
    "service_request": "2025-1205890",
    "request_type": "Property Maintenance",
    "request_reason": "Property Maintenance",
    "date_created": "2025-07-01T20:35:24.000",
    "date_modified": "2025-07-01T20:35:26.000",
    "request_status": "Pending",
    "responsible_agency": "Department of Code Enforcement",
    "final_address": "6245 London Ave",
    "address_councildis": "D",
    "status": "Pending",
    "rowid": "1205890",
    "final_x": "3680611.74728",
    "final_y": "555899.107673",
    "longitude": "-90.07002638112795",
    "latitude": "30.022556591309144",
    "geocoded_column": {
      "latitude": "30.022556591309144",
      "longitude": "-90.07002638112795"
    }
  },
  {
    "service_request": "2025-1205889",
    "request_type": "Property Maintenance",
    "request_reason": "Property Maintenance",
    "date_created": "2025-07-01T20:32:17.000",
    "date_modified": "2025-07-01T20:32:18.000",
    "request_status": "Pending",
    "responsible_agency": "Department of Code Enforcement",
    "final_address": "1334 Seville Dr",
    "address_councildis": "D",
    "status": "Pending",
    "rowid": "1205889",
    "final_x": "3677475.9531",
    "final_y": "551048.105173",
    "longitude": "-90.08010239955368",
    "latitude": "30.009312772297903",
    "geocoded_column": {
      "latitude": "30.009312772297903",
      "longitude": "-90.08010239955368"
    }
  },
  {
    "service_request": "2025-1205888",
    "request_type": "Trash/Recycling",
    "request_reason": "Repair Trash Cart",
    "date_created": "2025-07-01T20:20:27.000",
    "date_modified": "2025-07-01T20:20:28.000",
    "request_status": "Pending",
    "responsible_agency": "Department of Sanitation",
    "final_address": "6032 Franklin Ave",
    "address_councildis": "D",
    "status": "Assigned to Contractor",
    "contractor": "IV Waste",
    "rowid": "1205888",
    "final_x": "3686319.93692",
    "final_y": "555454.561497",
    "longitude": "-90.05200560007475",
    "latitude": "30.021159974085652",
    "geocoded_column": {
      "latitude": "30.021159974085652",
      "longitude": "-90.05200560007475"
    }
  },
  {
    "service_request": "2025-1205887",
    "request_type": "Trash/Recycling",
    "request_reason": "Replace Recycling Cart",
    "date_created": "2025-07-01T20:15:57.000",
    "date_modified": "2025-07-01T20:15:59.000",
    "request_status": "Pending",
    "responsible_agency": "Department of Sanitation",
    "final_address": "1715 Desire St",
    "address_councildis": "D",
    "status": "Pending",
    "rowid": "1205887",
    "final_x": "3690806.33974",
    "final_y": "538070.747529",
    "longitude": "-90.03845060274303",
    "latitude": "29.97322209957379",
    "geocoded_column": {
      "latitude": "29.97322209957379",
      "longitude": "-90.03845060274303"
    }
  },
  {
    "service_request": "2025-1205886",
    "request_type": "Mosquito, Termite & Rodent Control",
    "request_reason": "Mosquito Complaint",
    "date_created": "2025-07-01T19:59:32.000",
    "date_modified": "2025-07-01T19:59:33.000",
    "request_status": "Pending",
    "responsible_agency": "Mosquito, Termite & Rodent Control Board",
    "final_address": "1514 N Tonti St",
    "address_councildis": "D",
    "status": "Pending",
    "rowid": "1205886",
    "final_x": "3679948.74914",
    "final_y": "538777.977609",
    "longitude": "-90.07271647461009",
    "latitude": "29.97549964981084",
    "geocoded_column": {
      "latitude": "29.97549964981084",
      "longitude": "-90.07271647461009"
    }
  },
  {
    "service_request": "2025-1205885",
    "request_type": "Trash/Recycling",
    "request_reason": "Request a Large Item Pick Up",
    "date_created": "2025-07-01T19:53:37.000",
    "date_modified": "2025-07-01T19:53:40.000",
    "request_status": "Pending",
    "responsible_agency": "Department of Sanitation",
    "final_address": "2223 Mazant St",
    "address_councildis": "D",
    "status": "Assigned to Contractor",
    "contractor": "IV Waste",
    "rowid": "1205885",
    "final_x": "3693217.17949",
    "final_y": "539531.692682",
    "longitude": "-90.03078426970741",
    "latitude": "29.97716404516306",
    "geocoded_column": {
      "latitude": "29.97716404516306",
      "longitude": "-90.03078426970741"
    }
  },
  {
    "service_request": "2025-1205884",
    "request_type": "Trash/Recycling",
    "request_reason": "Missed Trash Pick-Up",
    "date_created": "2025-07-01T19:38:19.000",
    "date_modified": "2025-07-01T19:38:21.000",
    "request_status": "Pending",
    "responsible_agency": "Department of Sanitation",
    "final_address": "7500 Hickman St",
    "address_councildis": "E",
    "status": "Assigned to Contractor",
    "contractor": "Waste Pro",
    "rowid": "1205884",
    "final_x": "3706289.10903",
    "final_y": "562902.069792",
    "longitude": "-89.98863300273872",
    "latitude": "30.041008583524885",
    "geocoded_column": {
      "latitude": "30.041008583524885",
      "longitude": "-89.98863300273872"
    }
  },
  {
    "service_request": "2025-1205883",
    "request_type": "General Services",
    "request_reason": "General Service Request",
    "date_created": "2025-07-01T19:25:34.000",
    "date_modified": "2025-07-01T19:25:36.000",
    "request_status": "Pending",
    "responsible_agency": "Orleans Parish Communication District",
    "final_address": "4842 Gawain Dr",
    "address_councildis": "E",
    "status": "Pending",
    "rowid": "1205883",
    "final_x": "3706823.56663",
    "final_y": "556224.01513",
    "longitude": "-89.98719188738937",
    "latitude": "30.022629298787813",
    "geocoded_column": {
      "latitude": "30.022629298787813",
      "longitude": "-89.98719188738937"
    }
  },
  {
    "service_request": "2025-1205882",
    "request_type": "General Services",
    "request_reason": "General Service Request",
    "date_created": "2025-07-01T19:13:48.000",
    "date_modified": "2025-07-01T19:13:49.000",
    "request_status": "Pending",
    "responsible_agency": "Orleans Parish Communication District",
    "final_address": "6953 Virgilian St",
    "address_councildis": "D",
    "status": "Pending",
    "rowid": "1205882",
    "final_x": "3696937.47421",
    "final_y": "556820.00841",
    "longitude": "-90.01840783924877",
    "latitude": "30.02458369710448",
    "geocoded_column": {
      "latitude": "30.02458369710448",
      "longitude": "-90.01840783924877"
    }
  },
  {
    "service_request": "2025-1205881",
    "request_type": "Trash/Recycling",
    "request_reason": "Request a Large Item Pick Up",
    "date_created": "2025-07-01T19:10:51.000",
    "date_modified": "2025-07-01T19:10:53.000",
    "request_status": "Pending",
    "responsible_agency": "Department of Sanitation",
    "final_address": "8005 Plum St",
    "address_councildis": "A",
    "status": "Assigned to Contractor",
    "contractor": "IV Waste",
    "rowid": "1205881",
    "final_x": "3662504.24909",
    "final_y": "528411.142592",
    "longitude": "-90.1281556128474",
    "latitude": "29.947510412351736",
    "geocoded_column": {
      "latitude": "29.947510412351736",
      "longitude": "-90.1281556128474"
    }
  },
  {
    "service_request": "2025-1205880",
    "request_type": "Trash/Recycling",
    "request_reason": "Request a Large Item Pick Up",
    "date_created": "2025-07-01T19:00:01.000",
    "date_modified": "2025-07-01T19:00:02.000",
    "request_status": "Pending",
    "responsible_agency": "Department of Sanitation",
    "final_address": "11001 Lake Forest Blvd",
    "address_councildis": "E",
    "status": "Assigned to Contractor",
    "contractor": "Waste Pro",
    "rowid": "1205880",
    "final_x": "3714236.94706",
    "final_y": "560501.17315",
    "longitude": "-89.96360604897423",
    "latitude": "30.034148225549192",
    "geocoded_column": {
      "latitude": "30.034148225549192",
      "longitude": "-89.96360604897423"
    }
  },
  {
    "service_request": "2025-1205879",
    "request_type": "Property Maintenance",
    "request_reason": "Property Maintenance",
    "date_created": "2025-07-01T18:37:09.000",
    "date_modified": "2025-07-01T18:37:11.000",
    "request_status": "Pending",
    "responsible_agency": "Department of Code Enforcement",
    "final_address": "1728 Hendee St",
    "address_councildis": "C",
    "status": "Pending",
    "rowid": "1205879",
    "final_x": "3690673.24502",
    "final_y": "524426.55206",
    "longitude": "-90.03935756027201",
    "latitude": "29.93570942474972",
    "geocoded_column": {
      "latitude": "29.93570942474972",
      "longitude": "-90.03935756027201"
    }
  },
  {
    "service_request": "2025-1205878",
    "request_type": "Property Maintenance",
    "request_reason": "Property Maintenance",
    "date_created": "2025-07-01T18:35:02.000",
    "date_modified": "2025-07-01T18:35:04.000",
    "request_status": "Pending",
    "responsible_agency": "Department of Code Enforcement",
    "final_address": "6945 Virgilian St",
    "address_councildis": "D",
    "status": "Pending",
    "rowid": "1205878",
    "final_x": "3696956.27421",
    "final_y": "556761.926234",
    "longitude": "-90.01835054102796",
    "latitude": "30.024423400010118",
    "geocoded_column": {
      "latitude": "30.024423400010118",
      "longitude": "-90.01835054102796"
    }
  },
  {
    "service_request": "2025-1205877",
    "request_type": "Healthy Homes",
    "request_reason": "Healthy Homes",
    "date_created": "2025-07-01T18:34:04.000",
    "date_modified": "2025-07-01T18:34:05.000",
    "request_status": "Pending",
    "responsible_agency": "Department of Code Enforcement",
    "final_address": "1301 Decatur St",
    "address_councildis": "C",
    "status": "Pending",
    "rowid": "1205877",
    "final_x": "3684477.44265",
    "final_y": "533761.465477",
    "longitude": "-90.05858990541473",
    "latitude": "29.961568206492245",
    "geocoded_column": {
      "latitude": "29.961568206492245",
      "longitude": "-90.05858990541473"
    }
  },
  {
    "service_request": "2025-1205876",
    "request_type": "Healthy Homes",
    "request_reason": "Healthy Homes",
    "date_created": "2025-07-01T18:29:32.000",
    "date_modified": "2025-07-01T18:29:34.000",
    "request_status": "Pending",
    "responsible_agency": "Department of Code Enforcement",
    "final_address": "1301 Decatur St",
    "address_councildis": "C",
    "status": "Pending",
    "rowid": "1205876",
    "final_x": "3684477.44265",
    "final_y": "533761.465477",
    "longitude": "-90.05858990541473",
    "latitude": "29.961568206492245",
    "geocoded_column": {
      "latitude": "29.961568206492245",
      "longitude": "-90.05858990541473"
    }
  },
  {
    "service_request": "2025-1205875",
    "request_type": "Trash/Recycling",
    "request_reason": "Request a Large Item Pick Up",
    "date_created": "2025-07-01T18:27:26.000",
    "date_modified": "2025-07-01T18:27:28.000",
    "request_status": "Pending",
    "responsible_agency": "Department of Sanitation",
    "final_address": "2720 Octavia St",
    "address_councildis": "A",
    "status": "Assigned to Contractor",
    "contractor": "IV Waste",
    "rowid": "1205875",
    "final_x": "3667868.31188",
    "final_y": "525544.564797",
    "longitude": "-90.11131565810533",
    "latitude": "29.93947202817648",
    "geocoded_column": {
      "latitude": "29.93947202817648",
      "longitude": "-90.11131565810533"
    }
  },
  {
    "service_request": "2025-1205874",
    "request_type": "Roads and Streets",
    "request_reason": "Pothole",
    "date_created": "2025-07-01T18:24:07.000",
    "date_modified": "2025-07-01T18:24:09.000",
    "request_status": "Pending",
    "responsible_agency": "Department of Public Works",
    "final_address": "6953 Virgilian St",
    "address_councildis": "D",
    "status": "Pending",
    "rowid": "1205874",
    "final_x": "3696937.47421",
    "final_y": "556820.00841",
    "longitude": "-90.01840783924877",
    "latitude": "30.02458369710448",
    "geocoded_column": {
      "latitude": "30.02458369710448",
      "longitude": "-90.01840783924877"
    }
  },
  {
    "service_request": "2025-1205873",
    "request_type": "Drainage",
    "request_reason": "Catch Basin Clogged",
    "date_created": "2025-07-01T18:18:27.000",
    "date_modified": "2025-07-01T18:18:29.000",
    "request_status": "Pending",
    "responsible_agency": "Sewerage & Water Board",
    "final_address": "6952 Virgilian St",
    "address_councildis": "D",
    "status": "Pending",
    "rowid": "1205873",
    "final_x": "3696761.74659",
    "final_y": "556768.103578",
    "longitude": "-90.01896498650996",
    "latitude": "30.02444652226694",
    "geocoded_column": {
      "latitude": "30.02444652226694",
      "longitude": "-90.01896498650996"
    }
  },
  {
    "service_request": "2025-1205872",
    "request_type": "Abandoned Vehicles",
    "request_reason": "Abandoned/Junk Vehicles",
    "date_created": "2025-07-01T18:17:58.000",
    "date_modified": "2025-07-01T18:18:00.000",
    "request_status": "Pending",
    "responsible_agency": "Department of Public Works",
    "final_address": "2024 St Philip St",
    "address_councildis": "D",
    "status": "Pending",
    "rowid": "1205872",
    "final_x": "3679402.87061",
    "final_y": "536255.615175",
    "longitude": "-90.0745280247581",
    "latitude": "29.96858052226423",
    "geocoded_column": {
      "latitude": "29.96858052226423",
      "longitude": "-90.0745280247581"
    }
  },
  {
    "service_request": "2025-1205871",
    "request_type": "General Services",
    "request_reason": "General Service Request",
    "date_created": "2025-07-01T18:15:03.000",
    "date_modified": "2025-07-01T18:15:05.000",
    "request_status": "Pending",
    "responsible_agency": "Orleans Parish Communication District",
    "final_address": "2022 St Philip St",
    "address_councildis": "D",
    "status": "Pending",
    "rowid": "1205871",
    "final_x": "3679408.0109",
    "final_y": "536250.174727",
    "longitude": "-90.07451198019896",
    "latitude": "29.968565407619476",
    "geocoded_column": {
      "latitude": "29.968565407619476",
      "longitude": "-90.07451198019896"
    }
  },
  {
    "service_request": "2025-1205870",
    "request_type": "General Services",
    "request_reason": "General Service Request",
    "date_created": "2025-07-01T18:07:06.000",
    "date_modified": "2025-07-01T18:07:09.000",
    "request_status": "Pending",
    "responsible_agency": "Orleans Parish Communication District",
    "final_address": "1016 Crete St, New Orleans, Louisiana, 70119",
    "address_councildis": "A",
    "status": "Pending",
    "rowid": "1205870",
    "final_x": "3677559.72181",
    "final_y": "538465.779209",
    "longitude": "-90.08027246155306",
    "latitude": "29.97471326520945",
    "geocoded_column": {
      "latitude": "29.97471326520945",
      "longitude": "-90.08027246155306"
    }
  },
  {
    "service_request": "2025-1205869",
    "request_type": "Roads and Streets",
    "request_reason": "Debris in Driving Lanes",
    "date_created": "2025-07-01T18:01:43.000",
    "date_modified": "2025-07-01T18:01:45.000",
    "request_status": "Pending",
    "responsible_agency": "Department of Public Works",
    "final_address": "310 Jewel St",
    "address_councildis": "D",
    "status": "Pending",
    "rowid": "1205869",
    "final_x": "3667537.23578",
    "final_y": "555759.923737",
    "longitude": "-90.11134357665327",
    "latitude": "30.02256376022082",
    "geocoded_column": {
      "latitude": "30.02256376022082",
      "longitude": "-90.11134357665327"
    }
  },
  {
    "service_request": "2025-1205868",
    "request_type": "Property Maintenance",
    "request_reason": "Property Maintenance",
    "date_created": "2025-07-01T17:39:51.000",
    "date_modified": "2025-07-01T17:39:53.000",
    "request_status": "Pending",
    "responsible_agency": "Department of Code Enforcement",
    "final_address": "6062 Madrid Ct",
    "address_councildis": "D",
    "status": "Pending",
    "rowid": "1205868",
    "final_x": "3688309.38659",
    "final_y": "555702.632473",
    "longitude": "-90.04571070752401",
    "latitude": "30.021780756193724",
    "geocoded_column": {
      "latitude": "30.021780756193724",
      "longitude": "-90.04571070752401"
    }
  },
  {
    "service_request": "2025-1205867",
    "request_type": "Drainage",
    "request_reason": "Catch Basin Damaged",
    "date_created": "2025-07-01T17:20:45.000",
    "date_modified": "2025-07-01T17:20:47.000",
    "request_status": "Pending",
    "responsible_agency": "Sewerage & Water Board",
    "final_address": "943 N Tonti St",
    "address_councildis": "D",
    "status": "Pending",
    "rowid": "1205867",
    "final_x": "3678416.2116",
    "final_y": "536994.165576",
    "longitude": "-90.0776183875622",
    "latitude": "29.97064105077241",
    "geocoded_column": {
      "latitude": "29.97064105077241",
      "longitude": "-90.0776183875622"
    }
  },
  {
    "service_request": "2025-1205866",
    "request_type": "Streetlights",
    "request_reason": "Streetlight Outage/Malfunction",
    "date_created": "2025-07-01T16:59:39.000",
    "date_modified": "2025-07-01T16:59:41.000",
    "request_status": "Pending",
    "responsible_agency": "Department of Public Works",
    "final_address": "8011 Pebble Dr",
    "address_councildis": "E",
    "status": "Pending",
    "contractor": "Legacy Professional Services",
    "rowid": "1205866",
    "final_x": "3714381.04376",
    "final_y": "570124.448679",
    "longitude": "-89.96278694559767",
    "latitude": "30.060603583699343",
    "geocoded_column": {
      "latitude": "30.060603583699343",
      "longitude": "-89.96278694559767"
    }
  },
  {
    "service_request": "2025-1205865",
    "request_type": "Trash/Recycling",
    "request_reason": "Replace Trash Cart",
    "date_created": "2025-07-01T16:55:44.000",
    "date_modified": "2025-07-01T16:55:46.000",
    "request_status": "Pending",
    "responsible_agency": "Department of Sanitation",
    "final_address": "1940 Feliciana St",
    "address_councildis": "D",
    "status": "Assigned to Contractor",
    "contractor": "IV Waste",
    "rowid": "1205865",
    "final_x": "3689536.07747",
    "final_y": "539408.065994",
    "longitude": "-90.04241475077023",
    "latitude": "29.976938662345802",
    "geocoded_column": {
      "latitude": "29.976938662345802",
      "longitude": "-90.04241475077023"
    }
  },
  {
    "service_request": "2025-1205864",
    "request_type": "Trash/Recycling",
    "request_reason": "Request a Large Item Pick Up",
    "date_created": "2025-07-01T16:54:01.000",
    "date_modified": "2025-07-01T16:54:02.000",
    "request_status": "Pending",
    "responsible_agency": "Department of Sanitation",
    "final_address": "5436 Marais St",
    "address_councildis": "E",
    "status": "Assigned to Contractor",
    "contractor": "Waste Pro",
    "rowid": "1205864",
    "final_x": "3697575.36343",
    "final_y": "534198.224453",
    "longitude": "-90.0172132640168",
    "latitude": "29.962361975204367",
    "geocoded_column": {
      "latitude": "29.962361975204367",
      "longitude": "-90.0172132640168"
    }
  },
  {
    "service_request": "2025-1205863",
    "request_type": "Trash/Recycling",
    "request_reason": "Request a Large Item Pick Up",
    "date_created": "2025-07-01T16:51:19.000",
    "date_modified": "2025-07-01T16:51:20.000",
    "request_status": "Pending",
    "responsible_agency": "Department of Sanitation",
    "final_address": "4681 Warrington Dr",
    "address_councildis": "D",
    "status": "Assigned to Contractor",
    "contractor": "IV Waste",
    "rowid": "1205863",
    "final_x": "3681208.34236",
    "final_y": "549668.876436",
    "longitude": "-90.06835861136952",
    "latitude": "30.005407615731187",
    "geocoded_column": {
      "latitude": "30.005407615731187",
      "longitude": "-90.06835861136952"
    }
  },
  {
    "service_request": "2025-1205862",
    "request_type": "Trash/Recycling",
    "request_reason": "Repair Trash Cart",
    "date_created": "2025-07-01T16:50:28.000",
    "date_modified": "2025-07-01T16:50:31.000",
    "request_status": "Pending",
    "responsible_agency": "Department of Sanitation",
    "final_address": "316 N Galvez St",
    "address_councildis": "B",
    "status": "Assigned to Contractor",
    "contractor": "IV Waste",
    "rowid": "1205862",
    "final_x": "3677616.48398",
    "final_y": "534595.411397",
    "longitude": "-90.0802268711985",
    "latitude": "29.96406936758307",
    "geocoded_column": {
      "latitude": "29.96406936758307",
      "longitude": "-90.0802268711985"
    }
  },
  {
    "service_request": "2025-1205861",
    "request_type": "Trash/Recycling",
    "request_reason": "Repair Trash Cart",
    "date_created": "2025-07-01T16:43:30.000",
    "date_modified": "2025-07-01T16:43:32.000",
    "request_status": "Pending",
    "responsible_agency": "Department of Sanitation",
    "final_address": "3604 Tulane Ave",
    "address_councildis": "B",
    "status": "Assigned to Contractor",
    "contractor": "IV Waste",
    "rowid": "1205861",
    "final_x": "3671085.36398",
    "final_y": "535320.448774",
    "longitude": "-90.1008269906526",
    "latitude": "29.966257756875873",
    "geocoded_column": {
      "latitude": "29.966257756875873",
      "longitude": "-90.1008269906526"
    }
  },
  {
    "service_request": "2025-1205860",
    "request_type": "Trash/Recycling",
    "request_reason": "Return Trash Cart",
    "date_created": "2025-07-01T16:40:05.000",
    "date_modified": "2025-07-01T16:40:07.000",
    "request_status": "Pending",
    "responsible_agency": "Department of Sanitation",
    "final_address": "4612 Bienville Ave",
    "address_councildis": "A",
    "status": "Assigned to Contractor",
    "contractor": "IV Waste",
    "rowid": "1205860",
    "final_x": "3669775.04026",
    "final_y": "540259.153995",
    "longitude": "-90.10479775961475",
    "latitude": "29.97987622490413",
    "geocoded_column": {
      "latitude": "29.97987622490413",
      "longitude": "-90.10479775961475"
    }
  },
  {
    "service_request": "2025-1205859",
    "request_type": "Parks & Parkways",
    "request_reason": "Park Maintenance/Clean Up",
    "date_created": "2025-07-01T16:38:33.000",
    "date_modified": "2025-07-01T16:38:34.000",
    "request_status": "Pending",
    "responsible_agency": "Department of Parks & Parkway",
    "final_address": "5721 St Charles Ave",
    "address_councildis": "A",
    "status": "Pending",
    "rowid": "1205859",
    "final_x": "3666379.89613",
    "final_y": "522180.48953",
    "longitude": "-90.11612762587897",
    "latitude": "29.930265457681717",
    "geocoded_column": {
      "latitude": "29.930265457681717",
      "longitude": "-90.11612762587897"
    }
  },
  {
    "service_request": "2025-1205858",
    "request_type": "Trash/Recycling",
    "request_reason": "Replace Trash Cart",
    "date_created": "2025-07-01T16:33:56.000",
    "date_modified": "2025-07-01T16:33:58.000",
    "request_status": "Pending",
    "responsible_agency": "Department of Sanitation",
    "final_address": "405 S Broad St",
    "address_councildis": "B",
    "status": "Assigned to Contractor",
    "contractor": "IV Waste",
    "rowid": "1205858",
    "final_x": "3674504.02427",
    "final_y": "534109.163653",
    "longitude": "-90.09007241732158",
    "latitude": "29.96282557648778",
    "geocoded_column": {
      "latitude": "29.96282557648778",
      "longitude": "-90.09007241732158"
    }
  },
  {
    "service_request": "2025-1205857",
    "request_type": "Trash/Recycling",
    "request_reason": "Request a Large Item Pick Up",
    "date_created": "2025-07-01T16:33:08.000",
    "date_modified": "2025-07-01T16:33:11.000",
    "request_status": "Pending",
    "responsible_agency": "Department of Sanitation",
    "final_address": "1813 Tennessee St",
    "address_councildis": "E",
    "status": "Assigned to Contractor",
    "contractor": "Waste Pro",
    "rowid": "1205857",
    "final_x": "3696499.43747",
    "final_y": "537056.373192",
    "longitude": "-90.02050745704705",
    "latitude": "29.970254803340918",
    "geocoded_column": {
      "latitude": "29.970254803340918",
      "longitude": "-90.02050745704705"
    }
  },
  {
    "service_request": "2025-1205856",
    "request_type": "Trash/Recycling",
    "request_reason": "Request a Large Item Pick Up",
    "date_created": "2025-07-01T16:31:10.000",
    "date_modified": "2025-07-01T16:31:12.000",
    "request_status": "Pending",
    "responsible_agency": "Department of Sanitation",
    "final_address": "5059 W St Andrews Cir",
    "address_councildis": "E",
    "status": "Assigned to Contractor",
    "contractor": "Waste Pro",
    "rowid": "1205856",
    "final_x": "3719040.0661",
    "final_y": "559677.031517",
    "longitude": "-89.94845923499015",
    "latitude": "30.031723422169648",
    "geocoded_column": {
      "latitude": "30.031723422169648",
      "longitude": "-89.94845923499015"
    }
  },
  {
    "service_request": "2025-1205855",
    "request_type": "Abandoned Vehicles",
    "request_reason": "Abandoned/Junk Vehicles",
    "date_created": "2025-07-01T16:30:49.000",
    "date_modified": "2025-07-01T16:30:50.000",
    "request_status": "Pending",
    "responsible_agency": "Department of Public Works",
    "final_address": "1676 Abundance St",
    "address_councildis": "D",
    "status": "Pending",
    "rowid": "1205855",
    "final_x": "3680565.46082",
    "final_y": "543325.98555",
    "longitude": "-90.070610441157",
    "latitude": "29.98798641553828",
    "geocoded_column": {
      "latitude": "29.98798641553828",
      "longitude": "-90.070610441157"
    }
  },
  {
    "service_request": "2025-1205854",
    "request_type": "Trash/Recycling",
    "request_reason": "Request a Large Item Pick Up",
    "date_created": "2025-07-01T16:30:09.000",
    "date_modified": "2025-07-01T16:30:12.000",
    "request_status": "Pending",
    "responsible_agency": "Department of Sanitation",
    "final_address": "10941 Chaucer St",
    "address_councildis": "E",
    "status": "Assigned to Contractor",
    "contractor": "Waste Pro",
    "rowid": "1205854",
    "final_x": "3712857.60722",
    "final_y": "562008.873119",
    "longitude": "-89.96790812089995",
    "latitude": "30.03833906223002",
    "geocoded_column": {
      "latitude": "30.03833906223002",
      "longitude": "-89.96790812089995"
    }
  },
  {
    "service_request": "2025-1205853",
    "request_type": "Abandoned Vehicles",
    "request_reason": "Abandoned/Junk Vehicles",
    "date_created": "2025-07-01T16:29:28.000",
    "date_modified": "2025-07-01T16:29:30.000",
    "request_status": "Pending",
    "responsible_agency": "Department of Public Works",
    "final_address": "1670 Abundance St",
    "address_councildis": "D",
    "status": "Pending",
    "rowid": "1205853",
    "final_x": "3680522.26197",
    "final_y": "543316.606542",
    "longitude": "-90.07074721837556",
    "latitude": "29.987961935470338",
    "geocoded_column": {
      "latitude": "29.987961935470338",
      "longitude": "-90.07074721837556"
    }
  },
  {
    "service_request": "2025-1205852",
    "request_type": "Abandoned Vehicles",
    "request_reason": "Abandoned/Junk Vehicles",
    "date_created": "2025-07-01T16:27:56.000",
    "date_modified": "2025-07-01T16:27:58.000",
    "request_status": "Pending",
    "responsible_agency": "Department of Public Works",
    "final_address": "1645 Kabel Dr",
    "address_councildis": "C",
    "status": "Pending",
    "rowid": "1205852",
    "final_x": "3700638.94359",
    "final_y": "521681.202425",
    "longitude": "-90.00799616735115",
    "latitude": "29.92784745334271",
    "geocoded_column": {
      "latitude": "29.92784745334271",
      "longitude": "-90.00799616735115"
    }
  },
  {
    "service_request": "2025-1205851",
    "request_type": "Trash/Recycling",
    "request_reason": "Request a Large Item Pick Up",
    "date_created": "2025-07-01T16:27:40.000",
    "date_modified": "2025-07-01T16:27:42.000",
    "request_status": "Pending",
    "responsible_agency": "Department of Sanitation",
    "final_address": "7600 Malvern Dr",
    "address_councildis": "E",
    "status": "Assigned to Contractor",
    "contractor": "Waste Pro",
    "rowid": "1205851",
    "final_x": "3702375.83805",
    "final_y": "561523.909407",
    "longitude": "-90.00105085282357",
    "latitude": "30.03734487614827",
    "geocoded_column": {
      "latitude": "30.03734487614827",
      "longitude": "-90.00105085282357"
    }
  },
  {
    "service_request": "2025-1205850",
    "request_type": "Abandoned Vehicles",
    "request_reason": "Abandoned/Junk Vehicles",
    "date_created": "2025-07-01T16:27:12.000",
    "date_modified": "2025-07-01T16:28:45.000",
    "request_status": "Pending",
    "responsible_agency": "Department of Public Works",
    "final_address": "1221 Constantinople St",
    "address_councildis": "B",
    "status": "Pending",
    "rowid": "1205850",
    "final_x": "3672464.70081",
    "final_y": "520181.419896",
    "longitude": "-90.09698691327688",
    "latitude": "29.92458952289487",
    "geocoded_column": {
      "latitude": "29.92458952289487",
      "longitude": "-90.09698691327688"
    }
  },
  {
    "service_request": "2025-1205849",
    "request_type": "Trash/Recycling",
    "request_reason": "Illegal Dumping",
    "date_created": "2025-07-01T16:26:56.000",
    "date_modified": "2025-07-01T16:26:57.000",
    "request_status": "Pending",
    "responsible_agency": "Department of Sanitation",
    "final_address": "3146 N Villere St",
    "address_councildis": "C",
    "status": "Pending",
    "rowid": "1205849",
    "final_x": "3689639.18159",
    "final_y": "536983.077768",
    "longitude": "-90.04217541804807",
    "latitude": "29.97026760649237",
    "geocoded_column": {
      "latitude": "29.97026760649237",
      "longitude": "-90.04217541804807"
    }
  },
  {
    "service_request": "2025-1205848",
    "request_type": "Trash/Recycling",
    "request_reason": "Request a Large Item Pick Up",
    "date_created": "2025-07-01T16:26:52.000",
    "date_modified": "2025-07-01T16:26:54.000",
    "request_status": "Pending",
    "responsible_agency": "Department of Sanitation",
    "final_address": "4419 Coliseum St",
    "address_councildis": "B",
    "status": "Assigned to Contractor",
    "contractor": "IV Waste",
    "rowid": "1205848",
    "final_x": "3670729.38196",
    "final_y": "519847.358904",
    "longitude": "-90.10247607036497",
    "latitude": "29.923722332089927",
    "geocoded_column": {
      "latitude": "29.923722332089927",
      "longitude": "-90.10247607036497"
    }
  },
  {
    "service_request": "2025-1205847",
    "request_type": "Trash/Recycling",
    "request_reason": "Repair Trash Cart",
    "date_created": "2025-07-01T16:22:36.000",
    "date_modified": "2025-07-01T16:22:38.000",
    "request_status": "Pending",
    "responsible_agency": "Department of Sanitation",
    "final_address": "2233 Foucher St",
    "address_councildis": "B",
    "status": "Assigned to Contractor",
    "contractor": "IV Waste",
    "rowid": "1205847",
    "final_x": "3672740.28545",
    "final_y": "523569.509819",
    "longitude": "-90.09600149369777",
    "latitude": "29.933897499898592",
    "geocoded_column": {
      "latitude": "29.933897499898592",
      "longitude": "-90.09600149369777"
    }
  },
  {
    "service_request": "2025-1205846",
    "request_type": "Trash/Recycling",
    "request_reason": "Request a Large Item Pick Up",
    "date_created": "2025-07-01T16:20:51.000",
    "date_modified": "2025-07-01T16:20:53.000",
    "request_status": "Pending",
    "responsible_agency": "Department of Sanitation",
    "final_address": "11308 King Richard Dr",
    "address_councildis": "E",
    "status": "Assigned to Contractor",
    "contractor": "Waste Pro",
    "rowid": "1205846",
    "final_x": "3717314.2334",
    "final_y": "556428.16009",
    "longitude": "-89.95403647609145",
    "latitude": "30.02284756597243",
    "geocoded_column": {
      "latitude": "30.02284756597243",
      "longitude": "-89.95403647609145"
    }
  },
  {
    "service_request": "2025-1205845",
    "request_type": "Streetlights",
    "request_reason": "Streetlight Knocked Down/Leaning",
    "date_created": "2025-07-01T16:16:53.000",
    "date_modified": "2025-07-01T16:16:55.000",
    "request_status": "Pending",
    "responsible_agency": "Department of Public Works",
    "final_address": "TIMBER RIDGE CT & TIMBER WOLF LN",
    "address_councildis": "C",
    "status": "Pending",
    "contractor": "Legacy Professional Services",
    "rowid": "1205845",
    "final_x": "3704594.4",
    "final_y": "511434.78",
    "longitude": "-89.99588736032628",
    "latitude": "29.899546920977734",
    "geocoded_column": {
      "latitude": "29.899546920977734",
      "longitude": "-89.99588736032628"
    }
  },
  {
    "service_request": "2025-1205844",
    "request_type": "Streetlights",
    "request_reason": "Streetlight Outage/Malfunction",
    "date_created": "2025-07-01T16:13:57.000",
    "date_modified": "2025-07-01T16:13:59.000",
    "request_status": "Pending",
    "responsible_agency": "Department of Public Works",
    "final_address": "3120 Eagle St",
    "address_councildis": "A",
    "status": "Pending",
    "contractor": "Legacy Professional Services",
    "rowid": "1205844",
    "final_x": "3664829.64308",
    "final_y": "535253.036742",
    "longitude": "-90.12058477269925",
    "latitude": "29.966255934441936",
    "geocoded_column": {
      "latitude": "29.966255934441936",
      "longitude": "-90.12058477269925"
    }
  },
  {
    "service_request": "2025-1205843",
    "request_type": "Trash/Recycling",
    "request_reason": "Illegal Dumping",
    "date_created": "2025-07-01T16:11:38.000",
    "date_modified": "2025-07-01T16:11:39.000",
    "request_status": "Pending",
    "responsible_agency": "Department of Sanitation",
    "final_address": "1909 Leonidas St",
    "address_councildis": "A",
    "status": "Pending",
    "rowid": "1205843",
    "final_x": "3662440.73261",
    "final_y": "531482.822787",
    "longitude": "-90.12825416094866",
    "latitude": "29.955958380341762",
    "geocoded_column": {
      "latitude": "29.955958380341762",
      "longitude": "-90.12825416094866"
    }
  },
  {
    "service_request": "2025-1205842",
    "request_type": "Trash/Recycling",
    "request_reason": "Order Trash Cart",
    "date_created": "2025-07-01T16:10:06.000",
    "date_modified": "2025-07-01T16:10:08.000",
    "request_status": "Pending",
    "responsible_agency": "Department of Sanitation",
    "final_address": "24336 Chef Menteur Hwy",
    "address_councildis": "E",
    "status": "Assigned to Contractor",
    "contractor": "Waste Pro",
    "rowid": "1205842",
    "final_x": "3777995.82872",
    "final_y": "592643.281212",
    "longitude": "-89.76073234779511",
    "latitude": "30.120273721604278",
    "geocoded_column": {
      "latitude": "30.120273721604278",
      "longitude": "-89.76073234779511"
    }
  },
  {
    "service_request": "2025-1205841",
    "request_type": "Drainage",
    "request_reason": "Catch Basin Clogged",
    "date_created": "2025-07-01T16:06:52.000",
    "date_modified": "2025-07-01T16:06:54.000",
    "request_status": "Pending",
    "responsible_agency": "Sewerage & Water Board",
    "final_address": "8727 Apricot St",
    "address_councildis": "A",
    "status": "Pending",
    "rowid": "1205841",
    "final_x": "3664110.13172",
    "final_y": "534242.916101",
    "longitude": "-90.12289068360873",
    "latitude": "29.963499354241172",
    "geocoded_column": {
      "latitude": "29.963499354241172",
      "longitude": "-90.12289068360873"
    }
  },
  {
    "service_request": "2025-1205840",
    "request_type": "Utility Poles",
    "request_reason": "Wires Sagging/Hanging Low",
    "date_created": "2025-07-01T16:01:55.000",
    "date_modified": "2025-07-01T16:01:57.000",
    "request_status": "Pending",
    "responsible_agency": "Utility Company Collective",
    "final_address": "700 BLK Kerlerec St",
    "address_councildis": "C",
    "status": "Pending",
    "rowid": "1205840",
    "final_x": "3684099.57829",
    "final_y": "534786.05784",
    "longitude": "-90.05974717379867",
    "latitude": "29.96439703627508",
    "geocoded_column": {
      "latitude": "29.96439703627508",
      "longitude": "-90.05974717379867"
    }
  },
  {
    "service_request": "2025-1205839",
    "request_type": "Trash/Recycling",
    "request_reason": "Order Recycling Cart",
    "date_created": "2025-07-01T15:59:36.000",
    "date_modified": "2025-07-01T15:59:38.000",
    "request_status": "Pending",
    "responsible_agency": "Department of Sanitation",
    "final_address": "5227 Wildair Dr",
    "address_councildis": "D",
    "status": "Pending",
    "rowid": "1205839",
    "final_x": "3681664.27183",
    "final_y": "551790.488854",
    "longitude": "-90.06684414718792",
    "latitude": "30.011227437019098",
    "geocoded_column": {
      "latitude": "30.011227437019098",
      "longitude": "-90.06684414718792"
    }
  },
  {
    "service_request": "2025-1205838",
    "request_type": "Parks & Parkways",
    "request_reason": "Request Grass Cutting Service (City Owned Property)",
    "date_created": "2025-07-01T15:58:40.000",
    "date_modified": "2025-07-01T15:58:42.000",
    "request_status": "Pending",
    "responsible_agency": "Department of Parks & Parkway",
    "final_address": "12001 Curran Rd",
    "address_councildis": "E",
    "status": "Pending",
    "rowid": "1205838",
    "final_x": "3713503.28837",
    "final_y": "568404.618661",
    "longitude": "-89.96562636255173",
    "latitude": "30.055903596284143",
    "geocoded_column": {
      "latitude": "30.055903596284143",
      "longitude": "-89.96562636255173"
    }
  },
  {
    "service_request": "2025-1205837",
    "request_type": "Trash/Recycling",
    "request_reason": "Request a Large Item Pick Up",
    "date_created": "2025-07-01T15:52:57.000",
    "date_modified": "2025-07-01T15:53:42.000",
    "request_status": "Pending",
    "responsible_agency": "Department of Sanitation",
    "final_address": "4709 Crowder Blvd",
    "address_councildis": "E",
    "status": "Assigned to Contractor",
    "contractor": "Waste Pro",
    "rowid": "1205837",
    "final_x": "3706530.36222",
    "final_y": "555421.785305",
    "longitude": "-89.98814809510012",
    "latitude": "30.0204329459861",
    "geocoded_column": {
      "latitude": "30.0204329459861",
      "longitude": "-89.98814809510012"
    }
  },
  {
    "service_request": "2025-1205836",
    "request_type": "Roads and Streets",
    "request_reason": "Sidewalk Damaged or Missing",
    "date_created": "2025-07-01T15:52:34.000",
    "date_modified": "2025-07-01T15:52:36.000",
    "request_status": "Pending",
    "responsible_agency": "Department of Public Works",
    "final_address": "1833 Halsey Ave",
    "address_councildis": "C",
    "status": "Pending",
    "rowid": "1205836",
    "final_x": "3697730.12355",
    "final_y": "524089.670332",
    "longitude": "-90.01709124075018",
    "latitude": "29.934562103612123",
    "geocoded_column": {
      "latitude": "29.934562103612123",
      "longitude": "-90.01709124075018"
    }
  },
  {
    "service_request": "2025-1205835",
    "request_type": "Trash/Recycling",
    "request_reason": "Request a Large Item Pick Up",
    "date_created": "2025-07-01T15:52:11.000",
    "date_modified": "2025-07-01T17:53:30.000",
    "case_close_date": "2025-07-01T12:53:29.000",
    "request_status": "Closed",
    "responsible_agency": "Department of Sanitation",
    "final_address": "1221 Andry St",
    "address_councildis": "E",
    "status": "Invalid Request",
    "contractor": "Waste Pro",
    "contractor_action": "Invalid",
    "rowid": "1205835",
    "final_x": "3697352.32259",
    "final_y": "534502.939845",
    "longitude": "-90.01790654457756",
    "latitude": "29.963206876580145",
    "geocoded_column": {
      "latitude": "29.963206876580145",
      "longitude": "-90.01790654457756"
    }
  },
  {
    "service_request": "2025-1205834",
    "request_type": "Traffic Signals",
    "request_reason": "Traffic Signal Malfunctioning or Damaged",
    "date_created": "2025-07-01T15:49:50.000",
    "date_modified": "2025-07-01T15:49:51.000",
    "request_status": "Pending",
    "responsible_agency": "Department of Public Works",
    "final_address": "SHIRLEY DR & GENERAL MEYER AVE",
    "address_councildis": "C",
    "status": "Pending",
    "rowid": "1205834",
    "final_x": "3693119.4",
    "final_y": "527498.98",
    "longitude": "-90.03152484825218",
    "latitude": "29.94408136423365",
    "geocoded_column": {
      "latitude": "29.94408136423365",
      "longitude": "-90.03152484825218"
    }
  },
  {
    "service_request": "2025-1205833",
    "request_type": "Trash/Recycling",
    "request_reason": "Request a Large Item Pick Up",
    "date_created": "2025-07-01T15:49:49.000",
    "date_modified": "2025-07-01T15:49:51.000",
    "request_status": "Pending",
    "responsible_agency": "Department of Sanitation",
    "final_address": "1904 Brutus St",
    "address_councildis": "D",
    "status": "Assigned to Contractor",
    "contractor": "IV Waste",
    "rowid": "1205833",
    "final_x": "3681701.83004",
    "final_y": "550089.692628",
    "longitude": "-90.06678488141307",
    "latitude": "30.00654971973073",
    "geocoded_column": {
      "latitude": "30.00654971973073",
      "longitude": "-90.06678488141307"
    }
  },
  {
    "service_request": "2025-1205832",
    "request_type": "Abandoned Vehicles",
    "request_reason": "Abandoned/Junk Vehicles",
    "date_created": "2025-07-01T15:49:42.000",
    "date_modified": "2025-07-01T15:49:44.000",
    "request_status": "Pending",
    "responsible_agency": "Department of Public Works",
    "final_address": "3500 Palmyra St",
    "address_councildis": "B",
    "status": "Pending",
    "rowid": "1205832",
    "final_x": "3672330.44135",
    "final_y": "536353.102663",
    "longitude": "-90.09685986206757",
    "latitude": "29.96906032433629",
    "geocoded_column": {
      "latitude": "29.96906032433629",
      "longitude": "-90.09685986206757"
    }
  },
  {
    "service_request": "2025-1205831",
    "request_type": "Trash/Recycling",
    "request_reason": "Illegal Dumping",
    "date_created": "2025-07-01T15:40:07.000",
    "date_modified": "2025-07-01T15:40:10.000",
    "request_status": "Pending",
    "responsible_agency": "Department of Sanitation",
    "final_address": "14590 Beekman Rd",
    "address_councildis": "E",
    "status": "Pending",
    "rowid": "1205831",
    "final_x": "3721254.75743",
    "final_y": "573041.705897",
    "longitude": "-89.9409475861178",
    "latitude": "30.06839695745405",
    "geocoded_column": {
      "latitude": "30.06839695745405",
      "longitude": "-89.9409475861178"
    }
  },
  {
    "service_request": "2025-1205830",
    "request_type": "Trash/Recycling",
    "request_reason": "Missed Trash Pick-Up",
    "date_created": "2025-07-01T15:37:39.000",
    "date_modified": "2025-07-01T16:01:42.000",
    "case_close_date": "2025-07-01T11:01:41.000",
    "request_status": "Closed",
    "responsible_agency": "Department of Sanitation",
    "final_address": "5012 Touro St",
    "address_councildis": "D",
    "status": "Invalid Request",
    "contractor": "IV Waste",
    "contractor_action": "Invalid",
    "rowid": "1205830",
    "final_x": "3682970.3204",
    "final_y": "551185.788245",
    "longitude": "-90.06273900141544",
    "latitude": "30.009524972090436",
    "geocoded_column": {
      "latitude": "30.009524972090436",
      "longitude": "-90.06273900141544"
    }
  },
  {
    "service_request": "2025-1205829",
    "request_type": "Parks & Parkways",
    "request_reason": "Request Grass Cutting Service (City Owned Property)",
    "date_created": "2025-07-01T15:32:49.000",
    "date_modified": "2025-07-01T15:32:51.000",
    "request_status": "Pending",
    "responsible_agency": "Department of Parks & Parkway",
    "final_address": "5000 BLK Drexel Dr",
    "address_councildis": "B",
    "status": "Pending",
    "rowid": "1205829",
    "final_x": "3669259.84484",
    "final_y": "534233.828958",
    "longitude": "-90.10662869855824",
    "latitude": "29.963323779666624",
    "geocoded_column": {
      "latitude": "29.963323779666624",
      "longitude": "-90.10662869855824"
    }
  },
  {
    "service_request": "2025-1205828",
    "request_type": "Property Maintenance",
    "request_reason": "Property Maintenance",
    "date_created": "2025-07-01T15:29:17.000",
    "date_modified": "2025-07-01T15:29:19.000",
    "request_status": "Pending",
    "responsible_agency": "Department of Code Enforcement",
    "final_address": "1307 S Gayoso St",
    "address_councildis": "B",
    "status": "Pending",
    "rowid": "1205828",
    "final_x": "3671026.35649",
    "final_y": "531238.836098",
    "longitude": "-90.10115194481833",
    "latitude": "29.955036423923318",
    "geocoded_column": {
      "latitude": "29.955036423923318",
      "longitude": "-90.10115194481833"
    }
  },
  {
    "service_request": "2025-1205827",
    "request_type": "Trash/Recycling",
    "request_reason": "Replace Trash Cart",
    "date_created": "2025-07-01T15:25:14.000",
    "date_modified": "2025-07-01T15:25:15.000",
    "request_status": "Pending",
    "responsible_agency": "Department of Sanitation",
    "final_address": "2749 Conti St",
    "address_councildis": "B",
    "status": "Assigned to Contractor",
    "contractor": "IV Waste",
    "rowid": "1205827",
    "final_x": "3675713.42261",
    "final_y": "536343.509063",
    "longitude": "-90.08617649178338",
    "latitude": "29.968933133411138",
    "geocoded_column": {
      "latitude": "29.968933133411138",
      "longitude": "-90.08617649178338"
    }
  },
  {
    "service_request": "2025-1205826",
    "request_type": "Trash/Recycling",
    "request_reason": "Request a Large Item Pick Up",
    "date_created": "2025-07-01T15:18:54.000",
    "date_modified": "2025-07-01T15:18:55.000",
    "request_status": "Pending",
    "responsible_agency": "Department of Sanitation",
    "final_address": "4238 St Charles Ave",
    "address_councildis": "B",
    "status": "Assigned to Contractor",
    "contractor": "IV Waste",
    "rowid": "1205826",
    "final_x": "3671334.07195",
    "final_y": "520822.535417",
    "longitude": "-90.10053416144487",
    "latitude": "29.92638588149361",
    "geocoded_column": {
      "latitude": "29.92638588149361",
      "longitude": "-90.10053416144487"
    }
  },
  {
    "service_request": "2025-1205825",
    "request_type": "Graffiti Removal",
    "request_reason": "Graffiti Removal",
    "date_created": "2025-07-01T15:17:44.000",
    "date_modified": "2025-07-01T15:17:46.000",
    "request_status": "Pending",
    "responsible_agency": "Department of Code Enforcement",
    "final_address": "S CARROLLTON AVE & TULANE AVE",
    "address_councildis": "A",
    "status": "Pending",
    "rowid": "1205825",
    "final_x": "3669337.8",
    "final_y": "536308.78",
    "longitude": "-90.10631235722039",
    "latitude": "29.96902690865695",
    "geocoded_column": {
      "latitude": "29.96902690865695",
      "longitude": "-90.10631235722039"
    }
  },
  {
    "service_request": "2025-1205824",
    "request_type": "Utility Poles",
    "request_reason": "Utility Pole Leaning",
    "date_created": "2025-07-01T15:12:38.000",
    "date_modified": "2025-07-01T15:12:44.000",
    "request_status": "Pending",
    "responsible_agency": "Utility Company Collective",
    "final_address": "3652 Clermont Dr",
    "address_councildis": "D",
    "status": "Pending",
    "rowid": "1205824",
    "final_x": "3685624.45711",
    "final_y": "546004.639248",
    "longitude": "-90.05453635409756",
    "latitude": "29.99519749309627",
    "geocoded_column": {
      "latitude": "29.99519749309627",
      "longitude": "-90.05453635409756"
    }
  },
  {
    "service_request": "2025-1205823",
    "request_type": "Trash/Recycling",
    "request_reason": "Request a Large Item Pick Up",
    "date_created": "2025-07-01T15:11:49.000",
    "date_modified": "2025-07-01T15:11:51.000",
    "request_status": "Pending",
    "responsible_agency": "Department of Sanitation",
    "final_address": "910 Flood St",
    "address_councildis": "E",
    "status": "Assigned to Contractor",
    "contractor": "Waste Pro",
    "rowid": "1205823",
    "final_x": "3697463.50704",
    "final_y": "533166.995972",
    "longitude": "-90.01760388141307",
    "latitude": "29.959529995026077",
    "geocoded_column": {
      "latitude": "29.959529995026077",
      "longitude": "-90.01760388141307"
    }
  },
  {
    "service_request": "2025-1205822",
    "request_type": "Safety & Permits",
    "request_reason": "Zoning Enforcement",
    "date_created": "2025-07-01T15:10:06.000",
    "date_modified": "2025-07-01T15:10:08.000",
    "request_status": "Pending",
    "responsible_agency": "Safety and Permits",
    "final_address": "603 S Hennessey St",
    "address_councildis": "A",
    "status": "Pending",
    "rowid": "1205822",
    "final_x": "3669039.6946",
    "final_y": "537362.203912",
    "longitude": "-90.10721819869046",
    "latitude": "29.97193224613524",
    "geocoded_column": {
      "latitude": "29.97193224613524",
      "longitude": "-90.10721819869046"
    }
  },
  {
    "service_request": "2025-1205821",
    "request_type": "Abandoned Vehicles",
    "request_reason": "Abandoned/Junk Vehicles",
    "date_created": "2025-07-01T15:09:33.000",
    "date_modified": "2025-07-01T15:13:01.000",
    "request_status": "Pending",
    "responsible_agency": "Department of Public Works",
    "final_address": "1400 BLK France St",
    "address_councildis": "D",
    "status": "Pending",
    "rowid": "1205821",
    "final_x": "3692711.24085",
    "final_y": "536458.640453",
    "longitude": "-90.03249236804314",
    "latitude": "29.96873004818363",
    "geocoded_column": {
      "latitude": "29.96873004818363",
      "longitude": "-90.03249236804314"
    }
  },
  {
    "service_request": "2025-1205820",
    "request_type": "Trash/Recycling",
    "request_reason": "Request a Large Item Pick Up",
    "date_created": "2025-07-01T15:07:49.000",
    "date_modified": "2025-07-01T15:07:50.000",
    "request_status": "Pending",
    "responsible_agency": "Department of Sanitation",
    "final_address": "4611 Schindler Dr",
    "address_councildis": "E",
    "status": "Assigned to Contractor",
    "contractor": "Waste Pro",
    "rowid": "1205820",
    "final_x": "3714481.18546",
    "final_y": "555944.280601",
    "longitude": "-89.96300644785518",
    "latitude": "30.021610553735353",
    "geocoded_column": {
      "latitude": "30.021610553735353",
      "longitude": "-89.96300644785518"
    }
  },
  {
    "service_request": "2025-1205819",
    "request_type": "Trash/Recycling",
    "request_reason": "Request a Large Item Pick Up",
    "date_created": "2025-07-01T15:07:18.000",
    "date_modified": "2025-07-01T15:07:20.000",
    "request_status": "Pending",
    "responsible_agency": "Department of Sanitation",
    "final_address": "7721 Alabama St",
    "address_councildis": "D",
    "status": "Assigned to Contractor",
    "contractor": "Waste Pro",
    "rowid": "1205819",
    "final_x": "3694833.8689",
    "final_y": "558921.358492",
    "longitude": "-90.02497902065419",
    "latitude": "30.030427819723226",
    "geocoded_column": {
      "latitude": "30.030427819723226",
      "longitude": "-90.02497902065419"
    }
  },
  {
    "service_request": "2025-1205818",
    "request_type": "Abandoned Vehicles",
    "request_reason": "Abandoned/Junk Vehicles",
    "date_created": "2025-07-01T14:52:21.000",
    "date_modified": "2025-07-01T14:52:23.000",
    "request_status": "Pending",
    "responsible_agency": "Department of Public Works",
    "final_address": "3600 BLK Iberville St",
    "address_councildis": "B",
    "status": "Pending",
    "rowid": "1205818",
    "final_x": "3672730.68862",
    "final_y": "537644.248974",
    "longitude": "-90.09555180396609",
    "latitude": "29.97259865854032",
    "geocoded_column": {
      "latitude": "29.97259865854032",
      "longitude": "-90.09555180396609"
    }
  },
  {
    "service_request": "2025-1205817",
    "request_type": "Traffic Signals",
    "request_reason": "Traffic Signal Malfunctioning or Damaged",
    "date_created": "2025-07-01T14:51:33.000",
    "date_modified": "2025-07-01T14:51:34.000",
    "request_status": "Pending",
    "responsible_agency": "Department of Public Works",
    "final_address": "2219 Delachaise St",
    "address_councildis": "B",
    "status": "Pending",
    "rowid": "1205817",
    "final_x": "3672941.33774",
    "final_y": "523515.801595",
    "longitude": "-90.09536861100518",
    "latitude": "29.933743848453343",
    "geocoded_column": {
      "latitude": "29.933743848453343",
      "longitude": "-90.09536861100518"
    }
  },
  {
    "service_request": "2025-1205816",
    "request_type": "Property Maintenance",
    "request_reason": "Property Maintenance",
    "date_created": "2025-07-01T14:50:58.000",
    "date_modified": "2025-07-01T14:51:00.000",
    "request_status": "Pending",
    "responsible_agency": "Department of Code Enforcement",
    "final_address": "1475 Farragut St",
    "address_councildis": "C",
    "status": "Pending",
    "rowid": "1205816",
    "final_x": "3692274.70403",
    "final_y": "525607.724349",
    "longitude": "-90.03425947565955",
    "latitude": "29.93890742053",
    "geocoded_column": {
      "latitude": "29.93890742053",
      "longitude": "-90.03425947565955"
    }
  },
  {
    "service_request": "2025-1205815",
    "request_type": "Trash/Recycling",
    "request_reason": "Request a Large Item Pick Up",
    "date_created": "2025-07-01T14:50:56.000",
    "date_modified": "2025-07-01T14:50:58.000",
    "request_status": "Pending",
    "responsible_agency": "Department of Sanitation",
    "final_address": "2314 Audubon St",
    "address_councildis": "A",
    "status": "Assigned to Contractor",
    "contractor": "IV Waste",
    "rowid": "1205815",
    "final_x": "3666673.07815",
    "final_y": "529742.208257",
    "longitude": "-90.11494826826572",
    "latitude": "29.95104918749485",
    "geocoded_column": {
      "latitude": "29.95104918749485",
      "longitude": "-90.11494826826572"
    }
  },
  {
    "service_request": "2025-1205814",
    "request_type": "Mosquito, Termite & Rodent Control",
    "request_reason": "Mosquito Complaint",
    "date_created": "2025-07-01T14:48:11.000",
    "date_modified": "2025-07-01T14:48:12.000",
    "request_status": "Pending",
    "responsible_agency": "Mosquito, Termite & Rodent Control Board",
    "final_address": "2523 N Claiborne Ave",
    "address_councildis": "D",
    "status": "Pending",
    "rowid": "1205814",
    "final_x": "3687271.91695",
    "final_y": "538379.799561",
    "longitude": "-90.04960205734565",
    "latitude": "29.974181236164835",
    "geocoded_column": {
      "latitude": "29.974181236164835",
      "longitude": "-90.04960205734565"
    }
  },
  {
    "service_request": "2025-1205813",
    "request_type": "Streetlights",
    "request_reason": "Streetlight Outage/Malfunction",
    "date_created": "2025-07-01T14:47:55.000",
    "date_modified": "2025-07-01T14:47:57.000",
    "request_status": "Pending",
    "responsible_agency": "Department of Public Works",
    "final_address": "7230 Sardonyx St",
    "address_councildis": "D",
    "status": "Pending",
    "contractor": "Legacy Professional Services",
    "rowid": "1205813",
    "final_x": "3669493.15822",
    "final_y": "555335.654873",
    "longitude": "-90.10517767540836",
    "latitude": "30.021339672142325",
    "geocoded_column": {
      "latitude": "30.021339672142325",
      "longitude": "-90.10517767540836"
    }
  },
  {
    "service_request": "2025-1205812",
    "request_type": "Property Maintenance",
    "request_reason": "Property Maintenance",
    "date_created": "2025-07-01T14:46:50.000",
    "date_modified": "2025-07-01T14:46:52.000",
    "request_status": "Pending",
    "responsible_agency": "Department of Code Enforcement",
    "final_address": "5610 Pauline Dr",
    "address_councildis": "D",
    "status": "Pending",
    "rowid": "1205812",
    "final_x": "3691883.80688",
    "final_y": "554655.104664",
    "longitude": "-90.03445403746166",
    "latitude": "30.01878951794408",
    "geocoded_column": {
      "latitude": "30.01878951794408",
      "longitude": "-90.03445403746166"
    }
  },
  {
    "service_request": "2025-1205811",
    "request_type": "Property Maintenance",
    "request_reason": "Property Maintenance",
    "date_created": "2025-07-01T14:37:19.000",
    "date_modified": "2025-07-01T14:37:20.000",
    "request_status": "Pending",
    "responsible_agency": "Department of Code Enforcement",
    "final_address": "6335 Essex Ct",
    "address_councildis": "C",
    "status": "Pending",
    "rowid": "1205811",
    "final_x": "3707371.67537",
    "final_y": "517485.45375",
    "longitude": "-89.98689833669228",
    "latitude": "29.916094763909616",
    "geocoded_column": {
      "latitude": "29.916094763909616",
      "longitude": "-89.98689833669228"
    }
  },
  {
    "service_request": "2025-1205810",
    "request_type": "Property Maintenance",
    "request_reason": "Property Maintenance",
    "date_created": "2025-07-01T14:32:31.000",
    "date_modified": "2025-07-01T14:32:32.000",
    "request_status": "Pending",
    "responsible_agency": "Department of Code Enforcement",
    "final_address": "8501 Lake Forest Blvd",
    "address_councildis": "E",
    "status": "Pending",
    "rowid": "1205810",
    "final_x": "3705934.16228",
    "final_y": "558213.466524",
    "longitude": "-89.98992847266243",
    "latitude": "30.028128216452462",
    "geocoded_column": {
      "latitude": "30.028128216452462",
      "longitude": "-89.98992847266243"
    }
  },
  {
    "service_request": "2025-1205809",
    "request_type": "Trash/Recycling",
    "request_reason": "Request a Large Item Pick Up",
    "date_created": "2025-07-01T14:32:30.000",
    "date_modified": "2025-07-01T14:32:32.000",
    "request_status": "Pending",
    "responsible_agency": "Department of Sanitation",
    "final_address": "311 West Robert E Lee Blvd",
    "address_councildis": "A",
    "status": "Assigned to Contractor",
    "contractor": "IV Waste",
    "rowid": "1205809",
    "final_x": "3665407.06631",
    "final_y": "554969.904472",
    "longitude": "-90.1181009104712",
    "latitude": "30.02045377859303",
    "geocoded_column": {
      "latitude": "30.02045377859303",
      "longitude": "-90.1181009104712"
    }
  },
  {
    "service_request": "2025-1205808",
    "request_type": "Traffic Signals",
    "request_reason": "Traffic Signal Malfunctioning or Damaged",
    "date_created": "2025-07-01T14:32:01.000",
    "date_modified": "2025-07-01T14:32:03.000",
    "request_status": "Pending",
    "responsible_agency": "Department of Public Works",
    "final_address": "FELICITY ST & MAGNOLIA ST & TERPSICHORE ST",
    "address_councildis": "B",
    "status": "Pending",
    "rowid": "1205808",
    "final_x": "3675731.8",
    "final_y": "527348.58",
    "longitude": "-90.08642757569037",
    "latitude": "29.94419953927443",
    "geocoded_column": {
      "latitude": "29.94419953927443",
      "longitude": "-90.08642757569037"
    }
  },
  {
    "service_request": "2025-1205807",
    "request_type": "Trash/Recycling",
    "request_reason": "Request a Large Item Pick Up",
    "date_created": "2025-07-01T14:31:03.000",
    "date_modified": "2025-07-01T14:31:05.000",
    "request_status": "Pending",
    "responsible_agency": "Department of Sanitation",
    "final_address": "1826 Laharpe St",
    "address_councildis": "D",
    "status": "Assigned to Contractor",
    "contractor": "IV Waste",
    "rowid": "1205807",
    "final_x": "3681172.60008",
    "final_y": "538036.984137",
    "longitude": "-90.06887704675174",
    "latitude": "29.973425095060545",
    "geocoded_column": {
      "latitude": "29.973425095060545",
      "longitude": "-90.06887704675174"
    }
  },
  {
    "service_request": "2025-1205806",
    "request_type": "Trash/Recycling",
    "request_reason": "Return Trash Cart",
    "date_created": "2025-07-01T14:28:23.000",
    "date_modified": "2025-07-01T14:28:25.000",
    "request_status": "Pending",
    "responsible_agency": "Department of Sanitation",
    "final_address": "420 N Scott St",
    "address_councildis": "A",
    "status": "Assigned to Contractor",
    "contractor": "IV Waste",
    "rowid": "1205806",
    "final_x": "3672672.19489",
    "final_y": "538898.46145",
    "longitude": "-90.09569375440996",
    "latitude": "29.976049054799702",
    "geocoded_column": {
      "latitude": "29.976049054799702",
      "longitude": "-90.09569375440996"
    }
  },
  {
    "service_request": "2025-1205805",
    "request_type": "Trash/Recycling",
    "request_reason": "Replace Trash Cart",
    "date_created": "2025-07-01T14:26:26.000",
    "date_modified": "2025-07-01T14:26:28.000",
    "request_status": "Pending",
    "responsible_agency": "Department of Sanitation",
    "final_address": "5820 Pembrook Dr",
    "address_councildis": "C",
    "status": "Assigned to Contractor",
    "contractor": "Richards Disposal",
    "rowid": "1205805",
    "final_x": "3705208.9603",
    "final_y": "520719.895289",
    "longitude": "-89.99360529511894",
    "latitude": "29.925058057909972",
    "geocoded_column": {
      "latitude": "29.925058057909972",
      "longitude": "-89.99360529511894"
    }
  },
  {
    "service_request": "2025-1205804",
    "request_type": "Property Maintenance",
    "request_reason": "Property Maintenance",
    "date_created": "2025-07-01T14:25:24.000",
    "date_modified": "2025-07-01T14:25:25.000",
    "request_status": "Pending",
    "responsible_agency": "Department of Code Enforcement",
    "final_address": "5411 Edenboro Rd",
    "address_councildis": "E",
    "status": "Pending",
    "rowid": "1205804",
    "final_x": "3708380.44875",
    "final_y": "557795.508443",
    "longitude": "-89.98221399886887",
    "latitude": "30.02689990750971",
    "geocoded_column": {
      "latitude": "30.02689990750971",
      "longitude": "-89.98221399886887"
    }
  },
  {
    "service_request": "2025-1205803",
    "request_type": "Trash/Recycling",
    "request_reason": "Repair Recycling Cart",
    "date_created": "2025-07-01T14:24:31.000",
    "date_modified": "2025-07-01T14:24:33.000",
    "request_status": "Pending",
    "responsible_agency": "Department of Sanitation",
    "final_address": "6347 General Diaz St",
    "address_councildis": "A",
    "status": "Pending",
    "rowid": "1205803",
    "final_x": "3669812.78439",
    "final_y": "549619.60738",
    "longitude": "-90.10436145687426",
    "latitude": "30.00561313593875",
    "geocoded_column": {
      "latitude": "30.00561313593875",
      "longitude": "-90.10436145687426"
    }
  },
  {
    "service_request": "2025-1205802",
    "request_type": "Trash/Recycling",
    "request_reason": "Request a Large Item Pick Up",
    "date_created": "2025-07-01T14:22:13.000",
    "date_modified": "2025-07-01T14:22:15.000",
    "request_status": "Pending",
    "responsible_agency": "Department of Sanitation",
    "final_address": "4635 Sierra Madre Dr",
    "address_councildis": "E",
    "status": "Assigned to Contractor",
    "contractor": "Waste Pro",
    "rowid": "1205802",
    "final_x": "3714026.86136",
    "final_y": "555873.482713",
    "longitude": "-89.96444464748352",
    "latitude": "30.02143081926736",
    "geocoded_column": {
      "latitude": "30.02143081926736",
      "longitude": "-89.96444464748352"
    }
  },
  {
    "service_request": "2025-1205801",
    "request_type": "Trash/Recycling",
    "request_reason": "Replace Trash Cart",
    "date_created": "2025-07-01T14:21:52.000",
    "date_modified": "2025-07-01T14:21:54.000",
    "request_status": "Pending",
    "responsible_agency": "Department of Sanitation",
    "final_address": "4422 S Liberty St",
    "address_councildis": "B",
    "status": "Assigned to Contractor",
    "contractor": "IV Waste",
    "rowid": "1205801",
    "final_x": "3670388.88871",
    "final_y": "523284.562491",
    "longitude": "-90.10343442647199",
    "latitude": "29.93318359523881",
    "geocoded_column": {
      "latitude": "29.93318359523881",
      "longitude": "-90.10343442647199"
    }
  },
  {
    "service_request": "2025-1205800",
    "request_type": "Trash/Recycling",
    "request_reason": "Order Recycling Cart",
    "date_created": "2025-07-01T14:19:13.000",
    "date_modified": "2025-07-01T14:23:05.000",
    "request_status": "Pending",
    "responsible_agency": "Department of Sanitation",
    "final_address": "2029 Peniston St",
    "address_councildis": "B",
    "status": "Pending",
    "rowid": "1205800",
    "final_x": "3672533.44142",
    "final_y": "522761.890426",
    "longitude": "-90.09668200949623",
    "latitude": "29.93168294761892",
    "geocoded_column": {
      "latitude": "29.93168294761892",
      "longitude": "-90.09668200949623"
    }
  },
  {
    "service_request": "2025-1205799",
    "request_type": "Trash/Recycling",
    "request_reason": "Order Recycling Cart",
    "date_created": "2025-07-01T14:18:00.000",
    "date_modified": "2025-07-01T14:18:01.000",
    "request_status": "Pending",
    "responsible_agency": "Department of Sanitation",
    "final_address": "1129 Lauradale Dr",
    "address_councildis": "C",
    "status": "Pending",
    "rowid": "1205799",
    "final_x": "3692797.82985",
    "final_y": "527105.973375",
    "longitude": "-90.03255421674561",
    "latitude": "29.94301077300336",
    "geocoded_column": {
      "latitude": "29.94301077300336",
      "longitude": "-90.03255421674561"
    }
  },
  {
    "service_request": "2025-1205798",
    "request_type": "Trash/Recycling",
    "request_reason": "Request a Large Item Pick Up",
    "date_created": "2025-07-01T14:11:30.000",
    "date_modified": "2025-07-01T14:12:33.000",
    "request_status": "Pending",
    "responsible_agency": "Department of Sanitation",
    "final_address": "4515 Majestic Oaks Dr",
    "address_councildis": "D",
    "status": "Assigned to Contractor",
    "contractor": "Waste Pro",
    "rowid": "1205798",
    "final_x": "3697947.71248",
    "final_y": "553145.398423",
    "longitude": "-90.01534923404188",
    "latitude": "30.014447998282407",
    "geocoded_column": {
      "latitude": "30.014447998282407",
      "longitude": "-90.01534923404188"
    }
  },
  {
    "service_request": "2025-1205797",
    "request_type": "Trash/Recycling",
    "request_reason": "Request a Large Item Pick Up",
    "date_created": "2025-07-01T14:09:40.000",
    "date_modified": "2025-07-01T14:09:44.000",
    "request_status": "Pending",
    "responsible_agency": "Department of Sanitation",
    "final_address": "3548 Silver Maple Ct",
    "address_councildis": "C",
    "status": "Assigned to Contractor",
    "contractor": "Richards Disposal",
    "rowid": "1205797",
    "final_x": "3703176.8769",
    "final_y": "512553.251121",
    "longitude": "-90.00031978317867",
    "latitude": "29.902667757326096",
    "geocoded_column": {
      "latitude": "29.902667757326096",
      "longitude": "-90.00031978317867"
    }
  },
  {
    "service_request": "2025-1205796",
    "request_type": "Trash/Recycling",
    "request_reason": "Request a Large Item Pick Up",
    "date_created": "2025-07-01T14:06:44.000",
    "date_modified": "2025-07-01T14:06:45.000",
    "request_status": "Pending",
    "responsible_agency": "Department of Sanitation",
    "final_address": "104 Mary Jane Ln",
    "address_councildis": "E",
    "status": "Assigned to Contractor",
    "contractor": "Waste Pro",
    "rowid": "1205796",
    "final_x": "3718038.56306",
    "final_y": "571367.949352",
    "longitude": "-89.95117836970987",
    "latitude": "30.06390189563918",
    "geocoded_column": {
      "latitude": "30.06390189563918",
      "longitude": "-89.95117836970987"
    }
  },
  {
    "service_request": "2025-1205795",
    "request_type": "Trash/Recycling",
    "request_reason": "Request a Large Item Pick Up",
    "date_created": "2025-07-01T14:06:14.000",
    "date_modified": "2025-07-01T14:06:16.000",
    "request_status": "Pending",
    "responsible_agency": "Department of Sanitation",
    "final_address": "5441 Urquhart St",
    "address_councildis": "E",
    "status": "Assigned to Contractor",
    "contractor": "Waste Pro",
    "rowid": "1205795",
    "final_x": "3697705.59242",
    "final_y": "534643.904646",
    "longitude": "-90.01678585117743",
    "latitude": "29.963583323530717",
    "geocoded_column": {
      "latitude": "29.963583323530717",
      "longitude": "-90.01678585117743"
    }
  },
  {
    "service_request": "2025-1205794",
    "request_type": "Trash/Recycling",
    "request_reason": "Request a Large Item Pick Up",
    "date_created": "2025-07-01T14:05:19.000",
    "date_modified": "2025-07-01T14:05:22.000",
    "request_status": "Pending",
    "responsible_agency": "Department of Sanitation",
    "final_address": "5331 Norgate Dr",
    "address_councildis": "E",
    "status": "Assigned to Contractor",
    "contractor": "Waste Pro",
    "rowid": "1205794",
    "final_x": "3707382.28683",
    "final_y": "557675.765019",
    "longitude": "-89.98537251487686",
    "latitude": "30.026602984778506",
    "geocoded_column": {
      "latitude": "30.026602984778506",
      "longitude": "-89.98537251487686"
    }
  },
  {
    "service_request": "2025-1205793",
    "request_type": "Trash/Recycling",
    "request_reason": "Request a Large Item Pick Up",
    "date_created": "2025-07-01T14:04:07.000",
    "date_modified": "2025-07-01T14:04:08.000",
    "request_status": "Pending",
    "responsible_agency": "Department of Sanitation",
    "final_address": "4216 Jena St",
    "address_councildis": "A",
    "status": "Assigned to Contractor",
    "contractor": "IV Waste",
    "rowid": "1205793",
    "final_x": "3669402.89799",
    "final_y": "528873.489152",
    "longitude": "-90.10635821105818",
    "latitude": "29.94858039847666",
    "geocoded_column": {
      "latitude": "29.94858039847666",
      "longitude": "-90.10635821105818"
    }
  },
  {
    "service_request": "2025-1205792",
    "request_type": "Trash/Recycling",
    "request_reason": "Request a Large Item Pick Up",
    "date_created": "2025-07-01T14:03:08.000",
    "date_modified": "2025-07-01T14:03:10.000",
    "request_status": "Pending",
    "responsible_agency": "Department of Sanitation",
    "final_address": "2014 St Philip St Apt 1A",
    "address_councildis": "D",
    "status": "Assigned to Contractor",
    "contractor": "IV Waste",
    "rowid": "1205792",
    "final_x": "3679444.53557",
    "final_y": "536210.627975",
    "longitude": "-90.07439800552068",
    "latitude": "29.968455564214068",
    "geocoded_column": {
      "latitude": "29.968455564214068",
      "longitude": "-90.07439800552068"
    }
  },
  {
    "service_request": "2025-1205791",
    "request_type": "Health Related Request",
    "request_reason": "Homeless Encampment Complaint",
    "date_created": "2025-07-01T13:58:45.000",
    "date_modified": "2025-07-01T13:58:46.000",
    "request_status": "Pending",
    "responsible_agency": "Health Department",
    "final_address": "1801 St Charles Ave",
    "address_councildis": "B",
    "status": "Pending",
    "rowid": "1205791",
    "final_x": "3678486.06101",
    "final_y": "524521.537532",
    "longitude": "-90.07782939376601",
    "latitude": "29.936343407532053",
    "geocoded_column": {
      "latitude": "29.936343407532053",
      "longitude": "-90.07782939376601"
    }
  },
  {
    "service_request": "2025-1205790",
    "request_type": "Roads and Streets",
    "request_reason": "Pothole",
    "date_created": "2025-07-01T13:54:39.000",
    "date_modified": "2025-07-01T13:54:41.000",
    "request_status": "Pending",
    "responsible_agency": "Department of Public Works",
    "final_address": "2903 Castiglione St",
    "address_councildis": "D",
    "status": "Pending",
    "rowid": "1205790",
    "final_x": "3679342.00431",
    "final_y": "542353.454157",
    "longitude": "-90.07450868233599",
    "latitude": "29.98534930984134",
    "geocoded_column": {
      "latitude": "29.98534930984134",
      "longitude": "-90.07450868233599"
    }
  },
  {
    "service_request": "2025-1205789",
    "request_type": "Trash/Recycling",
    "request_reason": "Request a Large Item Pick Up",
    "date_created": "2025-07-01T13:54:09.000",
    "date_modified": "2025-07-01T13:54:11.000",
    "request_status": "Pending",
    "responsible_agency": "Department of Sanitation",
    "final_address": "1429 Richland Rd",
    "address_councildis": "C",
    "status": "Assigned to Contractor",
    "contractor": "Richards Disposal",
    "rowid": "1205789",
    "final_x": "3697879.62576",
    "final_y": "525863.361853",
    "longitude": "-90.016554920009",
    "latitude": "29.939434418400438",
    "geocoded_column": {
      "latitude": "29.939434418400438",
      "longitude": "-90.016554920009"
    }
  },
  {
    "service_request": "2025-1205788",
    "request_type": "Parks & Parkways",
    "request_reason": "Request Tree Service (Right of Way/Public Property)",
    "date_created": "2025-07-01T13:52:11.000",
    "date_modified": "2025-07-01T14:07:48.000",
    "case_close_date": "2025-07-01T09:07:47.000",
    "request_status": "Closed",
    "responsible_agency": "Department of Parks & Parkway",
    "final_address": "5101 Canal Blvd",
    "address_councildis": "A",
    "status": "Duplicate Request",
    "rowid": "1205788",
    "final_x": "3668047.66221",
    "final_y": "541296.987276",
    "longitude": "-90.11021855882808",
    "latitude": "29.982780727159295",
    "geocoded_column": {
      "latitude": "29.982780727159295",
      "longitude": "-90.11021855882808"
    }
  },
  {
    "service_request": "2025-1205787",
    "request_type": "Drainage",
    "request_reason": "Catch Basin Clogged",
    "date_created": "2025-07-01T13:50:45.000",
    "date_modified": "2025-07-01T13:50:47.000",
    "request_status": "Pending",
    "responsible_agency": "Sewerage & Water Board",
    "final_address": "3900 St Charles Ave",
    "address_councildis": "B",
    "status": "Pending",
    "rowid": "1205787",
    "final_x": "3672610.04174",
    "final_y": "520869.542265",
    "longitude": "-90.09650467355853",
    "latitude": "29.926477325914437",
    "geocoded_column": {
      "latitude": "29.926477325914437",
      "longitude": "-90.09650467355853"
    }
  },
  {
    "service_request": "2025-1205786",
    "request_type": "Trash/Recycling",
    "request_reason": "Request a Large Item Pick Up",
    "date_created": "2025-07-01T13:49:05.000",
    "date_modified": "2025-07-01T13:49:07.000",
    "request_status": "Pending",
    "responsible_agency": "Department of Sanitation",
    "final_address": "2229 Delery St",
    "address_councildis": "E",
    "status": "Assigned to Contractor",
    "contractor": "Waste Pro",
    "rowid": "1205786",
    "final_x": "3702111.29719",
    "final_y": "536963.19732",
    "longitude": "-90.0027881470157",
    "latitude": "29.969820616170086",
    "geocoded_column": {
      "latitude": "29.969820616170086",
      "longitude": "-90.0027881470157"
    }
  },
  {
    "service_request": "2025-1205785",
    "request_type": "Trash/Recycling",
    "request_reason": "Request a Large Item Pick Up",
    "date_created": "2025-07-01T13:49:01.000",
    "date_modified": "2025-07-01T13:49:03.000",
    "request_status": "Pending",
    "responsible_agency": "Department of Sanitation",
    "final_address": "2714 Milan St",
    "address_councildis": "B",
    "status": "Assigned to Contractor",
    "contractor": "IV Waste",
    "rowid": "1205785",
    "final_x": "3671161.1355",
    "final_y": "524938.149629",
    "longitude": "-90.10094034250916",
    "latitude": "29.93770761112329",
    "geocoded_column": {
      "latitude": "29.93770761112329",
      "longitude": "-90.10094034250916"
    }
  },
  {
    "service_request": "2025-1205784",
    "request_type": "Trash/Recycling",
    "request_reason": "Request a Large Item Pick Up",
    "date_created": "2025-07-01T13:46:22.000",
    "date_modified": "2025-07-01T13:46:24.000",
    "request_status": "Pending",
    "responsible_agency": "Department of Sanitation",
    "final_address": "7640 Eastmore Rd",
    "address_councildis": "E",
    "status": "Assigned to Contractor",
    "contractor": "Waste Pro",
    "rowid": "1205784",
    "final_x": "3700081.8897",
    "final_y": "560639.109214",
    "longitude": "-90.00833254808799",
    "latitude": "30.03498515796914",
    "geocoded_column": {
      "latitude": "30.03498515796914",
      "longitude": "-90.00833254808799"
    }
  },
  {
    "service_request": "2025-1205783",
    "request_type": "Property Maintenance",
    "request_reason": "Property Maintenance",
    "date_created": "2025-07-01T13:36:20.000",
    "date_modified": "2025-07-01T13:36:22.000",
    "request_status": "Pending",
    "responsible_agency": "Department of Code Enforcement",
    "final_address": "6434 N Robertson St",
    "address_councildis": "E",
    "status": "Pending",
    "rowid": "1205783",
    "final_x": "3701257.82909",
    "final_y": "534186.547461",
    "longitude": "-90.005585070428",
    "latitude": "29.9622130516",
    "geocoded_column": {
      "latitude": "29.9622130516",
      "longitude": "-90.005585070428"
    }
  },
  {
    "service_request": "2025-1205782",
    "request_type": "Trash/Recycling",
    "request_reason": "Request a Large Item Pick Up",
    "date_created": "2025-07-01T13:32:11.000",
    "date_modified": "2025-07-01T13:32:14.000",
    "request_status": "Pending",
    "responsible_agency": "Department of Sanitation",
    "final_address": "7831 Plum St",
    "address_councildis": "A",
    "status": "Assigned to Contractor",
    "contractor": "IV Waste",
    "rowid": "1205782",
    "final_x": "3662930.22106",
    "final_y": "528019.210943",
    "longitude": "-90.12682367792159",
    "latitude": "29.946420399748916",
    "geocoded_column": {
      "latitude": "29.946420399748916",
      "longitude": "-90.12682367792159"
    }
  },
  {
    "service_request": "2025-1205781",
    "request_type": "Trash/Recycling",
    "request_reason": "Request a Large Item Pick Up",
    "date_created": "2025-07-01T13:30:00.000",
    "date_modified": "2025-07-01T13:30:02.000",
    "request_status": "Pending",
    "responsible_agency": "Department of Sanitation",
    "final_address": "1423 Lamanche St",
    "address_councildis": "E",
    "status": "Assigned to Contractor",
    "contractor": "Waste Pro",
    "rowid": "1205781",
    "final_x": "3698758.62775",
    "final_y": "534971.094534",
    "longitude": "-90.01344859377957",
    "latitude": "29.964449668344933",
    "geocoded_column": {
      "latitude": "29.964449668344933",
      "longitude": "-90.01344859377957"
    }
  },
  {
    "service_request": "2025-1205780",
    "request_type": "Trash/Recycling",
    "request_reason": "Request a Large Item Pick Up",
    "date_created": "2025-07-01T13:28:47.000",
    "date_modified": "2025-07-01T13:28:50.000",
    "request_status": "Pending",
    "responsible_agency": "Department of Sanitation",
    "final_address": "8010 Flounder St",
    "address_councildis": "E",
    "status": "Assigned to Contractor",
    "contractor": "Waste Pro",
    "rowid": "1205780",
    "final_x": "3699601.66877",
    "final_y": "561593.727135",
    "longitude": "-90.0098152668133",
    "latitude": "30.037625246665094",
    "geocoded_column": {
      "latitude": "30.037625246665094",
      "longitude": "-90.0098152668133"
    }
  },
  {
    "service_request": "2025-1205779",
    "request_type": "Trash/Recycling",
    "request_reason": "Request a Large Item Pick Up",
    "date_created": "2025-07-01T13:28:03.000",
    "date_modified": "2025-07-01T13:28:47.000",
    "request_status": "Pending",
    "responsible_agency": "Department of Sanitation",
    "final_address": "5623 N Villere St",
    "address_councildis": "E",
    "status": "Assigned to Contractor",
    "contractor": "Waste Pro",
    "rowid": "1205779",
    "final_x": "3698561.62781",
    "final_y": "534879.766086",
    "longitude": "-90.01407402130717",
    "latitude": "29.96420478584312",
    "geocoded_column": {
      "latitude": "29.96420478584312",
      "longitude": "-90.01407402130717"
    }
  },
  {
    "service_request": "2025-1205778",
    "request_type": "Trash/Recycling",
    "request_reason": "MIssed Recycling Pick-Up",
    "date_created": "2025-07-01T13:26:47.000",
    "date_modified": "2025-07-01T13:26:49.000",
    "request_status": "Pending",
    "responsible_agency": "Department of Sanitation",
    "final_address": "626 Elmira Ave",
    "address_councildis": "C",
    "status": "Assigned to Contractor",
    "contractor": "Richards Disposal",
    "rowid": "1205778",
    "final_x": "3688229.90671",
    "final_y": "529259.494337",
    "longitude": "-90.04689989458721",
    "latitude": "29.94907401674344",
    "geocoded_column": {
      "latitude": "29.94907401674344",
      "longitude": "-90.04689989458721"
    }
  },
  {
    "service_request": "2025-1205777",
    "request_type": "Trash/Recycling",
    "request_reason": "Request a Large Item Pick Up",
    "date_created": "2025-07-01T13:25:12.000",
    "date_modified": "2025-07-01T13:25:14.000",
    "request_status": "Pending",
    "responsible_agency": "Department of Sanitation",
    "final_address": "4419 Paris Ave",
    "address_councildis": "D",
    "status": "Assigned to Contractor",
    "contractor": "IV Waste",
    "rowid": "1205777",
    "final_x": "3679547.1924",
    "final_y": "548767.435987",
    "longitude": "-90.07363785717999",
    "latitude": "30.00297929645673",
    "geocoded_column": {
      "latitude": "30.00297929645673",
      "longitude": "-90.07363785717999"
    }
  },
  {
    "service_request": "2025-1205776",
    "request_type": "Trash/Recycling",
    "request_reason": "Request a Large Item Pick Up",
    "date_created": "2025-07-01T13:23:42.000",
    "date_modified": "2025-07-01T13:23:44.000",
    "request_status": "Pending",
    "responsible_agency": "Department of Sanitation",
    "final_address": "5317 Douglass St",
    "address_councildis": "E",
    "status": "Assigned to Contractor",
    "contractor": "Waste Pro",
    "rowid": "1205776",
    "final_x": "3696381.23191",
    "final_y": "531917.787075",
    "longitude": "-90.02106661305902",
    "latitude": "29.956129237803463",
    "geocoded_column": {
      "latitude": "29.956129237803463",
      "longitude": "-90.02106661305902"
    }
  },
  {
    "service_request": "2025-1205775",
    "request_type": "Trash/Recycling",
    "request_reason": "Request a Large Item Pick Up",
    "date_created": "2025-07-01T13:22:07.000",
    "date_modified": "2025-07-01T13:22:09.000",
    "request_status": "Pending",
    "responsible_agency": "Department of Sanitation",
    "final_address": "7320 Crestmont Rd",
    "address_councildis": "E",
    "status": "Assigned to Contractor",
    "contractor": "Waste Pro",
    "rowid": "1205775",
    "final_x": "3699917.91856",
    "final_y": "559400.419549",
    "longitude": "-90.00889596503265",
    "latitude": "30.03158445357107",
    "geocoded_column": {
      "latitude": "30.03158445357107",
      "longitude": "-90.00889596503265"
    }
  },
  {
    "service_request": "2025-1205774",
    "request_type": "Trash/Recycling",
    "request_reason": "Request a Large Item Pick Up",
    "date_created": "2025-07-01T13:21:00.000",
    "date_modified": "2025-07-01T13:21:02.000",
    "request_status": "Pending",
    "responsible_agency": "Department of Sanitation",
    "final_address": "6515 Congress Dr",
    "address_councildis": "D",
    "status": "Assigned to Contractor",
    "contractor": "IV Waste",
    "rowid": "1205774",
    "final_x": "3690743.28342",
    "final_y": "557683.059931",
    "longitude": "-90.03794951391481",
    "latitude": "30.027150759734344",
    "geocoded_column": {
      "latitude": "30.027150759734344",
      "longitude": "-90.03794951391481"
    }
  },
  {
    "service_request": "2025-1205773",
    "request_type": "Trash/Recycling",
    "request_reason": "Request a Large Item Pick Up",
    "date_created": "2025-07-01T13:19:59.000",
    "date_modified": "2025-07-01T13:20:01.000",
    "request_status": "Pending",
    "responsible_agency": "Department of Sanitation",
    "final_address": "1130 Kerlerec St",
    "address_councildis": "C",
    "status": "Assigned to Contractor",
    "contractor": "IV Waste",
    "rowid": "1205773",
    "final_x": "3682895.37263",
    "final_y": "535721.928519",
    "longitude": "-90.06351720486643",
    "latitude": "29.96700710658557",
    "geocoded_column": {
      "latitude": "29.96700710658557",
      "longitude": "-90.06351720486643"
    }
  },
  {
    "service_request": "2025-1205772",
    "request_type": "Trash/Recycling",
    "request_reason": "Illegal Dumping",
    "date_created": "2025-07-01T13:18:26.000",
    "date_modified": "2025-07-01T13:19:29.000",
    "request_status": "Pending",
    "responsible_agency": "Department of Sanitation",
    "final_address": "DAHLIA WALK & EDGE ST",
    "address_councildis": "D",
    "status": "Pending",
    "rowid": "1205772",
    "final_x": "3687843.0",
    "final_y": "545085.98",
    "longitude": "-90.04756078835663",
    "latitude": "29.992603243744753",
    "geocoded_column": {
      "latitude": "29.992603243744753",
      "longitude": "-90.04756078835663"
    }
  },
  {
    "service_request": "2025-1205771",
    "request_type": "Trash/Recycling",
    "request_reason": "Request a Large Item Pick Up",
    "date_created": "2025-07-01T13:17:40.000",
    "date_modified": "2025-07-01T13:17:41.000",
    "request_status": "Pending",
    "responsible_agency": "Department of Sanitation",
    "final_address": "13943 Curran Rd",
    "address_councildis": "E",
    "status": "Assigned to Contractor",
    "contractor": "Waste Pro",
    "rowid": "1205771",
    "final_x": "3718338.87865",
    "final_y": "572137.846056",
    "longitude": "-89.95019968494645",
    "latitude": "30.06600882554895",
    "geocoded_column": {
      "latitude": "30.06600882554895",
      "longitude": "-89.95019968494645"
    }
  },
  {
    "service_request": "2025-1205770",
    "request_type": "Trash/Recycling",
    "request_reason": "Order Recycling Cart",
    "date_created": "2025-07-01T13:15:48.000",
    "date_modified": "2025-07-01T13:15:50.000",
    "request_status": "Pending",
    "responsible_agency": "Department of Sanitation",
    "final_address": "2621 Ramsey Dr",
    "address_councildis": "C",
    "status": "Pending",
    "rowid": "1205770",
    "final_x": "3703073.19358",
    "final_y": "521338.394681",
    "longitude": "-90.0003244577771",
    "latitude": "29.92682720763228",
    "geocoded_column": {
      "latitude": "29.92682720763228",
      "longitude": "-90.0003244577771"
    }
  },
  {
    "service_request": "2025-1205769",
    "request_type": "Drainage",
    "request_reason": "Catch Basin Clogged",
    "date_created": "2025-07-01T13:15:06.000",
    "date_modified": "2025-07-01T13:15:08.000",
    "request_status": "Pending",
    "responsible_agency": "Sewerage & Water Board",
    "final_address": "3622 Dumaine St",
    "address_councildis": "A",
    "status": "Pending",
    "rowid": "1205769",
    "final_x": "3674280.83579",
    "final_y": "539659.182986",
    "longitude": "-90.0905871341227",
    "latitude": "29.978092905384614",
    "geocoded_column": {
      "latitude": "29.978092905384614",
      "longitude": "-90.0905871341227"
    }
  },
  {
    "service_request": "2025-1205768",
    "request_type": "Trash/Recycling",
    "request_reason": "Order Trash Cart",
    "date_created": "2025-07-01T13:14:30.000",
    "date_modified": "2025-07-01T13:14:31.000",
    "request_status": "Pending",
    "responsible_agency": "Department of Sanitation",
    "final_address": "2621 Ramsey Dr",
    "address_councildis": "C",
    "status": "Assigned to Contractor",
    "contractor": "Richards Disposal",
    "rowid": "1205768",
    "final_x": "3703073.19358",
    "final_y": "521338.394681",
    "longitude": "-90.0003244577771",
    "latitude": "29.92682720763228",
    "geocoded_column": {
      "latitude": "29.92682720763228",
      "longitude": "-90.0003244577771"
    }
  },