[
  {
    "service_request": "2022-919245",
    "request_type": "Trash/Recycling",
    "request_reason": "Missed Trash Pick-Up",
    "date_created": "2022-09-14T01:07:51.000",
    "date_modified": "2022-09-14T01:07:51.000",
    "request_status": "Pending",
    "responsible_agency": "Department of Sanitation",
    "final_address": "217 W Harney St",
    "address_councildis": "A",
    "status": "Assigned to Contractor",
    "contractor": "Metro Disposal",
    "rowid": "919245",
    "final_x": "3665314.93338",
    "final_y": "547260.562385",
    "longitude": "-90.11865025108443",
    "latitude": "29.999258456279215",
    "geocoded_column": {
      "latitude": "29.999258456279215",
      "longitude": "-90.11865025108443"
    }
  },
  {
    "service_request": "2022-919244",
    "request_type": "Trash/Recycling",
    "request_reason": "Missed Trash Pick-Up",
    "date_created": "2022-09-14T00:40:11.000",
    "date_modified": "2022-09-14T00:40:12.000",
    "request_status": "Pending",
    "responsible_agency": "Department of Sanitation",
    "final_address": "5868 Milne Blvd",
    "address_councildis": "A",
    "status": "Assigned to Contractor",
    "contractor": "Metro Disposal",
    "rowid": "919244",
    "final_x": "3666919.24231",
    "final_y": "546986.947409",
    "longitude": "-90.11359138119616",
    "latitude": "29.998459248613354",
    "geocoded_column": {
      "latitude": "29.998459248613354",
      "longitude": "-90.11359138119616"
    }
  },
  {
    "service_request": "2022-919243",
    "request_type": "Parks & Parkways",
    "request_reason": "Request Grass Cutting Service (City Owned Property)",
    "date_created": "2022-09-13T23:23:19.000",
    "date_modified": "2022-09-13T23:23:19.000",
    "request_status": "Pending",
    "responsible_agency": "Department of Parks & Parkway",
    "final_address": "6500 Marconi Dr",
    "address_councildis": "A",
    "status": "Pending",
    "rowid": "919243",
    "final_x": "3671628.17185",
    "final_y": "550748.240405",
    "longitude": "-90.09858780109083",
    "latitude": "30.00866281656428",
    "geocoded_column": {
      "latitude": "30.00866281656428",
      "longitude": "-90.09858780109083"
    }
  },
  {
    "service_request": "2022-919242",
    "request_type": "Roads/Drainage",
    "request_reason": "Catch Basin - Clogged",
    "date_created": "2022-09-13T23:06:23.000",
    "date_modified": "2022-09-13T23:06:23.000",
    "request_status": "Pending",
    "responsible_agency": "Department of Public Works",
    "final_address": "2442 Jay St",
    "address_councildis": "D",
    "status": "Pending",
    "rowid": "919242",
    "final_x": "3685061.77538",
    "final_y": "557340.158747",
    "longitude": "-90.05591460869711",
    "latitude": "30.026383293858203",
    "geocoded_column": {
      "latitude": "30.026383293858203",
      "longitude": "-90.05591460869711"
    }
  },
  {
    "service_request": "2022-919241",
    "request_type": "Trash/Recycling",
    "request_reason": "Missed Trash Pick-Up",
    "date_created": "2022-09-13T22:55:46.000",
    "date_modified": "2022-09-13T22:55:46.000",
    "request_status": "Pending",
    "responsible_agency": "Department of Sanitation",
    "final_address": "5214 Coliseum St",
    "address_councildis": "B",
    "status": "Assigned to Contractor",
    "contractor": "Richards Disposal",
    "rowid": "919241",
    "final_x": "3667917.61178",
    "final_y": "519585.271992",
    "longitude": "-90.11136065488955",
    "latitude": "29.92308442751501",
    "geocoded_column": {
      "latitude": "29.92308442751501",
      "longitude": "-90.11136065488955"
    }
  },
  {
    "service_request": "2022-919240",
    "request_type": "Roads/Drainage",
    "request_reason": "Catch Basin - Clogged",
    "date_created": "2022-09-13T22:55:05.000",
    "date_modified": "2022-09-13T22:55:05.000",
    "request_status": "Pending",
    "responsible_agency": "Department of Public Works",
    "final_address": "1458 Mirabeau Ave",
    "address_councildis": "D",
    "status": "Pending",
    "rowid": "919240",
    "final_x": "3677926.27624",
    "final_y": "550142.589844",
    "longitude": "-90.07871099775892",
    "latitude": "30.006809378329596",
    "geocoded_column": {
      "latitude": "30.006809378329596",
      "longitude": "-90.07871099775892"
    }
  },
  {
    "service_request": "2022-919238",
    "request_type": "Traffic Signals/Signs/Striping/Streetlights",
    "request_reason": "Street Light Outage/Malfunction",
    "date_created": "2022-09-13T22:49:43.000",
    "date_modified": "2022-09-13T22:49:43.000",
    "request_status": "Pending",
    "responsible_agency": "Department of Public Works",
    "final_address": "6898 Parc Brittany Blvd",
    "address_councildis": "E",
    "status": "Pending",
    "contractor": "Legacy Professional Services",
    "rowid": "919238",
    "final_x": "3702630.01821",
    "final_y": "557946.378395",
    "longitude": "-90.00037911063016",
    "latitude": "30.027499929711066",
    "geocoded_column": {
      "latitude": "30.027499929711066",
      "longitude": "-90.00037911063016"
    }
  },
  {
    "service_request": "2022-919237",
    "request_type": "Traffic Signals/Signs/Striping/Streetlights",
    "request_reason": "Street Light Outage/Malfunction",
    "date_created": "2022-09-13T22:47:49.000",
    "date_modified": "2022-09-13T22:47:50.000",
    "request_status": "Pending",
    "responsible_agency": "Department of Public Works",
    "final_address": "6500 N Interstate 10 Service Rd",
    "address_councildis": "D",
    "status": "Pending",
    "contractor": "Legacy Professional Services",
    "rowid": "919237",
    "final_x": "3697682.0097",
    "final_y": "557614.914971",
    "longitude": "-90.01602637275872",
    "latitude": "30.026745872681605",
    "geocoded_column": {
      "latitude": "30.026745872681605",
      "longitude": "-90.01602637275872"
    }
  },
  {
    "service_request": "2022-919236",
    "request_type": "Traffic Signals/Signs/Striping/Streetlights",
    "request_reason": "Street Light Outage/Malfunction",
    "date_created": "2022-09-13T22:45:57.000",
    "date_modified": "2022-09-13T22:45:58.000",
    "request_status": "Pending",
    "responsible_agency": "Department of Public Works",
    "final_address": "6500 N Interstate 10 Service Rd",
    "address_councildis": "D",
    "status": "Pending",
    "contractor": "Legacy Professional Services",
    "rowid": "919236",
    "final_x": "3697682.0097",
    "final_y": "557614.914971",
    "longitude": "-90.01602637275872",
    "latitude": "30.026745872681605",
    "geocoded_column": {
      "latitude": "30.026745872681605",
      "longitude": "-90.01602637275872"
    }
  },
  {
    "service_request": "2022-919235",
    "request_type": "Trash/Recycling",
    "request_reason": "Replace Trash Cart",
    "date_created": "2022-09-13T22:33:34.000",
    "date_modified": "2022-09-13T22:33:35.000",
    "request_status": "Pending",
    "responsible_agency": "Department of Sanitation",
    "final_address": "6117 Loyola Ave",
    "address_councildis": "A",
    "status": "Assigned to Contractor",
    "contractor": "Richards Disposal",
    "rowid": "919235",
    "final_x": "3665899.59296",
    "final_y": "523517.023483",
    "longitude": "-90.11759910703599",
    "latitude": "29.933954522211604",
    "geocoded_column": {
      "latitude": "29.933954522211604",
      "longitude": "-90.11759910703599"
    }
  },
  {
    "service_request": "2022-919234",
    "request_type": "Trash/Recycling",
    "request_reason": "Replace Trash Cart",
    "date_created": "2022-09-13T22:27:06.000",
    "date_modified": "2022-09-13T22:27:07.000",
    "request_status": "Pending",
    "responsible_agency": "Department of Sanitation",
    "final_address": "5437 Grand Bayou Dr",
    "address_councildis": "E",
    "status": "Assigned to Contractor",
    "contractor": "Metro Disposal",
    "rowid": "919234",
    "final_x": "3725796.68774",
    "final_y": "564018.962657",
    "longitude": "-89.92693986104638",
    "latitude": "30.043435673692098",
    "geocoded_column": {
      "latitude": "30.043435673692098",
      "longitude": "-89.92693986104638"
    }
  },
  {
    "service_request": "2022-919232",
    "request_type": "Trash/Recycling",
    "request_reason": "Missed Trash Pick-Up",
    "date_created": "2022-09-13T22:17:24.000",
    "date_modified": "2022-09-13T22:17:25.000",
    "request_status": "Pending",
    "responsible_agency": "Department of Sanitation",
    "final_address": "2711 Valence St",
    "address_councildis": "B",
    "status": "Assigned to Contractor",
    "contractor": "Richards Disposal",
    "rowid": "919232",
    "final_x": "3669391.6402",
    "final_y": "524736.29926",
    "longitude": "-90.10653361493469",
    "latitude": "29.9372047996219",
    "geocoded_column": {
      "latitude": "29.9372047996219",
      "longitude": "-90.10653361493469"
    }
  },
  {
    "service_request": "2022-919231",
    "request_type": "Trash/Recycling",
    "request_reason": "Missed Trash Pick-Up",
    "date_created": "2022-09-13T22:14:17.000",
    "date_modified": "2022-09-13T22:14:17.000",
    "request_status": "Pending",
    "responsible_agency": "Department of Sanitation",
    "final_address": "109 Lark St",
    "address_councildis": "D",
    "status": "Assigned to Contractor",
    "contractor": "Metro Disposal",
    "rowid": "919231",
    "final_x": "3674864.29409",
    "final_y": "556196.748954",
    "longitude": "-90.08817677621316",
    "latitude": "30.023547979881883",
    "geocoded_column": {
      "latitude": "30.023547979881883",
      "longitude": "-90.08817677621316"
    }
  },
  {
    "service_request": "2022-919230",
    "request_type": "Trash/Recycling",
    "request_reason": "Missed Trash Pick-Up",
    "date_created": "2022-09-13T22:08:58.000",
    "date_modified": "2022-09-13T22:08:59.000",
    "request_status": "Pending",
    "responsible_agency": "Department of Sanitation",
    "final_address": "3513 Encampment St",
    "address_councildis": "D",
    "status": "Assigned to Contractor",
    "contractor": "Metro Disposal",
    "rowid": "919230",
    "final_x": "3676719.94305",
    "final_y": "545483.480144",
    "longitude": "-90.08268278358202",
    "latitude": "29.99403473588247",
    "geocoded_column": {
      "latitude": "29.99403473588247",
      "longitude": "-90.08268278358202"
    }
  },
  {
    "service_request": "2022-919229",
    "request_type": "Trash/Recycling",
    "request_reason": "Order Recycling Cart",
    "date_created": "2022-09-13T22:02:42.000",
    "date_modified": "2022-09-13T22:02:42.000",
    "request_status": "Pending",
    "responsible_agency": "Department of Sanitation",
    "final_address": "8014 Ebbtide Dr",
    "address_councildis": "E",
    "status": "Pending",
    "rowid": "919229",
    "final_x": "3701815.71287",
    "final_y": "562274.936415",
    "longitude": "-90.00279340589772",
    "latitude": "30.039427802027127",
    "geocoded_column": {
      "latitude": "30.039427802027127",
      "longitude": "-90.00279340589772"
    }
  },
  {
    "service_request": "2022-919228",
    "request_type": "Trash/Recycling",
    "request_reason": "Missed Trash Pick-Up",
    "date_created": "2022-09-13T22:02:40.000",
    "date_modified": "2022-09-13T22:02:41.000",
    "request_status": "Pending",
    "responsible_agency": "Department of Sanitation",
    "final_address": "5960 Orleans Ave",
    "address_councildis": "A",
    "status": "Assigned to Contractor",
    "contractor": "Metro Disposal",
    "rowid": "919228",
    "final_x": "3670821.83163",
    "final_y": "546913.015377",
    "longitude": "-90.10126558217065",
    "latitude": "29.99814115560544",
    "geocoded_column": {
      "latitude": "29.99814115560544",
      "longitude": "-90.10126558217065"
    }
  },
  {
    "service_request": "2022-919227",
    "request_type": "Trash/Recycling",
    "request_reason": "Missed Trash Pick-Up",
    "date_created": "2022-09-13T22:01:38.000",
    "date_modified": "2022-09-13T22:01:38.000",
    "request_status": "Pending",
    "responsible_agency": "Department of Sanitation",
    "final_address": "720 Amethyst St",
    "address_councildis": "D",
    "status": "Assigned to Contractor",
    "contractor": "Metro Disposal",
    "rowid": "919227",
    "final_x": "3669597.39028",
    "final_y": "556649.93577",
    "longitude": "-90.10480380532462",
    "latitude": "30.024950402963196",
    "geocoded_column": {
      "latitude": "30.024950402963196",
      "longitude": "-90.10480380532462"
    }
  },
  {
    "service_request": "2022-919226",
    "request_type": "Trash/Recycling",
    "request_reason": "Order Recycling Cart",
    "date_created": "2022-09-13T21:54:04.000",
    "date_modified": "2022-09-13T21:54:04.000",
    "request_status": "Pending",
    "responsible_agency": "Department of Sanitation",
    "final_address": "7437 Garfield St",
    "address_councildis": "A",
    "status": "Pending",
    "rowid": "919226",
    "final_x": "3661382.12128",
    "final_y": "523911.462844",
    "longitude": "-90.13184759563414",
    "latitude": "29.935170125925683",
    "geocoded_column": {
      "latitude": "29.935170125925683",
      "longitude": "-90.13184759563414"
    }
  },
  {
    "service_request": "2022-919225",
    "request_type": "Trash/Recycling",
    "request_reason": "Missed Trash Pick-Up",
    "date_created": "2022-09-13T21:45:35.000",
    "date_modified": "2022-09-13T21:45:36.000",
    "request_status": "Pending",
    "responsible_agency": "Department of Sanitation",
    "final_address": "6208 Colbert St",
    "address_councildis": "A",
    "status": "Assigned to Contractor",
    "contractor": "Metro Disposal",
    "rowid": "919225",
    "final_x": "3667449.6169",
    "final_y": "548807.786515",
    "longitude": "-90.11185460468755",
    "latitude": "30.0034503918254",
    "geocoded_column": {
      "latitude": "30.0034503918254",
      "longitude": "-90.11185460468755"
    }
  },
  {
    "service_request": "2022-919224",
    "request_type": "Taxi Issues",
    "request_reason": "School Bus Complaints",
    "date_created": "2022-09-13T21:43:39.000",
    "date_modified": "2022-09-13T21:43:39.000",
    "request_status": "Pending",
    "responsible_agency": "Department of Public Works",
    "status": "Pending",
    "rowid": "919224",
    "longitude": "0.0",
    "latitude": "0.0",
    "geocoded_column": {
      "latitude": "0.0",
      "longitude": "0.0"
    }
  },
  {
    "service_request": "2022-919223",
    "request_type": "Trash/Recycling",
    "request_reason": "Missed Trash Pick-Up",
    "date_created": "2022-09-13T21:42:13.000",
    "date_modified": "2022-09-13T21:42:13.000",
    "request_status": "Pending",
    "responsible_agency": "Department of Sanitation",
    "final_address": "1301 General Taylor St",
    "address_councildis": "B",
    "status": "Assigned to Contractor",
    "contractor": "Richards Disposal",
    "rowid": "919223",
    "final_x": "3672844.37032",
    "final_y": "520291.135864",
    "longitude": "-90.09578468200387",
    "latitude": "29.924879936904606",
    "geocoded_column": {
      "latitude": "29.924879936904606",
      "longitude": "-90.09578468200387"
    }
  },
  {
    "service_request": "2022-919222",
    "request_type": "Trash/Recycling",
    "request_reason": "Missed Trash Pick-Up",
    "date_created": "2022-09-13T21:38:20.000",
    "date_modified": "2022-09-13T21:38:21.000",
    "request_status": "Pending",
    "responsible_agency": "Department of Sanitation",
    "final_address": "775 French St",
    "address_councildis": "A",
    "status": "Assigned to Contractor",
    "contractor": "Metro Disposal",
    "rowid": "919222",
    "final_x": "3669226.43668",
    "final_y": "548627.399315",
    "longitude": "-90.10624743633733",
    "latitude": "30.002902188840057",
    "geocoded_column": {
      "latitude": "30.002902188840057",
      "longitude": "-90.10624743633733"
    }
  },
  {
    "service_request": "2022-919221",
    "request_type": "Trash/Recycling",
    "request_reason": "Missed Trash Pick-Up",
    "date_created": "2022-09-13T21:29:47.000",
    "date_modified": "2022-09-13T21:29:48.000",
    "request_status": "Pending",
    "responsible_agency": "Department of Sanitation",
    "final_address": "4937 S Claiborne Ave",
    "address_councildis": "B",
    "status": "Assigned to Contractor",
    "contractor": "Richards Disposal",
    "rowid": "919221",
    "final_x": "3668946.40526",
    "final_y": "526101.09267",
    "longitude": "-90.10789317259649",
    "latitude": "29.94097064124028",
    "geocoded_column": {
      "latitude": "29.94097064124028",
      "longitude": "-90.10789317259649"
    }
  },
  {
    "service_request": "2022-919220",
    "request_type": "Trash/Recycling",
    "request_reason": "Missed Trash Pick-Up",
    "date_created": "2022-09-13T21:23:45.000",
    "date_modified": "2022-09-13T21:23:45.000",
    "request_status": "Pending",
    "responsible_agency": "Department of Sanitation",
    "final_address": "212 Filmore Ave",
    "address_councildis": "A",
    "status": "Assigned to Contractor",
    "contractor": "Metro Disposal",
    "rowid": "919220",
    "final_x": "3667204.64897",
    "final_y": "552072.498646",
    "longitude": "-90.11251861383882",
    "latitude": "30.01243439027857",
    "geocoded_column": {
      "latitude": "30.01243439027857",
      "longitude": "-90.11251861383882"
    }
  },
  {
    "service_request": "2022-919219",
    "request_type": "Trash/Recycling",
    "request_reason": "Missed Trash Pick-Up",
    "date_created": "2022-09-13T21:17:55.000",
    "date_modified": "2022-09-13T21:17:55.000",
    "request_status": "Pending",
    "responsible_agency": "Department of Sanitation",
    "final_address": "5540 Christian Ln",
    "address_councildis": "E",
    "status": "Assigned to Contractor",
    "contractor": "Metro Disposal",
    "rowid": "919219",
    "final_x": "3704400.62161",
    "final_y": "556735.513882",
    "longitude": "-89.99482888557624",
    "latitude": "30.024113767906755",
    "geocoded_column": {
      "latitude": "30.024113767906755",
      "longitude": "-89.99482888557624"
    }
  },
  {
    "service_request": "2022-919217",
    "request_type": "Parks & Parkways",
    "request_reason": "Request Tree Service (Right of Way/Public Property)",
    "date_created": "2022-09-13T21:13:15.000",
    "date_modified": "2022-09-13T21:13:15.000",
    "request_status": "Pending",
    "responsible_agency": "Department of Parks & Parkway",
    "final_address": "3207 Conti St",
    "address_councildis": "B",
    "status": "Pending",
    "rowid": "919217",
    "final_x": "3674527.87297",
    "final_y": "537258.308296",
    "longitude": "-90.0898891891838",
    "latitude": "29.97148394886441",
    "geocoded_column": {
      "latitude": "29.97148394886441",
      "longitude": "-90.0898891891838"
    }
  },
  {
    "service_request": "2022-919216",
    "request_type": "Traffic Signals/Signs/Striping/Streetlights",
    "request_reason": "Street Light Outage/Malfunction",
    "date_created": "2022-09-13T21:05:29.000",
    "date_modified": "2022-09-13T21:05:29.000",
    "request_status": "Pending",
    "responsible_agency": "Department of Public Works",
    "final_address": "601 Tchoupitoulas St",
    "address_councildis": "B",
    "status": "Pending",
    "contractor": "Legacy Professional Services",
    "rowid": "919216",
    "final_x": "3681688.18415",
    "final_y": "528549.727488",
    "longitude": "-90.06757970994404",
    "latitude": "29.947322721332476",
    "geocoded_column": {
      "latitude": "29.947322721332476",
      "longitude": "-90.06757970994404"
    }
  },
  {
    "service_request": "2022-919215",
    "request_type": "Trash/Recycling",
    "request_reason": "Missed Trash Pick-Up",
    "date_created": "2022-09-13T21:02:31.000",
    "date_modified": "2022-09-13T21:02:32.000",
    "request_status": "Pending",
    "responsible_agency": "Department of Sanitation",
    "final_address": "7241 Ring St",
    "address_councildis": "D",
    "status": "Assigned to Contractor",
    "contractor": "Metro Disposal",
    "rowid": "919215",
    "final_x": "3669425.29294",
    "final_y": "555103.481369",
    "longitude": "-90.10539997327209",
    "latitude": "30.020703277597626",
    "geocoded_column": {
      "latitude": "30.020703277597626",
      "longitude": "-90.10539997327209"
    }
  },
  {
    "service_request": "2022-919214",
    "request_type": "Traffic Signals/Signs/Striping/Streetlights",
    "request_reason": "Street Light Outage/Malfunction",
    "date_created": "2022-09-13T21:02:08.000",
    "date_modified": "2022-09-13T21:02:08.000",
    "request_status": "Pending",
    "responsible_agency": "Department of Public Works",
    "final_address": "144 12Th St",
    "address_councildis": "A",
    "status": "Pending",
    "contractor": "Legacy Professional Services",
    "rowid": "919214",
    "final_x": "3665732.84314",
    "final_y": "547751.868818",
    "longitude": "-90.11731358722105",
    "latitude": "30.000597191905037",
    "geocoded_column": {
      "latitude": "30.000597191905037",
      "longitude": "-90.11731358722105"
    }
  },
  {
    "service_request": "2022-919213",
    "request_type": "Trash/Recycling",
    "request_reason": "Missed Trash Pick-Up",
    "date_created": "2022-09-13T20:58:32.000",
    "date_modified": "2022-09-13T20:58:33.000",
    "request_status": "Pending",
    "responsible_agency": "Department of Sanitation",
    "final_address": "144 12Th St",
    "address_councildis": "A",
    "status": "Assigned to Contractor",
    "contractor": "Metro Disposal",
    "rowid": "919213",
    "final_x": "3665732.84314",
    "final_y": "547751.868818",
    "longitude": "-90.11731358722105",
    "latitude": "30.000597191905037",
    "geocoded_column": {
      "latitude": "30.000597191905037",
      "longitude": "-90.11731358722105"
    }
  },
  {
    "service_request": "2022-919212",
    "request_type": "Trash/Recycling",
    "request_reason": "Missed Trash Pick-Up",
    "date_created": "2022-09-13T20:58:03.000",
    "date_modified": "2022-09-13T20:58:04.000",
    "request_status": "Pending",
    "responsible_agency": "Department of Sanitation",
    "final_address": "144 18Th St",
    "address_councildis": "A",
    "status": "Assigned to Contractor",
    "contractor": "Metro Disposal",
    "rowid": "919212",
    "final_x": "3665737.09485",
    "final_y": "548648.305747",
    "longitude": "-90.11727010110681",
    "latitude": "30.003061960300787",
    "geocoded_column": {
      "latitude": "30.003061960300787",
      "longitude": "-90.11727010110681"
    }
  },
  {
    "service_request": "2022-919211",
    "request_type": "Property Maintenance",
    "request_reason": "Property Maintenance",
    "date_created": "2022-09-13T20:57:08.000",
    "date_modified": "2022-09-13T20:57:08.000",
    "request_status": "Pending",
    "responsible_agency": "Department of Code Enforcement",
    "final_address": "2620 Pauger St",
    "address_councildis": "D",
    "status": "Pending",
    "rowid": "919211",
    "final_x": "3683577.38927",
    "final_y": "539357.418634",
    "longitude": "-90.06123593701435",
    "latitude": "29.976982642172445",
    "geocoded_column": {
      "latitude": "29.976982642172445",
      "longitude": "-90.06123593701435"
    }
  },
  {
    "service_request": "2022-919210",
    "request_type": "Trash/Recycling",
    "request_reason": "Missed Trash Pick-Up",
    "date_created": "2022-09-13T20:51:23.000",
    "date_modified": "2022-09-13T20:51:24.000",
    "request_status": "Pending",
    "responsible_agency": "Department of Sanitation",
    "final_address": "7277 Canal Blvd",
    "address_councildis": "D",
    "status": "Assigned to Contractor",
    "contractor": "Metro Disposal",
    "rowid": "919210",
    "final_x": "3669376.43719",
    "final_y": "555423.754649",
    "longitude": "-90.10554350000865",
    "latitude": "30.02158535459421",
    "geocoded_column": {
      "latitude": "30.02158535459421",
      "longitude": "-90.10554350000865"
    }
  },
  {
    "service_request": "2022-919209",
    "request_type": "Trash/Recycling",
    "request_reason": "Missed Trash Pick-Up",
    "date_created": "2022-09-13T20:45:36.000",
    "date_modified": "2022-09-13T20:45:36.000",
    "request_status": "Pending",
    "responsible_agency": "Department of Sanitation",
    "final_address": "940 Emerald St",
    "address_councildis": "D",
    "status": "Assigned to Contractor",
    "contractor": "Metro Disposal",
    "rowid": "919209",
    "final_x": "3670988.64609",
    "final_y": "554754.2662",
    "longitude": "-90.10047209927654",
    "latitude": "30.019696901570065",
    "geocoded_column": {
      "latitude": "30.019696901570065",
      "longitude": "-90.10047209927654"
    }
  },
  {
    "service_request": "2022-919208",
    "request_type": "Trash/Recycling",
    "request_reason": "Missed Trash Pick-Up",
    "date_created": "2022-09-13T20:42:11.000",
    "date_modified": "2022-09-13T20:42:12.000",
    "request_status": "Pending",
    "responsible_agency": "Department of Sanitation",
    "final_address": "7310 Sardonyx St",
    "address_councildis": "D",
    "status": "Assigned to Contractor",
    "contractor": "Metro Disposal",
    "rowid": "919208",
    "final_x": "3669508.51329",
    "final_y": "555629.360793",
    "longitude": "-90.10511921001164",
    "latitude": "30.022146806191035",
    "geocoded_column": {
      "latitude": "30.022146806191035",
      "longitude": "-90.10511921001164"
    }
  },
  {
    "service_request": "2022-919207",
    "request_type": "Trash/Recycling",
    "request_reason": "MIssed Recycling Pick-Up",
    "date_created": "2022-09-13T20:35:46.000",
    "date_modified": "2022-09-13T20:35:47.000",
    "request_status": "Pending",
    "responsible_agency": "Department of Sanitation",
    "final_address": "221 S Genois St",
    "address_councildis": "B",
    "status": "Assigned to Contractor",
    "contractor": "Richards Disposal",
    "rowid": "919207",
    "final_x": "3672170.85627",
    "final_y": "536748.918728",
    "longitude": "-90.09735036031731",
    "latitude": "29.970153419346236",
    "geocoded_column": {
      "latitude": "29.970153419346236",
      "longitude": "-90.09735036031731"
    }
  },
  {
    "service_request": "2022-919206",
    "request_type": "Trash/Recycling",
    "request_reason": "Replace Trash Cart",
    "date_created": "2022-09-13T20:28:15.000",
    "date_modified": "2022-09-13T20:28:16.000",
    "request_status": "Pending",
    "responsible_agency": "Department of Sanitation",
    "final_address": "5226 Conti St",
    "address_councildis": "A",
    "status": "Assigned to Contractor",
    "contractor": "Metro Disposal",
    "rowid": "919206",
    "final_x": "3668428.6955",
    "final_y": "541800.77422",
    "longitude": "-90.10899805779543",
    "latitude": "29.9841547811201",
    "geocoded_column": {
      "latitude": "29.9841547811201",
      "longitude": "-90.10899805779543"
    }
  },
  {
    "service_request": "2022-919205",
    "request_type": "Trash/Recycling",
    "request_reason": "Missed Trash Pick-Up",
    "date_created": "2022-09-13T20:27:55.000",
    "date_modified": "2022-09-13T20:27:56.000",
    "request_status": "Pending",
    "responsible_agency": "Department of Sanitation",
    "final_address": "3339 Belfort St",
    "address_councildis": "A",
    "status": "Assigned to Contractor",
    "contractor": "Metro Disposal",
    "rowid": "919205",
    "final_x": "3677374.97806",
    "final_y": "542672.620109",
    "longitude": "-90.08071068435657",
    "latitude": "29.98628617809371",
    "geocoded_column": {
      "latitude": "29.98628617809371",
      "longitude": "-90.08071068435657"
    }
  },
  {
    "service_request": "2022-919204",
    "request_type": "Trash/Recycling",
    "request_reason": "Missed Trash Pick-Up",
    "date_created": "2022-09-13T20:26:42.000",
    "date_modified": "2022-09-13T20:26:42.000",
    "request_status": "Pending",
    "responsible_agency": "Department of Sanitation",
    "final_address": "42 Dove St",
    "address_councildis": "D",
    "status": "Assigned to Contractor",
    "contractor": "Metro Disposal",
    "rowid": "919204",
    "final_x": "3673615.26856",
    "final_y": "555039.360729",
    "longitude": "-90.09216306072942",
    "latitude": "30.02040284005257",
    "geocoded_column": {
      "latitude": "30.02040284005257",
      "longitude": "-90.09216306072942"
    }
  },
  {
    "service_request": "2022-919203",
    "request_type": "Trash/Recycling",
    "request_reason": "Request a Large Item Pick Up",
    "date_created": "2022-09-13T20:24:22.000",
    "date_modified": "2022-09-13T20:24:22.000",
    "request_status": "Pending",
    "responsible_agency": "Department of Sanitation",
    "final_address": "4765 Baccich St",
    "address_councildis": "D",
    "status": "Assigned to Contractor",
    "contractor": "Metro Disposal",
    "rowid": "919203",
    "final_x": "3687755.96246",
    "final_y": "550821.722453",
    "longitude": "-90.04763242690785",
    "latitude": "30.008377141676192",
    "geocoded_column": {
      "latitude": "30.008377141676192",
      "longitude": "-90.04763242690785"
    }
  },
  {
    "service_request": "2022-919202",
    "request_type": "Traffic Signals/Signs/Striping/Streetlights",
    "request_reason": "Street Light Outage/Malfunction",
    "date_created": "2022-09-13T20:22:01.000",
    "date_modified": "2022-09-13T20:22:01.000",
    "request_status": "Pending",
    "responsible_agency": "Department of Public Works",
    "final_address": "5131 Conti St",
    "address_councildis": "A",
    "status": "Pending",
    "contractor": "Legacy Professional Services",
    "rowid": "919202",
    "final_x": "3668712.80826",
    "final_y": "541659.457612",
    "longitude": "-90.10810544429023",
    "latitude": "29.983757858125625",
    "geocoded_column": {
      "latitude": "29.983757858125625",
      "longitude": "-90.10810544429023"
    }
  },
  {
    "service_request": "2022-919200",
    "request_type": "Trash/Recycling",
    "request_reason": "Missed Trash Pick-Up",
    "date_created": "2022-09-13T20:19:24.000",
    "date_modified": "2022-09-13T20:19:25.000",
    "request_status": "Pending",
    "responsible_agency": "Department of Sanitation",
    "final_address": "613 Dufossat St",
    "address_councildis": "B",
    "status": "Assigned to Contractor",
    "contractor": "Richards Disposal",
    "rowid": "919200",
    "final_x": "3668103.54772",
    "final_y": "517708.66687",
    "longitude": "-90.11083692500918",
    "latitude": "29.917918901236412",
    "geocoded_column": {
      "latitude": "29.917918901236412",
      "longitude": "-90.11083692500918"
    }
  },
  {
    "service_request": "2022-919199",
    "request_type": "Trash/Recycling",
    "request_reason": "Missed Trash Pick-Up",
    "date_created": "2022-09-13T20:12:45.000",
    "date_modified": "2022-09-13T20:12:45.000",
    "request_status": "Pending",
    "responsible_agency": "Department of Sanitation",
    "final_address": "6078 Marshal Foch St",
    "address_councildis": "A",
    "status": "Assigned to Contractor",
    "contractor": "Metro Disposal",
    "rowid": "919199",
    "final_x": "3669809.26734",
    "final_y": "547757.58805",
    "longitude": "-90.1044356575414",
    "latitude": "30.000493335623943",
    "geocoded_column": {
      "latitude": "30.000493335623943",
      "longitude": "-90.1044356575414"
    }
  },
  {
    "service_request": "2022-919198",
    "request_type": "Trash/Recycling",
    "request_reason": "Missed Trash Pick-Up",
    "date_created": "2022-09-13T20:11:06.000",
    "date_modified": "2022-09-13T20:11:07.000",
    "request_status": "Pending",
    "responsible_agency": "Department of Sanitation",
    "final_address": "400 Filmore Ave",
    "address_councildis": "A",
    "status": "Assigned to Contractor",
    "contractor": "Metro Disposal",
    "rowid": "919198",
    "final_x": "3667896.68788",
    "final_y": "552032.57583",
    "longitude": "-90.11033349555902",
    "latitude": "30.012304324721686",
    "geocoded_column": {
      "latitude": "30.012304324721686",
      "longitude": "-90.11033349555902"
    }
  },
  {
    "service_request": "2022-919197",
    "request_type": "Abandoned Vehicles",
    "request_reason": "Abandoned/Junk Vehicles",
    "date_created": "2022-09-13T20:03:43.000",
    "date_modified": "2022-09-13T20:03:43.000",
    "request_status": "Pending",
    "responsible_agency": "Department of Public Works",
    "final_address": "6993 Queensway Dr",
    "address_councildis": "E",
    "status": "Pending",
    "rowid": "919197",
    "final_x": "3719424.66757",
    "final_y": "569257.876006",
    "longitude": "-89.94687755441228",
    "latitude": "30.058054029416482",
    "geocoded_column": {
      "latitude": "30.058054029416482",
      "longitude": "-89.94687755441228"
    }
  },
  {
    "service_request": "2022-919196",
    "request_type": "Trash/Recycling",
    "request_reason": "Missed Trash Pick-Up",
    "date_created": "2022-09-13T19:54:59.000",
    "date_modified": "2022-09-13T19:54:59.000",
    "request_status": "Pending",
    "responsible_agency": "Department of Sanitation",
    "final_address": "2124 S Gayoso St",
    "address_councildis": "B",
    "status": "Assigned to Contractor",
    "contractor": "Richards Disposal",
    "rowid": "919196",
    "final_x": "3669691.5625",
    "final_y": "528928.721152",
    "longitude": "-90.10544490426787",
    "latitude": "29.948723765931963",
    "geocoded_column": {
      "latitude": "29.948723765931963",
      "longitude": "-90.10544490426787"
    }
  },
  {
    "service_request": "2022-919195",
    "request_type": "Trash/Recycling",
    "request_reason": "Missed Trash Pick-Up",
    "date_created": "2022-09-13T19:46:48.000",
    "date_modified": "2022-09-13T19:46:49.000",
    "request_status": "Pending",
    "responsible_agency": "Department of Sanitation",
    "final_address": "1526 Dufossat St",
    "address_councildis": "B",
    "status": "Assigned to Contractor",
    "contractor": "Richards Disposal",
    "rowid": "919195",
    "final_x": "3668068.2489",
    "final_y": "520682.173113",
    "longitude": "-90.1108482089379",
    "latitude": "29.926096140224107",
    "geocoded_column": {
      "latitude": "29.926096140224107",
      "longitude": "-90.1108482089379"
    }
  },
  {
    "service_request": "2022-919194",
    "request_type": "Trash/Recycling",
    "request_reason": "Missed Trash Pick-Up",
    "date_created": "2022-09-13T19:45:40.000",
    "date_modified": "2022-09-13T19:45:41.000",
    "request_status": "Pending",
    "responsible_agency": "Department of Sanitation",
    "final_address": "5200 Atlanta St",
    "address_councildis": "B",
    "status": "Assigned to Contractor",
    "contractor": "Richards Disposal",
    "rowid": "919194",
    "final_x": "3667983.80449",
    "final_y": "520661.062009",
    "longitude": "-90.11111548717626",
    "latitude": "29.92604056837358",
    "geocoded_column": {
      "latitude": "29.92604056837358",
      "longitude": "-90.11111548717626"
    }
  },
  {
    "service_request": "2022-919193",
    "request_type": "Trash/Recycling",
    "request_reason": "Missed Trash Pick-Up",
    "date_created": "2022-09-13T19:41:10.000",
    "date_modified": "2022-09-13T19:41:11.000",
    "request_status": "Pending",
    "responsible_agency": "Department of Sanitation",
    "final_address": "6653 General Haig St",
    "address_councildis": "A",
    "status": "Assigned to Contractor",
    "contractor": "Metro Disposal",
    "rowid": "919193",
    "final_x": "3671041.47079",
    "final_y": "551588.293589",
    "longitude": "-90.10041282684844",
    "latitude": "30.01099003752552",
    "geocoded_column": {
      "latitude": "30.01099003752552",
      "longitude": "-90.10041282684844"
    }
  },
  {
    "service_request": "2022-919192",
    "request_type": "Property Maintenance",
    "request_reason": "Property Maintenance",
    "date_created": "2022-09-13T19:39:04.000",
    "date_modified": "2022-09-13T19:39:04.000",
    "request_status": "Pending",
    "responsible_agency": "Department of Code Enforcement",
    "final_address": "2303 Mexico St",
    "address_councildis": "D",
    "status": "Pending",
    "rowid": "919192",
    "final_x": "3684221.17666",
    "final_y": "556299.60265",
    "longitude": "-90.05860737826207",
    "latitude": "30.02354789034834",
    "geocoded_column": {
      "latitude": "30.02354789034834",
      "longitude": "-90.05860737826207"
    }
  },
  {
    "service_request": "2022-919191",
    "request_type": "Property Maintenance",
    "request_reason": "Property Maintenance",
    "date_created": "2022-09-13T19:38:59.000",
    "date_modified": "2022-09-13T19:38:59.000",
    "request_status": "Pending",
    "responsible_agency": "Department of Code Enforcement",
    "final_address": "2303 Mexico St",
    "address_councildis": "D",
    "status": "Pending",
    "rowid": "919191",
    "final_x": "3684221.17666",
    "final_y": "556299.60265",
    "longitude": "-90.05860737826207",
    "latitude": "30.02354789034834",
    "geocoded_column": {
      "latitude": "30.02354789034834",
      "longitude": "-90.05860737826207"
    }
  },
  {
    "service_request": "2022-919190",
    "request_type": "Property Maintenance",
    "request_reason": "Property Maintenance",
    "date_created": "2022-09-13T19:33:52.000",
    "date_modified": "2022-09-13T19:33:52.000",
    "request_status": "Pending",
    "responsible_agency": "Department of Code Enforcement",
    "final_address": "2303 Mexico St",
    "address_councildis": "D",
    "status": "Pending",
    "rowid": "919190",
    "final_x": "3684221.17666",
    "final_y": "556299.60265",
    "longitude": "-90.05860737826207",
    "latitude": "30.02354789034834",
    "geocoded_column": {
      "latitude": "30.02354789034834",
      "longitude": "-90.05860737826207"
    }
  },
  {
    "service_request": "2022-919189",
    "request_type": "Trash/Recycling",
    "request_reason": "Missed Trash Pick-Up",
    "date_created": "2022-09-13T19:28:33.000",
    "date_modified": "2022-09-13T19:28:33.000",
    "request_status": "Pending",
    "responsible_agency": "Department of Sanitation",
    "final_address": "1525 Dufossat St",
    "address_councildis": "B",
    "status": "Assigned to Contractor",
    "contractor": "Richards Disposal",
    "rowid": "919189",
    "final_x": "3668161.69364",
    "final_y": "520678.110521",
    "longitude": "-90.11055336688219",
    "latitude": "29.926082227758133",
    "geocoded_column": {
      "latitude": "29.926082227758133",
      "longitude": "-90.11055336688219"
    }
  },
  {
    "service_request": "2022-919188",
    "request_type": "Trash/Recycling",
    "request_reason": "Missed Trash Pick-Up",
    "date_created": "2022-09-13T19:21:55.000",
    "date_modified": "2022-09-13T19:21:56.000",
    "request_status": "Pending",
    "responsible_agency": "Department of Sanitation",
    "final_address": "925 Polk St, New Orleans, Louisiana, 70124",
    "address_councildis": "A",
    "status": "Assigned to Contractor",
    "contractor": "Metro Disposal",
    "rowid": "919188",
    "final_x": "3670029.71553",
    "final_y": "547219.511761",
    "longitude": "-90.1037574859959",
    "latitude": "29.999007309988126",
    "geocoded_column": {
      "latitude": "29.999007309988126",
      "longitude": "-90.1037574859959"
    }
  },
  {
    "service_request": "2022-919187",
    "request_type": "Trash/Recycling",
    "request_reason": "Request a Large Item Pick Up",
    "date_created": "2022-09-13T19:20:07.000",
    "date_modified": "2022-09-13T19:20:07.000",
    "request_status": "Pending",
    "responsible_agency": "Department of Sanitation",
    "final_address": "1116 Crete St",
    "address_councildis": "A",
    "status": "Assigned to Contractor",
    "contractor": "Richards Disposal",
    "rowid": "919187",
    "final_x": "3677703.04008",
    "final_y": "538834.381705",
    "longitude": "-90.07980709125921",
    "latitude": "29.975722485118784",
    "geocoded_column": {
      "latitude": "29.975722485118784",
      "longitude": "-90.07980709125921"
    }
  },
  {
    "service_request": "2022-919186",
    "request_type": "Trash/Recycling",
    "request_reason": "Missed Trash Pick-Up",
    "date_created": "2022-09-13T19:19:52.000",
    "date_modified": "2022-09-13T19:19:53.000",
    "request_status": "Pending",
    "responsible_agency": "Department of Sanitation",
    "final_address": "4423 Chestnut St",
    "address_councildis": "B",
    "status": "Assigned to Contractor",
    "contractor": "Richards Disposal",
    "rowid": "919186",
    "final_x": "3670727.30881",
    "final_y": "519534.736311",
    "longitude": "-90.10249321496651",
    "latitude": "29.92286278069767",
    "geocoded_column": {
      "latitude": "29.92286278069767",
      "longitude": "-90.10249321496651"
    }
  },
  {
    "service_request": "2022-919185",
    "request_type": "Trash/Recycling",
    "request_reason": "Return Recycling Cart",
    "date_created": "2022-09-13T19:15:35.000",
    "date_modified": "2022-09-13T19:15:35.000",
    "request_status": "Pending",
    "responsible_agency": "Department of Sanitation",
    "final_address": "3005 Danneel St",
    "address_councildis": "B",
    "status": "Pending",
    "rowid": "919185",
    "final_x": "3674384.4132",
    "final_y": "523278.785723",
    "longitude": "-90.09082099848675",
    "latitude": "29.93304918287073",
    "geocoded_column": {
      "latitude": "29.93304918287073",
      "longitude": "-90.09082099848675"
    }
  },
  {
    "service_request": "2022-919184",
    "request_type": "Trash/Recycling",
    "request_reason": "Missed Trash Pick-Up",
    "date_created": "2022-09-13T19:06:38.000",
    "date_modified": "2022-09-13T19:06:39.000",
    "request_status": "Pending",
    "responsible_agency": "Department of Sanitation",
    "final_address": "6135 Memphis St",
    "address_councildis": "A",
    "status": "Assigned to Contractor",
    "contractor": "Metro Disposal",
    "rowid": "919184",
    "final_x": "3669338.60058",
    "final_y": "548136.922514",
    "longitude": "-90.10590969185229",
    "latitude": "30.00155024499763",
    "geocoded_column": {
      "latitude": "30.00155024499763",
      "longitude": "-90.10590969185229"
    }
  },
  {
    "service_request": "2022-919183",
    "request_type": "Trash/Recycling",
    "request_reason": "Missed Trash Pick-Up",
    "date_created": "2022-09-13T19:04:20.000",
    "date_modified": "2022-09-13T19:04:20.000",
    "request_status": "Pending",
    "responsible_agency": "Department of Sanitation",
    "final_address": "1107 Napoleon Ave",
    "address_councildis": "B",
    "status": "Assigned to Contractor",
    "contractor": "Richards Disposal",
    "rowid": "919183",
    "final_x": "3671051.84206",
    "final_y": "519633.057976",
    "longitude": "-90.10146545166515",
    "latitude": "29.9231235443977",
    "geocoded_column": {
      "latitude": "29.9231235443977",
      "longitude": "-90.10146545166515"
    }
  },
  {
    "service_request": "2022-919182",
    "request_type": "Abandoned Vehicles",
    "request_reason": "Abandoned/Junk Vehicles",
    "date_created": "2022-09-13T19:04:15.000",
    "date_modified": "2022-09-13T19:04:15.000",
    "request_status": "Pending",
    "responsible_agency": "Department of Public Works",
    "final_address": "1025 Melpomene St",
    "address_councildis": "B",
    "status": "Pending",
    "rowid": "919182",
    "final_x": "3680592.762",
    "final_y": "524880.56934",
    "longitude": "-90.07116598440233",
    "latitude": "29.93726698664338",
    "geocoded_column": {
      "latitude": "29.93726698664338",
      "longitude": "-90.07116598440233"
    }
  },
  {
    "service_request": "2022-919181",
    "request_type": "Roads/Drainage",
    "request_reason": "Street Subsidence (Sinking)",
    "date_created": "2022-09-13T19:01:38.000",
    "date_modified": "2022-09-13T19:01:38.000",
    "request_status": "Pending",
    "responsible_agency": "Department of Public Works",
    "final_address": "613 Dumaine St",
    "address_councildis": "C",
    "status": "Pending",
    "rowid": "919181",
    "final_x": "3683207.70632",
    "final_y": "532926.743428",
    "longitude": "-90.06262874613483",
    "latitude": "29.95931178665952",
    "geocoded_column": {
      "latitude": "29.95931178665952",
      "longitude": "-90.06262874613483"
    }
  },
  {
    "service_request": "2022-919180",
    "request_type": "Trash/Recycling",
    "request_reason": "Missed Trash Pick-Up",
    "date_created": "2022-09-13T19:01:32.000",
    "date_modified": "2022-09-13T19:01:33.000",
    "request_status": "Pending",
    "responsible_agency": "Department of Sanitation",
    "final_address": "716 Peniston St",
    "address_councildis": "B",
    "status": "Assigned to Contractor",
    "contractor": "Richards Disposal",
    "rowid": "919180",
    "final_x": "3673485.12014",
    "final_y": "518469.724342",
    "longitude": "-90.09382423794936",
    "latitude": "29.91985259424551",
    "geocoded_column": {
      "latitude": "29.91985259424551",
      "longitude": "-90.09382423794936"
    }
  },
  {
    "service_request": "2022-919179",
    "request_type": "Trash/Recycling",
    "request_reason": "Replace Trash Cart",
    "date_created": "2022-09-13T19:01:07.000",
    "date_modified": "2022-09-13T19:01:08.000",
    "request_status": "Pending",
    "responsible_agency": "Department of Sanitation",
    "final_address": "2520 Prytania St",
    "address_councildis": "B",
    "status": "Assigned to Contractor",
    "contractor": "Richards Disposal",
    "rowid": "919179",
    "final_x": "3676876.08801",
    "final_y": "522438.88665",
    "longitude": "-90.08298388379328",
    "latitude": "29.930665206235744",
    "geocoded_column": {
      "latitude": "29.930665206235744",
      "longitude": "-90.08298388379328"
    }
  },
  {
    "service_request": "2022-919178",
    "request_type": "Trash/Recycling",
    "request_reason": "Missed Trash Pick-Up",
    "date_created": "2022-09-13T18:54:22.000",
    "date_modified": "2022-09-13T18:54:22.000",
    "request_status": "Pending",
    "responsible_agency": "Department of Sanitation",
    "final_address": "818 Navarre St",
    "address_councildis": "A",
    "status": "Assigned to Contractor",
    "contractor": "Metro Disposal",
    "rowid": "919178",
    "final_x": "3668840.7563",
    "final_y": "543746.914958",
    "longitude": "-90.10763078626118",
    "latitude": "29.989493891533062",
    "geocoded_column": {
      "latitude": "29.989493891533062",
      "longitude": "-90.10763078626118"
    }
  },
  {
    "service_request": "2022-919175",
    "request_type": "Trash/Recycling",
    "request_reason": "Missed Trash Pick-Up",
    "date_created": "2022-09-13T18:50:16.000",
    "date_modified": "2022-09-13T18:50:17.000",
    "request_status": "Pending",
    "responsible_agency": "Department of Sanitation",
    "final_address": "900 Germain St",
    "address_councildis": "A",
    "status": "Assigned to Contractor",
    "contractor": "Metro Disposal",
    "rowid": "919175",
    "final_x": "3669922.03322",
    "final_y": "547729.734226",
    "longitude": "-90.10408036585875",
    "latitude": "30.00041342138975",
    "geocoded_column": {
      "latitude": "30.00041342138975",
      "longitude": "-90.10408036585875"
    }
  },
  {
    "service_request": "2022-919174",
    "request_type": "Trash/Recycling",
    "request_reason": "Missed Trash Pick-Up",
    "date_created": "2022-09-13T18:46:23.000",
    "date_modified": "2022-09-13T18:46:23.000",
    "request_status": "Pending",
    "responsible_agency": "Department of Sanitation",
    "final_address": "3121 Fortin St",
    "address_councildis": "A",
    "status": "Assigned to Contractor",
    "contractor": "Metro Disposal",
    "rowid": "919174",
    "final_x": "3676421.66344",
    "final_y": "540994.540171",
    "longitude": "-90.08377964187608",
    "latitude": "29.981700660280833",
    "geocoded_column": {
      "latitude": "29.981700660280833",
      "longitude": "-90.08377964187608"
    }
  },
  {
    "service_request": "2022-919173",
    "request_type": "Trash/Recycling",
    "request_reason": "Replace Trash Cart",
    "date_created": "2022-09-13T18:46:11.000",
    "date_modified": "2022-09-13T18:46:12.000",
    "request_status": "Pending",
    "responsible_agency": "Department of Sanitation",
    "final_address": "509 S Murat St",
    "address_councildis": "A",
    "status": "Assigned to Contractor",
    "contractor": "Richards Disposal",
    "rowid": "919173",
    "final_x": "3668647.78849",
    "final_y": "538066.839497",
    "longitude": "-90.10843211581962",
    "latitude": "29.973881282938475",
    "geocoded_column": {
      "latitude": "29.973881282938475",
      "longitude": "-90.10843211581962"
    }
  },
  {
    "service_request": "2022-919172",
    "request_type": "Property Maintenance",
    "request_reason": "Property Maintenance",
    "date_created": "2022-09-13T18:45:53.000",
    "date_modified": "2022-09-13T18:45:53.000",
    "request_status": "Pending",
    "responsible_agency": "Department of Code Enforcement",
    "final_address": "2107 Conti St",
    "address_councildis": "B",
    "status": "Pending",
    "rowid": "919172",
    "final_x": "3677921.87656",
    "final_y": "534667.423174",
    "longitude": "-90.07925997930383",
    "latitude": "29.964258188638468",
    "geocoded_column": {
      "latitude": "29.964258188638468",
      "longitude": "-90.07925997930383"
    }
  },
  {
    "service_request": "2022-919171",
    "request_type": "Traffic Signals/Signs/Striping/Streetlights",
    "request_reason": "Street Light Outage/Malfunction",
    "date_created": "2022-09-13T18:45:33.000",
    "date_modified": "2022-09-13T18:45:34.000",
    "request_status": "Pending",
    "responsible_agency": "Department of Public Works",
    "final_address": "322 Magazine St, New Orleans, Louisiana, 70130",
    "address_councildis": "B",
    "status": "Pending",
    "contractor": "Legacy Professional Services",
    "rowid": "919171",
    "final_x": "3675241.91009",
    "final_y": "519672.379832",
    "longitude": "-90.08823765154966",
    "latitude": "29.923107138592076",
    "geocoded_column": {
      "latitude": "29.923107138592076",
      "longitude": "-90.08823765154966"
    }
  },
  {
    "service_request": "2022-919170",
    "request_type": "Trash/Recycling",
    "request_reason": "Missed Trash Pick-Up",
    "date_created": "2022-09-13T18:43:52.000",
    "date_modified": "2022-09-13T18:43:53.000",
    "request_status": "Pending",
    "responsible_agency": "Department of Sanitation",
    "final_address": "921 Emerald St",
    "address_councildis": "D",
    "status": "Assigned to Contractor",
    "contractor": "Metro Disposal",
    "rowid": "919170",
    "final_x": "3670855.93435",
    "final_y": "554929.307224",
    "longitude": "-90.10088547721307",
    "latitude": "30.02018212750014",
    "geocoded_column": {
      "latitude": "30.02018212750014",
      "longitude": "-90.10088547721307"
    }
  },
  {
    "service_request": "2022-919169",
    "request_type": "Trash/Recycling",
    "request_reason": "Missed Trash Pick-Up",
    "date_created": "2022-09-13T18:43:42.000",
    "date_modified": "2022-09-13T18:43:43.000",
    "request_status": "Pending",
    "responsible_agency": "Department of Sanitation",
    "final_address": "731 Napoleon Ave",
    "address_councildis": "B",
    "status": "Assigned to Contractor",
    "contractor": "Richards Disposal",
    "rowid": "919169",
    "final_x": "3671199.22983",
    "final_y": "518321.873398",
    "longitude": "-90.10104471566467",
    "latitude": "29.919513845949638",
    "geocoded_column": {
      "latitude": "29.919513845949638",
      "longitude": "-90.10104471566467"
    }
  },
  {
    "service_request": "2022-919168",
    "request_type": "Trash/Recycling",
    "request_reason": "Missed Trash Pick-Up",
    "date_created": "2022-09-13T18:40:48.000",
    "date_modified": "2022-09-13T18:40:48.000",
    "request_status": "Pending",
    "responsible_agency": "Department of Sanitation",
    "final_address": "4600 BLK S Saratoga St",
    "address_councildis": "B",
    "status": "Assigned to Contractor",
    "contractor": "Richards Disposal",
    "rowid": "919168",
    "final_x": "3669743.32353",
    "final_y": "522551.741102",
    "longitude": "-90.10549722917278",
    "latitude": "29.93118760878003",
    "geocoded_column": {
      "latitude": "29.93118760878003",
      "longitude": "-90.10549722917278"
    }
  },
  {
    "service_request": "2022-919167",
    "request_type": "Trash/Recycling",
    "request_reason": "Missed Trash Pick-Up",
    "date_created": "2022-09-13T18:40:36.000",
    "date_modified": "2022-09-13T18:40:36.000",
    "request_status": "Pending",
    "responsible_agency": "Department of Sanitation",
    "final_address": "5309 Annunciation St",
    "address_councildis": "B",
    "status": "Assigned to Contractor",
    "contractor": "Richards Disposal",
    "rowid": "919167",
    "final_x": "3667253.72045",
    "final_y": "517628.340534",
    "longitude": "-90.11352207216115",
    "latitude": "29.91772293244563",
    "geocoded_column": {
      "latitude": "29.91772293244563",
      "longitude": "-90.11352207216115"
    }
  },
  {
    "service_request": "2022-919166",
    "request_type": "Trash/Recycling",
    "request_reason": "Missed Trash Pick-Up",
    "date_created": "2022-09-13T18:38:00.000",
    "date_modified": "2022-09-13T18:38:01.000",
    "request_status": "Pending",
    "responsible_agency": "Department of Sanitation",
    "final_address": "1146 Constantinople St",
    "address_councildis": "B",
    "status": "Assigned to Contractor",
    "contractor": "Richards Disposal",
    "rowid": "919166",
    "final_x": "3672388.88775",
    "final_y": "519896.428664",
    "longitude": "-90.09723593483596",
    "latitude": "29.923808137246905",
    "geocoded_column": {
      "latitude": "29.923808137246905",
      "longitude": "-90.09723593483596"
    }
  },
  {
    "service_request": "2022-919165",
    "request_type": "Trash/Recycling",
    "request_reason": "Missed Trash Pick-Up",
    "date_created": "2022-09-13T18:32:47.000",
    "date_modified": "2022-09-13T18:32:48.000",
    "request_status": "Pending",
    "responsible_agency": "Department of Sanitation",
    "final_address": "806 Hidalgo St",
    "address_councildis": "A",
    "status": "Assigned to Contractor",
    "contractor": "Metro Disposal",
    "rowid": "919165",
    "final_x": "3668798.23713",
    "final_y": "544026.665038",
    "longitude": "-90.10775564122244",
    "latitude": "29.990264359043714",
    "geocoded_column": {
      "latitude": "29.990264359043714",
      "longitude": "-90.10775564122244"
    }
  },
  {
    "service_request": "2022-919164",
    "request_type": "Roads/Drainage",
    "request_reason": "Pothole",
    "date_created": "2022-09-13T18:25:24.000",
    "date_modified": "2022-09-13T18:25:24.000",
    "request_status": "Pending",
    "responsible_agency": "Department of Public Works",
    "final_address": "6003 Constance St, New Orleans, Louisiana, 70118",
    "status": "Pending",
    "rowid": "919164",
    "longitude": "0.0",
    "latitude": "0.0",
    "geocoded_column": {
      "latitude": "0.0",
      "longitude": "0.0"
    }
  },
  {
    "service_request": "2022-919163",
    "request_type": "Abandoned Vehicles",
    "request_reason": "Abandoned/Junk Vehicles",
    "date_created": "2022-09-13T18:24:11.000",
    "date_modified": "2022-09-13T18:24:11.000",
    "request_status": "Pending",
    "responsible_agency": "Department of Public Works",
    "final_address": "1025 Melpomene St",
    "address_councildis": "B",
    "status": "Pending",
    "rowid": "919163",
    "final_x": "3680592.762",
    "final_y": "524880.56934",
    "longitude": "-90.07116598440233",
    "latitude": "29.93726698664338",
    "geocoded_column": {
      "latitude": "29.93726698664338",
      "longitude": "-90.07116598440233"
    }
  },
  {
    "service_request": "2022-919162",
    "request_type": "Trash/Recycling",
    "request_reason": "Replace Trash Cart",
    "date_created": "2022-09-13T18:20:40.000",
    "date_modified": "2022-09-13T18:20:41.000",
    "request_status": "Pending",
    "responsible_agency": "Department of Sanitation",
    "final_address": "2613 Palmer Ave",
    "address_councildis": "A",
    "status": "Assigned to Contractor",
    "contractor": "Richards Disposal",
    "rowid": "919162",
    "final_x": "3666677.10253",
    "final_y": "526293.845566",
    "longitude": "-90.1150513270746",
    "latitude": "29.941567187725237",
    "geocoded_column": {
      "latitude": "29.941567187725237",
      "longitude": "-90.1150513270746"
    }
  },
  {
    "service_request": "2022-919161",
    "request_type": "Trash/Recycling",
    "request_reason": "Missed Trash Pick-Up",
    "date_created": "2022-09-13T18:18:55.000",
    "date_modified": "2022-09-13T18:18:56.000",
    "request_status": "Pending",
    "responsible_agency": "Department of Sanitation",
    "final_address": "5351 Tchoupitoulas St",
    "address_councildis": "B",
    "status": "Assigned to Contractor",
    "contractor": "Richards Disposal",
    "rowid": "919161",
    "final_x": "3666843.49517",
    "final_y": "517212.276725",
    "longitude": "-90.11483089618059",
    "latitude": "29.916590888881792",
    "geocoded_column": {
      "latitude": "29.916590888881792",
      "longitude": "-90.11483089618059"
    }
  },
  {
    "service_request": "2022-919160",
    "request_type": "Trash/Recycling",
    "request_reason": "Missed Trash Pick-Up",
    "date_created": "2022-09-13T18:18:31.000",
    "date_modified": "2022-09-13T18:18:52.000",
    "request_status": "Pending",
    "responsible_agency": "Department of Sanitation",
    "final_address": "5313 Annunciation St",
    "address_councildis": "B",
    "status": "Assigned to Contractor",
    "contractor": "Richards Disposal",
    "rowid": "919160",
    "final_x": "3667221.15079",
    "final_y": "517617.650742",
    "longitude": "-90.11362523604427",
    "latitude": "29.917694492203598",
    "geocoded_column": {
      "latitude": "29.917694492203598",
      "longitude": "-90.11362523604427"
    }
  },
  {
    "service_request": "2022-919159",
    "request_type": "Trash/Recycling",
    "request_reason": "Missed Trash Pick-Up",
    "date_created": "2022-09-13T18:16:56.000",
    "date_modified": "2022-09-13T18:16:57.000",
    "request_status": "Pending",
    "responsible_agency": "Department of Sanitation",
    "final_address": "2415 Lavender St",
    "address_councildis": "D",
    "status": "Assigned to Contractor",
    "contractor": "Metro Disposal",
    "rowid": "919159",
    "final_x": "3686088.8399",
    "final_y": "546886.236305",
    "longitude": "-90.0530383034334",
    "latitude": "29.99760730954603",
    "geocoded_column": {
      "latitude": "29.99760730954603",
      "longitude": "-90.0530383034334"
    }
  },
  {
    "service_request": "2022-919158",
    "request_type": "Trash/Recycling",
    "request_reason": "Missed Trash Pick-Up",
    "date_created": "2022-09-13T18:07:59.000",
    "date_modified": "2022-09-13T18:08:00.000",
    "request_status": "Pending",
    "responsible_agency": "Department of Sanitation",
    "final_address": "4029 Camp St",
    "address_councildis": "B",
    "status": "Assigned to Contractor",
    "contractor": "Richards Disposal",
    "rowid": "919158",
    "final_x": "3672216.52014",
    "final_y": "519319.148023",
    "longitude": "-90.09779968714359",
    "latitude": "29.92222591162771",
    "geocoded_column": {
      "latitude": "29.92222591162771",
      "longitude": "-90.09779968714359"
    }
  },
  {
    "service_request": "2022-919157",
    "request_type": "Trash/Recycling",
    "request_reason": "Missed Trash Pick-Up",
    "date_created": "2022-09-13T18:06:55.000",
    "date_modified": "2022-09-13T18:06:56.000",
    "request_status": "Pending",
    "responsible_agency": "Department of Sanitation",
    "final_address": "2828 Upperline St",
    "address_councildis": "B",
    "status": "Assigned to Contractor",
    "contractor": "Richards Disposal",
    "rowid": "919157",
    "final_x": "3669160.05127",
    "final_y": "525203.114365",
    "longitude": "-90.10724898782733",
    "latitude": "29.938495206542953",
    "geocoded_column": {
      "latitude": "29.938495206542953",
      "longitude": "-90.10724898782733"
    }
  },
  {
    "service_request": "2022-919156",
    "request_type": "Trash/Recycling",
    "request_reason": "Request a Large Item Pick Up",
    "date_created": "2022-09-13T18:05:24.000",
    "date_modified": "2022-09-13T18:05:24.000",
    "request_status": "Pending",
    "responsible_agency": "Department of Sanitation",
    "final_address": "361 Millaudon St",
    "address_councildis": "A",
    "status": "Assigned to Contractor",
    "contractor": "Richards Disposal",
    "rowid": "919156",
    "final_x": "3661824.15021",
    "final_y": "524487.801596",
    "longitude": "-90.13043300340226",
    "latitude": "29.936742123533673",
    "geocoded_column": {
      "latitude": "29.936742123533673",
      "longitude": "-90.13043300340226"
    }
  },
  {
    "service_request": "2022-919155",
    "request_type": "Trash/Recycling",
    "request_reason": "Order Trash Cart",
    "date_created": "2022-09-13T18:04:13.000",
    "date_modified": "2022-09-13T18:04:14.000",
    "request_status": "Pending",
    "responsible_agency": "Department of Sanitation",
    "final_address": "4121 Vendome Pl",
    "address_councildis": "B",
    "status": "Assigned to Contractor",
    "contractor": "Richards Disposal",
    "rowid": "919155",
    "final_x": "3668934.22151",
    "final_y": "530528.000642",
    "longitude": "-90.1077821505662",
    "latitude": "29.953143555332627",
    "geocoded_column": {
      "latitude": "29.953143555332627",
      "longitude": "-90.1077821505662"
    }
  },
  {
    "service_request": "2022-919154",
    "request_type": "Trash/Recycling",
    "request_reason": "Illegal Dumping",
    "date_created": "2022-09-13T18:02:13.000",
    "date_modified": "2022-09-13T18:02:14.000",
    "request_status": "Pending",
    "responsible_agency": "Department of Sanitation",
    "final_address": "2309 Fourth St",
    "address_councildis": "B",
    "status": "Pending",
    "rowid": "919154",
    "final_x": "3674787.10389",
    "final_y": "524877.193404",
    "longitude": "-90.08949495428129",
    "latitude": "29.937432270044404",
    "geocoded_column": {
      "latitude": "29.937432270044404",
      "longitude": "-90.08949495428129"
    }
  },
  {
    "service_request": "2022-919153",
    "request_type": "Traffic Signals/Signs/Striping/Streetlights",
    "request_reason": "Street Name Sign Damaged or Missing",
    "date_created": "2022-09-13T18:00:31.000",
    "date_modified": "2022-09-13T18:00:31.000",
    "request_status": "Pending",
    "responsible_agency": "Department of Public Works",
    "final_address": "IRBY ST & SHAW AVE",
    "address_councildis": "E",
    "status": "Pending",
    "rowid": "919153",
    "final_x": "3706955.8",
    "final_y": "564672.38",
    "longitude": "-89.9864602820478",
    "latitude": "30.0458547021967",
    "geocoded_column": {
      "latitude": "30.0458547021967",
      "longitude": "-89.9864602820478"
    }
  },
  {
    "service_request": "2022-919152",
    "request_type": "Abandoned Vehicles",
    "request_reason": "Abandoned/Junk Vehicles",
    "date_created": "2022-09-13T17:58:20.000",
    "date_modified": "2022-09-13T17:58:54.000",
    "request_status": "Pending",
    "responsible_agency": "Department of Public Works",
    "final_address": "8901 Forshey St",
    "address_councildis": "A",
    "status": "Pending",
    "rowid": "919152",
    "final_x": "3664914.11469",
    "final_y": "535873.982855",
    "longitude": "-90.12029725253844",
    "latitude": "29.967960872763268",
    "geocoded_column": {
      "latitude": "29.967960872763268",
      "longitude": "-90.12029725253844"
    }
  },
  {
    "service_request": "2022-919151",
    "request_type": "Trash/Recycling",
    "request_reason": "Missed Trash Pick-Up",
    "date_created": "2022-09-13T17:57:10.000",
    "date_modified": "2022-09-13T17:57:11.000",
    "request_status": "Pending",
    "responsible_agency": "Department of Sanitation",
    "final_address": "2120 Columbus St, New Orleans, Louisiana, 70119",
    "address_councildis": "D",
    "status": "Assigned to Contractor",
    "contractor": "Metro Disposal",
    "rowid": "919151",
    "final_x": "3680150.51183",
    "final_y": "538345.262793",
    "longitude": "-90.07209429580024",
    "latitude": "29.974303728561466",
    "geocoded_column": {
      "latitude": "29.974303728561466",
      "longitude": "-90.07209429580024"
    }
  },
  {
    "service_request": "2022-919150",
    "request_type": "Trash/Recycling",
    "request_reason": "Missed Trash Pick-Up",
    "date_created": "2022-09-13T17:53:22.000",
    "date_modified": "2022-09-13T17:53:23.000",
    "request_status": "Pending",
    "responsible_agency": "Department of Sanitation",
    "final_address": "1921 Soniat St",
    "address_councildis": "B",
    "status": "Assigned to Contractor",
    "contractor": "Richards Disposal",
    "rowid": "919150",
    "final_x": "3668516.1899",
    "final_y": "522693.833722",
    "longitude": "-90.1093663525099",
    "latitude": "29.931614417811204",
    "geocoded_column": {
      "latitude": "29.931614417811204",
      "longitude": "-90.1093663525099"
    }
  },
  {
    "service_request": "2022-919148",
    "request_type": "Trash/Recycling",
    "request_reason": "Repair Trash Cart",
    "date_created": "2022-09-13T17:51:23.000",
    "date_modified": "2022-09-13T17:51:24.000",
    "request_status": "Pending",
    "responsible_agency": "Department of Sanitation",
    "final_address": "310 Abalon Ct",
    "address_councildis": "C",
    "status": "Assigned to Contractor",
    "contractor": "Richards Disposal",
    "rowid": "919148",
    "final_x": "3689430.66294",
    "final_y": "530602.214722",
    "longitude": "-90.04306085525288",
    "latitude": "29.9527289134004",
    "geocoded_column": {
      "latitude": "29.9527289134004",
      "longitude": "-90.04306085525288"
    }
  },
  {
    "service_request": "2022-919147",
    "request_type": "Trash/Recycling",
    "request_reason": "Missed Trash Pick-Up",
    "date_created": "2022-09-13T17:50:21.000",
    "date_modified": "2022-09-13T17:50:22.000",
    "request_status": "Pending",
    "responsible_agency": "Department of Sanitation",
    "final_address": "993 Crystal St",
    "address_councildis": "D",
    "status": "Assigned to Contractor",
    "contractor": "Metro Disposal",
    "rowid": "919147",
    "final_x": "3671518.51707",
    "final_y": "557163.762267",
    "longitude": "-90.09871584580539",
    "latitude": "30.026306465022707",
    "geocoded_column": {
      "latitude": "30.026306465022707",
      "longitude": "-90.09871584580539"
    }
  },
  {
    "service_request": "2022-919146",
    "request_type": "Trash/Recycling",
    "request_reason": "Missed Trash Pick-Up",
    "date_created": "2022-09-13T17:49:08.000",
    "date_modified": "2022-09-13T17:49:08.000",
    "request_status": "Pending",
    "responsible_agency": "Department of Sanitation",
    "final_address": "6560 Catina St",
    "address_councildis": "A",
    "status": "Assigned to Contractor",
    "contractor": "Metro Disposal",
    "rowid": "919146",
    "final_x": "3666908.17607",
    "final_y": "551386.235669",
    "longitude": "-90.11347838901612",
    "latitude": "30.010556089200083",
    "geocoded_column": {
      "latitude": "30.010556089200083",
      "longitude": "-90.11347838901612"
    }
  },
  {
    "service_request": "2022-919145",
    "request_type": "Trash/Recycling",
    "request_reason": "Missed Trash Pick-Up",
    "date_created": "2022-09-13T17:48:32.000",
    "date_modified": "2022-09-13T17:48:33.000",
    "request_status": "Pending",
    "responsible_agency": "Department of Sanitation",
    "final_address": "3515 Annunciation St",
    "address_councildis": "B",
    "status": "Assigned to Contractor",
    "contractor": "Richards Disposal",
    "rowid": "919145",
    "final_x": "3674664.22926",
    "final_y": "518365.513846",
    "longitude": "-90.09010592915915",
    "latitude": "29.91953092403596",
    "geocoded_column": {
      "latitude": "29.91953092403596",
      "longitude": "-90.09010592915915"
    }
  },
  {
    "service_request": "2022-919144",
    "request_type": "Trash/Recycling",
    "request_reason": "Missed Trash Pick-Up",
    "date_created": "2022-09-13T17:46:06.000",
    "date_modified": "2022-09-13T17:46:06.000",
    "request_status": "Pending",
    "responsible_agency": "Department of Sanitation",
    "final_address": "413 Constantinople St",
    "address_councildis": "B",
    "status": "Assigned to Contractor",
    "contractor": "Richards Disposal",
    "rowid": "919144",
    "final_x": "3672691.84276",
    "final_y": "517475.15071",
    "longitude": "-90.09636212350053",
    "latitude": "29.917141405070293",
    "geocoded_column": {
      "latitude": "29.917141405070293",
      "longitude": "-90.09636212350053"
    }
  },
  {
    "service_request": "2022-919143",
    "request_type": "Trash/Recycling",
    "request_reason": "Missed Trash Pick-Up",
    "date_created": "2022-09-13T17:43:08.000",
    "date_modified": "2022-09-13T17:43:10.000",
    "request_status": "Pending",
    "responsible_agency": "Department of Sanitation",
    "final_address": "6135 Catina St",
    "address_councildis": "A",
    "status": "Assigned to Contractor",
    "contractor": "Metro Disposal",
    "rowid": "919143",
    "final_x": "3666900.32833",
    "final_y": "548430.595666",
    "longitude": "-90.11360258490949",
    "latitude": "30.002429336636297",
    "geocoded_column": {
      "latitude": "30.002429336636297",
      "longitude": "-90.11360258490949"
    }
  },
  {
    "service_request": "2022-919142",
    "request_type": "Trash/Recycling",
    "request_reason": "Missed Trash Pick-Up",
    "date_created": "2022-09-13T17:39:42.000",
    "date_modified": "2022-09-13T17:39:43.000",
    "request_status": "Pending",
    "responsible_agency": "Department of Sanitation",
    "final_address": "4215 Tchoupitoulas St",
    "address_councildis": "B",
    "status": "Assigned to Contractor",
    "contractor": "Richards Disposal",
    "rowid": "919142",
    "final_x": "3671809.21697",
    "final_y": "517567.230134",
    "longitude": "-90.09914494285242",
    "latitude": "29.91742076434899",
    "geocoded_column": {
      "latitude": "29.91742076434899",
      "longitude": "-90.09914494285242"
    }
  },
  {
    "service_request": "2022-919141",
    "request_type": "Parks & Parkways",
    "request_reason": "Request Grass Cutting Service (City Owned Property)",
    "date_created": "2022-09-13T17:39:12.000",
    "date_modified": "2022-09-13T17:39:12.000",
    "request_status": "Pending",
    "responsible_agency": "Department of Parks & Parkway",
    "final_address": "6400 Pauline Dr",
    "address_councildis": "D",
    "status": "Pending",
    "rowid": "919141",
    "final_x": "3691109.19561",
    "final_y": "557172.768987",
    "longitude": "-90.03681151415633",
    "latitude": "30.02573627238461",
    "geocoded_column": {
      "latitude": "30.02573627238461",
      "longitude": "-90.03681151415633"
    }
  },
  {
    "service_request": "2022-919140",
    "request_type": "Trash/Recycling",
    "request_reason": "Missed Trash Pick-Up",
    "date_created": "2022-09-13T17:37:44.000",
    "date_modified": "2022-09-13T17:37:46.000",
    "request_status": "Pending",
    "responsible_agency": "Department of Sanitation",
    "final_address": "3102 Palmyra St",
    "address_councildis": "B",
    "status": "Assigned to Contractor",
    "contractor": "Richards Disposal",
    "rowid": "919140",
    "final_x": "3673508.27854",
    "final_y": "535407.746502",
    "longitude": "-90.09317247693029",
    "latitude": "29.966425912910072",
    "geocoded_column": {
      "latitude": "29.966425912910072",
      "longitude": "-90.09317247693029"
    }
  },
  {
    "service_request": "2022-919139",
    "request_type": "Trash/Recycling",
    "request_reason": "Start Trash Service",
    "date_created": "2022-09-13T17:35:42.000",
    "date_modified": "2022-09-13T17:35:42.000",
    "request_status": "Pending",
    "responsible_agency": "Department of Sanitation",
    "final_address": "8600 Oak St",
    "address_councildis": "A",
    "status": "Assigned to Contractor",
    "contractor": "Richards Disposal",
    "rowid": "919139",
    "final_x": "3660579.93126",
    "final_y": "529573.212929",
    "longitude": "-90.13419306501314",
    "latitude": "29.950761246532682",
    "geocoded_column": {
      "latitude": "29.950761246532682",
      "longitude": "-90.13419306501314"
    }
  },
  {
    "service_request": "2022-919138",
    "request_type": "Trash/Recycling",
    "request_reason": "Missed Trash Pick-Up",
    "date_created": "2022-09-13T17:34:59.000",
    "date_modified": "2022-09-13T17:35:00.000",
    "request_status": "Pending",
    "responsible_agency": "Department of Sanitation",
    "final_address": "4603 S Derbigny St",
    "address_councildis": "B",
    "status": "Assigned to Contractor",
    "contractor": "Richards Disposal",
    "rowid": "919138",
    "final_x": "3669509.73831",
    "final_y": "526236.717438",
    "longitude": "-90.10611003734729",
    "latitude": "29.94132698755996",
    "geocoded_column": {
      "latitude": "29.94132698755996",
      "longitude": "-90.10611003734729"
    }
  },
  {
    "service_request": "2022-919137",
    "request_type": "Traffic Signals/Signs/Striping/Streetlights",
    "request_reason": "Street Light Outage/Malfunction",
    "date_created": "2022-09-13T17:34:20.000",
    "date_modified": "2022-09-13T17:34:21.000",
    "request_status": "Pending",
    "responsible_agency": "Department of Public Works",
    "final_address": "LELONG AVE & WISNER BLVD & ESPLANADE AVE & N CARROLLTON AVE",
    "address_councildis": "A",
    "status": "Pending",
    "contractor": "Legacy Professional Services",
    "rowid": "919137",
    "final_x": "3674451.08",
    "final_y": "541919.89",
    "longitude": "-90.08997196364814",
    "latitude": "29.984303995316992",
    "geocoded_column": {
      "latitude": "29.984303995316992",
      "longitude": "-90.08997196364814"
    }
  },
  {
    "service_request": "2022-919136",
    "request_type": "Traffic Signals/Signs/Striping/Streetlights",
    "request_reason": "Traffic Signal Malfunctioning/Damaged",
    "date_created": "2022-09-13T17:32:45.000",
    "date_modified": "2022-09-13T17:32:45.000",
    "request_status": "Pending",
    "responsible_agency": "Department of Public Works",
    "final_address": "301 N Broad St",
    "address_councildis": "B",
    "status": "Pending",
    "rowid": "919136",
    "final_x": "3675814.17819",
    "final_y": "535871.595591",
    "longitude": "-90.08587452380934",
    "latitude": "29.967632515711415",
    "geocoded_column": {
      "latitude": "29.967632515711415",
      "longitude": "-90.08587452380934"
    }
  },
  {
    "service_request": "2022-919135",
    "request_type": "Traffic Signals/Signs/Striping/Streetlights",
    "request_reason": "Street Light Outage/Malfunction",
    "date_created": "2022-09-13T17:31:47.000",
    "date_modified": "2022-09-13T17:31:48.000",
    "request_status": "Pending",
    "responsible_agency": "Department of Public Works",
    "final_address": "WISNER BLVD & DESAIX BLVD",
    "address_councildis": "A",
    "status": "Pending",
    "contractor": "Legacy Professional Services",
    "rowid": "919135",
    "final_x": "3675036.33",
    "final_y": "543749.61",
    "longitude": "-90.08806061122438",
    "latitude": "29.98931761708636",
    "geocoded_column": {
      "latitude": "29.98931761708636",
      "longitude": "-90.08806061122438"
    }
  },
  {
    "service_request": "2022-919134",
    "request_type": "Trash/Recycling",
    "request_reason": "Missed Trash Pick-Up",
    "date_created": "2022-09-13T17:30:42.000",
    "date_modified": "2022-09-13T17:30:43.000",
    "request_status": "Pending",
    "responsible_agency": "Department of Sanitation",
    "final_address": "2639 De Soto St",
    "address_councildis": "A",
    "status": "Assigned to Contractor",
    "contractor": "Metro Disposal",
    "rowid": "919134",
    "final_x": "3678035.64846",
    "final_y": "539312.08321",
    "longitude": "-90.07874010139628",
    "latitude": "29.977025990472548",
    "geocoded_column": {
      "latitude": "29.977025990472548",
      "longitude": "-90.07874010139628"
    }
  },
  {
    "service_request": "2022-919133",
    "request_type": "Property Maintenance",
    "request_reason": "Property Maintenance",
    "date_created": "2022-09-13T17:27:48.000",
    "date_modified": "2022-09-13T17:27:48.000",
    "request_status": "Pending",
    "responsible_agency": "Department of Code Enforcement",
    "final_address": "5935 Spain St",
    "address_councildis": "D",
    "status": "Pending",
    "rowid": "919133",
    "final_x": "3684687.86965",
    "final_y": "555014.136665",
    "longitude": "-90.05717796422162",
    "latitude": "30.019999049236983",
    "geocoded_column": {
      "latitude": "30.019999049236983",
      "longitude": "-90.05717796422162"
    }
  },
  {
    "service_request": "2022-919132",
    "request_type": "Trash/Recycling",
    "request_reason": "Missed Trash Pick-Up",
    "date_created": "2022-09-13T17:25:19.000",
    "date_modified": "2022-09-13T17:25:19.000",
    "request_status": "Pending",
    "responsible_agency": "Department of Sanitation",
    "final_address": "2502 Jasmine St",
    "address_councildis": "D",
    "status": "Assigned to Contractor",
    "contractor": "Metro Disposal",
    "rowid": "919132",
    "final_x": "3686307.14607",
    "final_y": "547988.293074",
    "longitude": "-90.0523097607821",
    "latitude": "30.000630859396882",
    "geocoded_column": {
      "latitude": "30.000630859396882",
      "longitude": "-90.0523097607821"
    }
  },
  {
    "service_request": "2022-919131",
    "request_type": "Trash/Recycling",
    "request_reason": "Missed Trash Pick-Up",
    "date_created": "2022-09-13T17:20:52.000",
    "date_modified": "2022-09-13T17:20:53.000",
    "request_status": "Pending",
    "responsible_agency": "Department of Sanitation",
    "final_address": "6555 Memphis St",
    "address_councildis": "A",
    "status": "Assigned to Contractor",
    "contractor": "Metro Disposal",
    "rowid": "919131",
    "final_x": "3669624.07943",
    "final_y": "551028.283669",
    "longitude": "-90.10490990952725",
    "latitude": "30.009492065982442",
    "geocoded_column": {
      "latitude": "30.009492065982442",
      "longitude": "-90.10490990952725"
    }
  },
  {
    "service_request": "2022-919130",
    "request_type": "Trash/Recycling",
    "request_reason": "Request a Large Item Pick Up",
    "date_created": "2022-09-13T17:19:25.000",
    "date_modified": "2022-09-13T17:19:26.000",
    "request_status": "Pending",
    "responsible_agency": "Department of Sanitation",
    "final_address": "6910 Camberley Dr",
    "address_councildis": "E",
    "status": "Assigned to Contractor",
    "contractor": "Metro Disposal",
    "rowid": "919130",
    "final_x": "3713350.91576",
    "final_y": "564107.623073",
    "longitude": "-89.96627002179103",
    "latitude": "30.04409360655841",
    "geocoded_column": {
      "latitude": "30.04409360655841",
      "longitude": "-89.96627002179103"
    }
  },
  {
    "service_request": "2022-919127",
    "request_type": "Trash/Recycling",
    "request_reason": "MIssed Recycling Pick-Up",
    "date_created": "2022-09-13T17:10:17.000",
    "date_modified": "2022-09-13T17:10:18.000",
    "request_status": "Pending",
    "responsible_agency": "Department of Sanitation",
    "final_address": "814 Ida St",
    "address_councildis": "A",
    "status": "Assigned to Contractor",
    "contractor": "Richards Disposal",
    "rowid": "919127",
    "final_x": "3673125.75246",
    "final_y": "540045.191691",
    "longitude": "-90.0942221201511",
    "latitude": "29.97918869391846",
    "geocoded_column": {
      "latitude": "29.97918869391846",
      "longitude": "-90.0942221201511"
    }
  },
  {
    "service_request": "2022-919126",
    "request_type": "Traffic Signals/Signs/Striping/Streetlights",
    "request_reason": "Street Light Outage/Malfunction",
    "date_created": "2022-09-13T17:08:48.000",
    "date_modified": "2022-09-13T17:08:49.000",
    "request_status": "Pending",
    "responsible_agency": "Department of Public Works",
    "final_address": "443 Wiltz Ln",
    "address_councildis": "C",
    "status": "Pending",
    "contractor": "Legacy Professional Services",
    "rowid": "919126",
    "final_x": "3697460.62359",
    "final_y": "526518.715262",
    "longitude": "-90.01785400411956",
    "latitude": "29.94124964611346",
    "geocoded_column": {
      "latitude": "29.94124964611346",
      "longitude": "-90.01785400411956"
    }
  },
  {
    "service_request": "2022-919125",
    "request_type": "Trash/Recycling",
    "request_reason": "Missed Trash Pick-Up",
    "date_created": "2022-09-13T17:08:46.000",
    "date_modified": "2022-09-13T17:08:46.000",
    "request_status": "Pending",
    "responsible_agency": "Department of Sanitation",
    "final_address": "2639 De Soto St",
    "address_councildis": "A",
    "status": "Assigned to Contractor",
    "contractor": "Metro Disposal",
    "rowid": "919125",
    "final_x": "3678035.64846",
    "final_y": "539312.08321",
    "longitude": "-90.07874010139628",
    "latitude": "29.977025990472548",
    "geocoded_column": {
      "latitude": "29.977025990472548",
      "longitude": "-90.07874010139628"
    }
  },
  {
    "service_request": "2022-919124",
    "request_type": "Property Maintenance",
    "request_reason": "Property Maintenance",
    "date_created": "2022-09-13T17:04:59.000",
    "date_modified": "2022-09-13T17:04:59.000",
    "request_status": "Pending",
    "responsible_agency": "Department of Code Enforcement",
    "final_address": "447 Wiltz Ln",
    "address_councildis": "C",
    "status": "Pending",
    "rowid": "919124",
    "final_x": "3697459.53847",
    "final_y": "526452.525694",
    "longitude": "-90.01785982912345",
    "latitude": "29.941067682042842",
    "geocoded_column": {
      "latitude": "29.941067682042842",
      "longitude": "-90.01785982912345"
    }
  },
  {
    "service_request": "2022-919123",
    "request_type": "Trash/Recycling",
    "request_reason": "Repair Recycling Cart",
    "date_created": "2022-09-13T17:02:32.000",
    "date_modified": "2022-09-13T17:02:32.000",
    "request_status": "Pending",
    "responsible_agency": "Department of Sanitation",
    "final_address": "814 Taft Pl",
    "address_councildis": "A",
    "status": "Pending",
    "rowid": "919123",
    "final_x": "3673825.17774",
    "final_y": "539529.816522",
    "longitude": "-90.09203069261666",
    "latitude": "29.977750772550664",
    "geocoded_column": {
      "latitude": "29.977750772550664",
      "longitude": "-90.09203069261666"
    }
  },
  {
    "service_request": "2022-919122",
    "request_type": "Trash/Recycling",
    "request_reason": "Missed Trash Pick-Up",
    "date_created": "2022-09-13T17:01:28.000",
    "date_modified": "2022-09-13T17:01:28.000",
    "request_status": "Pending",
    "responsible_agency": "Department of Sanitation",
    "final_address": "1512 General Pershing St",
    "address_councildis": "B",
    "status": "Assigned to Contractor",
    "contractor": "Richards Disposal",
    "rowid": "919122",
    "final_x": "3671215.61991",
    "final_y": "520705.571577",
    "longitude": "-90.10091205336771",
    "latitude": "29.92606777202637",
    "geocoded_column": {
      "latitude": "29.92606777202637",
      "longitude": "-90.10091205336771"
    }
  },
  {
    "service_request": "2022-919121",
    "request_type": "Trash/Recycling",
    "request_reason": "Request a Large Item Pick Up",
    "date_created": "2022-09-13T16:56:49.000",
    "date_modified": "2022-09-13T16:56:49.000",
    "request_status": "Pending",
    "responsible_agency": "Department of Sanitation",
    "final_address": "5535 Wimbledon Ct, New Orleans, Louisiana, 70131",
    "address_councildis": "C",
    "status": "Assigned to Contractor",
    "contractor": "Richards Disposal",
    "rowid": "919121",
    "final_x": "3704553.43748",
    "final_y": "518981.781111",
    "longitude": "-89.99573860096585",
    "latitude": "29.920299905063672",
    "geocoded_column": {
      "latitude": "29.920299905063672",
      "longitude": "-89.99573860096585"
    }
  },
  {
    "service_request": "2022-919119",
    "request_type": "Trash/Recycling",
    "request_reason": "Request a Large Item Pick Up",
    "date_created": "2022-09-13T16:54:16.000",
    "date_modified": "2022-09-13T16:54:17.000",
    "request_status": "Pending",
    "responsible_agency": "Department of Sanitation",
    "final_address": "1418 Terpsichore St, New Orleans, Louisiana, 70130",
    "address_councildis": "B",
    "status": "Assigned to Contractor",
    "contractor": "Richards Disposal",
    "rowid": "919119",
    "final_x": "3679652.62811",
    "final_y": "524811.706748",
    "longitude": "-90.07413643524752",
    "latitude": "29.937106078755804",
    "geocoded_column": {
      "latitude": "29.937106078755804",
      "longitude": "-90.07413643524752"
    }
  },
  {
    "service_request": "2022-919118",
    "request_type": "Trash/Recycling",
    "request_reason": "Replace Trash Cart",
    "date_created": "2022-09-13T16:53:36.000",
    "date_modified": "2022-09-13T16:53:37.000",
    "request_status": "Pending",
    "responsible_agency": "Department of Sanitation",
    "final_address": "New Orleans,LA",
    "status": "Assigned to Contractor",
    "rowid": "919118",
    "longitude": "0.0",
    "latitude": "0.0",
    "geocoded_column": {
      "latitude": "0.0",
      "longitude": "0.0"
    }
  },
  {
    "service_request": "2022-919117",
    "request_type": "Trash/Recycling",
    "request_reason": "Missed Trash Pick-Up",
    "date_created": "2022-09-13T16:52:24.000",
    "date_modified": "2022-09-13T16:52:24.000",
    "request_status": "Pending",
    "responsible_agency": "Department of Sanitation",
    "final_address": "2 Bluebird St",
    "address_councildis": "D",
    "status": "Assigned to Contractor",
    "contractor": "Metro Disposal",
    "rowid": "919117",
    "final_x": "3673023.99553",
    "final_y": "554548.466072",
    "longitude": "-90.09404808233903",
    "latitude": "30.01907065289979",
    "geocoded_column": {
      "latitude": "30.01907065289979",
      "longitude": "-90.09404808233903"
    }
  },
  {
    "service_request": "2022-919116",
    "request_type": "Trash/Recycling",
    "request_reason": "Illegal Dumping",
    "date_created": "2022-09-13T16:49:38.000",
    "date_modified": "2022-09-13T16:49:39.000",
    "request_status": "Pending",
    "responsible_agency": "Department of Sanitation",
    "final_address": "5801 Vicksburg St",
    "address_councildis": "A",
    "status": "Pending",
    "rowid": "919116",
    "final_x": "3668844.42753",
    "final_y": "545978.685392",
    "longitude": "-90.1075437757926",
    "latitude": "29.99563038577434",
    "geocoded_column": {
      "latitude": "29.99563038577434",
      "longitude": "-90.1075437757926"
    }
  },
  {
    "service_request": "2022-919115",
    "request_type": "Trash/Recycling",
    "request_reason": "Request a Large Item Pick Up",
    "date_created": "2022-09-13T16:45:45.000",
    "date_modified": "2022-09-13T16:45:46.000",
    "request_status": "Pending",
    "responsible_agency": "Department of Sanitation",
    "final_address": "3837 Jena St",
    "address_councildis": "B",
    "status": "Assigned to Contractor",
    "contractor": "Richards Disposal",
    "rowid": "919115",
    "final_x": "3669713.49383",
    "final_y": "528770.170624",
    "longitude": "-90.10538102238985",
    "latitude": "29.94828715754187",
    "geocoded_column": {
      "latitude": "29.94828715754187",
      "longitude": "-90.10538102238985"
    }
  },
  {
    "service_request": "2022-919114",
    "request_type": "Trash/Recycling",
    "request_reason": "Request a Large Item Pick Up",
    "date_created": "2022-09-13T16:45:17.000",
    "date_modified": "2022-09-13T16:45:17.000",
    "request_status": "Pending",
    "responsible_agency": "Department of Sanitation",
    "final_address": "7721 W Laverne St",
    "address_councildis": "E",
    "status": "Assigned to Contractor",
    "contractor": "Metro Disposal",
    "rowid": "919114",
    "final_x": "3695137.9855",
    "final_y": "559021.722396",
    "longitude": "-90.02401438909969",
    "latitude": "30.03069423056823",
    "geocoded_column": {
      "latitude": "30.03069423056823",
      "longitude": "-90.02401438909969"
    }
  },
  {
    "service_request": "2022-919113",
    "request_type": "Property Maintenance",
    "request_reason": "Property Maintenance",
    "date_created": "2022-09-13T16:43:44.000",
    "date_modified": "2022-09-13T16:43:45.000",
    "request_status": "Pending",
    "responsible_agency": "Department of Code Enforcement",
    "final_address": "2613 Mazant St",
    "address_councildis": "D",
    "status": "Pending",
    "rowid": "919113",
    "final_x": "3693587.05801",
    "final_y": "541010.574091",
    "longitude": "-90.02956293255886",
    "latitude": "29.981218872129073",
    "geocoded_column": {
      "latitude": "29.981218872129073",
      "longitude": "-90.02956293255886"
    }
  },
  {
    "service_request": "2022-919112",
    "request_type": "Trash/Recycling",
    "request_reason": "Missed Trash Pick-Up",
    "date_created": "2022-09-13T16:41:14.000",
    "date_modified": "2022-09-13T16:41:15.000",
    "request_status": "Pending",
    "responsible_agency": "Department of Sanitation",
    "final_address": "3915 Chestnut St",
    "address_councildis": "B",
    "status": "Assigned to Contractor",
    "contractor": "Richards Disposal",
    "rowid": "919112",
    "final_x": "3672752.805",
    "final_y": "519741.469688",
    "longitude": "-90.09609245941724",
    "latitude": "29.923371249886785",
    "geocoded_column": {
      "latitude": "29.923371249886785",
      "longitude": "-90.09609245941724"
    }
  },
  {
    "service_request": "2022-919111",
    "request_type": "Property Maintenance",
    "request_reason": "Property Maintenance",
    "date_created": "2022-09-13T16:39:39.000",
    "date_modified": "2022-09-13T16:39:40.000",
    "request_status": "Pending",
    "responsible_agency": "Department of Code Enforcement",
    "final_address": "2200 Benton St",
    "address_councildis": "E",
    "status": "Pending",
    "rowid": "919111",
    "final_x": "3700382.82621",
    "final_y": "537566.682184",
    "longitude": "-90.00822474326634",
    "latitude": "29.971535056431076",
    "geocoded_column": {
      "latitude": "29.971535056431076",
      "longitude": "-90.00822474326634"
    }
  },
  {
    "service_request": "2022-919110",
    "request_type": "Trash/Recycling",
    "request_reason": "Illegal Dumping",
    "date_created": "2022-09-13T16:39:06.000",
    "date_modified": "2022-09-13T16:39:06.000",
    "request_status": "Pending",
    "responsible_agency": "Department of Sanitation",
    "final_address": "3802 Dauphine St",
    "address_councildis": "C",
    "status": "Pending",
    "rowid": "919110",
    "final_x": "3690979.57481",
    "final_y": "534212.453189",
    "longitude": "-90.03804123929405",
    "latitude": "29.9626077639324",
    "geocoded_column": {
      "latitude": "29.9626077639324",
      "longitude": "-90.03804123929405"
    }
  },
  {
    "service_request": "2022-919109",
    "request_type": "Trash/Recycling",
    "request_reason": "Missed Trash Pick-Up",
    "date_created": "2022-09-13T16:35:24.000",
    "date_modified": "2022-09-13T16:35:25.000",
    "request_status": "Pending",
    "responsible_agency": "Department of Sanitation",
    "final_address": "3941 Piedmont Dr",
    "address_councildis": "D",
    "status": "Assigned to Contractor",
    "contractor": "Metro Disposal",
    "rowid": "919109",
    "final_x": "3685387.14588",
    "final_y": "547243.187025",
    "longitude": "-90.05524235424207",
    "latitude": "29.998610335142036",
    "geocoded_column": {
      "latitude": "29.998610335142036",
      "longitude": "-90.05524235424207"
    }
  },
  {
    "service_request": "2022-919107",
    "request_type": "Trash/Recycling",
    "request_reason": "Missed Trash Pick-Up",
    "date_created": "2022-09-13T16:30:14.000",
    "date_modified": "2022-09-13T16:30:15.000",
    "request_status": "Pending",
    "responsible_agency": "Department of Sanitation",
    "final_address": "3400 BLK Cadiz St",
    "address_councildis": "B",
    "status": "Assigned to Contractor",
    "contractor": "Richards Disposal",
    "rowid": "919107",
    "final_x": "3669456.35036",
    "final_y": "527273.095832",
    "longitude": "-90.10624355319872",
    "latitude": "29.944178264150157",
    "geocoded_column": {
      "latitude": "29.944178264150157",
      "longitude": "-90.10624355319872"
    }
  },
  {
    "service_request": "2022-919106",
    "request_type": "Trash/Recycling",
    "request_reason": "Missed Trash Pick-Up",
    "date_created": "2022-09-13T16:29:40.000",
    "date_modified": "2022-09-13T16:29:41.000",
    "request_status": "Pending",
    "responsible_agency": "Department of Sanitation",
    "final_address": "3900 Block of General Taylor St, New Orleans, Louisiana, 70125",
    "status": "Assigned to Contractor",
    "rowid": "919106",
    "longitude": "0.0",
    "latitude": "0.0",
    "geocoded_column": {
      "latitude": "0.0",
      "longitude": "0.0"
    }
  },
  {
    "service_request": "2022-919105",
    "request_type": "Traffic Signals/Signs/Striping/Streetlights",
    "request_reason": "Street Light Outage/Malfunction",
    "date_created": "2022-09-13T16:27:41.000",
    "date_modified": "2022-09-13T16:27:42.000",
    "request_status": "Pending",
    "responsible_agency": "Department of Public Works",
    "final_address": "95 S Wren St",
    "address_councildis": "D",
    "status": "Pending",
    "contractor": "Legacy Professional Services",
    "rowid": "919105",
    "final_x": "3673185.23086",
    "final_y": "555812.150361",
    "longitude": "-90.09349543025606",
    "latitude": "30.022540535095143",
    "geocoded_column": {
      "latitude": "30.022540535095143",
      "longitude": "-90.09349543025606"
    }
  },
  {
    "service_request": "2022-919104",
    "request_type": "Traffic Signals/Signs/Striping/Streetlights",
    "request_reason": "Street Light Outage/Malfunction",
    "date_created": "2022-09-13T16:23:44.000",
    "date_modified": "2022-09-13T16:23:44.000",
    "request_status": "Pending",
    "responsible_agency": "Department of Public Works",
    "final_address": "4829 Rosemont Pl",
    "address_councildis": "E",
    "status": "Pending",
    "contractor": "Legacy Professional Services",
    "rowid": "919104",
    "final_x": "3702733.86346",
    "final_y": "555367.597849",
    "longitude": "-90.00014578088434",
    "latitude": "30.020405955428664",
    "geocoded_column": {
      "latitude": "30.020405955428664",
      "longitude": "-90.00014578088434"
    }
  },
  {
    "service_request": "2022-919103",
    "request_type": "Trash/Recycling",
    "request_reason": "Request a Large Item Pick Up",
    "date_created": "2022-09-13T16:21:51.000",
    "date_modified": "2022-09-13T16:21:52.000",
    "request_status": "Pending",
    "responsible_agency": "Department of Sanitation",
    "final_address": "5620 Berkley Dr",
    "address_councildis": "C",
    "status": "Assigned to Contractor",
    "contractor": "Richards Disposal",
    "rowid": "919103",
    "final_x": "3704689.73681",
    "final_y": "518198.01791",
    "longitude": "-89.99533726034052",
    "latitude": "29.91814045152805",
    "geocoded_column": {
      "latitude": "29.91814045152805",
      "longitude": "-89.99533726034052"
    }
  },
  {
    "service_request": "2022-919101",
    "request_type": "Traffic Signals/Signs/Striping/Streetlights",
    "request_reason": "Street Light Outage/Malfunction",
    "date_created": "2022-09-13T16:18:10.000",
    "date_modified": "2022-09-13T16:18:11.000",
    "request_status": "Pending",
    "responsible_agency": "Department of Public Works",
    "final_address": "19 Lark St",
    "address_councildis": "D",
    "status": "Pending",
    "contractor": "Legacy Professional Services",
    "rowid": "919101",
    "final_x": "3675882.88417",
    "final_y": "556304.448474",
    "longitude": "-90.08495452990218",
    "latitude": "30.023813640106567",
    "geocoded_column": {
      "latitude": "30.023813640106567",
      "longitude": "-90.08495452990218"
    }
  },
  {
    "service_request": "2022-919100",
    "request_type": "Trash/Recycling",
    "request_reason": "Missed Trash Pick-Up",
    "date_created": "2022-09-13T16:18:03.000",
    "date_modified": "2022-09-13T16:18:04.000",
    "request_status": "Pending",
    "responsible_agency": "Department of Sanitation",
    "final_address": "1723 Jena St",
    "address_councildis": "B",
    "status": "Assigned to Contractor",
    "contractor": "Richards Disposal",
    "rowid": "919100",
    "final_x": "3670494.01825",
    "final_y": "521406.463353",
    "longitude": "-90.1031661923814",
    "latitude": "29.92801632175874",
    "geocoded_column": {
      "latitude": "29.92801632175874",
      "longitude": "-90.1031661923814"
    }
  },
  {
    "service_request": "2022-919099",
    "request_type": "Trash/Recycling",
    "request_reason": "Missed Trash Pick-Up",
    "date_created": "2022-09-13T16:17:36.000",
    "date_modified": "2022-09-13T16:17:37.000",
    "request_status": "Pending",
    "responsible_agency": "Department of Sanitation",
    "final_address": "615 Exposition Blvd",
    "address_councildis": "A",
    "status": "Assigned to Contractor",
    "contractor": "Richards Disposal",
    "rowid": "919099",
    "final_x": "3662950.29107",
    "final_y": "519359.107447",
    "longitude": "-90.12704816381215",
    "latitude": "29.92260727140383",
    "geocoded_column": {
      "latitude": "29.92260727140383",
      "longitude": "-90.12704816381215"
    }
  },
  {
    "service_request": "2022-919098",
    "request_type": "Traffic Signals/Signs/Striping/Streetlights",
    "request_reason": "Street Light Outage/Malfunction",
    "date_created": "2022-09-13T16:15:16.000",
    "date_modified": "2022-09-13T16:15:16.000",
    "request_status": "Pending",
    "responsible_agency": "Department of Public Works",
    "final_address": "109 Lark St",
    "address_councildis": "D",
    "status": "Pending",
    "contractor": "Legacy Professional Services",
    "rowid": "919098",
    "final_x": "3674864.29409",
    "final_y": "556196.748954",
    "longitude": "-90.08817677621316",
    "latitude": "30.023547979881883",
    "geocoded_column": {
      "latitude": "30.023547979881883",
      "longitude": "-90.08817677621316"
    }
  },
  {
    "service_request": "2022-919097",
    "request_type": "Trash/Recycling",
    "request_reason": "Missed Trash Pick-Up",
    "date_created": "2022-09-13T16:14:33.000",
    "date_modified": "2022-09-13T16:14:35.000",
    "request_status": "Pending",
    "responsible_agency": "Department of Sanitation",
    "final_address": "1780 N Gayoso St",
    "address_councildis": "D",
    "status": "Assigned to Contractor",
    "contractor": "Metro Disposal",
    "rowid": "919097",
    "final_x": "3679166.62677",
    "final_y": "541914.405068",
    "longitude": "-90.07507785543403",
    "latitude": "29.984147374544133",
    "geocoded_column": {
      "latitude": "29.984147374544133",
      "longitude": "-90.07507785543403"
    }
  },