[
  {
    "service_request": "2026-1291803",
    "request_type": "Property Maintenance",
    "request_reason": "Property Maintenance",
    "date_created": "2026-06-17T23:51:26.000",
    "date_modified": "2026-06-17T23:51:28.000",
    "request_status": "Pending",
    "responsible_agency": "Department of Code Enforcement",
    "final_address": "1113 Canal St Apt 402",
    "address_councildis": "C",
    "status": "Pending",
    "rowid": "1291803",
    "final_x": "3679974.17979",
    "final_y": "531740.241283",
    "longitude": "-90.0728806611575",
    "latitude": "29.956147511249537",
    "geocoded_column": {
      "latitude": "29.956147511249537",
      "longitude": "-90.0728806611575"
    }
  },
  {
    "service_request": "2026-1291802",
    "request_type": "Trash/Recycling",
    "request_reason": "Missed Trash Pick-Up",
    "date_created": "2026-06-17T23:25:35.000",
    "date_modified": "2026-06-17T23:25:43.000",
    "request_status": "Pending",
    "responsible_agency": "Department of Sanitation",
    "final_address": "4843 Chrysler St",
    "address_councildis": "E",
    "status": "Assigned to Contractor",
    "contractor": "Waste Pro",
    "rowid": "1291802",
    "final_x": "3715304.18367",
    "final_y": "557325.524699",
    "longitude": "-89.960353727916",
    "latitude": "30.0253813387394",
    "geocoded_column": {
      "latitude": "30.0253813387394",
      "longitude": "-89.960353727916"
    }
  },
  {
    "service_request": "2026-1291801",
    "request_type": "Trash/Recycling",
    "request_reason": "Return Recycling Cart",
    "date_created": "2026-06-17T23:03:26.000",
    "date_modified": "2026-06-17T23:03:27.000",
    "request_status": "Pending",
    "responsible_agency": "Department of Sanitation",
    "final_address": "2615 Dauphine St",
    "address_councildis": "C",
    "status": "Pending",
    "rowid": "1291801",
    "final_x": "3686974.62076",
    "final_y": "535318.701574",
    "longitude": "-90.05064920744864",
    "latitude": "29.965773441057983",
    "geocoded_column": {
      "latitude": "29.965773441057983",
      "longitude": "-90.05064920744864"
    }
  },
  {
    "service_request": "2026-1291800",
    "request_type": "Streetlights",
    "request_reason": "Streetlight Outage/Malfunction",
    "date_created": "2026-06-17T21:56:33.000",
    "date_modified": "2026-06-17T21:56:35.000",
    "request_status": "Pending",
    "responsible_agency": "Department of Public Works",
    "final_address": "6732 General Diaz St",
    "address_councildis": "A",
    "status": "Pending",
    "rowid": "1291800",
    "final_x": "3669870.93223",
    "final_y": "552239.970454",
    "longitude": "-90.10408894521822",
    "latitude": "30.012816498913352",
    "geocoded_column": {
      "latitude": "30.012816498913352",
      "longitude": "-90.10408894521822"
    }
  },
  {
    "service_request": "2026-1291799",
    "request_type": "Streetlights",
    "request_reason": "Streetlight Outage/Malfunction",
    "date_created": "2026-06-17T21:54:47.000",
    "date_modified": "2026-06-17T21:54:49.000",
    "request_status": "Pending",
    "responsible_agency": "Department of Public Works",
    "final_address": "6732 General Diaz St",
    "address_councildis": "A",
    "status": "Pending",
    "rowid": "1291799",
    "final_x": "3669870.93223",
    "final_y": "552239.970454",
    "longitude": "-90.10408894521822",
    "latitude": "30.012816498913352",
    "geocoded_column": {
      "latitude": "30.012816498913352",
      "longitude": "-90.10408894521822"
    }
  },
  {
    "service_request": "2026-1291798",
    "request_type": "Trash/Recycling",
    "request_reason": "Replace Trash Cart",
    "date_created": "2026-06-17T21:36:02.000",
    "date_modified": "2026-06-17T21:36:04.000",
    "request_status": "Pending",
    "responsible_agency": "Department of Sanitation",
    "final_address": "784 Crystal St",
    "address_councildis": "D",
    "status": "Assigned to Contractor",
    "contractor": "IV Waste",
    "rowid": "1291798",
    "final_x": "3670320.45889",
    "final_y": "556120.68937",
    "longitude": "-90.10253698206303",
    "latitude": "30.023473828577732",
    "geocoded_column": {
      "latitude": "30.023473828577732",
      "longitude": "-90.10253698206303"
    }
  },
  {
    "service_request": "2026-1291797",
    "request_type": "Streetlights",
    "request_reason": "Streetlight Outage/Malfunction",
    "date_created": "2026-06-17T21:30:20.000",
    "date_modified": "2026-06-17T21:30:22.000",
    "request_status": "Pending",
    "responsible_agency": "Department of Public Works",
    "final_address": "116 16Th St",
    "address_councildis": "A",
    "status": "Pending",
    "rowid": "1291797",
    "final_x": "3665957.69402",
    "final_y": "548337.25269",
    "longitude": "-90.11658362818703",
    "latitude": "30.002200232525087",
    "geocoded_column": {
      "latitude": "30.002200232525087",
      "longitude": "-90.11658362818703"
    }
  },
  {
    "service_request": "2026-1291796",
    "request_type": "Streetlights",
    "request_reason": "Streetlight Outage/Malfunction",
    "date_created": "2026-06-17T21:27:49.000",
    "date_modified": "2026-06-17T21:27:51.000",
    "request_status": "Pending",
    "responsible_agency": "Department of Public Works",
    "final_address": "14184 Willowbrook Dr",
    "address_councildis": "E",
    "status": "Pending",
    "rowid": "1291796",
    "final_x": "3724859.38195",
    "final_y": "564263.925601",
    "longitude": "-89.92989261995228",
    "latitude": "30.044140819575695",
    "geocoded_column": {
      "latitude": "30.044140819575695",
      "longitude": "-89.92989261995228"
    }
  },
  {
    "service_request": "2026-1291795",
    "request_type": "Trash/Recycling",
    "request_reason": "Replace Trash Cart",
    "date_created": "2026-06-17T21:00:05.000",
    "date_modified": "2026-06-17T21:00:07.000",
    "request_status": "Pending",
    "responsible_agency": "Department of Sanitation",
    "final_address": "926 Second St",
    "address_councildis": "B",
    "status": "Assigned to Contractor",
    "contractor": "IV Waste",
    "rowid": "1291795",
    "final_x": "3678073.77365",
    "final_y": "520882.191993",
    "longitude": "-90.07925674785686",
    "latitude": "29.926348813256748",
    "geocoded_column": {
      "latitude": "29.926348813256748",
      "longitude": "-90.07925674785686"
    }
  },
  {
    "service_request": "2026-1291794",
    "request_type": "General Services",
    "request_reason": "General Service Request",
    "date_created": "2026-06-17T20:57:01.000",
    "date_modified": "2026-06-17T20:57:04.000",
    "request_status": "Pending",
    "responsible_agency": "Orleans Parish Communication District",
    "final_address": "7074 Read Blvd",
    "address_councildis": "E",
    "status": "Pending",
    "rowid": "1291794",
    "final_x": "3709457.0723",
    "final_y": "562038.022495",
    "longitude": "-89.97865351543348",
    "latitude": "30.038530193048402",
    "geocoded_column": {
      "latitude": "30.038530193048402",
      "longitude": "-89.97865351543348"
    }
  },
  {
    "service_request": "2026-1291793",
    "request_type": "Property Maintenance",
    "request_reason": "Property Maintenance",
    "date_created": "2026-06-17T20:54:18.000",
    "date_modified": "2026-06-17T20:54:22.000",
    "request_status": "Pending",
    "responsible_agency": "Department of Code Enforcement",
    "final_address": "5700 W Louis Prima Dr",
    "address_councildis": "E",
    "status": "Pending",
    "rowid": "1291793",
    "final_x": "3715893.42629",
    "final_y": "561568.341727",
    "longitude": "-89.9583309509173",
    "latitude": "30.037027959205663",
    "geocoded_column": {
      "latitude": "30.037027959205663",
      "longitude": "-89.9583309509173"
    }
  },
  {
    "service_request": "2026-1291792",
    "request_type": "Tree Service",
    "request_reason": "Tree Trim",
    "date_created": "2026-06-17T20:50:18.000",
    "date_modified": "2026-06-17T20:50:20.000",
    "request_status": "Pending",
    "responsible_agency": "Department of Parks & Parkways",
    "final_address": "5701 Read Blvd",
    "address_councildis": "E",
    "status": "Pending",
    "rowid": "1291792",
    "final_x": "3711195.10277",
    "final_y": "560358.163677",
    "longitude": "-89.97322394143475",
    "latitude": "30.033854637041184",
    "geocoded_column": {
      "latitude": "30.033854637041184",
      "longitude": "-89.97322394143475"
    }
  },
  {
    "service_request": "2026-1291791",
    "request_type": "Trash/Recycling",
    "request_reason": "Missed Trash Pick-Up",
    "date_created": "2026-06-17T20:46:17.000",
    "date_modified": "2026-06-17T20:46:19.000",
    "request_status": "Pending",
    "responsible_agency": "Department of Sanitation",
    "final_address": "5706 W Louis Prima Dr",
    "address_councildis": "E",
    "status": "Assigned to Contractor",
    "contractor": "Waste Pro",
    "rowid": "1291791",
    "final_x": "3715856.08504",
    "final_y": "561620.272351",
    "longitude": "-89.95844698701346",
    "latitude": "30.037171979515666",
    "geocoded_column": {
      "latitude": "30.037171979515666",
      "longitude": "-89.95844698701346"
    }
  },
  {
    "service_request": "2026-1291790",
    "request_type": "Trash/Recycling",
    "request_reason": "Illegal Dumping",
    "date_created": "2026-06-17T20:41:58.000",
    "date_modified": "2026-06-17T20:42:00.000",
    "request_status": "Pending",
    "responsible_agency": "Department of Sanitation",
    "final_address": "7565 Forest Glen Rd",
    "address_councildis": "E",
    "status": "Pending",
    "rowid": "1291790",
    "final_x": "3709864.03345",
    "final_y": "564771.634786",
    "longitude": "-89.97726518188486",
    "latitude": "30.04603329743969",
    "geocoded_column": {
      "latitude": "30.04603329743969",
      "longitude": "-89.97726518188486"
    }
  },
  {
    "service_request": "2026-1291789",
    "request_type": "Trash/Recycling",
    "request_reason": "Request a Large Item Pick Up",
    "date_created": "2026-06-17T20:10:47.000",
    "date_modified": "2026-06-17T20:10:49.000",
    "request_status": "Pending",
    "responsible_agency": "Department of Sanitation",
    "final_address": "2807 Calhoun St",
    "address_councildis": "A",
    "status": "Assigned to Contractor",
    "contractor": "IV Waste",
    "rowid": "1291789",
    "final_x": "3666671.01236",
    "final_y": "526983.80883",
    "longitude": "-90.11504739422583",
    "latitude": "29.94346454257683",
    "geocoded_column": {
      "latitude": "29.94346454257683",
      "longitude": "-90.11504739422583"
    }
  },
  {
    "service_request": "2026-1291788",
    "request_type": "Trash/Recycling",
    "request_reason": "Order Recycling Cart",
    "date_created": "2026-06-17T19:55:48.000",
    "date_modified": "2026-06-17T19:55:50.000",
    "request_status": "Pending",
    "responsible_agency": "Department of Sanitation",
    "final_address": "5833 Fontainebleau Dr",
    "address_councildis": "B",
    "status": "Pending",
    "rowid": "1291788",
    "final_x": "3668295.0434",
    "final_y": "529969.291137",
    "longitude": "-90.10981924139543",
    "latitude": "29.95162606932585",
    "geocoded_column": {
      "latitude": "29.95162606932585",
      "longitude": "-90.10981924139543"
    }
  },
  {
    "service_request": "2026-1291787",
    "request_type": "Trash/Recycling",
    "request_reason": "Replace Trash Cart",
    "date_created": "2026-06-17T19:42:17.000",
    "date_modified": "2026-06-17T19:42:21.000",
    "request_status": "Pending",
    "responsible_agency": "Department of Sanitation",
    "final_address": "3324 Esplanade Ave",
    "address_councildis": "A",
    "status": "Assigned to Contractor",
    "contractor": "IV Waste",
    "rowid": "1291787",
    "final_x": "3675835.08366",
    "final_y": "540681.332235",
    "longitude": "-90.08564310986975",
    "latitude": "29.98085702211278",
    "geocoded_column": {
      "latitude": "29.98085702211278",
      "longitude": "-90.08564310986975"
    }
  },
  {
    "service_request": "2026-1291786",
    "request_type": "Trash/Recycling",
    "request_reason": "Missed Trash Pick-Up",
    "date_created": "2026-06-17T19:39:45.000",
    "date_modified": "2026-06-17T19:39:49.000",
    "request_status": "Pending",
    "responsible_agency": "Department of Sanitation",
    "final_address": "1711 Pauline St",
    "address_councildis": "D",
    "status": "Assigned to Contractor",
    "contractor": "IV Waste",
    "rowid": "1291786",
    "final_x": "3691840.35228",
    "final_y": "537801.38548",
    "longitude": "-90.03519463378832",
    "latitude": "29.97244927900455",
    "geocoded_column": {
      "latitude": "29.97244927900455",
      "longitude": "-90.03519463378832"
    }
  },
  {
    "service_request": "2026-1291785",
    "request_type": "Trash/Recycling",
    "request_reason": "Damaged Caused By Contractor",
    "date_created": "2026-06-17T19:26:04.000",
    "date_modified": "2026-06-17T19:26:08.000",
    "request_status": "Pending",
    "responsible_agency": "Department of Sanitation",
    "final_address": "2124 Pine St",
    "address_councildis": "A",
    "status": "Assigned to Contractor",
    "contractor": "IV Waste",
    "rowid": "1291785",
    "final_x": "3665752.69978",
    "final_y": "529540.485377",
    "longitude": "-90.11786113034742",
    "latitude": "29.950521392505987",
    "geocoded_column": {
      "latitude": "29.950521392505987",
      "longitude": "-90.11786113034742"
    }
  },
  {
    "service_request": "2026-1291784",
    "request_type": "Trash/Recycling",
    "request_reason": "Damaged Caused By Contractor",
    "date_created": "2026-06-17T19:00:57.000",
    "date_modified": "2026-06-17T19:01:02.000",
    "request_status": "Pending",
    "responsible_agency": "Department of Sanitation",
    "final_address": "4925 Debore Cir",
    "address_councildis": "D",
    "status": "Assigned to Contractor",
    "contractor": "IV Waste",
    "rowid": "1291784",
    "final_x": "3692377.17168",
    "final_y": "552336.148886",
    "longitude": "-90.03297833777088",
    "latitude": "30.01239786742511",
    "geocoded_column": {
      "latitude": "30.01239786742511",
      "longitude": "-90.03297833777088"
    }
  },
  {
    "service_request": "2026-1291783",
    "request_type": "Property Maintenance",
    "request_reason": "Property Maintenance",
    "date_created": "2026-06-17T18:56:42.000",
    "date_modified": "2026-06-17T18:56:43.000",
    "request_status": "Pending",
    "responsible_agency": "Department of Code Enforcement",
    "final_address": "8410 Hickory St",
    "address_councildis": "A",
    "status": "Pending",
    "rowid": "1291783",
    "final_x": "3662471.57818",
    "final_y": "530708.622018",
    "longitude": "-90.12818247283094",
    "latitude": "29.95382868649613",
    "geocoded_column": {
      "latitude": "29.95382868649613",
      "longitude": "-90.12818247283094"
    }
  },
  {
    "service_request": "2026-1291782",
    "request_type": "Trash/Recycling",
    "request_reason": "Replace Trash Cart",
    "date_created": "2026-06-17T18:55:41.000",
    "date_modified": "2026-06-17T18:55:43.000",
    "request_status": "Pending",
    "responsible_agency": "Department of Sanitation",
    "final_address": "300 Leslie Ln",
    "address_councildis": "A",
    "status": "Assigned to Contractor",
    "contractor": "IV Waste",
    "rowid": "1291782",
    "final_x": "3665045.83239",
    "final_y": "547316.106001",
    "longitude": "-90.11949849271788",
    "latitude": "29.99941902330447",
    "geocoded_column": {
      "latitude": "29.99941902330447",
      "longitude": "-90.11949849271788"
    }
  },
  {
    "service_request": "2026-1291781",
    "request_type": "Property Maintenance",
    "request_reason": "Property Maintenance",
    "date_created": "2026-06-17T18:54:48.000",
    "date_modified": "2026-06-17T18:54:50.000",
    "request_status": "Pending",
    "responsible_agency": "Department of Code Enforcement",
    "final_address": "8410 Hickory St",
    "address_councildis": "A",
    "status": "Pending",
    "rowid": "1291781",
    "final_x": "3662471.57818",
    "final_y": "530708.622018",
    "longitude": "-90.12818247283094",
    "latitude": "29.95382868649613",
    "geocoded_column": {
      "latitude": "29.95382868649613",
      "longitude": "-90.12818247283094"
    }
  },
  {
    "service_request": "2026-1291780",
    "request_type": "Trash/Recycling",
    "request_reason": "Order Trash Cart",
    "date_created": "2026-06-17T18:46:27.000",
    "date_modified": "2026-06-17T18:46:29.000",
    "request_status": "Pending",
    "responsible_agency": "Department of Sanitation",
    "final_address": "2376 New York St",
    "address_councildis": "D",
    "status": "Assigned to Contractor",
    "contractor": "IV Waste",
    "rowid": "1291780",
    "final_x": "3684762.49199",
    "final_y": "556603.320474",
    "longitude": "-90.0568862451563",
    "latitude": "30.02436643249132",
    "geocoded_column": {
      "latitude": "30.02436643249132",
      "longitude": "-90.0568862451563"
    }
  },
  {
    "service_request": "2026-1291779",
    "request_type": "Trash/Recycling",
    "request_reason": "Missed Trash Pick-Up",
    "date_created": "2026-06-17T18:43:15.000",
    "date_modified": "2026-06-17T18:43:16.000",
    "request_status": "Pending",
    "responsible_agency": "Department of Sanitation",
    "final_address": "811 Dauphine St",
    "address_councildis": "C",
    "status": "Assigned to Contractor",
    "contractor": "IV Waste",
    "rowid": "1291779",
    "final_x": "3682254.05807",
    "final_y": "533297.994244",
    "longitude": "-90.06562716623313",
    "latitude": "29.960361644757043",
    "geocoded_column": {
      "latitude": "29.960361644757043",
      "longitude": "-90.06562716623313"
    }
  },
  {
    "service_request": "2026-1291778",
    "request_type": "Safety & Permits",
    "request_reason": "Licenses & Permits",
    "date_created": "2026-06-17T18:42:39.000",
    "date_modified": "2026-06-17T18:42:40.000",
    "request_status": "Pending",
    "responsible_agency": "Safety and Permits",
    "final_address": "8006 Trapier Ave",
    "address_councildis": "E",
    "status": "Pending",
    "rowid": "1291778",
    "final_x": "3705986.79179",
    "final_y": "564518.532257",
    "longitude": "-89.98952851072634",
    "latitude": "30.045462965151273",
    "geocoded_column": {
      "latitude": "30.045462965151273",
      "longitude": "-89.98952851072634"
    }
  },
  {
    "service_request": "2026-1291777",
    "request_type": "Property Maintenance",
    "request_reason": "Property Maintenance",
    "date_created": "2026-06-17T18:25:19.000",
    "date_modified": "2026-06-17T18:25:21.000",
    "request_status": "Pending",
    "responsible_agency": "Department of Code Enforcement",
    "final_address": "2117 N Villere St",
    "address_councildis": "C",
    "status": "Pending",
    "rowid": "1291777",
    "final_x": "3684645.97007",
    "final_y": "537414.963016",
    "longitude": "-90.05792930839483",
    "latitude": "29.97160890419782",
    "geocoded_column": {
      "latitude": "29.97160890419782",
      "longitude": "-90.05792930839483"
    }
  },
  {
    "service_request": "2026-1291776",
    "request_type": "Trash/Recycling",
    "request_reason": "Replace Trash Cart",
    "date_created": "2026-06-17T18:19:08.000",
    "date_modified": "2026-06-17T18:19:10.000",
    "request_status": "Pending",
    "responsible_agency": "Department of Sanitation",
    "final_address": "4911 Magazine St",
    "address_councildis": "B",
    "status": "Assigned to Contractor",
    "contractor": "IV Waste",
    "rowid": "1291776",
    "final_x": "3668897.39463",
    "final_y": "518625.623031",
    "longitude": "-90.10830023446627",
    "latitude": "29.920416929120428",
    "geocoded_column": {
      "latitude": "29.920416929120428",
      "longitude": "-90.10830023446627"
    }
  },
  {
    "service_request": "2026-1291775",
    "request_type": "Street and Traffic Signs",
    "request_reason": "New Disabled Parking Sign Request ",
    "date_created": "2026-06-17T18:16:06.000",
    "date_modified": "2026-06-17T18:16:11.000",
    "case_close_date": "2026-06-17T13:16:10.000",
    "request_status": "Closed",
    "responsible_agency": "Department of Public Works",
    "final_address": "820 Elysian Fields Ave",
    "address_councildis": "C",
    "status": "Resolved",
    "rowid": "1291775",
    "final_x": "3684982.36329",
    "final_y": "535399.21767",
    "longitude": "-90.05693784362369",
    "latitude": "29.966056004524106",
    "geocoded_column": {
      "latitude": "29.966056004524106",
      "longitude": "-90.05693784362369"
    }
  },
  {
    "service_request": "2026-1291774",
    "request_type": "Abandoned Vehicles",
    "request_reason": "Abandoned/Junk Vehicles",
    "date_created": "2026-06-17T18:00:42.000",
    "date_modified": "2026-06-17T18:00:44.000",
    "request_status": "Pending",
    "responsible_agency": "Department of Public Works",
    "final_address": "2400 BLK Urquhart St",
    "address_councildis": "C",
    "status": "Pending",
    "rowid": "1291774",
    "final_x": "3686969.17655",
    "final_y": "537200.988378",
    "longitude": "-90.05059985662203",
    "latitude": "29.970949241005364",
    "geocoded_column": {
      "latitude": "29.970949241005364",
      "longitude": "-90.05059985662203"
    }
  },
  {
    "service_request": "2026-1291773",
    "request_type": "Abandoned Vehicles",
    "request_reason": "Abandoned/Junk Vehicles",
    "date_created": "2026-06-17T17:55:19.000",
    "date_modified": "2026-06-17T17:55:21.000",
    "request_status": "Pending",
    "responsible_agency": "Department of Public Works",
    "final_address": "2415 Urquhart St",
    "address_councildis": "C",
    "status": "Pending",
    "rowid": "1291773",
    "final_x": "3686594.04265",
    "final_y": "537213.463816",
    "longitude": "-90.05178413452317",
    "latitude": "29.97099508596997",
    "geocoded_column": {
      "latitude": "29.97099508596997",
      "longitude": "-90.05178413452317"
    }
  },
  {
    "service_request": "2026-1291772",
    "request_type": "Drainage",
    "request_reason": "Catch Basin Not Draining",
    "date_created": "2026-06-17T17:47:22.000",
    "date_modified": "2026-06-17T17:47:24.000",
    "request_status": "Pending",
    "responsible_agency": "Sewerage & Water Board",
    "final_address": "5801 Chamberlain Dr",
    "address_councildis": "D",
    "status": "Pending",
    "rowid": "1291772",
    "final_x": "3679434.89647",
    "final_y": "553878.261527",
    "longitude": "-90.07381513964442",
    "latitude": "30.017035623392555",
    "geocoded_column": {
      "latitude": "30.017035623392555",
      "longitude": "-90.07381513964442"
    }
  },
  {
    "service_request": "2026-1291771",
    "request_type": "Trash/Recycling",
    "request_reason": "Start Trash Service",
    "date_created": "2026-06-17T17:34:31.000",
    "date_modified": "2026-06-17T17:34:33.000",
    "request_status": "Pending",
    "responsible_agency": "Department of Sanitation",
    "final_address": "1712 Monroe St",
    "address_councildis": "A",
    "status": "Assigned to Contractor",
    "contractor": "IV Waste",
    "rowid": "1291771",
    "final_x": "3661628.2743",
    "final_y": "531217.366274",
    "longitude": "-90.13082843370032",
    "latitude": "29.955251930490224",
    "geocoded_column": {
      "latitude": "29.955251930490224",
      "longitude": "-90.13082843370032"
    }
  },
  {
    "service_request": "2026-1291770",
    "request_type": "Safety & Permits",
    "request_reason": "Construction permit",
    "date_created": "2026-06-17T17:26:10.000",
    "date_modified": "2026-06-17T17:26:13.000",
    "request_status": "Pending",
    "responsible_agency": "Safety and Permits",
    "final_address": "5030 Freret St",
    "address_councildis": "B",
    "status": "Pending",
    "rowid": "1291770",
    "final_x": "3668591.67258",
    "final_y": "523884.837372",
    "longitude": "-90.10908789029413",
    "latitude": "29.93488707929981",
    "geocoded_column": {
      "latitude": "29.93488707929981",
      "longitude": "-90.10908789029413"
    }
  },
  {
    "service_request": "2026-1291769",
    "request_type": "Trash/Recycling",
    "request_reason": "Replace Trash Cart",
    "date_created": "2026-06-17T17:22:11.000",
    "date_modified": "2026-06-17T17:22:13.000",
    "request_status": "Pending",
    "responsible_agency": "Department of Sanitation",
    "final_address": "4830 Chestnut St",
    "address_councildis": "B",
    "status": "Assigned to Contractor",
    "contractor": "IV Waste",
    "rowid": "1291769",
    "final_x": "3669267.22401",
    "final_y": "519310.819703",
    "longitude": "-90.10710970759307",
    "latitude": "29.922290126045183",
    "geocoded_column": {
      "latitude": "29.922290126045183",
      "longitude": "-90.10710970759307"
    }
  },
  {
    "service_request": "2026-1291768",
    "request_type": "Trash/Recycling",
    "request_reason": "Replace Recycling Cart",
    "date_created": "2026-06-17T17:19:34.000",
    "date_modified": "2026-06-17T17:19:35.000",
    "request_status": "Pending",
    "responsible_agency": "Department of Sanitation",
    "final_address": "4125 Fontainebleau Dr",
    "address_councildis": "B",
    "status": "Pending",
    "rowid": "1291768",
    "final_x": "3669918.1305",
    "final_y": "529150.957248",
    "longitude": "-90.10472200684673",
    "latitude": "29.949328164607213",
    "geocoded_column": {
      "latitude": "29.949328164607213",
      "longitude": "-90.10472200684673"
    }
  },
  {
    "service_request": "2026-1291767",
    "request_type": "Trash/Recycling",
    "request_reason": "Order Trash Cart",
    "date_created": "2026-06-17T17:18:43.000",
    "date_modified": "2026-06-17T17:18:45.000",
    "request_status": "Pending",
    "responsible_agency": "Department of Sanitation",
    "final_address": "1212 Conery St",
    "address_councildis": "B",
    "status": "Assigned to Contractor",
    "contractor": "IV Waste",
    "rowid": "1291767",
    "final_x": "3676527.78734",
    "final_y": "521080.731961",
    "longitude": "-90.0841301617954",
    "latitude": "29.926941168307245",
    "geocoded_column": {
      "latitude": "29.926941168307245",
      "longitude": "-90.0841301617954"
    }
  },
  {
    "service_request": "2026-1291766",
    "request_type": "Trash/Recycling",
    "request_reason": "Replace Trash Cart",
    "date_created": "2026-06-17T17:14:26.000",
    "date_modified": "2026-06-17T17:14:28.000",
    "request_status": "Pending",
    "responsible_agency": "Department of Sanitation",
    "final_address": "4125 Fontainebleau Dr",
    "address_councildis": "B",
    "status": "Assigned to Contractor",
    "contractor": "IV Waste",
    "rowid": "1291766",
    "final_x": "3669918.1305",
    "final_y": "529150.957248",
    "longitude": "-90.10472200684673",
    "latitude": "29.949328164607213",
    "geocoded_column": {
      "latitude": "29.949328164607213",
      "longitude": "-90.10472200684673"
    }
  },
  {
    "service_request": "2026-1291765",
    "request_type": "Trash/Recycling",
    "request_reason": "Replace Trash Cart",
    "date_created": "2026-06-17T17:13:07.000",
    "date_modified": "2026-06-17T17:13:08.000",
    "request_status": "Pending",
    "responsible_agency": "Department of Sanitation",
    "final_address": "2410 Jefferson Ave",
    "address_councildis": "A",
    "status": "Assigned to Contractor",
    "contractor": "IV Waste",
    "rowid": "1291765",
    "final_x": "3667954.06433",
    "final_y": "524436.496508",
    "longitude": "-90.11108224140054",
    "latitude": "29.93642268150807",
    "geocoded_column": {
      "latitude": "29.93642268150807",
      "longitude": "-90.11108224140054"
    }
  },
  {
    "service_request": "2026-1291764",
    "request_type": "Trash/Recycling",
    "request_reason": "Replace Recycling Cart",
    "date_created": "2026-06-17T17:11:09.000",
    "date_modified": "2026-06-17T17:11:10.000",
    "request_status": "Pending",
    "responsible_agency": "Department of Sanitation",
    "final_address": "2410 Jefferson Ave",
    "address_councildis": "A",
    "status": "Pending",
    "rowid": "1291764",
    "final_x": "3667954.06433",
    "final_y": "524436.496508",
    "longitude": "-90.11108224140054",
    "latitude": "29.93642268150807",
    "geocoded_column": {
      "latitude": "29.93642268150807",
      "longitude": "-90.11108224140054"
    }
  },
  {
    "service_request": "2026-1291763",
    "request_type": "Trash/Recycling",
    "request_reason": "Missed Trash Pick-Up",
    "date_created": "2026-06-17T17:10:58.000",
    "date_modified": "2026-06-17T17:11:00.000",
    "request_status": "Pending",
    "responsible_agency": "Department of Sanitation",
    "final_address": "9130 Tilford Rd",
    "address_councildis": "E",
    "status": "Assigned to Contractor",
    "contractor": "Waste Pro",
    "rowid": "1291763",
    "final_x": "3708540.27704",
    "final_y": "557252.558811",
    "longitude": "-89.98172919948294",
    "latitude": "30.025401825725705",
    "geocoded_column": {
      "latitude": "30.025401825725705",
      "longitude": "-89.98172919948294"
    }
  },
  {
    "service_request": "2026-1291762",
    "request_type": "Mosquito, Termite & Rodent Control",
    "request_reason": "Non-Rodent Complaint (Possums & Snakes)",
    "date_created": "2026-06-17T17:03:39.000",
    "date_modified": "2026-06-17T17:03:41.000",
    "request_status": "Pending",
    "responsible_agency": "Mosquito, Termite & Rodent Control Board",
    "final_address": "8800 BLK Oleander St",
    "address_councildis": "A",
    "status": "Pending",
    "rowid": "1291762",
    "final_x": "3664812.03681",
    "final_y": "535444.621812",
    "longitude": "-90.120633969939",
    "latitude": "29.966783242592108",
    "geocoded_column": {
      "latitude": "29.966783242592108",
      "longitude": "-90.120633969939"
    }
  },
  {
    "service_request": "2026-1291761",
    "request_type": "Trash/Recycling",
    "request_reason": "Dead Animal Pick Up",
    "date_created": "2026-06-17T16:56:23.000",
    "date_modified": "2026-06-17T17:30:09.000",
    "case_close_date": "2026-06-17T12:30:08.000",
    "request_status": "Closed",
    "responsible_agency": "Department of Sanitation",
    "final_address": "3025 Grand-Route St John St",
    "address_councildis": "A",
    "status": "Duplicate Request",
    "contractor": "IV Waste",
    "contractor_action": "Duplicate",
    "rowid": "1291761",
    "final_x": "3676945.13589",
    "final_y": "540348.113291",
    "longitude": "-90.08214856337527",
    "latitude": "29.9799075026694",
    "geocoded_column": {
      "latitude": "29.9799075026694",
      "longitude": "-90.08214856337527"
    }
  },
  {
    "service_request": "2026-1291760",
    "request_type": "Drainage",
    "request_reason": "Catch Basin Frame and Cover Missing or Damaged",
    "date_created": "2026-06-17T16:54:35.000",
    "date_modified": "2026-06-17T16:54:37.000",
    "request_status": "Pending",
    "responsible_agency": "Sewerage & Water Board",
    "final_address": "2401 Westbend Prkwy",
    "address_councildis": "C",
    "status": "Pending",
    "rowid": "1291760",
    "final_x": "3696531.23152",
    "final_y": "521885.760698",
    "longitude": "-90.02095578503594",
    "latitude": "29.928539921460334",
    "geocoded_column": {
      "latitude": "29.928539921460334",
      "longitude": "-90.02095578503594"
    }
  },
  {
    "service_request": "2026-1291759",
    "request_type": "Drainage",
    "request_reason": "Catch Basin Frame and Cover Missing or Damaged",
    "date_created": "2026-06-17T16:52:02.000",
    "date_modified": "2026-06-17T16:52:04.000",
    "request_status": "Pending",
    "responsible_agency": "Sewerage & Water Board",
    "final_address": "2401 Westbend Prkwy",
    "address_councildis": "C",
    "status": "Pending",
    "rowid": "1291759",
    "final_x": "3696531.23152",
    "final_y": "521885.760698",
    "longitude": "-90.02095578503594",
    "latitude": "29.928539921460334",
    "geocoded_column": {
      "latitude": "29.928539921460334",
      "longitude": "-90.02095578503594"
    }
  },
  {
    "service_request": "2026-1291758",
    "request_type": "Streetlights",
    "request_reason": "Streetlight Outage/Malfunction",
    "date_created": "2026-06-17T16:44:40.000",
    "date_modified": "2026-06-17T16:44:41.000",
    "request_status": "Pending",
    "responsible_agency": "Department of Public Works",
    "final_address": "2319 Arts St",
    "address_councildis": "D",
    "status": "Pending",
    "rowid": "1291758",
    "final_x": "3686878.01929",
    "final_y": "541075.792076",
    "longitude": "-90.05075076761048",
    "latitude": "29.981606393803197",
    "geocoded_column": {
      "latitude": "29.981606393803197",
      "longitude": "-90.05075076761048"
    }
  },
  {
    "service_request": "2026-1291757",
    "request_type": "Abandoned Vehicles",
    "request_reason": "Abandoned/Junk Vehicles",
    "date_created": "2026-06-17T16:43:43.000",
    "date_modified": "2026-06-17T16:43:44.000",
    "request_status": "Pending",
    "responsible_agency": "Department of Public Works",
    "final_address": "3336 Dearmas St",
    "address_councildis": "C",
    "status": "Pending",
    "rowid": "1291757",
    "final_x": "3696683.59882",
    "final_y": "527039.116542",
    "longitude": "-90.02028837753492",
    "latitude": "29.942705074904495",
    "geocoded_column": {
      "latitude": "29.942705074904495",
      "longitude": "-90.02028837753492"
    }
  },
  {
    "service_request": "2026-1291756",
    "request_type": "Trash/Recycling",
    "request_reason": "Order Second Trash Cart",
    "date_created": "2026-06-17T16:42:20.000",
    "date_modified": "2026-06-17T16:42:23.000",
    "request_status": "Pending",
    "responsible_agency": "Department of Sanitation",
    "final_address": "655 Aurora Oaks Dr",
    "address_councildis": "C",
    "status": "Assigned to Contractor",
    "contractor": "Richards Disposal",
    "rowid": "1291756",
    "final_x": "3701221.6241",
    "final_y": "520284.540984",
    "longitude": "-90.0062078589368",
    "latitude": "29.923988571787987",
    "geocoded_column": {
      "latitude": "29.923988571787987",
      "longitude": "-90.0062078589368"
    }
  },
  {
    "service_request": "2026-1291755",
    "request_type": "Trash/Recycling",
    "request_reason": "Replace Trash Cart",
    "date_created": "2026-06-17T16:38:39.000",
    "date_modified": "2026-06-17T16:38:41.000",
    "request_status": "Pending",
    "responsible_agency": "Department of Sanitation",
    "final_address": "655 Aurora Oaks Dr",
    "address_councildis": "C",
    "status": "Assigned to Contractor",
    "contractor": "Richards Disposal",
    "rowid": "1291755",
    "final_x": "3701221.6241",
    "final_y": "520284.540984",
    "longitude": "-90.0062078589368",
    "latitude": "29.923988571787987",
    "geocoded_column": {
      "latitude": "29.923988571787987",
      "longitude": "-90.0062078589368"
    }
  },
  {
    "service_request": "2026-1291754",
    "request_type": "Trash/Recycling",
    "request_reason": "Order Trash Cart",
    "date_created": "2026-06-17T16:36:50.000",
    "date_modified": "2026-06-17T16:36:51.000",
    "request_status": "Pending",
    "responsible_agency": "Department of Sanitation",
    "final_address": "621 N Rocheblave St",
    "address_councildis": "C",
    "status": "Assigned to Contractor",
    "contractor": "IV Waste",
    "rowid": "1291754",
    "final_x": "3677290.88373",
    "final_y": "536079.592647",
    "longitude": "-90.08120387171563",
    "latitude": "29.968160148843353",
    "geocoded_column": {
      "latitude": "29.968160148843353",
      "longitude": "-90.08120387171563"
    }
  },
  {
    "service_request": "2026-1291753",
    "request_type": "Trash/Recycling",
    "request_reason": "Request a Large Item Pick Up",
    "date_created": "2026-06-17T16:35:04.000",
    "date_modified": "2026-06-17T16:35:10.000",
    "request_status": "Pending",
    "responsible_agency": "Department of Sanitation",
    "final_address": "13118 Laval St",
    "address_councildis": "E",
    "status": "Assigned to Contractor",
    "contractor": "Waste Pro",
    "rowid": "1291753",
    "final_x": "3724184.46739",
    "final_y": "562446.051999",
    "longitude": "-89.93209587942519",
    "latitude": "30.039165130041898",
    "geocoded_column": {
      "latitude": "30.039165130041898",
      "longitude": "-89.93209587942519"
    }
  },
  {
    "service_request": "2026-1291752",
    "request_type": "Trash/Recycling",
    "request_reason": "Repair Trash Cart",
    "date_created": "2026-06-17T16:34:26.000",
    "date_modified": "2026-06-17T16:34:27.000",
    "request_status": "Pending",
    "responsible_agency": "Department of Sanitation",
    "final_address": "6634 Pontchartrain Blvd",
    "address_councildis": "A",
    "status": "Assigned to Contractor",
    "contractor": "IV Waste",
    "rowid": "1291752",
    "final_x": "3666285.35873",
    "final_y": "552314.145302",
    "longitude": "-90.11541495476169",
    "latitude": "30.013125733120635",
    "geocoded_column": {
      "latitude": "30.013125733120635",
      "longitude": "-90.11541495476169"
    }
  },
  {
    "service_request": "2026-1291751",
    "request_type": "Trash/Recycling",
    "request_reason": "Request a Large Item Pick Up",
    "date_created": "2026-06-17T16:34:15.000",
    "date_modified": "2026-06-17T16:34:17.000",
    "request_status": "Pending",
    "responsible_agency": "Department of Sanitation",
    "final_address": "6230 Paris Ave",
    "address_councildis": "D",
    "status": "Assigned to Contractor",
    "contractor": "IV Waste",
    "rowid": "1291751",
    "final_x": "3678756.10926",
    "final_y": "556005.590169",
    "longitude": "-90.07588606637907",
    "latitude": "30.022905502774744",
    "geocoded_column": {
      "latitude": "30.022905502774744",
      "longitude": "-90.07588606637907"
    }
  },
  {
    "service_request": "2026-1291750",
    "request_type": "Trash/Recycling",
    "request_reason": "Illegal Dumping",
    "date_created": "2026-06-17T16:32:19.000",
    "date_modified": "2026-06-17T16:32:49.000",
    "request_status": "Pending",
    "responsible_agency": "Department of Sanitation",
    "final_address": "1461 Saux Ln",
    "address_councildis": "C",
    "status": "Pending",
    "rowid": "1291750",
    "final_x": "3692618.98685",
    "final_y": "525673.444541",
    "longitude": "-90.03317018534537",
    "latitude": "29.939077391473813",
    "geocoded_column": {
      "latitude": "29.939077391473813",
      "longitude": "-90.03317018534537"
    }
  },
  {
    "service_request": "2026-1291749",
    "request_type": "Trash/Recycling",
    "request_reason": "Request a Large Item Pick Up",
    "date_created": "2026-06-17T16:31:59.000",
    "date_modified": "2026-06-17T16:32:00.000",
    "request_status": "Pending",
    "responsible_agency": "Department of Sanitation",
    "final_address": "712 Washington Ave Apt 101",
    "address_councildis": "B",
    "status": "Assigned to Contractor",
    "contractor": "IV Waste",
    "rowid": "1291749",
    "final_x": "3677755.63451",
    "final_y": "519640.824632",
    "longitude": "-90.08030387604397",
    "latitude": "29.922945026164975",
    "geocoded_column": {
      "latitude": "29.922945026164975",
      "longitude": "-90.08030387604397"
    }
  },
  {
    "service_request": "2026-1291748",
    "request_type": "Trash/Recycling",
    "request_reason": "MIssed Recycling Pick-Up",
    "date_created": "2026-06-17T16:31:35.000",
    "date_modified": "2026-06-17T16:31:37.000",
    "request_status": "Pending",
    "responsible_agency": "Department of Sanitation",
    "final_address": "4821 Read Blvd",
    "address_councildis": "E",
    "status": "Assigned to Contractor",
    "contractor": "Waste Pro",
    "rowid": "1291748",
    "final_x": "3712828.31762",
    "final_y": "556592.240282",
    "longitude": "-89.96820462192127",
    "latitude": "30.02344643554903",
    "geocoded_column": {
      "latitude": "30.02344643554903",
      "longitude": "-89.96820462192127"
    }
  },
  {
    "service_request": "2026-1291747",
    "request_type": "Streetlights",
    "request_reason": "Streetlight Outage/Malfunction",
    "date_created": "2026-06-17T16:31:14.000",
    "date_modified": "2026-06-17T16:31:16.000",
    "request_status": "Pending",
    "responsible_agency": "Department of Public Works",
    "final_address": "8327 Pritchard Pl",
    "address_councildis": "A",
    "status": "Pending",
    "rowid": "1291747",
    "final_x": "3665390.52493",
    "final_y": "533544.950021",
    "longitude": "-90.11887068306922",
    "latitude": "29.96154292329857",
    "geocoded_column": {
      "latitude": "29.96154292329857",
      "longitude": "-90.11887068306922"
    }
  },
  {
    "service_request": "2026-1291746",
    "request_type": "Trash/Recycling",
    "request_reason": "Missed Trash Pick-Up",
    "date_created": "2026-06-17T16:30:45.000",
    "date_modified": "2026-06-17T16:30:47.000",
    "request_status": "Pending",
    "responsible_agency": "Department of Sanitation",
    "final_address": "4821 Read Blvd",
    "address_councildis": "E",
    "status": "Assigned to Contractor",
    "contractor": "Waste Pro",
    "rowid": "1291746",
    "final_x": "3712828.31762",
    "final_y": "556592.240282",
    "longitude": "-89.96820462192127",
    "latitude": "30.02344643554903",
    "geocoded_column": {
      "latitude": "30.02344643554903",
      "longitude": "-89.96820462192127"
    }
  },
  {
    "service_request": "2026-1291745",
    "request_type": "Trash/Recycling",
    "request_reason": "Order Recycling Cart",
    "date_created": "2026-06-17T16:30:15.000",
    "date_modified": "2026-06-17T16:30:16.000",
    "request_status": "Pending",
    "responsible_agency": "Department of Sanitation",
    "final_address": "1515 Nashville Ave, New Orleans, Louisiana, 70115",
    "address_councildis": "A",
    "status": "Pending",
    "rowid": "1291745",
    "final_x": "3666211.33281",
    "final_y": "521788.609786",
    "longitude": "-90.11667289131509",
    "latitude": "29.92919283513176",
    "geocoded_column": {
      "latitude": "29.92919283513176",
      "longitude": "-90.11667289131509"
    }
  },
  {
    "service_request": "2026-1291744",
    "request_type": "Trash/Recycling",
    "request_reason": "Request a Large Item Pick Up",
    "date_created": "2026-06-17T16:29:52.000",
    "date_modified": "2026-06-17T16:29:53.000",
    "request_status": "Pending",
    "responsible_agency": "Department of Sanitation",
    "final_address": "2041 Peniston St",
    "address_councildis": "B",
    "status": "Assigned to Contractor",
    "contractor": "IV Waste",
    "rowid": "1291744",
    "final_x": "3672516.63655",
    "final_y": "522833.342139",
    "longitude": "-90.09673262635427",
    "latitude": "29.931879915454356",
    "geocoded_column": {
      "latitude": "29.931879915454356",
      "longitude": "-90.09673262635427"
    }
  },
  {
    "service_request": "2026-1291743",
    "request_type": "Abandoned Vehicles",
    "request_reason": "Abandoned/Junk Vehicles",
    "date_created": "2026-06-17T16:29:10.000",
    "date_modified": "2026-06-17T16:29:13.000",
    "request_status": "Pending",
    "responsible_agency": "Department of Public Works",
    "final_address": "6450 Milne Blvd",
    "address_councildis": "A",
    "status": "Pending",
    "rowid": "1291743",
    "final_x": "3667277.71309",
    "final_y": "550725.682517",
    "longitude": "-90.1123331141941",
    "latitude": "30.00872897633857",
    "geocoded_column": {
      "latitude": "30.00872897633857",
      "longitude": "-90.1123331141941"
    }
  },
  {
    "service_request": "2026-1291742",
    "request_type": "Trash/Recycling",
    "request_reason": "Request a Large Item Pick Up",
    "date_created": "2026-06-17T16:26:30.000",
    "date_modified": "2026-06-17T16:26:32.000",
    "request_status": "Pending",
    "responsible_agency": "Department of Sanitation",
    "final_address": "1720 Rivertree Ct",
    "address_councildis": "C",
    "status": "Assigned to Contractor",
    "contractor": "Richards Disposal",
    "rowid": "1291742",
    "final_x": "3701493.58961",
    "final_y": "524361.241724",
    "longitude": "-90.00520020734204",
    "latitude": "29.935189421854414",
    "geocoded_column": {
      "latitude": "29.935189421854414",
      "longitude": "-90.00520020734204"
    }
  },
  {
    "service_request": "2026-1291741",
    "request_type": "Trash/Recycling",
    "request_reason": "Request a Large Item Pick Up",
    "date_created": "2026-06-17T16:22:38.000",
    "date_modified": "2026-06-17T16:22:39.000",
    "request_status": "Pending",
    "responsible_agency": "Department of Sanitation",
    "final_address": "1517 Kabel Dr",
    "address_councildis": "C",
    "status": "Assigned to Contractor",
    "contractor": "Richards Disposal",
    "rowid": "1291741",
    "final_x": "3700658.85623",
    "final_y": "522228.80217",
    "longitude": "-90.00791331266214",
    "latitude": "29.92935253013688",
    "geocoded_column": {
      "latitude": "29.92935253013688",
      "longitude": "-90.00791331266214"
    }
  },
  {
    "service_request": "2026-1291740",
    "request_type": "Trash/Recycling",
    "request_reason": "Request a Large Item Pick Up",
    "date_created": "2026-06-17T16:22:37.000",
    "date_modified": "2026-06-17T16:22:38.000",
    "request_status": "Pending",
    "responsible_agency": "Department of Sanitation",
    "final_address": "1943 Tennessee St",
    "address_councildis": "E",
    "status": "Assigned to Contractor",
    "contractor": "Waste Pro",
    "rowid": "1291740",
    "final_x": "3696659.64035",
    "final_y": "537641.650312",
    "longitude": "-90.01998033614576",
    "latitude": "29.97185905790134",
    "geocoded_column": {
      "latitude": "29.97185905790134",
      "longitude": "-90.01998033614576"
    }
  },
  {
    "service_request": "2026-1291739",
    "request_type": "Drainage",
    "request_reason": "Catch Basin Not Draining",
    "date_created": "2026-06-17T16:21:29.000",
    "date_modified": "2026-06-17T16:21:30.000",
    "request_status": "Pending",
    "responsible_agency": "Sewerage & Water Board",
    "final_address": "5534 Willow St Apt A",
    "address_councildis": "A",
    "status": "Pending",
    "rowid": "1291739",
    "final_x": "3667590.57492",
    "final_y": "525393.193277",
    "longitude": "-90.11219760669947",
    "latitude": "29.93906394681158",
    "geocoded_column": {
      "latitude": "29.93906394681158",
      "longitude": "-90.11219760669947"
    }
  },
  {
    "service_request": "2026-1291738",
    "request_type": "Drainage",
    "request_reason": "Ditch and Culvert Maintenance",
    "date_created": "2026-06-17T16:21:16.000",
    "date_modified": "2026-06-17T16:21:18.000",
    "request_status": "Pending",
    "responsible_agency": "Department of Public Works",
    "final_address": "8329 Pritchard Pl",
    "address_councildis": "A",
    "status": "Pending",
    "rowid": "1291738",
    "final_x": "3665364.90036",
    "final_y": "533567.160005",
    "longitude": "-90.11895085816175",
    "latitude": "29.961604740226623",
    "geocoded_column": {
      "latitude": "29.961604740226623",
      "longitude": "-90.11895085816175"
    }
  },
  {
    "service_request": "2026-1291737",
    "request_type": "Safety & Permits",
    "request_reason": "Zoning Enforcement",
    "date_created": "2026-06-17T16:20:16.000",
    "date_modified": "2026-06-17T16:20:17.000",
    "request_status": "Pending",
    "responsible_agency": "Safety and Permits",
    "final_address": "5400 BLK S Claiborne Ave",
    "address_councildis": "B",
    "status": "Pending",
    "rowid": "1291737",
    "final_x": "3668279.95901",
    "final_y": "526449.139803",
    "longitude": "-90.10998553870277",
    "latitude": "29.941947239736635",
    "geocoded_column": {
      "latitude": "29.941947239736635",
      "longitude": "-90.10998553870277"
    }
  },
  {
    "service_request": "2026-1291736",
    "request_type": "Abandoned Vehicles",
    "request_reason": "Abandoned/Junk Vehicles",
    "date_created": "2026-06-17T16:20:12.000",
    "date_modified": "2026-06-17T16:20:14.000",
    "request_status": "Pending",
    "responsible_agency": "Department of Public Works",
    "final_address": "11235 Fernley Dr",
    "address_councildis": "E",
    "status": "Pending",
    "rowid": "1291736",
    "final_x": "3717363.37208",
    "final_y": "559934.145117",
    "longitude": "-89.95374783157818",
    "latitude": "30.032485994731484",
    "geocoded_column": {
      "latitude": "30.032485994731484",
      "longitude": "-89.95374783157818"
    }
  },
  {
    "service_request": "2026-1291735",
    "request_type": "Street and Traffic Signs",
    "request_reason": "Additional Signage Request",
    "date_created": "2026-06-17T16:19:43.000",
    "date_modified": "2026-06-17T16:19:46.000",
    "request_status": "Pending",
    "responsible_agency": "Department of Public Works",
    "final_address": "400 BLK Patterson St",
    "address_councildis": "C",
    "status": "Pending",
    "rowid": "1291735",
    "final_x": "3686561.99068",
    "final_y": "531373.357645",
    "longitude": "-90.05209159124028",
    "latitude": "29.954937801739174",
    "geocoded_column": {
      "latitude": "29.954937801739174",
      "longitude": "-90.05209159124028"
    }
  },
  {
    "service_request": "2026-1291734",
    "request_type": "Drainage",
    "request_reason": "Catch Basin Not Draining",
    "date_created": "2026-06-17T16:19:19.000",
    "date_modified": "2026-06-17T16:19:20.000",
    "request_status": "Pending",
    "responsible_agency": "Sewerage & Water Board",
    "final_address": "5436 S Claiborne Ave",
    "address_councildis": "A",
    "status": "Pending",
    "rowid": "1291734",
    "final_x": "3668127.4953",
    "final_y": "526279.098366",
    "longitude": "-90.11047262987134",
    "latitude": "29.941484155631343",
    "geocoded_column": {
      "latitude": "29.941484155631343",
      "longitude": "-90.11047262987134"
    }
  },
  {
    "service_request": "2026-1291733",
    "request_type": "Abandoned Vehicles",
    "request_reason": "Abandoned/Junk Vehicles",
    "date_created": "2026-06-17T16:18:20.000",
    "date_modified": "2026-06-17T16:18:23.000",
    "request_status": "Pending",
    "responsible_agency": "Department of Public Works",
    "final_address": "3421 Bruxelles St",
    "address_councildis": "D",
    "status": "Pending",
    "rowid": "1291733",
    "final_x": "3680157.87208",
    "final_y": "545010.363855",
    "longitude": "-90.07183930443176",
    "latitude": "29.992630207461346",
    "geocoded_column": {
      "latitude": "29.992630207461346",
      "longitude": "-90.07183930443176"
    }
  },
  {
    "service_request": "2026-1291732",
    "request_type": "Trash/Recycling",
    "request_reason": "Missed Trash Pick-Up",
    "date_created": "2026-06-17T16:17:17.000",
    "date_modified": "2026-06-17T16:17:19.000",
    "request_status": "Pending",
    "responsible_agency": "Department of Sanitation",
    "final_address": "522 Elmira Ave",
    "address_councildis": "C",
    "status": "Assigned to Contractor",
    "contractor": "Richards Disposal",
    "rowid": "1291732",
    "final_x": "3688243.32451",
    "final_y": "529706.176897",
    "longitude": "-90.04684169392311",
    "latitude": "29.95030182654824",
    "geocoded_column": {
      "latitude": "29.95030182654824",
      "longitude": "-90.04684169392311"
    }
  },
  {
    "service_request": "2026-1291731",
    "request_type": "Parks & Grass Service",
    "request_reason": "Request Grass Cutting Service (City Owned Property)",
    "date_created": "2026-06-17T16:16:42.000",
    "date_modified": "2026-06-17T16:16:44.000",
    "request_status": "Pending",
    "responsible_agency": "Department of Parks & Parkways",
    "final_address": "2538 Flood St",
    "address_councildis": "E",
    "status": "Pending",
    "rowid": "1291731",
    "final_x": "3699170.7937",
    "final_y": "539408.264202",
    "longitude": "-90.01198542891714",
    "latitude": "29.976637226281213",
    "geocoded_column": {
      "latitude": "29.976637226281213",
      "longitude": "-90.01198542891714"
    }
  },
  {
    "service_request": "2026-1291730",
    "request_type": "Trash/Recycling",
    "request_reason": "Request a Large Item Pick Up",
    "date_created": "2026-06-17T16:16:19.000",
    "date_modified": "2026-06-17T16:16:20.000",
    "request_status": "Pending",
    "responsible_agency": "Department of Sanitation",
    "final_address": "6552 Virgilian St",
    "address_councildis": "D",
    "status": "Assigned to Contractor",
    "contractor": "Waste Pro",
    "rowid": "1291730",
    "final_x": "3697192.93136",
    "final_y": "555436.854617",
    "longitude": "-90.01765082661952",
    "latitude": "30.020772486847964",
    "geocoded_column": {
      "latitude": "30.020772486847964",
      "longitude": "-90.01765082661952"
    }
  },
  {
    "service_request": "2026-1291729",
    "request_type": "Trash/Recycling",
    "request_reason": "Order Second Trash Cart",
    "date_created": "2026-06-17T16:14:23.000",
    "date_modified": "2026-06-17T16:14:25.000",
    "request_status": "Pending",
    "responsible_agency": "Department of Sanitation",
    "final_address": "2538 Flood St",
    "address_councildis": "E",
    "status": "Assigned to Contractor",
    "contractor": "Waste Pro",
    "rowid": "1291729",
    "final_x": "3699170.7937",
    "final_y": "539408.264202",
    "longitude": "-90.01198542891714",
    "latitude": "29.976637226281213",
    "geocoded_column": {
      "latitude": "29.976637226281213",
      "longitude": "-90.01198542891714"
    }
  },
  {
    "service_request": "2026-1291728",
    "request_type": "Roads and Streets",
    "request_reason": "Sidewalk Damaged or Missing",
    "date_created": "2026-06-17T16:12:49.000",
    "date_modified": "2026-06-17T16:12:50.000",
    "request_status": "Pending",
    "responsible_agency": "Department of Public Works",
    "final_address": "526 Elmira Ave",
    "address_councildis": "C",
    "status": "Pending",
    "rowid": "1291728",
    "final_x": "3688243.73052",
    "final_y": "529680.922689",
    "longitude": "-90.04684130723466",
    "latitude": "29.95023237359856",
    "geocoded_column": {
      "latitude": "29.95023237359856",
      "longitude": "-90.04684130723466"
    }
  },
  {
    "service_request": "2026-1291727",
    "request_type": "Trash/Recycling",
    "request_reason": "Request a Large Item Pick Up",
    "date_created": "2026-06-17T16:12:24.000",
    "date_modified": "2026-06-17T16:12:25.000",
    "request_status": "Pending",
    "responsible_agency": "Department of Sanitation",
    "final_address": "4911 Magnolia St",
    "address_councildis": "B",
    "status": "Assigned to Contractor",
    "contractor": "IV Waste",
    "rowid": "1291727",
    "final_x": "3669089.46644",
    "final_y": "524648.525436",
    "longitude": "-90.10749056344149",
    "latitude": "29.936972342251075",
    "geocoded_column": {
      "latitude": "29.936972342251075",
      "longitude": "-90.10749056344149"
    }
  },
  {
    "service_request": "2026-1291726",
    "request_type": "Trash/Recycling",
    "request_reason": "Request a Large Item Pick Up",
    "date_created": "2026-06-17T16:10:08.000",
    "date_modified": "2026-06-17T16:10:09.000",
    "request_status": "Pending",
    "responsible_agency": "Department of Sanitation",
    "final_address": "7616 Bullard Ave",
    "address_councildis": "E",
    "status": "Assigned to Contractor",
    "contractor": "Waste Pro",
    "rowid": "1291726",
    "final_x": "3713029.97368",
    "final_y": "567375.037156",
    "longitude": "-89.96716120993317",
    "latitude": "30.0530881936062",
    "geocoded_column": {
      "latitude": "30.0530881936062",
      "longitude": "-89.96716120993317"
    }
  },
  {
    "service_request": "2026-1291725",
    "request_type": "Trash/Recycling",
    "request_reason": "Replace Trash Cart",
    "date_created": "2026-06-17T16:08:06.000",
    "date_modified": "2026-06-17T16:08:08.000",
    "request_status": "Pending",
    "responsible_agency": "Department of Sanitation",
    "final_address": "7920 Belfast St",
    "address_councildis": "A",
    "status": "Assigned to Contractor",
    "contractor": "IV Waste",
    "rowid": "1291725",
    "final_x": "3666016.51815",
    "final_y": "531918.460611",
    "longitude": "-90.11694841833112",
    "latitude": "29.957052352245746",
    "geocoded_column": {
      "latitude": "29.957052352245746",
      "longitude": "-90.11694841833112"
    }
  },
  {
    "service_request": "2026-1291724",
    "request_type": "Streetlights",
    "request_reason": "Streetlight Knocked Down/Leaning",
    "date_created": "2026-06-17T16:01:51.000",
    "date_modified": "2026-06-17T16:03:55.000",
    "request_status": "Pending",
    "responsible_agency": "Department of Public Works",
    "final_address": "W CAVELIER DR & MICHOUD BLVD",
    "address_councildis": "E",
    "status": "Pending",
    "rowid": "1291724",
    "final_x": "3724613.0",
    "final_y": "569383.78",
    "longitude": "-89.93047318128103",
    "latitude": "30.05822657583918",
    "geocoded_column": {
      "latitude": "30.05822657583918",
      "longitude": "-89.93047318128103"
    }
  },
  {
    "service_request": "2026-1291723",
    "request_type": "Trash/Recycling",
    "request_reason": "Order Second Trash Cart",
    "date_created": "2026-06-17T16:01:11.000",
    "date_modified": "2026-06-17T16:01:12.000",
    "request_status": "Pending",
    "responsible_agency": "Department of Sanitation",
    "final_address": "7725 Tricia Ct",
    "address_councildis": "E",
    "status": "Assigned to Contractor",
    "contractor": "Waste Pro",
    "rowid": "1291723",
    "final_x": "3717384.2316",
    "final_y": "571571.951144",
    "longitude": "-89.95323896765005",
    "latitude": "30.064484501277537",
    "geocoded_column": {
      "latitude": "30.064484501277537",
      "longitude": "-89.95323896765005"
    }
  },
  {
    "service_request": "2026-1291722",
    "request_type": "Trash/Recycling",
    "request_reason": "Request a Large Item Pick Up",
    "date_created": "2026-06-17T16:01:07.000",
    "date_modified": "2026-06-17T16:01:10.000",
    "request_status": "Pending",
    "responsible_agency": "Department of Sanitation",
    "final_address": "7440 Dalewood Rd",
    "address_councildis": "E",
    "status": "Assigned to Contractor",
    "contractor": "Waste Pro",
    "rowid": "1291722",
    "final_x": "3700035.93834",
    "final_y": "559904.947741",
    "longitude": "-90.00850458536597",
    "latitude": "30.03296795947768",
    "geocoded_column": {
      "latitude": "30.03296795947768",
      "longitude": "-90.00850458536597"
    }
  },
  {
    "service_request": "2026-1291721",
    "request_type": "Trash/Recycling",
    "request_reason": "Change Size of Trash Cart",
    "date_created": "2026-06-17T15:57:13.000",
    "date_modified": "2026-06-17T15:57:16.000",
    "request_status": "Pending",
    "responsible_agency": "Department of Sanitation",
    "final_address": "1820 Paul Morphy St",
    "address_councildis": "D",
    "status": "Assigned to Contractor",
    "contractor": "IV Waste",
    "rowid": "1291721",
    "final_x": "3679832.03714",
    "final_y": "541695.500236",
    "longitude": "-90.0729837312601",
    "latitude": "29.983525354370226",
    "geocoded_column": {
      "latitude": "29.983525354370226",
      "longitude": "-90.0729837312601"
    }
  },
  {
    "service_request": "2026-1291720",
    "request_type": "Property Maintenance",
    "request_reason": "Property Maintenance",
    "date_created": "2026-06-17T15:55:14.000",
    "date_modified": "2026-06-17T15:55:21.000",
    "request_status": "Pending",
    "responsible_agency": "Department of Code Enforcement",
    "final_address": "2114 Marengo St",
    "address_councildis": "B",
    "status": "Pending",
    "rowid": "1291720",
    "final_x": "3671705.325",
    "final_y": "522880.563963",
    "longitude": "-90.09929225024722",
    "latitude": "29.932033810756945",
    "geocoded_column": {
      "latitude": "29.932033810756945",
      "longitude": "-90.09929225024722"
    }
  },
  {
    "service_request": "2026-1291719",
    "request_type": "Trash/Recycling",
    "request_reason": "Illegal Dumping",
    "date_created": "2026-06-17T15:53:52.000",
    "date_modified": "2026-06-17T15:53:53.000",
    "request_status": "Pending",
    "responsible_agency": "Department of Sanitation",
    "final_address": "5409 Royal St",
    "address_councildis": "E",
    "status": "Pending",
    "rowid": "1291719",
    "final_x": "3696868.69239",
    "final_y": "532514.908612",
    "longitude": "-90.01950576774307",
    "latitude": "29.957755752129223",
    "geocoded_column": {
      "latitude": "29.957755752129223",
      "longitude": "-90.01950576774307"
    }
  },
  {
    "service_request": "2026-1291718",
    "request_type": "Trash/Recycling",
    "request_reason": "Request a Large Item Pick Up",
    "date_created": "2026-06-17T15:53:28.000",
    "date_modified": "2026-06-17T15:53:30.000",
    "request_status": "Pending",
    "responsible_agency": "Department of Sanitation",
    "final_address": "4546 Stemway Dr",
    "address_councildis": "D",
    "status": "Assigned to Contractor",
    "contractor": "Waste Pro",
    "rowid": "1291718",
    "final_x": "3696934.52061",
    "final_y": "553237.446295",
    "longitude": "-90.0185470655372",
    "latitude": "30.014733100799962",
    "geocoded_column": {
      "latitude": "30.014733100799962",
      "longitude": "-90.0185470655372"
    }
  },
  {
    "service_request": "2026-1291717",
    "request_type": "Trash/Recycling",
    "request_reason": "Order Recycling Cart",
    "date_created": "2026-06-17T15:51:45.000",
    "date_modified": "2026-06-17T15:51:46.000",
    "request_status": "Pending",
    "responsible_agency": "Department of Sanitation",
    "final_address": "1825 Alvar St",
    "address_councildis": "D",
    "status": "Pending",
    "rowid": "1291717",
    "final_x": "3692242.62429",
    "final_y": "538213.343689",
    "longitude": "-90.03390943870767",
    "latitude": "29.9735694804331",
    "geocoded_column": {
      "latitude": "29.9735694804331",
      "longitude": "-90.03390943870767"
    }
  },
  {
    "service_request": "2026-1291716",
    "request_type": "Trash/Recycling",
    "request_reason": "Request a Large Item Pick Up",
    "date_created": "2026-06-17T15:50:12.000",
    "date_modified": "2026-06-17T15:50:16.000",
    "request_status": "Pending",
    "responsible_agency": "Department of Sanitation",
    "final_address": "6131 Craigie Rd",
    "address_councildis": "E",
    "status": "Assigned to Contractor",
    "contractor": "Waste Pro",
    "rowid": "1291716",
    "final_x": "3695927.05712",
    "final_y": "558904.968156",
    "longitude": "-90.02152514289642",
    "latitude": "30.030348385462304",
    "geocoded_column": {
      "latitude": "30.030348385462304",
      "longitude": "-90.02152514289642"
    }
  },
  {
    "service_request": "2026-1291715",
    "request_type": "Trash/Recycling",
    "request_reason": "Request a Large Item Pick Up",
    "date_created": "2026-06-17T15:46:11.000",
    "date_modified": "2026-06-17T15:46:13.000",
    "request_status": "Pending",
    "responsible_agency": "Department of Sanitation",
    "final_address": "2719 Filmore Ave",
    "address_councildis": "D",
    "status": "Assigned to Contractor",
    "contractor": "IV Waste",
    "rowid": "1291715",
    "final_x": "3687504.5894",
    "final_y": "552651.643414",
    "longitude": "-90.04836175861435",
    "latitude": "30.013416506444504",
    "geocoded_column": {
      "latitude": "30.013416506444504",
      "longitude": "-90.04836175861435"
    }
  },
  {
    "service_request": "2026-1291714",
    "request_type": "Drainage",
    "request_reason": "Catch Basin Not Draining",
    "date_created": "2026-06-17T15:42:46.000",
    "date_modified": "2026-06-17T15:42:48.000",
    "request_status": "Pending",
    "responsible_agency": "Sewerage & Water Board",
    "final_address": "1717 S Norman C Francis Prkwy",
    "address_councildis": "B",
    "status": "Pending",
    "rowid": "1291714",
    "final_x": "3669166.93838",
    "final_y": "530867.868738",
    "longitude": "-90.10703584450559",
    "latitude": "29.95407123491938",
    "geocoded_column": {
      "latitude": "29.95407123491938",
      "longitude": "-90.10703584450559"
    }
  },
  {
    "service_request": "2026-1291713",
    "request_type": "Abandoned Vehicles",
    "request_reason": "Abandoned/Junk Vehicles",
    "date_created": "2026-06-17T15:38:01.000",
    "date_modified": "2026-06-17T15:41:31.000",
    "request_status": "Pending",
    "responsible_agency": "Department of Public Works",
    "final_address": "4700 Corinne St",
    "address_councildis": "E",
    "status": "Pending",
    "rowid": "1291713",
    "final_x": "3714978.56837",
    "final_y": "556618.759258",
    "longitude": "-89.96140935173524",
    "latitude": "30.023448738126195",
    "geocoded_column": {
      "latitude": "30.023448738126195",
      "longitude": "-89.96140935173524"
    }
  },
  {
    "service_request": "2026-1291712",
    "request_type": "Abandoned Vehicles",
    "request_reason": "Abandoned/Junk Vehicles",
    "date_created": "2026-06-17T15:37:44.000",
    "date_modified": "2026-06-17T15:37:45.000",
    "request_status": "Pending",
    "responsible_agency": "Department of Public Works",
    "final_address": "836 Market St",
    "address_councildis": "B",
    "status": "Pending",
    "rowid": "1291712",
    "final_x": "3680825.91509",
    "final_y": "522472.176058",
    "longitude": "-90.07051370257665",
    "latitude": "29.93063763714587",
    "geocoded_column": {
      "latitude": "29.93063763714587",
      "longitude": "-90.07051370257665"
    }
  },
  {
    "service_request": "2026-1291711",
    "request_type": "Trash/Recycling",
    "request_reason": "Request a Large Item Pick Up",
    "date_created": "2026-06-17T15:35:57.000",
    "date_modified": "2026-06-17T15:35:59.000",
    "request_status": "Pending",
    "responsible_agency": "Department of Sanitation",
    "final_address": "1636 Congress St",
    "address_councildis": "D",
    "status": "Assigned to Contractor",
    "contractor": "IV Waste",
    "rowid": "1291711",
    "final_x": "3691222.89673",
    "final_y": "537764.734728",
    "longitude": "-90.03714596951907",
    "latitude": "29.97236772244334",
    "geocoded_column": {
      "latitude": "29.97236772244334",
      "longitude": "-90.03714596951907"
    }
  },
  {
    "service_request": "2026-1291710",
    "request_type": "Trash/Recycling",
    "request_reason": "Replace Recycling Cart",
    "date_created": "2026-06-17T15:34:20.000",
    "date_modified": "2026-06-17T15:34:21.000",
    "request_status": "Pending",
    "responsible_agency": "Department of Sanitation",
    "final_address": "1760 N Tonti St",
    "address_councildis": "D",
    "status": "Pending",
    "rowid": "1291710",
    "final_x": "3681091.20943",
    "final_y": "540406.432011",
    "longitude": "-90.06905152796952",
    "latitude": "29.979942723778375",
    "geocoded_column": {
      "latitude": "29.979942723778375",
      "longitude": "-90.06905152796952"
    }
  },
  {
    "service_request": "2026-1291709",
    "request_type": "Tree Service",
    "request_reason": "Tree Trim",
    "date_created": "2026-06-17T15:33:52.000",
    "date_modified": "2026-06-17T15:33:53.000",
    "request_status": "Pending",
    "responsible_agency": "Department of Parks & Parkways",
    "final_address": "7107 St Charles Ave",
    "address_councildis": "A",
    "status": "Pending",
    "rowid": "1291709",
    "final_x": "3663222.32224",
    "final_y": "524639.981372",
    "longitude": "-90.12601382602749",
    "latitude": "29.93712013595339",
    "geocoded_column": {
      "latitude": "29.93712013595339",
      "longitude": "-90.12601382602749"
    }
  },
  {
    "service_request": "2026-1291708",
    "request_type": "Streetlights",
    "request_reason": "Streetlight Outage/Malfunction",
    "date_created": "2026-06-17T15:30:07.000",
    "date_modified": "2026-06-17T15:30:08.000",
    "request_status": "Pending",
    "responsible_agency": "Department of Public Works",
    "final_address": "3411 Pauger St",
    "address_councildis": "D",
    "status": "Pending",
    "rowid": "1291708",
    "final_x": "3683434.94498",
    "final_y": "542264.541709",
    "longitude": "-90.06158391577512",
    "latitude": "29.984980558486498",
    "geocoded_column": {
      "latitude": "29.984980558486498",
      "longitude": "-90.06158391577512"
    }
  },
  {
    "service_request": "2026-1291707",
    "request_type": "Parks & Grass Service",
    "request_reason": "Request Grass Cutting Service (City Owned Property)",
    "date_created": "2026-06-17T15:28:55.000",
    "date_modified": "2026-06-17T15:28:57.000",
    "request_status": "Pending",
    "responsible_agency": "Department of Parks & Parkways",
    "final_address": "2000 BLK Saint Roch Ave",
    "address_councildis": "D",
    "status": "Pending",
    "rowid": "1291707",
    "final_x": "3686172.93733",
    "final_y": "539918.02461",
    "longitude": "-90.05301859968546",
    "latitude": "29.97844462367423",
    "geocoded_column": {
      "latitude": "29.97844462367423",
      "longitude": "-90.05301859968546"
    }
  },
  {
    "service_request": "2026-1291706",
    "request_type": "Drainage",
    "request_reason": "Catch Basin Not Draining",
    "date_created": "2026-06-17T15:27:08.000",
    "date_modified": "2026-06-17T15:27:10.000",
    "request_status": "Pending",
    "responsible_agency": "Sewerage & Water Board",
    "final_address": "1717 S Norman C Francis Prkwy",
    "address_councildis": "B",
    "status": "Pending",
    "rowid": "1291706",
    "final_x": "3669166.93838",
    "final_y": "530867.868738",
    "longitude": "-90.10703584450559",
    "latitude": "29.95407123491938",
    "geocoded_column": {
      "latitude": "29.95407123491938",
      "longitude": "-90.10703584450559"
    }
  },
  {
    "service_request": "2026-1291705",
    "request_type": "Trash/Recycling",
    "request_reason": "Request a Large Item Pick Up",
    "date_created": "2026-06-17T15:25:52.000",
    "date_modified": "2026-06-17T15:25:55.000",
    "request_status": "Pending",
    "responsible_agency": "Department of Sanitation",
    "final_address": "5761 Pembrook Dr",
    "address_councildis": "C",
    "status": "Assigned to Contractor",
    "contractor": "Richards Disposal",
    "rowid": "1291705",
    "final_x": "3705007.38628",
    "final_y": "520673.187257",
    "longitude": "-89.99424331717266",
    "latitude": "29.924936106017107",
    "geocoded_column": {
      "latitude": "29.924936106017107",
      "longitude": "-89.99424331717266"
    }
  },
  {
    "service_request": "2026-1291704",
    "request_type": "Safety & Permits",
    "request_reason": "Zoning Enforcement",
    "date_created": "2026-06-17T15:25:03.000",
    "date_modified": "2026-06-17T15:25:05.000",
    "request_status": "Pending",
    "responsible_agency": "Safety and Permits",
    "final_address": "5021 Willow St",
    "address_councildis": "B",
    "status": "Pending",
    "rowid": "1291704",
    "final_x": "3668716.92494",
    "final_y": "525361.379773",
    "longitude": "-90.10864264682077",
    "latitude": "29.938943415785275",
    "geocoded_column": {
      "latitude": "29.938943415785275",
      "longitude": "-90.10864264682077"
    }
  },
  {
    "service_request": "2026-1291703",
    "request_type": "Drainage",
    "request_reason": "Catch Basin Not Draining",
    "date_created": "2026-06-17T15:23:35.000",
    "date_modified": "2026-06-17T15:23:36.000",
    "request_status": "Pending",
    "responsible_agency": "Sewerage & Water Board",
    "final_address": "7107 St Charles Ave",
    "address_councildis": "A",
    "status": "Pending",
    "rowid": "1291703",
    "final_x": "3663222.32224",
    "final_y": "524639.981372",
    "longitude": "-90.12601382602749",
    "latitude": "29.93712013595339",
    "geocoded_column": {
      "latitude": "29.93712013595339",
      "longitude": "-90.12601382602749"
    }
  },
  {
    "service_request": "2026-1291702",
    "request_type": "Trash/Recycling",
    "request_reason": "Request a Large Item Pick Up",
    "date_created": "2026-06-17T15:23:32.000",
    "date_modified": "2026-06-17T15:23:34.000",
    "request_status": "Pending",
    "responsible_agency": "Department of Sanitation",
    "final_address": "5353 Perrier St",
    "address_councildis": "B",
    "status": "Assigned to Contractor",
    "contractor": "IV Waste",
    "rowid": "1291702",
    "final_x": "3667230.41421",
    "final_y": "520102.297272",
    "longitude": "-90.11351250634239",
    "latitude": "29.924526217147832",
    "geocoded_column": {
      "latitude": "29.924526217147832",
      "longitude": "-90.11351250634239"
    }
  },
  {
    "service_request": "2026-1291701",
    "request_type": "Trash/Recycling",
    "request_reason": "Repair Trash Cart",
    "date_created": "2026-06-17T15:19:40.000",
    "date_modified": "2026-06-17T15:19:42.000",
    "request_status": "Pending",
    "responsible_agency": "Department of Sanitation",
    "final_address": "5761 Pembrook Dr",
    "address_councildis": "C",
    "status": "Assigned to Contractor",
    "contractor": "Richards Disposal",
    "rowid": "1291701",
    "final_x": "3705007.38628",
    "final_y": "520673.187257",
    "longitude": "-89.99424331717266",
    "latitude": "29.924936106017107",
    "geocoded_column": {
      "latitude": "29.924936106017107",
      "longitude": "-89.99424331717266"
    }
  },
  {
    "service_request": "2026-1291700",
    "request_type": "Trash/Recycling",
    "request_reason": "Request a Large Item Pick Up",
    "date_created": "2026-06-17T15:19:24.000",
    "date_modified": "2026-06-17T15:19:25.000",
    "request_status": "Pending",
    "responsible_agency": "Department of Sanitation",
    "final_address": "4942 Coronado Dr",
    "address_councildis": "E",
    "status": "Assigned to Contractor",
    "contractor": "Waste Pro",
    "rowid": "1291700",
    "final_x": "3713943.13823",
    "final_y": "557624.703323",
    "longitude": "-89.96464309165337",
    "latitude": "30.02624873321765",
    "geocoded_column": {
      "latitude": "30.02624873321765",
      "longitude": "-89.96464309165337"
    }
  },
  {
    "service_request": "2026-1291699",
    "request_type": "Tree Service",
    "request_reason": "Tree Trim",
    "date_created": "2026-06-17T15:15:10.000",
    "date_modified": "2026-06-17T15:15:12.000",
    "request_status": "Pending",
    "responsible_agency": "Department of Parks & Parkways",
    "final_address": "3411 Franklin Ave",
    "address_councildis": "D",
    "status": "Pending",
    "rowid": "1291699",
    "final_x": "3687249.04175",
    "final_y": "545646.503696",
    "longitude": "-90.04941714817001",
    "latitude": "29.994162795487384",
    "geocoded_column": {
      "latitude": "29.994162795487384",
      "longitude": "-90.04941714817001"
    }
  },
  {
    "service_request": "2026-1291698",
    "request_type": "Trash/Recycling",
    "request_reason": "Illegal Dumping",
    "date_created": "2026-06-17T15:12:03.000",
    "date_modified": "2026-06-17T15:12:05.000",
    "request_status": "Pending",
    "responsible_agency": "Department of Sanitation",
    "final_address": "PONTCHARTRAIN BLVD & METAIRIE RD",
    "address_councildis": "A",
    "status": "Pending",
    "rowid": "1291698",
    "final_x": "3666874.7",
    "final_y": "540620.98",
    "longitude": "-90.11394609988056",
    "latitude": "29.9809563106279",
    "geocoded_column": {
      "latitude": "29.9809563106279",
      "longitude": "-90.11394609988056"
    }
  },
  {
    "service_request": "2026-1291697",
    "request_type": "Trash/Recycling",
    "request_reason": "Request a Large Item Pick Up",
    "date_created": "2026-06-17T15:11:02.000",
    "date_modified": "2026-06-17T15:11:03.000",
    "request_status": "Pending",
    "responsible_agency": "Department of Sanitation",
    "final_address": "6127 N Galvez St",
    "address_councildis": "E",
    "status": "Assigned to Contractor",
    "contractor": "Waste Pro",
    "rowid": "1291697",
    "final_x": "3701141.90397",
    "final_y": "536833.2402",
    "longitude": "-90.0058543150392",
    "latitude": "29.9694941970473",
    "geocoded_column": {
      "latitude": "29.9694941970473",
      "longitude": "-90.0058543150392"
    }
  },
  {
    "service_request": "2026-1291696",
    "request_type": "Trash/Recycling",
    "request_reason": "Replace Trash Cart",
    "date_created": "2026-06-17T15:09:04.000",
    "date_modified": "2026-06-17T15:09:05.000",
    "request_status": "Pending",
    "responsible_agency": "Department of Sanitation",
    "final_address": "6219 Dover Pl",
    "address_councildis": "C",
    "status": "Assigned to Contractor",
    "contractor": "Richards Disposal",
    "rowid": "1291696",
    "final_x": "3707115.12651",
    "final_y": "518999.108855",
    "longitude": "-89.98765198951699",
    "latitude": "29.92026507618782",
    "geocoded_column": {
      "latitude": "29.92026507618782",
      "longitude": "-89.98765198951699"
    }
  },
  {
    "service_request": "2026-1291695",
    "request_type": "Trash/Recycling",
    "request_reason": "Request a Large Item Pick Up",
    "date_created": "2026-06-17T15:08:43.000",
    "date_modified": "2026-06-17T15:08:45.000",
    "request_status": "Pending",
    "responsible_agency": "Department of Sanitation",
    "final_address": "7620 Dalewood Rd",
    "address_councildis": "E",
    "status": "Assigned to Contractor",
    "contractor": "Waste Pro",
    "rowid": "1291695",
    "final_x": "3699898.61124",
    "final_y": "560425.575966",
    "longitude": "-90.0089195326891",
    "latitude": "30.0344038505073",
    "geocoded_column": {
      "latitude": "30.0344038505073",
      "longitude": "-90.0089195326891"
    }
  },
  {
    "service_request": "2026-1291694",
    "request_type": "Tree Service",
    "request_reason": "Dead or Dying Tree",
    "date_created": "2026-06-17T15:07:49.000",
    "date_modified": "2026-06-17T15:07:50.000",
    "request_status": "Pending",
    "responsible_agency": "Department of Parks & Parkways",
    "final_address": "8118 Hickory St",
    "address_councildis": "A",
    "status": "Pending",
    "rowid": "1291694",
    "final_x": "3663233.09363",
    "final_y": "530012.214721",
    "longitude": "-90.12580108365623",
    "latitude": "29.95189174650475",
    "geocoded_column": {
      "latitude": "29.95189174650475",
      "longitude": "-90.12580108365623"
    }
  },
  {
    "service_request": "2026-1291693",
    "request_type": "Trash/Recycling",
    "request_reason": "Request a Large Item Pick Up",
    "date_created": "2026-06-17T15:03:19.000",
    "date_modified": "2026-06-17T15:03:20.000",
    "request_status": "Pending",
    "responsible_agency": "Department of Sanitation",
    "final_address": "7636 Shorewood Blvd",
    "address_councildis": "E",
    "status": "Assigned to Contractor",
    "contractor": "Waste Pro",
    "rowid": "1291693",
    "final_x": "3719693.38713",
    "final_y": "572702.317545",
    "longitude": "-89.9458963425588",
    "latitude": "30.067515858773984",
    "geocoded_column": {
      "latitude": "30.067515858773984",
      "longitude": "-89.9458963425588"
    }
  },
  {
    "service_request": "2026-1291692",
    "request_type": "Trash/Recycling",
    "request_reason": "Request a Large Item Pick Up",
    "date_created": "2026-06-17T15:01:46.000",
    "date_modified": "2026-06-17T15:01:51.000",
    "request_status": "Pending",
    "responsible_agency": "Department of Sanitation",
    "final_address": "2228 Tricou St",
    "address_councildis": "E",
    "status": "Assigned to Contractor",
    "contractor": "Waste Pro",
    "rowid": "1291692",
    "final_x": "3701787.41732",
    "final_y": "537221.405896",
    "longitude": "-90.00380152094841",
    "latitude": "29.970540933358343",
    "geocoded_column": {
      "latitude": "29.970540933358343",
      "longitude": "-90.00380152094841"
    }
  },
  {
    "service_request": "2026-1291691",
    "request_type": "Trash/Recycling",
    "request_reason": "Request a Large Item Pick Up",
    "date_created": "2026-06-17T14:57:43.000",
    "date_modified": "2026-06-17T14:57:52.000",
    "request_status": "Pending",
    "responsible_agency": "Department of Sanitation",
    "final_address": "7210 Benson Ct",
    "address_councildis": "E",
    "status": "Assigned to Contractor",
    "contractor": "Waste Pro",
    "rowid": "1291691",
    "final_x": "3705143.95819",
    "final_y": "560838.074142",
    "longitude": "-89.99232838791454",
    "latitude": "30.035370310996026",
    "geocoded_column": {
      "latitude": "30.035370310996026",
      "longitude": "-89.99232838791454"
    }
  },
  {
    "service_request": "2026-1291690",
    "request_type": "Trash/Recycling",
    "request_reason": "Request a Large Item Pick Up",
    "date_created": "2026-06-17T14:57:35.000",
    "date_modified": "2026-06-17T14:57:38.000",
    "request_status": "Pending",
    "responsible_agency": "Department of Sanitation",
    "final_address": "12 Carriage Ln",
    "address_councildis": "C",
    "status": "Assigned to Contractor",
    "contractor": "Richards Disposal",
    "rowid": "1291690",
    "final_x": "3695940.59587",
    "final_y": "519889.315384",
    "longitude": "-90.0228923632517",
    "latitude": "29.923068964092447",
    "geocoded_column": {
      "latitude": "29.923068964092447",
      "longitude": "-90.0228923632517"
    }
  },
  {
    "service_request": "2026-1291689",
    "request_type": "Trash/Recycling",
    "request_reason": "Request a Large Item Pick Up",
    "date_created": "2026-06-17T14:46:51.000",
    "date_modified": "2026-06-17T14:47:20.000",
    "request_status": "Pending",
    "responsible_agency": "Department of Sanitation",
    "final_address": "3015 St Peter St",
    "address_councildis": "A",
    "status": "Assigned to Contractor",
    "contractor": "IV Waste",
    "rowid": "1291689",
    "final_x": "3675577.06049",
    "final_y": "537734.011528",
    "longitude": "-90.08655935156085",
    "latitude": "29.972760622541003",
    "geocoded_column": {
      "latitude": "29.972760622541003",
      "longitude": "-90.08655935156085"
    }
  },
  {
    "service_request": "2026-1291688",
    "request_type": "Trash/Recycling",
    "request_reason": "Dead Animal Pick Up",
    "date_created": "2026-06-17T14:45:29.000",
    "date_modified": "2026-06-17T16:39:22.000",
    "case_close_date": "2026-06-17T11:39:21.000",
    "request_status": "Closed",
    "responsible_agency": "Department of Sanitation",
    "final_address": "3023 Grand-Route St John St",
    "address_councildis": "A",
    "status": "Duplicate Request",
    "contractor": "IV Waste",
    "contractor_action": "Duplicate",
    "rowid": "1291688",
    "final_x": "3676954.44155",
    "final_y": "540348.351563",
    "longitude": "-90.08211916402466",
    "latitude": "29.979907878434428",
    "geocoded_column": {
      "latitude": "29.979907878434428",
      "longitude": "-90.08211916402466"
    }
  },
  {
    "service_request": "2026-1291687",
    "request_type": "Trash/Recycling",
    "request_reason": "Request a Large Item Pick Up",
    "date_created": "2026-06-17T14:40:55.000",
    "date_modified": "2026-06-17T14:40:57.000",
    "request_status": "Pending",
    "responsible_agency": "Department of Sanitation",
    "final_address": "4809 Shalimar Dr",
    "address_councildis": "D",
    "status": "Assigned to Contractor",
    "contractor": "Waste Pro",
    "rowid": "1291687",
    "final_x": "3697189.11351",
    "final_y": "554543.693336",
    "longitude": "-90.01769529305632",
    "latitude": "30.018316752152366",
    "geocoded_column": {
      "latitude": "30.018316752152366",
      "longitude": "-90.01769529305632"
    }
  },
  {
    "service_request": "2026-1291686",
    "request_type": "Trash/Recycling",
    "request_reason": "Request a Large Item Pick Up",
    "date_created": "2026-06-17T14:39:18.000",
    "date_modified": "2026-06-17T14:39:20.000",
    "request_status": "Pending",
    "responsible_agency": "Department of Sanitation",
    "final_address": "7141 Foch Rd",
    "address_councildis": "D",
    "status": "Assigned to Contractor",
    "contractor": "Waste Pro",
    "rowid": "1291686",
    "final_x": "3696480.85072",
    "final_y": "557201.470107",
    "longitude": "-90.01983686582311",
    "latitude": "30.025646971874373",
    "geocoded_column": {
      "latitude": "30.025646971874373",
      "longitude": "-90.01983686582311"
    }
  },
  {
    "service_request": "2026-1291685",
    "request_type": "Trash/Recycling",
    "request_reason": "Missed Trash Pick-Up",
    "date_created": "2026-06-17T14:36:14.000",
    "date_modified": "2026-06-17T14:36:17.000",
    "request_status": "Pending",
    "responsible_agency": "Department of Sanitation",
    "final_address": "12310 Carmel Pl",
    "address_councildis": "E",
    "status": "Assigned to Contractor",
    "contractor": "Waste Pro",
    "rowid": "1291685",
    "final_x": "3715823.54373",
    "final_y": "566469.189859",
    "longitude": "-89.95836594580753",
    "latitude": "30.050505606448535",
    "geocoded_column": {
      "latitude": "30.050505606448535",
      "longitude": "-89.95836594580753"
    }
  },
  {
    "service_request": "2026-1291684",
    "request_type": "Trash/Recycling",
    "request_reason": "Order Trash Cart",
    "date_created": "2026-06-17T14:35:29.000",
    "date_modified": "2026-06-17T14:35:31.000",
    "request_status": "Pending",
    "responsible_agency": "Department of Sanitation",
    "final_address": "2916 Maurepas St",
    "address_councildis": "A",
    "status": "Assigned to Contractor",
    "contractor": "IV Waste",
    "rowid": "1291684",
    "final_x": "3677548.1915",
    "final_y": "540684.059147",
    "longitude": "-90.08023226024352",
    "latitude": "29.980813117473545",
    "geocoded_column": {
      "latitude": "29.980813117473545",
      "longitude": "-90.08023226024352"
    }
  },
  {
    "service_request": "2026-1291683",
    "request_type": "Property Maintenance",
    "request_reason": "Property Maintenance",
    "date_created": "2026-06-17T14:33:24.000",
    "date_modified": "2026-06-17T14:36:20.000",
    "request_status": "Pending",
    "responsible_agency": "Department of Code Enforcement",
    "final_address": "12320 Carmel Pl",
    "address_councildis": "E",
    "status": "Pending",
    "rowid": "1291683",
    "final_x": "3715866.94066",
    "final_y": "566514.853603",
    "longitude": "-89.95822705289713",
    "latitude": "30.05062973112597",
    "geocoded_column": {
      "latitude": "30.05062973112597",
      "longitude": "-89.95822705289713"
    }
  },
  {
    "service_request": "2026-1291682",
    "request_type": "Trash/Recycling",
    "request_reason": "Replace Trash Cart",
    "date_created": "2026-06-17T14:33:11.000",
    "date_modified": "2026-06-17T14:33:13.000",
    "request_status": "Pending",
    "responsible_agency": "Department of Sanitation",
    "final_address": "2914 Maurepas St",
    "address_councildis": "A",
    "status": "Assigned to Contractor",
    "contractor": "IV Waste",
    "rowid": "1291682",
    "final_x": "3677578.54466",
    "final_y": "540683.040203",
    "longitude": "-90.080136426724",
    "latitude": "29.980809402961874",
    "geocoded_column": {
      "latitude": "29.980809402961874",
      "longitude": "-90.080136426724"
    }
  },
  {
    "service_request": "2026-1291681",
    "request_type": "Trash/Recycling",
    "request_reason": "Request a Large Item Pick Up",
    "date_created": "2026-06-17T14:31:42.000",
    "date_modified": "2026-06-17T14:31:44.000",
    "request_status": "Pending",
    "responsible_agency": "Department of Sanitation",
    "final_address": "7554 Stonewood St",
    "address_councildis": "E",
    "status": "Assigned to Contractor",
    "contractor": "Waste Pro",
    "rowid": "1291681",
    "final_x": "3719793.04773",
    "final_y": "572168.033",
    "longitude": "-89.94560175584549",
    "latitude": "30.06604348256588",
    "geocoded_column": {
      "latitude": "30.06604348256588",
      "longitude": "-89.94560175584549"
    }
  },
  {
    "service_request": "2026-1291680",
    "request_type": "Trash/Recycling",
    "request_reason": "Order Trash Cart",
    "date_created": "2026-06-17T14:30:51.000",
    "date_modified": "2026-06-17T14:30:53.000",
    "request_status": "Pending",
    "responsible_agency": "Department of Sanitation",
    "final_address": "5169 Lakeview Ct",
    "address_councildis": "E",
    "status": "Assigned to Contractor",
    "contractor": "Waste Pro",
    "rowid": "1291680",
    "final_x": "3698999.12074",
    "final_y": "556440.830618",
    "longitude": "-90.01190724931146",
    "latitude": "30.023475889291223",
    "geocoded_column": {
      "latitude": "30.023475889291223",
      "longitude": "-90.01190724931146"
    }
  },
  {
    "service_request": "2026-1291679",
    "request_type": "Trash/Recycling",
    "request_reason": "Replace Trash Cart",
    "date_created": "2026-06-17T14:28:53.000",
    "date_modified": "2026-06-17T14:28:55.000",
    "request_status": "Pending",
    "responsible_agency": "Department of Sanitation",
    "final_address": "705 Camp St",
    "address_councildis": "B",
    "status": "Assigned to Contractor",
    "contractor": "IV Waste",
    "rowid": "1291679",
    "final_x": "3680865.45954",
    "final_y": "528405.262912",
    "longitude": "-90.07018239223355",
    "latitude": "29.946950456159243",
    "geocoded_column": {
      "latitude": "29.946950456159243",
      "longitude": "-90.07018239223355"
    }
  },
  {
    "service_request": "2026-1291678",
    "request_type": "Trash/Recycling",
    "request_reason": "Request a Large Item Pick Up",
    "date_created": "2026-06-17T14:26:15.000",
    "date_modified": "2026-06-17T14:26:17.000",
    "request_status": "Pending",
    "responsible_agency": "Department of Sanitation",
    "final_address": "4210 General Pershing St",
    "address_councildis": "B",
    "status": "Assigned to Contractor",
    "contractor": "IV Waste",
    "rowid": "1291678",
    "final_x": "3669813.07674",
    "final_y": "529450.519617",
    "longitude": "-90.10504357010639",
    "latitude": "29.95015495996274",
    "geocoded_column": {
      "latitude": "29.95015495996274",
      "longitude": "-90.10504357010639"
    }
  },
  {
    "service_request": "2026-1291677",
    "request_type": "Trash/Recycling",
    "request_reason": "Missed Trash Pick-Up",
    "date_created": "2026-06-17T14:25:10.000",
    "date_modified": "2026-06-17T14:27:21.000",
    "request_status": "Pending",
    "responsible_agency": "Department of Sanitation",
    "final_address": "13632 N Cavelier Dr",
    "address_councildis": "E",
    "status": "Assigned to Contractor",
    "contractor": "Waste Pro",
    "rowid": "1291677",
    "final_x": "3724085.57651",
    "final_y": "569858.311974",
    "longitude": "-89.93212194469127",
    "latitude": "30.059549083506568",
    "geocoded_column": {
      "latitude": "30.059549083506568",
      "longitude": "-89.93212194469127"
    }
  },
  {
    "service_request": "2026-1291676",
    "request_type": "Streetlights",
    "request_reason": "Streetlight Outage/Malfunction",
    "date_created": "2026-06-17T14:21:56.000",
    "date_modified": "2026-06-17T14:21:57.000",
    "request_status": "Pending",
    "responsible_agency": "Department of Public Works",
    "final_address": "WOODLAND DR & TALL TIMBERS DR",
    "address_councildis": "C",
    "status": "Pending",
    "rowid": "1291676",
    "final_x": "3705330.9",
    "final_y": "514017.68",
    "longitude": "-89.99346776528627",
    "latitude": "29.906625357784577",
    "geocoded_column": {
      "latitude": "29.906625357784577",
      "longitude": "-89.99346776528627"
    }
  },
  {
    "service_request": "2026-1291675",
    "request_type": "Trash/Recycling",
    "request_reason": "Request a Large Item Pick Up",
    "date_created": "2026-06-17T14:18:47.000",
    "date_modified": "2026-06-17T14:18:49.000",
    "request_status": "Pending",
    "responsible_agency": "Department of Sanitation",
    "final_address": "4455 Shalimar Dr",
    "address_councildis": "D",
    "status": "Assigned to Contractor",
    "contractor": "Waste Pro",
    "rowid": "1291675",
    "final_x": "3697333.71786",
    "final_y": "552825.347414",
    "longitude": "-90.01730075699044",
    "latitude": "30.013587383145268",
    "geocoded_column": {
      "latitude": "30.013587383145268",
      "longitude": "-90.01730075699044"
    }
  },
  {
    "service_request": "2026-1291674",
    "request_type": "Property Maintenance",
    "request_reason": "Property Maintenance",
    "date_created": "2026-06-17T14:17:54.000",
    "date_modified": "2026-06-17T14:17:55.000",
    "request_status": "Pending",
    "responsible_agency": "Department of Code Enforcement",
    "final_address": "2108 Magnolia St",
    "address_councildis": "B",
    "status": "Pending",
    "rowid": "1291674",
    "final_x": "3675453.91112",
    "final_y": "526984.805246",
    "longitude": "-90.08731743990084",
    "latitude": "29.94320759065088",
    "geocoded_column": {
      "latitude": "29.94320759065088",
      "longitude": "-90.08731743990084"
    }
  },
  {
    "service_request": "2026-1291673",
    "request_type": "Property Maintenance",
    "request_reason": "Property Maintenance",
    "date_created": "2026-06-17T14:14:33.000",
    "date_modified": "2026-06-17T14:14:35.000",
    "request_status": "Pending",
    "responsible_agency": "Department of Code Enforcement",
    "final_address": "5549 Providence Pl",
    "address_councildis": "D",
    "status": "Pending",
    "rowid": "1291673",
    "final_x": "3688387.90057",
    "final_y": "553833.938327",
    "longitude": "-90.04552898584092",
    "latitude": "30.016640114423687",
    "geocoded_column": {
      "latitude": "30.016640114423687",
      "longitude": "-90.04552898584092"
    }
  },
  {
    "service_request": "2026-1291672",
    "request_type": "Trash/Recycling",
    "request_reason": "Missed Trash Pick-Up",
    "date_created": "2026-06-17T14:14:17.000",
    "date_modified": "2026-06-17T16:01:04.000",
    "case_close_date": "2026-06-17T11:00:54.000",
    "request_status": "Closed",
    "responsible_agency": "Department of Sanitation",
    "final_address": "6232 Pasteur Blvd",
    "address_councildis": "D",
    "status": "Invalid Request",
    "contractor": "IV Waste",
    "contractor_action": "Invalid Request",
    "rowid": "1291672",
    "final_x": "3682675.01589",
    "final_y": "556126.53705",
    "longitude": "-90.06349898388004",
    "latitude": "30.023119228761402",
    "geocoded_column": {
      "latitude": "30.023119228761402",
      "longitude": "-90.06349898388004"
    }
  },
  {
    "service_request": "2026-1291671",
    "request_type": "Trash/Recycling",
    "request_reason": "Request a Large Item Pick Up",
    "date_created": "2026-06-17T14:12:38.000",
    "date_modified": "2026-06-17T14:12:41.000",
    "request_status": "Pending",
    "responsible_agency": "Department of Sanitation",
    "final_address": "4900 Corsica Pl",
    "address_councildis": "E",
    "status": "Assigned to Contractor",
    "contractor": "Waste Pro",
    "rowid": "1291671",
    "final_x": "3727271.58144",
    "final_y": "561865.392031",
    "longitude": "-89.92236245233427",
    "latitude": "30.037464390789193",
    "geocoded_column": {
      "latitude": "30.037464390789193",
      "longitude": "-89.92236245233427"
    }
  },
  {
    "service_request": "2026-1291670",
    "request_type": "Street and Traffic Signs",
    "request_reason": "One Way Sign Missing or Damaged",
    "date_created": "2026-06-17T14:12:22.000",
    "date_modified": "2026-06-17T14:12:24.000",
    "request_status": "Pending",
    "responsible_agency": "Department of Public Works",
    "final_address": "0 BLK Bienville St",
    "address_councildis": "C",
    "status": "Pending",
    "rowid": "1291670",
    "final_x": "3682796.7971",
    "final_y": "530442.12099",
    "longitude": "-90.06401321104035",
    "latitude": "29.95249244398008",
    "geocoded_column": {
      "latitude": "29.95249244398008",
      "longitude": "-90.06401321104035"
    }
  },
  {
    "service_request": "2026-1291669",
    "request_type": "Trash/Recycling",
    "request_reason": "Missed Trash Pick-Up",
    "date_created": "2026-06-17T14:11:37.000",
    "date_modified": "2026-06-17T14:24:27.000",
    "case_close_date": "2026-06-17T09:24:25.000",
    "request_status": "Closed",
    "responsible_agency": "Department of Sanitation",
    "final_address": "6232 Pasteur Blvd",
    "address_councildis": "D",
    "status": "Duplicate Request",
    "contractor": "IV Waste",
    "contractor_action": "Duplicate",
    "rowid": "1291669",
    "final_x": "3682675.01589",
    "final_y": "556126.53705",
    "longitude": "-90.06349898388004",
    "latitude": "30.023119228761402",
    "geocoded_column": {
      "latitude": "30.023119228761402",
      "longitude": "-90.06349898388004"
    }
  },
  {
    "service_request": "2026-1291668",
    "request_type": "Drainage",
    "request_reason": "Catch Basin Not Draining",
    "date_created": "2026-06-17T14:09:38.000",
    "date_modified": "2026-06-17T14:09:40.000",
    "request_status": "Pending",
    "responsible_agency": "Sewerage & Water Board",
    "final_address": "2100 BLK Magnolia St",
    "address_councildis": "B",
    "status": "Pending",
    "rowid": "1291668",
    "final_x": "3675364.83591",
    "final_y": "526947.332376",
    "longitude": "-90.08759995928972",
    "latitude": "29.943107215699904",
    "geocoded_column": {
      "latitude": "29.943107215699904",
      "longitude": "-90.08759995928972"
    }
  },
  {
    "service_request": "2026-1291667",
    "request_type": "Property Maintenance",
    "request_reason": "Property Maintenance",
    "date_created": "2026-06-17T14:08:36.000",
    "date_modified": "2026-06-17T14:08:37.000",
    "request_status": "Pending",
    "responsible_agency": "Department of Code Enforcement",
    "final_address": "5514 Providence Pl",
    "address_councildis": "D",
    "status": "Pending",
    "rowid": "1291667",
    "final_x": "3688279.97142",
    "final_y": "553562.809815",
    "longitude": "-90.04587962044927",
    "latitude": "30.015897946134285",
    "geocoded_column": {
      "latitude": "30.015897946134285",
      "longitude": "-90.04587962044927"
    }
  },
  {
    "service_request": "2026-1291666",
    "request_type": "Drainage",
    "request_reason": "Catch Basin Not Draining",
    "date_created": "2026-06-17T14:08:24.000",
    "date_modified": "2026-06-17T14:08:26.000",
    "request_status": "Pending",
    "responsible_agency": "Sewerage & Water Board",
    "final_address": "2535 S Carrollton Ave",
    "address_councildis": "A",
    "status": "Pending",
    "rowid": "1291666",
    "final_x": "3665433.77735",
    "final_y": "531933.447299",
    "longitude": "-90.11878803856291",
    "latitude": "29.95711055779636",
    "geocoded_column": {
      "latitude": "29.95711055779636",
      "longitude": "-90.11878803856291"
    }
  },