[
  {
    "service_request": "2022-953766",
    "request_type": "Trash/Recycling",
    "request_reason": "MIssed Recycling Pick-Up",
    "date_created": "2022-12-15T23:11:58.000",
    "date_modified": "2022-12-15T23:11:58.000",
    "request_status": "Pending",
    "responsible_agency": "Department of Sanitation",
    "final_address": "700 Block of Jefferson Ave, New Orleans, Louisiana, 70115",
    "status": "Assigned to Contractor",
    "rowid": "953766",
    "longitude": "0.0",
    "latitude": "0.0",
    "geocoded_column": {
      "latitude": "0.0",
      "longitude": "0.0"
    }
  },
  {
    "service_request": "2022-953765",
    "request_type": "Property Maintenance",
    "request_reason": "Property Maintenance",
    "date_created": "2022-12-15T22:55:13.000",
    "date_modified": "2022-12-15T22:55:13.000",
    "request_status": "Pending",
    "responsible_agency": "Department of Code Enforcement",
    "final_address": "9200 Morrison Rd",
    "address_councildis": "E",
    "status": "Pending",
    "rowid": "953765",
    "final_x": "3706638.78475",
    "final_y": "562136.046047",
    "longitude": "-89.98755634843394",
    "latitude": "30.03889103368737",
    "geocoded_column": {
      "latitude": "30.03889103368737",
      "longitude": "-89.98755634843394"
    }
  },
  {
    "service_request": "2022-953764",
    "request_type": "Property Maintenance",
    "request_reason": "Property Maintenance",
    "date_created": "2022-12-15T22:33:50.000",
    "date_modified": "2022-12-15T22:33:50.000",
    "request_status": "Pending",
    "responsible_agency": "Department of Code Enforcement",
    "final_address": "4217 Baudin St",
    "address_councildis": "A",
    "status": "Pending",
    "rowid": "953764",
    "final_x": "3669540.85742",
    "final_y": "537587.578056",
    "longitude": "-90.10562781550783",
    "latitude": "29.972537194164378",
    "geocoded_column": {
      "latitude": "29.972537194164378",
      "longitude": "-90.10562781550783"
    }
  },
  {
    "service_request": "2022-953763",
    "request_type": "Roads/Drainage",
    "request_reason": "Street Flooding / Drainage",
    "date_created": "2022-12-15T22:31:21.000",
    "date_modified": "2022-12-15T22:31:21.000",
    "request_status": "Pending",
    "responsible_agency": "Department of Public Works",
    "final_address": "4217 Baudin St",
    "address_councildis": "A",
    "status": "Pending",
    "rowid": "953763",
    "final_x": "3669540.85742",
    "final_y": "537587.578056",
    "longitude": "-90.10562781550783",
    "latitude": "29.972537194164378",
    "geocoded_column": {
      "latitude": "29.972537194164378",
      "longitude": "-90.10562781550783"
    }
  },
  {
    "service_request": "2022-953762",
    "request_type": "Mosquito, Termite & Rodent Control",
    "request_reason": "Mosquito Complaint",
    "date_created": "2022-12-15T22:29:25.000",
    "date_modified": "2022-12-15T22:29:25.000",
    "request_status": "Pending",
    "responsible_agency": "Mosquito, Termite & Rodent Control Board",
    "final_address": "4217 Baudin St",
    "address_councildis": "A",
    "status": "Pending",
    "rowid": "953762",
    "final_x": "3669540.85742",
    "final_y": "537587.578056",
    "longitude": "-90.10562781550783",
    "latitude": "29.972537194164378",
    "geocoded_column": {
      "latitude": "29.972537194164378",
      "longitude": "-90.10562781550783"
    }
  },
  {
    "service_request": "2022-953761",
    "request_type": "Abandoned Vehicles",
    "request_reason": "Abandoned/Junk Vehicles",
    "date_created": "2022-12-15T22:20:20.000",
    "date_modified": "2022-12-15T22:20:21.000",
    "request_status": "Pending",
    "responsible_agency": "Department of Public Works",
    "final_address": "300 S Broad St",
    "address_councildis": "B",
    "status": "Pending",
    "rowid": "953761",
    "final_x": "3674943.74728",
    "final_y": "534361.960773",
    "longitude": "-90.08867515515836",
    "latitude": "29.963507557277268",
    "geocoded_column": {
      "latitude": "29.963507557277268",
      "longitude": "-90.08867515515836"
    }
  },
  {
    "service_request": "2022-953760",
    "request_type": "Traffic Signals/Signs/Striping/Streetlights",
    "request_reason": "Street Light Outage/Malfunction",
    "date_created": "2022-12-15T22:07:10.000",
    "date_modified": "2022-12-15T22:07:11.000",
    "request_status": "Pending",
    "responsible_agency": "Department of Public Works",
    "final_address": "5510 Constance St",
    "address_councildis": "A",
    "status": "Pending",
    "contractor": "Legacy Professional Services",
    "rowid": "953760",
    "final_x": "3666257.85588",
    "final_y": "518459.029558",
    "longitude": "-90.11663763452759",
    "latitude": "29.92003618042957",
    "geocoded_column": {
      "latitude": "29.92003618042957",
      "longitude": "-90.11663763452759"
    }
  },
  {
    "service_request": "2022-953758",
    "request_type": "Trash/Recycling",
    "request_reason": "Order Trash Cart",
    "date_created": "2022-12-15T21:42:39.000",
    "date_modified": "2022-12-15T21:42:40.000",
    "request_status": "Pending",
    "responsible_agency": "Department of Sanitation",
    "final_address": "600 Walker St",
    "address_councildis": "A",
    "status": "Assigned to Contractor",
    "contractor": "IV Waste",
    "rowid": "953758",
    "final_x": "3668776.56558",
    "final_y": "553960.345112",
    "longitude": "-90.10748840813908",
    "latitude": "30.017579158022663",
    "geocoded_column": {
      "latitude": "30.017579158022663",
      "longitude": "-90.10748840813908"
    }
  },
  {
    "service_request": "2022-953757",
    "request_type": "Trash/Recycling",
    "request_reason": "Request a Large Item Pick Up",
    "date_created": "2022-12-15T21:41:45.000",
    "date_modified": "2022-12-15T21:41:45.000",
    "request_status": "Pending",
    "responsible_agency": "Department of Sanitation",
    "final_address": "5447 Marcia Ave",
    "address_councildis": "A",
    "status": "Assigned to Contractor",
    "contractor": "IV Waste",
    "rowid": "953757",
    "final_x": "3664902.34554",
    "final_y": "544022.095246",
    "longitude": "-90.12006195661223",
    "latitude": "29.99036579645197",
    "geocoded_column": {
      "latitude": "29.99036579645197",
      "longitude": "-90.12006195661223"
    }
  },
  {
    "service_request": "2022-953756",
    "request_type": "Trash/Recycling",
    "request_reason": "Order Recycling Cart",
    "date_created": "2022-12-15T21:39:26.000",
    "date_modified": "2022-12-15T21:39:26.000",
    "request_status": "Pending",
    "responsible_agency": "Department of Sanitation",
    "final_address": "5869 Colbert St",
    "address_councildis": "A",
    "status": "Pending",
    "rowid": "953756",
    "final_x": "3667401.94145",
    "final_y": "546667.682577",
    "longitude": "-90.1120772786762",
    "latitude": "29.997567242941976",
    "geocoded_column": {
      "latitude": "29.997567242941976",
      "longitude": "-90.1120772786762"
    }
  },
  {
    "service_request": "2022-953755",
    "request_type": "Traffic Signals/Signs/Striping/Streetlights",
    "request_reason": "Request for Traffic Calming due to Speeding",
    "date_created": "2022-12-15T21:38:12.000",
    "date_modified": "2022-12-15T21:38:12.000",
    "request_status": "Pending",
    "responsible_agency": "Department of Public Works",
    "final_address": "3140 N Claiborne Ave",
    "address_councildis": "D",
    "status": "Pending",
    "rowid": "953755",
    "final_x": "3689823.08137",
    "final_y": "537738.536392",
    "longitude": "-90.04156774813494",
    "latitude": "29.972339152396245",
    "geocoded_column": {
      "latitude": "29.972339152396245",
      "longitude": "-90.04156774813494"
    }
  },
  {
    "service_request": "2022-953753",
    "request_type": "Trash/Recycling",
    "request_reason": "Replace Trash Cart",
    "date_created": "2022-12-15T21:30:47.000",
    "date_modified": "2022-12-15T21:30:48.000",
    "request_status": "Pending",
    "responsible_agency": "Department of Sanitation",
    "final_address": "5869 Colbert St",
    "address_councildis": "A",
    "status": "Assigned to Contractor",
    "contractor": "IV Waste",
    "rowid": "953753",
    "final_x": "3667401.94145",
    "final_y": "546667.682577",
    "longitude": "-90.1120772786762",
    "latitude": "29.997567242941976",
    "geocoded_column": {
      "latitude": "29.997567242941976",
      "longitude": "-90.1120772786762"
    }
  },
  {
    "service_request": "2022-953752",
    "request_type": "Traffic Signals/Signs/Striping/Streetlights",
    "request_reason": "Street Light Outage/Malfunction",
    "date_created": "2022-12-15T21:29:01.000",
    "date_modified": "2022-12-15T21:29:02.000",
    "request_status": "Pending",
    "responsible_agency": "Department of Public Works",
    "final_address": "HICKERSON DR & HAMMOND ST",
    "address_councildis": "E",
    "status": "Pending",
    "contractor": "Legacy Professional Services",
    "rowid": "953752",
    "final_x": "3710264.1",
    "final_y": "556169.18",
    "longitude": "-89.97632276690514",
    "latitude": "30.022366935987087",
    "geocoded_column": {
      "latitude": "30.022366935987087",
      "longitude": "-89.97632276690514"
    }
  },
  {
    "service_request": "2022-953751",
    "request_type": "Trash/Recycling",
    "request_reason": "Replace Recycling Cart",
    "date_created": "2022-12-15T21:27:35.000",
    "date_modified": "2022-12-15T21:27:35.000",
    "request_status": "Pending",
    "responsible_agency": "Department of Sanitation",
    "final_address": "600 Walker St",
    "address_councildis": "A",
    "status": "Pending",
    "rowid": "953751",
    "final_x": "3668776.56558",
    "final_y": "553960.345112",
    "longitude": "-90.10748840813908",
    "latitude": "30.017579158022663",
    "geocoded_column": {
      "latitude": "30.017579158022663",
      "longitude": "-90.10748840813908"
    }
  },
  {
    "service_request": "2022-953750",
    "request_type": "Trash/Recycling",
    "request_reason": "Replace Trash Cart",
    "date_created": "2022-12-15T21:25:59.000",
    "date_modified": "2022-12-15T21:25:59.000",
    "request_status": "Pending",
    "responsible_agency": "Department of Sanitation",
    "final_address": "802 Philip St",
    "address_councildis": "B",
    "status": "Assigned to Contractor",
    "contractor": "Richards Disposal",
    "rowid": "953750",
    "final_x": "3679160.62325",
    "final_y": "520980.390137",
    "longitude": "-90.07582246824852",
    "latitude": "29.92658607362606",
    "geocoded_column": {
      "latitude": "29.92658607362606",
      "longitude": "-90.07582246824852"
    }
  },
  {
    "service_request": "2022-953749",
    "request_type": "Trash/Recycling",
    "request_reason": "Replace Trash Cart",
    "date_created": "2022-12-15T21:25:06.000",
    "date_modified": "2022-12-15T21:25:06.000",
    "request_status": "Pending",
    "responsible_agency": "Department of Sanitation",
    "final_address": "600 Walker St",
    "address_councildis": "A",
    "status": "Assigned to Contractor",
    "contractor": "IV Waste",
    "rowid": "953749",
    "final_x": "3668776.56558",
    "final_y": "553960.345112",
    "longitude": "-90.10748840813908",
    "latitude": "30.017579158022663",
    "geocoded_column": {
      "latitude": "30.017579158022663",
      "longitude": "-90.10748840813908"
    }
  },
  {
    "service_request": "2022-953748",
    "request_type": "Trash/Recycling",
    "request_reason": "Request a Large Item Pick Up",
    "date_created": "2022-12-15T21:14:15.000",
    "date_modified": "2022-12-15T21:14:15.000",
    "request_status": "Pending",
    "responsible_agency": "Department of Sanitation",
    "final_address": "11424 S Easterlyn Cir",
    "address_councildis": "E",
    "status": "Assigned to Contractor",
    "contractor": "Waste Pro",
    "rowid": "953748",
    "final_x": "3718899.22162",
    "final_y": "560458.236062",
    "longitude": "-89.94887447822983",
    "latitude": "30.033876098854947",
    "geocoded_column": {
      "latitude": "30.033876098854947",
      "longitude": "-89.94887447822983"
    }
  },
  {
    "service_request": "2022-953747",
    "request_type": "Trash/Recycling",
    "request_reason": "MIssed Recycling Pick-Up",
    "date_created": "2022-12-15T21:14:03.000",
    "date_modified": "2022-12-15T21:14:03.000",
    "request_status": "Pending",
    "responsible_agency": "Department of Sanitation",
    "final_address": "1442 St Mary St",
    "address_councildis": "B",
    "status": "Assigned to Contractor",
    "contractor": "Richards Disposal",
    "rowid": "953747",
    "final_x": "3678798.85525",
    "final_y": "523803.996731",
    "longitude": "-90.07686673164716",
    "latitude": "29.934360978937846",
    "geocoded_column": {
      "latitude": "29.934360978937846",
      "longitude": "-90.07686673164716"
    }
  },
  {
    "service_request": "2022-953746",
    "request_type": "Trash/Recycling",
    "request_reason": "Missed Trash Pick-Up",
    "date_created": "2022-12-15T21:08:29.000",
    "date_modified": "2022-12-15T21:08:29.000",
    "request_status": "Pending",
    "responsible_agency": "Department of Sanitation",
    "final_address": "225 Walnut St",
    "address_councildis": "A",
    "status": "Assigned to Contractor",
    "contractor": "Richards Disposal",
    "rowid": "953746",
    "final_x": "3661395.55418",
    "final_y": "521207.350969",
    "longitude": "-90.13189469890942",
    "latitude": "29.927734279295464",
    "geocoded_column": {
      "latitude": "29.927734279295464",
      "longitude": "-90.13189469890942"
    }
  },
  {
    "service_request": "2022-953745",
    "request_type": "Trash/Recycling",
    "request_reason": "Missed Trash Pick-Up",
    "date_created": "2022-12-15T20:47:33.000",
    "date_modified": "2022-12-15T20:47:34.000",
    "request_status": "Pending",
    "responsible_agency": "Department of Sanitation",
    "final_address": "1620 Fourth St",
    "address_councildis": "B",
    "status": "Assigned to Contractor",
    "contractor": "Richards Disposal",
    "rowid": "953745",
    "final_x": "3676043.77665",
    "final_y": "522866.967739",
    "longitude": "-90.08559665644712",
    "latitude": "29.931867236838222",
    "geocoded_column": {
      "latitude": "29.931867236838222",
      "longitude": "-90.08559665644712"
    }
  },
  {
    "service_request": "2022-953744",
    "request_type": "Trash/Recycling",
    "request_reason": "MIssed Recycling Pick-Up",
    "date_created": "2022-12-15T20:30:10.000",
    "date_modified": "2022-12-15T20:30:11.000",
    "request_status": "Pending",
    "responsible_agency": "Department of Sanitation",
    "final_address": "2019 Chartres St, New Orleans, Louisiana, 70116",
    "address_councildis": "C",
    "status": "Assigned to Contractor",
    "contractor": "IV Waste",
    "rowid": "953744",
    "final_x": "3684693.77045",
    "final_y": "534503.923653",
    "longitude": "-90.057880682074",
    "latitude": "29.963603091488086",
    "geocoded_column": {
      "latitude": "29.963603091488086",
      "longitude": "-90.057880682074"
    }
  },
  {
    "service_request": "2022-953743",
    "request_type": "Traffic Signals/Signs/Striping/Streetlights",
    "request_reason": "Traffic Sign Missing/Damaged",
    "date_created": "2022-12-15T20:24:39.000",
    "date_modified": "2022-12-15T20:24:39.000",
    "request_status": "Pending",
    "responsible_agency": "Department of Public Works",
    "final_address": "5350 St Bernard Ave",
    "address_councildis": "D",
    "status": "Pending",
    "rowid": "953743",
    "final_x": "3676690.51214",
    "final_y": "551822.477846",
    "longitude": "-90.08255717374155",
    "latitude": "30.011465617920717",
    "geocoded_column": {
      "latitude": "30.011465617920717",
      "longitude": "-90.08255717374155"
    }
  },
  {
    "service_request": "2022-953742",
    "request_type": "Trash/Recycling",
    "request_reason": "Missed Trash Pick-Up",
    "date_created": "2022-12-15T20:21:57.000",
    "date_modified": "2022-12-15T20:21:58.000",
    "request_status": "Pending",
    "responsible_agency": "Department of Sanitation",
    "final_address": "5015 St Claude Ave",
    "address_councildis": "E",
    "status": "Assigned to Contractor",
    "contractor": "Waste Pro",
    "rowid": "953742",
    "final_x": "3696113.05085",
    "final_y": "534351.361221",
    "longitude": "-90.02182547915295",
    "latitude": "29.962829149857008",
    "geocoded_column": {
      "latitude": "29.962829149857008",
      "longitude": "-90.02182547915295"
    }
  },
  {
    "service_request": "2022-953741",
    "request_type": "Trash/Recycling",
    "request_reason": "MIssed Recycling Pick-Up",
    "date_created": "2022-12-15T20:12:37.000",
    "date_modified": "2022-12-15T20:12:38.000",
    "request_status": "Pending",
    "responsible_agency": "Department of Sanitation",
    "final_address": "3317 Napoleon Ave",
    "address_councildis": "B",
    "status": "Assigned to Contractor",
    "contractor": "Richards Disposal",
    "rowid": "953741",
    "final_x": "3670332.10215",
    "final_y": "527052.52531",
    "longitude": "-90.10348602523369",
    "latitude": "29.943545950181417",
    "geocoded_column": {
      "latitude": "29.943545950181417",
      "longitude": "-90.10348602523369"
    }
  },
  {
    "service_request": "2022-953740",
    "request_type": "Roads/Drainage",
    "request_reason": "Street Flooding / Drainage",
    "date_created": "2022-12-15T19:53:50.000",
    "date_modified": "2022-12-15T19:53:50.000",
    "request_status": "Pending",
    "responsible_agency": "Department of Public Works",
    "final_address": "507 Nashville Ave",
    "address_councildis": "A",
    "status": "Pending",
    "rowid": "953740",
    "final_x": "3665373.41575",
    "final_y": "518068.629174",
    "longitude": "-90.11944245241348",
    "latitude": "29.918988494894045",
    "geocoded_column": {
      "latitude": "29.918988494894045",
      "longitude": "-90.11944245241348"
    }
  },
  {
    "service_request": "2022-953739",
    "request_type": "Abandoned Vehicles",
    "request_reason": "Abandoned/Junk Vehicles",
    "date_created": "2022-12-15T19:52:38.000",
    "date_modified": "2022-12-15T19:52:39.000",
    "request_status": "Pending",
    "responsible_agency": "Department of Public Works",
    "final_address": "2510 Dumaine St",
    "address_councildis": "D",
    "status": "Pending",
    "rowid": "953739",
    "final_x": "3677855.29461",
    "final_y": "536942.021768",
    "longitude": "-90.07939163311904",
    "latitude": "29.970514563439806",
    "geocoded_column": {
      "latitude": "29.970514563439806",
      "longitude": "-90.07939163311904"
    }
  },
  {
    "service_request": "2022-953738",
    "request_type": "Roads/Drainage",
    "request_reason": "Accessibility Ramps, Curbs and Sidewalk Repair",
    "date_created": "2022-12-15T19:38:42.000",
    "date_modified": "2022-12-15T19:38:43.000",
    "request_status": "Pending",
    "responsible_agency": "Department of Public Works",
    "final_address": "2557 Wisteria St",
    "address_councildis": "D",
    "status": "Pending",
    "rowid": "953738",
    "final_x": "3686703.43881",
    "final_y": "548402.85845",
    "longitude": "-90.05104319172234",
    "latitude": "30.00175857602501",
    "geocoded_column": {
      "latitude": "30.00175857602501",
      "longitude": "-90.05104319172234"
    }
  },
  {
    "service_request": "2022-953737",
    "request_type": "Trash/Recycling",
    "request_reason": "Missed Trash Pick-Up",
    "date_created": "2022-12-15T19:33:25.000",
    "date_modified": "2022-12-15T19:33:26.000",
    "request_status": "Pending",
    "responsible_agency": "Department of Sanitation",
    "final_address": "5320 Dryades St",
    "address_councildis": "B",
    "status": "Assigned to Contractor",
    "contractor": "Richards Disposal",
    "rowid": "953737",
    "final_x": "3667705.92263",
    "final_y": "521757.448954",
    "longitude": "-90.11195579077139",
    "latitude": "29.92906343175613",
    "geocoded_column": {
      "latitude": "29.92906343175613",
      "longitude": "-90.11195579077139"
    }
  },
  {
    "service_request": "2022-953736",
    "request_type": "Traffic Signals/Signs/Striping/Streetlights",
    "request_reason": "Traffic Signal Malfunctioning/Damaged",
    "date_created": "2022-12-15T19:30:34.000",
    "date_modified": "2022-12-15T19:30:35.000",
    "request_status": "Pending",
    "responsible_agency": "Department of Public Works",
    "final_address": "JEFFERSON AVE & MAGAZINE ST",
    "address_councildis": "B",
    "status": "Pending",
    "rowid": "953736",
    "final_x": "3666768.2",
    "final_y": "518772.98",
    "longitude": "-90.11501618126248",
    "latitude": "29.920884535103433",
    "geocoded_column": {
      "latitude": "29.920884535103433",
      "longitude": "-90.11501618126248"
    }
  },
  {
    "service_request": "2022-953734",
    "request_type": "Trash/Recycling",
    "request_reason": "Missed Trash Pick-Up",
    "date_created": "2022-12-15T18:59:37.000",
    "date_modified": "2022-12-15T18:59:38.000",
    "request_status": "Pending",
    "responsible_agency": "Department of Sanitation",
    "final_address": "7670 Branch Dr",
    "address_councildis": "E",
    "status": "Assigned to Contractor",
    "contractor": "Waste Pro",
    "rowid": "953734",
    "final_x": "3714555.95851",
    "final_y": "568863.263397",
    "longitude": "-89.9622817526227",
    "latitude": "30.057130090056642",
    "geocoded_column": {
      "latitude": "30.057130090056642",
      "longitude": "-89.9622817526227"
    }
  },
  {
    "service_request": "2022-953733",
    "request_type": "Traffic Signals/Signs/Striping/Streetlights",
    "request_reason": "Street Light Outage/Malfunction",
    "date_created": "2022-12-15T18:52:16.000",
    "date_modified": "2022-12-15T18:52:17.000",
    "request_status": "Pending",
    "responsible_agency": "Department of Public Works",
    "final_address": "3253 Trafalgar St",
    "address_councildis": "A",
    "status": "Pending",
    "contractor": "Legacy Professional Services",
    "rowid": "953733",
    "final_x": "3678068.59419",
    "final_y": "543249.120654",
    "longitude": "-90.0784998761535",
    "latitude": "29.98785048594583",
    "geocoded_column": {
      "latitude": "29.98785048594583",
      "longitude": "-90.0784998761535"
    }
  },
  {
    "service_request": "2022-953732",
    "request_type": "Traffic Signals/Signs/Striping/Streetlights",
    "request_reason": "Street Light Outage/Malfunction",
    "date_created": "2022-12-15T18:41:01.000",
    "date_modified": "2022-12-15T18:41:01.000",
    "request_status": "Pending",
    "responsible_agency": "Department of Public Works",
    "final_address": "2800 Magazine St",
    "address_councildis": "B",
    "status": "Pending",
    "contractor": "Legacy Professional Services",
    "rowid": "953732",
    "final_x": "3677043.71477",
    "final_y": "520751.717689",
    "longitude": "-90.08251285137224",
    "latitude": "29.926021009751096",
    "geocoded_column": {
      "latitude": "29.926021009751096",
      "longitude": "-90.08251285137224"
    }
  },
  {
    "service_request": "2022-953731",
    "request_type": "Roads/Drainage",
    "request_reason": "Alley Way",
    "date_created": "2022-12-15T18:38:23.000",
    "date_modified": "2022-12-15T18:38:23.000",
    "request_status": "Pending",
    "responsible_agency": "Department of Public Works",
    "final_address": "6479 Colbert St",
    "address_councildis": "A",
    "status": "Pending",
    "rowid": "953731",
    "final_x": "3667813.36084",
    "final_y": "550739.410773",
    "longitude": "-90.11064036020993",
    "latitude": "30.00875101887176",
    "geocoded_column": {
      "latitude": "30.00875101887176",
      "longitude": "-90.11064036020993"
    }
  },
  {
    "service_request": "2022-953730",
    "request_type": "Traffic Signals/Signs/Striping/Streetlights",
    "request_reason": "Street Light Outage/Malfunction",
    "date_created": "2022-12-15T18:21:38.000",
    "date_modified": "2022-12-15T18:21:38.000",
    "request_status": "Pending",
    "responsible_agency": "Department of Public Works",
    "final_address": "2462 Odin St",
    "address_councildis": "D",
    "status": "Pending",
    "contractor": "Legacy Professional Services",
    "rowid": "953730",
    "final_x": "3685709.22473",
    "final_y": "553152.663063",
    "longitude": "-90.05401648118551",
    "latitude": "30.014849364809116",
    "geocoded_column": {
      "latitude": "30.014849364809116",
      "longitude": "-90.05401648118551"
    }
  },
  {
    "service_request": "2022-953729",
    "request_type": "Trash/Recycling",
    "request_reason": "Missed Trash Pick-Up",
    "date_created": "2022-12-15T18:04:57.000",
    "date_modified": "2022-12-15T18:04:58.000",
    "request_status": "Pending",
    "responsible_agency": "Department of Sanitation",
    "final_address": "754 Delachaise St",
    "address_councildis": "B",
    "status": "Assigned to Contractor",
    "contractor": "Richards Disposal",
    "rowid": "953729",
    "final_x": "3675137.00693",
    "final_y": "518297.811894",
    "longitude": "-90.08861592492855",
    "latitude": "29.91933065216286",
    "geocoded_column": {
      "latitude": "29.91933065216286",
      "longitude": "-90.08861592492855"
    }
  },
  {
    "service_request": "2022-953728",
    "request_type": "Trash/Recycling",
    "request_reason": "Missed Trash Pick-Up",
    "date_created": "2022-12-15T18:01:49.000",
    "date_modified": "2022-12-15T18:01:50.000",
    "request_status": "Pending",
    "responsible_agency": "Department of Sanitation",
    "final_address": "519 Tricou St Apt B",
    "address_councildis": "E",
    "status": "Assigned to Contractor",
    "contractor": "Waste Pro",
    "rowid": "953728",
    "final_x": "3699408.53994",
    "final_y": "531088.761154",
    "longitude": "-90.01153766124139",
    "latitude": "29.953754032142523",
    "geocoded_column": {
      "latitude": "29.953754032142523",
      "longitude": "-90.01153766124139"
    }
  },
  {
    "service_request": "2022-953727",
    "request_type": "Trash/Recycling",
    "request_reason": "MIssed Recycling Pick-Up",
    "date_created": "2022-12-15T17:59:49.000",
    "date_modified": "2022-12-15T17:59:50.000",
    "request_status": "Pending",
    "responsible_agency": "Department of Sanitation",
    "final_address": "1700 BLK General Pershing St",
    "address_councildis": "B",
    "status": "Assigned to Contractor",
    "contractor": "Richards Disposal",
    "rowid": "953727",
    "final_x": "3671191.42858",
    "final_y": "521460.520843",
    "longitude": "-90.1009627872895",
    "latitude": "29.928144356324",
    "geocoded_column": {
      "latitude": "29.928144356324",
      "longitude": "-90.1009627872895"
    }
  },
  {
    "service_request": "2022-953726",
    "request_type": "Trash/Recycling",
    "request_reason": "Missed Trash Pick-Up",
    "date_created": "2022-12-15T17:59:14.000",
    "date_modified": "2022-12-15T17:59:15.000",
    "request_status": "Pending",
    "responsible_agency": "Department of Sanitation",
    "final_address": "940 Elmira Ave",
    "address_councildis": "C",
    "status": "Assigned to Contractor",
    "contractor": "Richards Disposal",
    "rowid": "953726",
    "final_x": "3688172.73289",
    "final_y": "528022.308479",
    "longitude": "-90.04712426550083",
    "latitude": "29.945673943145525",
    "geocoded_column": {
      "latitude": "29.945673943145525",
      "longitude": "-90.04712426550083"
    }
  },
  {
    "service_request": "2022-953725",
    "request_type": "Trash/Recycling",
    "request_reason": "Request a Large Item Pick Up",
    "date_created": "2022-12-15T17:54:59.000",
    "date_modified": "2022-12-15T17:55:00.000",
    "request_status": "Pending",
    "responsible_agency": "Department of Sanitation",
    "final_address": "1908 Short St",
    "address_councildis": "A",
    "status": "Assigned to Contractor",
    "contractor": "Richards Disposal",
    "rowid": "953725",
    "final_x": "3664006.88391",
    "final_y": "529999.480961",
    "longitude": "-90.12335823438305",
    "latitude": "29.951834287900574",
    "geocoded_column": {
      "latitude": "29.951834287900574",
      "longitude": "-90.12335823438305"
    }
  },
  {
    "service_request": "2022-953724",
    "request_type": "Trash/Recycling",
    "request_reason": "MIssed Recycling Pick-Up",
    "date_created": "2022-12-15T17:51:03.000",
    "date_modified": "2022-12-15T17:51:03.000",
    "request_status": "Pending",
    "responsible_agency": "Department of Sanitation",
    "final_address": "5336 Dryades St",
    "address_councildis": "B",
    "status": "Assigned to Contractor",
    "contractor": "Richards Disposal",
    "rowid": "953724",
    "final_x": "3667609.66049",
    "final_y": "521793.283898",
    "longitude": "-90.11225846699281",
    "latitude": "29.929164787498774",
    "geocoded_column": {
      "latitude": "29.929164787498774",
      "longitude": "-90.11225846699281"
    }
  },
  {
    "service_request": "2022-953723",
    "request_type": "Trash/Recycling",
    "request_reason": "Missed Trash Pick-Up",
    "date_created": "2022-12-15T17:49:26.000",
    "date_modified": "2022-12-15T17:49:27.000",
    "request_status": "Pending",
    "responsible_agency": "Department of Sanitation",
    "final_address": "5336 Dryades St",
    "address_councildis": "B",
    "status": "Assigned to Contractor",
    "contractor": "Richards Disposal",
    "rowid": "953723",
    "final_x": "3667609.66049",
    "final_y": "521793.283898",
    "longitude": "-90.11225846699281",
    "latitude": "29.929164787498774",
    "geocoded_column": {
      "latitude": "29.929164787498774",
      "longitude": "-90.11225846699281"
    }
  },
  {
    "service_request": "2022-953722",
    "request_type": "Trash/Recycling",
    "request_reason": "Missed Trash Pick-Up",
    "date_created": "2022-12-15T17:46:53.000",
    "date_modified": "2022-12-15T17:46:54.000",
    "request_status": "Pending",
    "responsible_agency": "Department of Sanitation",
    "final_address": "3212 Camp St",
    "address_councildis": "B",
    "status": "Assigned to Contractor",
    "contractor": "Richards Disposal",
    "rowid": "953722",
    "final_x": "3675486.57102",
    "final_y": "520206.083128",
    "longitude": "-90.087447032309",
    "latitude": "29.9245673382118",
    "geocoded_column": {
      "latitude": "29.9245673382118",
      "longitude": "-90.087447032309"
    }
  },
  {
    "service_request": "2022-953721",
    "request_type": "Trash/Recycling",
    "request_reason": "MIssed Recycling Pick-Up",
    "date_created": "2022-12-15T17:45:22.000",
    "date_modified": "2022-12-15T17:45:23.000",
    "request_status": "Pending",
    "responsible_agency": "Department of Sanitation",
    "final_address": "3212 Camp St",
    "address_councildis": "B",
    "status": "Assigned to Contractor",
    "contractor": "Richards Disposal",
    "rowid": "953721",
    "final_x": "3675486.57102",
    "final_y": "520206.083128",
    "longitude": "-90.087447032309",
    "latitude": "29.9245673382118",
    "geocoded_column": {
      "latitude": "29.9245673382118",
      "longitude": "-90.087447032309"
    }
  },
  {
    "service_request": "2022-953720",
    "request_type": "Trash/Recycling",
    "request_reason": "MIssed Recycling Pick-Up",
    "date_created": "2022-12-15T17:40:27.000",
    "date_modified": "2022-12-15T17:40:27.000",
    "request_status": "Pending",
    "responsible_agency": "Department of Sanitation",
    "final_address": "4021 Pitt St",
    "address_councildis": "B",
    "status": "Assigned to Contractor",
    "contractor": "Richards Disposal",
    "rowid": "953720",
    "final_x": "3672173.49569",
    "final_y": "520738.434425",
    "longitude": "-90.09788719334577",
    "latitude": "29.926129770936107",
    "geocoded_column": {
      "latitude": "29.926129770936107",
      "longitude": "-90.09788719334577"
    }
  },
  {
    "service_request": "2022-953719",
    "request_type": "Trash/Recycling",
    "request_reason": "MIssed Recycling Pick-Up",
    "date_created": "2022-12-15T17:39:34.000",
    "date_modified": "2022-12-15T17:39:35.000",
    "request_status": "Pending",
    "responsible_agency": "Department of Sanitation",
    "final_address": "5528 S Claiborne Ave",
    "address_councildis": "A",
    "status": "Assigned to Contractor",
    "contractor": "Richards Disposal",
    "rowid": "953719",
    "final_x": "3667892.95469",
    "final_y": "526439.486014",
    "longitude": "-90.11120772230845",
    "latitude": "29.94193205041005",
    "geocoded_column": {
      "latitude": "29.94193205041005",
      "longitude": "-90.11120772230845"
    }
  },
  {
    "service_request": "2022-953718",
    "request_type": "Abandoned Vehicles",
    "request_reason": "Abandoned/Junk Vehicles",
    "date_created": "2022-12-15T17:37:09.000",
    "date_modified": "2022-12-15T17:37:10.000",
    "request_status": "Pending",
    "responsible_agency": "Department of Public Works",
    "final_address": "2600 BLK Elder St",
    "address_councildis": "D",
    "status": "Pending",
    "rowid": "953718",
    "final_x": "3687492.38909",
    "final_y": "545798.524004",
    "longitude": "-90.04864306498706",
    "latitude": "29.994573296925054",
    "geocoded_column": {
      "latitude": "29.994573296925054",
      "longitude": "-90.04864306498706"
    }
  },
  {
    "service_request": "2022-953717",
    "request_type": "Property Maintenance",
    "request_reason": "Property Maintenance",
    "date_created": "2022-12-15T17:28:52.000",
    "date_modified": "2022-12-15T17:28:52.000",
    "request_status": "Pending",
    "responsible_agency": "Department of Code Enforcement",
    "final_address": "7531 Oak St",
    "address_councildis": "A",
    "status": "Pending",
    "rowid": "953717",
    "final_x": "3663481.67373",
    "final_y": "527051.579646",
    "longitude": "-90.12511475394994",
    "latitude": "29.94374374620973",
    "geocoded_column": {
      "latitude": "29.94374374620973",
      "longitude": "-90.12511475394994"
    }
  },
  {
    "service_request": "2022-953716",
    "request_type": "Trash/Recycling",
    "request_reason": "MIssed Recycling Pick-Up",
    "date_created": "2022-12-15T17:24:56.000",
    "date_modified": "2022-12-15T17:24:57.000",
    "request_status": "Pending",
    "responsible_agency": "Department of Sanitation",
    "final_address": "2300 BLK Laurel St",
    "address_councildis": "B",
    "status": "Assigned to Contractor",
    "contractor": "Richards Disposal",
    "rowid": "953716",
    "final_x": "3678742.93283",
    "final_y": "521066.548534",
    "longitude": "-90.0771380206814",
    "latitude": "29.926835578944182",
    "geocoded_column": {
      "latitude": "29.926835578944182",
      "longitude": "-90.0771380206814"
    }
  },
  {
    "service_request": "2022-953715",
    "request_type": "Trash/Recycling",
    "request_reason": "Missed Trash Pick-Up",
    "date_created": "2022-12-15T17:24:35.000",
    "date_modified": "2022-12-15T17:24:35.000",
    "request_status": "Pending",
    "responsible_agency": "Department of Sanitation",
    "final_address": "2300 BLK Laurel St",
    "address_councildis": "B",
    "status": "Assigned to Contractor",
    "contractor": "Richards Disposal",
    "rowid": "953715",
    "final_x": "3678742.93283",
    "final_y": "521066.548534",
    "longitude": "-90.0771380206814",
    "latitude": "29.926835578944182",
    "geocoded_column": {
      "latitude": "29.926835578944182",
      "longitude": "-90.0771380206814"
    }
  },
  {
    "service_request": "2022-953714",
    "request_type": "Trash/Recycling",
    "request_reason": "Missed Trash Pick-Up",
    "date_created": "2022-12-15T17:23:32.000",
    "date_modified": "2022-12-15T17:23:33.000",
    "request_status": "Pending",
    "responsible_agency": "Department of Sanitation",
    "final_address": "2318 Winthrop St",
    "address_councildis": "E",
    "status": "Assigned to Contractor",
    "contractor": "Waste Pro",
    "rowid": "953714",
    "final_x": "3700406.62122",
    "final_y": "538123.950473",
    "longitude": "-90.00812924139349",
    "latitude": "29.973066585920034",
    "geocoded_column": {
      "latitude": "29.973066585920034",
      "longitude": "-90.00812924139349"
    }
  },
  {
    "service_request": "2022-953713",
    "request_type": "Traffic Signals/Signs/Striping/Streetlights",
    "request_reason": "Street Light Outage/Malfunction",
    "date_created": "2022-12-15T17:22:25.000",
    "date_modified": "2022-12-15T17:22:26.000",
    "request_status": "Pending",
    "responsible_agency": "Department of Public Works",
    "final_address": "561 Aurora Oaks Dr",
    "address_councildis": "C",
    "status": "Pending",
    "contractor": "Legacy Professional Services",
    "rowid": "953713",
    "final_x": "3701247.27492",
    "final_y": "520969.235705",
    "longitude": "-90.00610185420976",
    "latitude": "29.925870429343572",
    "geocoded_column": {
      "latitude": "29.925870429343572",
      "longitude": "-90.00610185420976"
    }
  },
  {
    "service_request": "2022-953712",
    "request_type": "Trash/Recycling",
    "request_reason": "Request a Large Item Pick Up",
    "date_created": "2022-12-15T17:19:57.000",
    "date_modified": "2022-12-15T17:19:58.000",
    "request_status": "Pending",
    "responsible_agency": "Department of Sanitation",
    "final_address": "5939 Tchoupitoulas St",
    "address_councildis": "A",
    "status": "Assigned to Contractor",
    "contractor": "Richards Disposal",
    "rowid": "953712",
    "final_x": "3664510.18586",
    "final_y": "517449.298934",
    "longitude": "-90.12218789993068",
    "latitude": "29.917310647128602",
    "geocoded_column": {
      "latitude": "29.917310647128602",
      "longitude": "-90.12218789993068"
    }
  },
  {
    "service_request": "2022-953711",
    "request_type": "Mosquito, Termite & Rodent Control",
    "request_reason": "Mosquito Complaint",
    "date_created": "2022-12-15T17:19:40.000",
    "date_modified": "2022-12-15T17:19:40.000",
    "request_status": "Pending",
    "responsible_agency": "Mosquito, Termite & Rodent Control Board",
    "final_address": "5133 Desire Dr",
    "address_councildis": "D",
    "status": "Pending",
    "rowid": "953711",
    "final_x": "3691524.3551",
    "final_y": "552806.390294",
    "longitude": "-90.035655925849",
    "latitude": "30.013717440702777",
    "geocoded_column": {
      "latitude": "30.013717440702777",
      "longitude": "-90.035655925849"
    }
  },
  {
    "service_request": "2022-953710",
    "request_type": "Trash/Recycling",
    "request_reason": "Missed Trash Pick-Up",
    "date_created": "2022-12-15T17:18:05.000",
    "date_modified": "2022-12-15T17:18:05.000",
    "request_status": "Pending",
    "responsible_agency": "Department of Sanitation",
    "final_address": "3RD ST & S SARATOGA ST",
    "address_councildis": "B",
    "status": "Assigned to Contractor",
    "contractor": "Richards Disposal",
    "rowid": "953710",
    "final_x": "3675453.5",
    "final_y": "524365.28",
    "longitude": "-90.08740866685758",
    "latitude": "29.936004767931095",
    "geocoded_column": {
      "latitude": "29.936004767931095",
      "longitude": "-90.08740866685758"
    }
  },
  {
    "service_request": "2022-953709",
    "request_type": "Trash/Recycling",
    "request_reason": "Missed Trash Pick-Up",
    "date_created": "2022-12-15T17:15:52.000",
    "date_modified": "2022-12-15T17:15:53.000",
    "request_status": "Pending",
    "responsible_agency": "Department of Sanitation",
    "final_address": "1519 Clio St",
    "address_councildis": "B",
    "status": "Assigned to Contractor",
    "contractor": "Richards Disposal",
    "rowid": "953709",
    "final_x": "3680029.01269",
    "final_y": "526205.63603",
    "longitude": "-90.07289975933006",
    "latitude": "29.940927543440537",
    "geocoded_column": {
      "latitude": "29.940927543440537",
      "longitude": "-90.07289975933006"
    }
  },
  {
    "service_request": "2022-953708",
    "request_type": "Trash/Recycling",
    "request_reason": "MIssed Recycling Pick-Up",
    "date_created": "2022-12-15T17:12:44.000",
    "date_modified": "2022-12-15T17:12:45.000",
    "request_status": "Pending",
    "responsible_agency": "Department of Sanitation",
    "final_address": "6022 Pitt St",
    "address_councildis": "A",
    "status": "Assigned to Contractor",
    "contractor": "Richards Disposal",
    "rowid": "953708",
    "final_x": "3665083.62919",
    "final_y": "521135.197945",
    "longitude": "-90.12025468730062",
    "latitude": "29.927429035267803",
    "geocoded_column": {
      "latitude": "29.927429035267803",
      "longitude": "-90.12025468730062"
    }
  },
  {
    "service_request": "2022-953707",
    "request_type": "Trash/Recycling",
    "request_reason": "MIssed Recycling Pick-Up",
    "date_created": "2022-12-15T17:09:31.000",
    "date_modified": "2022-12-15T17:09:31.000",
    "request_status": "Pending",
    "responsible_agency": "Department of Sanitation",
    "final_address": "4330 Baudin St",
    "address_councildis": "A",
    "status": "Assigned to Contractor",
    "contractor": "Richards Disposal",
    "rowid": "953707",
    "final_x": "3669077.36654",
    "final_y": "537812.951112",
    "longitude": "-90.10708399002327",
    "latitude": "29.973170541235557",
    "geocoded_column": {
      "latitude": "29.973170541235557",
      "longitude": "-90.10708399002327"
    }
  },
  {
    "service_request": "2022-953706",
    "request_type": "Trash/Recycling",
    "request_reason": "MIssed Recycling Pick-Up",
    "date_created": "2022-12-15T17:09:24.000",
    "date_modified": "2022-12-15T17:09:25.000",
    "request_status": "Pending",
    "responsible_agency": "Department of Sanitation",
    "final_address": "706 Eleonore St",
    "address_councildis": "A",
    "status": "Assigned to Contractor",
    "contractor": "Richards Disposal",
    "rowid": "953706",
    "final_x": "3665129.79636",
    "final_y": "518815.950647",
    "longitude": "-90.12018646188162",
    "latitude": "29.92105048966512",
    "geocoded_column": {
      "latitude": "29.92105048966512",
      "longitude": "-90.12018646188162"
    }
  },
  {
    "service_request": "2022-953705",
    "request_type": "Trash/Recycling",
    "request_reason": "MIssed Recycling Pick-Up",
    "date_created": "2022-12-15T17:05:41.000",
    "date_modified": "2022-12-15T17:05:41.000",
    "request_status": "Pending",
    "responsible_agency": "Department of Sanitation",
    "final_address": "6030 Hurst St",
    "address_councildis": "A",
    "status": "Assigned to Contractor",
    "contractor": "Richards Disposal",
    "rowid": "953705",
    "final_x": "3665256.5074",
    "final_y": "521786.983866",
    "longitude": "-90.11968715854152",
    "latitude": "29.92921620713637",
    "geocoded_column": {
      "latitude": "29.92921620713637",
      "longitude": "-90.11968715854152"
    }
  },
  {
    "service_request": "2022-953704",
    "request_type": "Trash/Recycling",
    "request_reason": "Missed Trash Pick-Up",
    "date_created": "2022-12-15T17:03:40.000",
    "date_modified": "2022-12-15T17:03:41.000",
    "request_status": "Pending",
    "responsible_agency": "Department of Sanitation",
    "final_address": "1226 Lowerline St",
    "address_councildis": "A",
    "status": "Assigned to Contractor",
    "contractor": "Richards Disposal",
    "rowid": "953704",
    "final_x": "3663799.52416",
    "final_y": "527077.161534",
    "longitude": "-90.12411035797251",
    "latitude": "29.94380486875547",
    "geocoded_column": {
      "latitude": "29.94380486875547",
      "longitude": "-90.12411035797251"
    }
  },
  {
    "service_request": "2022-953703",
    "request_type": "Abandoned Vehicles",
    "request_reason": "Abandoned/Junk Vehicles",
    "date_created": "2022-12-15T16:58:48.000",
    "date_modified": "2022-12-15T16:58:48.000",
    "request_status": "Pending",
    "responsible_agency": "Department of Public Works",
    "final_address": "4800 America St",
    "address_councildis": "E",
    "status": "Pending",
    "rowid": "953703",
    "final_x": "3699703.06512",
    "final_y": "554780.431576",
    "longitude": "-90.00974354913437",
    "latitude": "30.018888084952803",
    "geocoded_column": {
      "latitude": "30.018888084952803",
      "longitude": "-90.00974354913437"
    }
  },
  {
    "service_request": "2022-953702",
    "request_type": "Trash/Recycling",
    "request_reason": "Replace Trash Cart",
    "date_created": "2022-12-15T16:55:46.000",
    "date_modified": "2022-12-15T16:55:47.000",
    "request_status": "Pending",
    "responsible_agency": "Department of Sanitation",
    "final_address": "4704 Perrier St",
    "address_councildis": "B",
    "status": "Assigned to Contractor",
    "contractor": "Richards Disposal",
    "rowid": "953702",
    "final_x": "3669741.79246",
    "final_y": "519922.352568",
    "longitude": "-90.10559100215582",
    "latitude": "29.923957674252904",
    "geocoded_column": {
      "latitude": "29.923957674252904",
      "longitude": "-90.10559100215582"
    }
  },
  {
    "service_request": "2022-953701",
    "request_type": "Trash/Recycling",
    "request_reason": "Order Recycling Cart",
    "date_created": "2022-12-15T16:52:00.000",
    "date_modified": "2022-12-15T16:52:00.000",
    "request_status": "Pending",
    "responsible_agency": "Department of Sanitation",
    "final_address": "12921 Ashland Dr",
    "address_councildis": "E",
    "status": "Pending",
    "rowid": "953701",
    "final_x": "3717133.00344",
    "final_y": "567236.177316",
    "longitude": "-89.95419807581092",
    "latitude": "30.052571236947585",
    "geocoded_column": {
      "latitude": "30.052571236947585",
      "longitude": "-89.95419807581092"
    }
  },
  {
    "service_request": "2022-953700",
    "request_type": "Trash/Recycling",
    "request_reason": "Missed Trash Pick-Up",
    "date_created": "2022-12-15T16:50:58.000",
    "date_modified": "2022-12-15T16:50:59.000",
    "request_status": "Pending",
    "responsible_agency": "Department of Sanitation",
    "final_address": "4722 N Claiborne Ave",
    "address_councildis": "E",
    "status": "Assigned to Contractor",
    "contractor": "Waste Pro",
    "rowid": "953700",
    "final_x": "3695273.02301",
    "final_y": "536217.595591",
    "longitude": "-90.02441084546047",
    "latitude": "29.967987043168637",
    "geocoded_column": {
      "latitude": "29.967987043168637",
      "longitude": "-90.02441084546047"
    }
  },
  {
    "service_request": "2022-953699",
    "request_type": "Trash/Recycling",
    "request_reason": "Missed Trash Pick-Up",
    "date_created": "2022-12-15T16:50:54.000",
    "date_modified": "2022-12-15T16:50:55.000",
    "request_status": "Pending",
    "responsible_agency": "Department of Sanitation",
    "final_address": "7670 Branch Dr",
    "address_councildis": "E",
    "status": "Assigned to Contractor",
    "contractor": "Waste Pro",
    "rowid": "953699",
    "final_x": "3714555.95851",
    "final_y": "568863.263397",
    "longitude": "-89.9622817526227",
    "latitude": "30.057130090056642",
    "geocoded_column": {
      "latitude": "30.057130090056642",
      "longitude": "-89.9622817526227"
    }
  },
  {
    "service_request": "2022-953698",
    "request_type": "Trash/Recycling",
    "request_reason": "MIssed Recycling Pick-Up",
    "date_created": "2022-12-15T16:41:57.000",
    "date_modified": "2022-12-15T16:41:58.000",
    "request_status": "Pending",
    "responsible_agency": "Department of Sanitation",
    "final_address": "919 Toledano St",
    "address_councildis": "B",
    "status": "Assigned to Contractor",
    "contractor": "Richards Disposal",
    "rowid": "953698",
    "final_x": "3675650.7595",
    "final_y": "519274.000439",
    "longitude": "-90.08696074843645",
    "latitude": "29.921999501387756",
    "geocoded_column": {
      "latitude": "29.921999501387756",
      "longitude": "-90.08696074843645"
    }
  },
  {
    "service_request": "2022-953697",
    "request_type": "Trash/Recycling",
    "request_reason": "Missed Trash Pick-Up",
    "date_created": "2022-12-15T16:39:04.000",
    "date_modified": "2022-12-15T16:39:04.000",
    "request_status": "Pending",
    "responsible_agency": "Department of Sanitation",
    "final_address": "1810 Camp St",
    "address_councildis": "B",
    "status": "Assigned to Contractor",
    "contractor": "Richards Disposal",
    "rowid": "953697",
    "final_x": "3679593.68546",
    "final_y": "523246.452731",
    "longitude": "-90.07437681486464",
    "latitude": "29.932803927358144",
    "geocoded_column": {
      "latitude": "29.932803927358144",
      "longitude": "-90.07437681486464"
    }
  },
  {
    "service_request": "2022-953696",
    "request_type": "Trash/Recycling",
    "request_reason": "Missed Trash Pick-Up",
    "date_created": "2022-12-15T16:33:13.000",
    "date_modified": "2022-12-15T16:33:14.000",
    "request_status": "Pending",
    "responsible_agency": "Department of Sanitation",
    "final_address": "2472 Jay St",
    "address_councildis": "D",
    "status": "Assigned to Contractor",
    "contractor": "IV Waste",
    "rowid": "953696",
    "final_x": "3685281.62069",
    "final_y": "557376.056795",
    "longitude": "-90.05521865892268",
    "latitude": "30.02647525923472",
    "geocoded_column": {
      "latitude": "30.02647525923472",
      "longitude": "-90.05521865892268"
    }
  },
  {
    "service_request": "2022-953695",
    "request_type": "Trash/Recycling",
    "request_reason": "Dead Animal Pick Up",
    "date_created": "2022-12-15T16:27:05.000",
    "date_modified": "2022-12-15T16:27:06.000",
    "request_status": "Pending",
    "responsible_agency": "Department of Sanitation",
    "final_address": "4834 St Charles Ave",
    "address_councildis": "B",
    "status": "Assigned to Contractor",
    "contractor": "Richards Disposal",
    "rowid": "953695",
    "final_x": "3669105.06145",
    "final_y": "520638.678904",
    "longitude": "-90.10757675132766",
    "latitude": "29.925946088319",
    "geocoded_column": {
      "latitude": "29.925946088319",
      "longitude": "-90.10757675132766"
    }
  },
  {
    "service_request": "2022-953694",
    "request_type": "Traffic Signals/Signs/Striping/Streetlights",
    "request_reason": "Street Light Outage/Malfunction",
    "date_created": "2022-12-15T16:25:24.000",
    "date_modified": "2022-12-15T16:25:25.000",
    "request_status": "Pending",
    "responsible_agency": "Department of Public Works",
    "final_address": "615 Ursulines Ave",
    "address_councildis": "C",
    "status": "Pending",
    "contractor": "Legacy Professional Services",
    "rowid": "953694",
    "final_x": "3683626.24962",
    "final_y": "533522.993412",
    "longitude": "-90.06128618641885",
    "latitude": "29.960938500554807",
    "geocoded_column": {
      "latitude": "29.960938500554807",
      "longitude": "-90.06128618641885"
    }
  },
  {
    "service_request": "2022-953693",
    "request_type": "Property Maintenance",
    "request_reason": "Property Maintenance",
    "date_created": "2022-12-15T16:23:26.000",
    "date_modified": "2022-12-15T16:23:26.000",
    "request_status": "Pending",
    "responsible_agency": "Department of Code Enforcement",
    "final_address": "8127 Birch St",
    "address_councildis": "A",
    "status": "Pending",
    "rowid": "953693",
    "final_x": "3662766.96429",
    "final_y": "529602.767105",
    "longitude": "-90.12728651401748",
    "latitude": "29.950779396325682",
    "geocoded_column": {
      "latitude": "29.950779396325682",
      "longitude": "-90.12728651401748"
    }
  },
  {
    "service_request": "2022-953692",
    "request_type": "Roads/Drainage",
    "request_reason": "Debris in Roadway",
    "date_created": "2022-12-15T16:20:57.000",
    "date_modified": "2022-12-15T16:25:50.000",
    "request_status": "Pending",
    "responsible_agency": "Department of Public Works",
    "final_address": "3618 Cambronne St",
    "address_councildis": "A",
    "status": "Pending",
    "rowid": "953692",
    "final_x": "3667063.90701",
    "final_y": "535631.019462",
    "longitude": "-90.1135162781862",
    "latitude": "29.96723005042732",
    "geocoded_column": {
      "latitude": "29.96723005042732",
      "longitude": "-90.1135162781862"
    }
  },
  {
    "service_request": "2022-953691",
    "request_type": "Trash/Recycling",
    "request_reason": "MIssed Recycling Pick-Up",
    "date_created": "2022-12-15T16:18:20.000",
    "date_modified": "2022-12-15T16:18:21.000",
    "request_status": "Pending",
    "responsible_agency": "Department of Sanitation",
    "final_address": "327 Arabella St",
    "address_councildis": "A",
    "status": "Assigned to Contractor",
    "contractor": "Richards Disposal",
    "rowid": "953691",
    "final_x": "3665526.45287",
    "final_y": "517394.312245",
    "longitude": "-90.11898194842252",
    "latitude": "29.917129875054222",
    "geocoded_column": {
      "latitude": "29.917129875054222",
      "longitude": "-90.11898194842252"
    }
  },
  {
    "service_request": "2022-953690",
    "request_type": "Trash/Recycling",
    "request_reason": "Missed Trash Pick-Up",
    "date_created": "2022-12-15T16:14:14.000",
    "date_modified": "2022-12-15T16:14:15.000",
    "request_status": "Pending",
    "responsible_agency": "Department of Sanitation",
    "final_address": "171 Walnut St",
    "address_councildis": "A",
    "status": "Assigned to Contractor",
    "contractor": "Richards Disposal",
    "rowid": "953690",
    "final_x": "3661128.84749",
    "final_y": "520736.568057",
    "longitude": "-90.13275220439071",
    "latitude": "29.92644745985871",
    "geocoded_column": {
      "latitude": "29.92644745985871",
      "longitude": "-90.13275220439071"
    }
  },
  {
    "service_request": "2022-953689",
    "request_type": "Property Maintenance",
    "request_reason": "Property Maintenance",
    "date_created": "2022-12-15T16:13:25.000",
    "date_modified": "2022-12-15T16:13:25.000",
    "request_status": "Pending",
    "responsible_agency": "Department of Code Enforcement",
    "final_address": "2509 St Peter St",
    "address_councildis": "D",
    "status": "Pending",
    "rowid": "953689",
    "final_x": "3677409.36078",
    "final_y": "536339.876359",
    "longitude": "-90.08082073107425",
    "latitude": "29.968872279929407",
    "geocoded_column": {
      "latitude": "29.968872279929407",
      "longitude": "-90.08082073107425"
    }
  },
  {
    "service_request": "2022-953688",
    "request_type": "Trash/Recycling",
    "request_reason": "MIssed Recycling Pick-Up",
    "date_created": "2022-12-15T16:11:26.000",
    "date_modified": "2022-12-15T16:11:27.000",
    "request_status": "Pending",
    "responsible_agency": "Department of Sanitation",
    "final_address": "171 Walnut St",
    "address_councildis": "A",
    "status": "Assigned to Contractor",
    "contractor": "Richards Disposal",
    "rowid": "953688",
    "final_x": "3661128.84749",
    "final_y": "520736.568057",
    "longitude": "-90.13275220439071",
    "latitude": "29.92644745985871",
    "geocoded_column": {
      "latitude": "29.92644745985871",
      "longitude": "-90.13275220439071"
    }
  },
  {
    "service_request": "2022-953687",
    "request_type": "Traffic Signals/Signs/Striping/Streetlights",
    "request_reason": "Street Light Outage/Malfunction",
    "date_created": "2022-12-15T16:11:07.000",
    "date_modified": "2022-12-15T16:11:08.000",
    "request_status": "Pending",
    "responsible_agency": "Department of Public Works",
    "final_address": "840 St Charles Ave",
    "address_councildis": "B",
    "status": "Pending",
    "contractor": "Legacy Professional Services",
    "rowid": "953687",
    "final_x": "3680354.25896",
    "final_y": "527690.857407",
    "longitude": "-90.07182127428752",
    "latitude": "29.945001565484503",
    "geocoded_column": {
      "latitude": "29.945001565484503",
      "longitude": "-90.07182127428752"
    }
  },
  {
    "service_request": "2022-953686",
    "request_type": "Traffic Signals/Signs/Striping/Streetlights",
    "request_reason": "Street Light Outage/Malfunction",
    "date_created": "2022-12-15T16:09:30.000",
    "date_modified": "2022-12-15T16:09:31.000",
    "request_status": "Pending",
    "responsible_agency": "Department of Public Works",
    "final_address": "839 St Charles Ave",
    "address_councildis": "B",
    "status": "Pending",
    "contractor": "Legacy Professional Services",
    "rowid": "953686",
    "final_x": "3680272.86843",
    "final_y": "527722.120063",
    "longitude": "-90.07207716268658",
    "latitude": "29.9450899909818",
    "geocoded_column": {
      "latitude": "29.9450899909818",
      "longitude": "-90.07207716268658"
    }
  },
  {
    "service_request": "2022-953685",
    "request_type": "Safety & Permits",
    "request_reason": "Licenses & Permits",
    "date_created": "2022-12-15T16:08:58.000",
    "date_modified": "2022-12-15T16:08:58.000",
    "request_status": "Pending",
    "responsible_agency": "Safety and Permits",
    "final_address": "1112 N Rampart St",
    "address_councildis": "C",
    "status": "Pending",
    "rowid": "953685",
    "final_x": "3682402.17436",
    "final_y": "534598.415366",
    "longitude": "-90.06511399555994",
    "latitude": "29.963932850895887",
    "geocoded_column": {
      "latitude": "29.963932850895887",
      "longitude": "-90.06511399555994"
    }
  },
  {
    "service_request": "2022-953684",
    "request_type": "Traffic Signals/Signs/Striping/Streetlights",
    "request_reason": "Street Light Outage/Malfunction",
    "date_created": "2022-12-15T16:08:16.000",
    "date_modified": "2022-12-15T16:08:17.000",
    "request_status": "Pending",
    "responsible_agency": "Department of Public Works",
    "final_address": "859 St Charles Ave",
    "address_councildis": "B",
    "status": "Pending",
    "contractor": "Legacy Professional Services",
    "rowid": "953684",
    "final_x": "3680124.36693",
    "final_y": "527650.698047",
    "longitude": "-90.0725485091546",
    "latitude": "29.944898098043357",
    "geocoded_column": {
      "latitude": "29.944898098043357",
      "longitude": "-90.0725485091546"
    }
  },
  {
    "service_request": "2022-953683",
    "request_type": "Trash/Recycling",
    "request_reason": "Request a Large Item Pick Up",
    "date_created": "2022-12-15T16:05:29.000",
    "date_modified": "2022-12-15T16:05:31.000",
    "request_status": "Pending",
    "responsible_agency": "Department of Sanitation",
    "final_address": "3635 Herald St",
    "address_councildis": "C",
    "status": "Assigned to Contractor",
    "contractor": "Richards Disposal",
    "rowid": "953683",
    "final_x": "3702141.18141",
    "final_y": "517631.780982",
    "longitude": "-90.00340235649529",
    "latitude": "29.916665076728812",
    "geocoded_column": {
      "latitude": "29.916665076728812",
      "longitude": "-90.00340235649529"
    }
  },
  {
    "service_request": "2022-953682",
    "request_type": "Traffic Signals/Signs/Striping/Streetlights",
    "request_reason": "Street Light Outage/Malfunction",
    "date_created": "2022-12-15T16:04:49.000",
    "date_modified": "2022-12-15T16:04:50.000",
    "request_status": "Pending",
    "responsible_agency": "Department of Public Works",
    "final_address": "625 St Joseph St",
    "address_councildis": "B",
    "status": "Pending",
    "contractor": "Legacy Professional Services",
    "rowid": "953682",
    "final_x": "3680458.4045",
    "final_y": "527460.882431",
    "longitude": "-90.07150045092027",
    "latitude": "29.944366057989534",
    "geocoded_column": {
      "latitude": "29.944366057989534",
      "longitude": "-90.07150045092027"
    }
  },
  {
    "service_request": "2022-953681",
    "request_type": "Traffic Signals/Signs/Striping/Streetlights",
    "request_reason": "Street Light Outage/Malfunction",
    "date_created": "2022-12-15T16:03:22.000",
    "date_modified": "2022-12-15T16:03:23.000",
    "request_status": "Pending",
    "responsible_agency": "Department of Public Works",
    "final_address": "625 St Joseph St",
    "address_councildis": "B",
    "status": "Pending",
    "contractor": "Legacy Professional Services",
    "rowid": "953681",
    "final_x": "3680458.4045",
    "final_y": "527460.882431",
    "longitude": "-90.07150045092027",
    "latitude": "29.944366057989534",
    "geocoded_column": {
      "latitude": "29.944366057989534",
      "longitude": "-90.07150045092027"
    }
  },
  {
    "service_request": "2022-953680",
    "request_type": "Trash/Recycling",
    "request_reason": "MIssed Recycling Pick-Up",
    "date_created": "2022-12-15T16:03:11.000",
    "date_modified": "2022-12-15T16:03:13.000",
    "request_status": "Pending",
    "responsible_agency": "Department of Sanitation",
    "final_address": "4300 BLK Coliseum St",
    "address_councildis": "B",
    "status": "Assigned to Contractor",
    "contractor": "Richards Disposal",
    "rowid": "953680",
    "final_x": "3671171.73078",
    "final_y": "519844.933195",
    "longitude": "-90.10107981563857",
    "latitude": "29.923702589131413",
    "geocoded_column": {
      "latitude": "29.923702589131413",
      "longitude": "-90.10107981563857"
    }
  },
  {
    "service_request": "2022-953679",
    "request_type": "Abandoned Vehicles",
    "request_reason": "Abandoned/Junk Vehicles",
    "date_created": "2022-12-15T16:02:49.000",
    "date_modified": "2022-12-15T16:02:50.000",
    "request_status": "Pending",
    "responsible_agency": "Department of Public Works",
    "final_address": "1829 St Andrew St",
    "address_councildis": "B",
    "status": "Pending",
    "rowid": "953679",
    "final_x": "3677447.26408",
    "final_y": "525107.849853",
    "longitude": "-90.08108868379495",
    "latitude": "29.937986829921226",
    "geocoded_column": {
      "latitude": "29.937986829921226",
      "longitude": "-90.08108868379495"
    }
  },
  {
    "service_request": "2022-953678",
    "request_type": "Traffic Signals/Signs/Striping/Streetlights",
    "request_reason": "Additional signage",
    "date_created": "2022-12-15T16:02:16.000",
    "date_modified": "2022-12-15T16:02:17.000",
    "request_status": "Pending",
    "responsible_agency": "Department of Public Works",
    "final_address": "PALM ST & CECIL ST",
    "address_councildis": "A",
    "status": "Pending",
    "rowid": "953678",
    "final_x": "3663608.7",
    "final_y": "538439.38",
    "longitude": "-90.12433433418438",
    "latitude": "29.975052801437307",
    "geocoded_column": {
      "latitude": "29.975052801437307",
      "longitude": "-90.12433433418438"
    }
  },
  {
    "service_request": "2022-953677",
    "request_type": "Traffic Signals/Signs/Striping/Streetlights",
    "request_reason": "Street Light Outage/Malfunction",
    "date_created": "2022-12-15T16:01:20.000",
    "date_modified": "2022-12-15T16:01:20.000",
    "request_status": "Pending",
    "responsible_agency": "Department of Public Works",
    "final_address": "865 St Charles Ave",
    "address_councildis": "B",
    "status": "Pending",
    "contractor": "Legacy Professional Services",
    "rowid": "953677",
    "final_x": "3680124.36693",
    "final_y": "527650.698047",
    "longitude": "-90.0725485091546",
    "latitude": "29.944898098043357",
    "geocoded_column": {
      "latitude": "29.944898098043357",
      "longitude": "-90.0725485091546"
    }
  },
  {
    "service_request": "2022-953676",
    "request_type": "Traffic Signals/Signs/Striping/Streetlights",
    "request_reason": "Street Light Outage/Malfunction",
    "date_created": "2022-12-15T16:00:01.000",
    "date_modified": "2022-12-15T16:00:02.000",
    "request_status": "Pending",
    "responsible_agency": "Department of Public Works",
    "final_address": "901 St Charles Ave",
    "address_councildis": "B",
    "status": "Pending",
    "contractor": "Legacy Professional Services",
    "rowid": "953676",
    "final_x": "3680198.58626",
    "final_y": "527407.393791",
    "longitude": "-90.07232263016267",
    "latitude": "29.94422684685458",
    "geocoded_column": {
      "latitude": "29.94422684685458",
      "longitude": "-90.07232263016267"
    }
  },
  {
    "service_request": "2022-953675",
    "request_type": "Traffic Signals/Signs/Striping/Streetlights",
    "request_reason": "Street Light Outage/Malfunction",
    "date_created": "2022-12-15T15:58:46.000",
    "date_modified": "2022-12-15T15:58:47.000",
    "request_status": "Pending",
    "responsible_agency": "Department of Public Works",
    "final_address": "901 St Charles Ave",
    "address_councildis": "B",
    "status": "Pending",
    "contractor": "Legacy Professional Services",
    "rowid": "953675",
    "final_x": "3680198.58626",
    "final_y": "527407.393791",
    "longitude": "-90.07232263016267",
    "latitude": "29.94422684685458",
    "geocoded_column": {
      "latitude": "29.94422684685458",
      "longitude": "-90.07232263016267"
    }
  },
  {
    "service_request": "2022-953674",
    "request_type": "Traffic Signals/Signs/Striping/Streetlights",
    "request_reason": "Street Light Outage/Malfunction",
    "date_created": "2022-12-15T15:56:53.000",
    "date_modified": "2022-12-15T15:56:54.000",
    "request_status": "Pending",
    "responsible_agency": "Department of Public Works",
    "final_address": "901 St Charles Ave",
    "address_councildis": "B",
    "status": "Pending",
    "contractor": "Legacy Professional Services",
    "rowid": "953674",
    "final_x": "3680198.58626",
    "final_y": "527407.393791",
    "longitude": "-90.07232263016267",
    "latitude": "29.94422684685458",
    "geocoded_column": {
      "latitude": "29.94422684685458",
      "longitude": "-90.07232263016267"
    }
  },
  {
    "service_request": "2022-953673",
    "request_type": "Trash/Recycling",
    "request_reason": "Order Recycling Cart",
    "date_created": "2022-12-15T15:54:49.000",
    "date_modified": "2022-12-15T15:54:50.000",
    "request_status": "Pending",
    "responsible_agency": "Department of Sanitation",
    "final_address": "4816 Howard Ave",
    "address_councildis": "B",
    "status": "Pending",
    "rowid": "953673",
    "final_x": "3670290.17556",
    "final_y": "534373.905861",
    "longitude": "-90.10337027303649",
    "latitude": "29.9636785743297",
    "geocoded_column": {
      "latitude": "29.9636785743297",
      "longitude": "-90.10337027303649"
    }
  },
  {
    "service_request": "2022-953672",
    "request_type": "Traffic Signals/Signs/Striping/Streetlights",
    "request_reason": "Street Light Outage/Malfunction",
    "date_created": "2022-12-15T15:52:38.000",
    "date_modified": "2022-12-15T15:52:39.000",
    "request_status": "Pending",
    "responsible_agency": "Department of Public Works",
    "final_address": "919 St Charles Ave",
    "address_councildis": "B",
    "status": "Pending",
    "contractor": "Legacy Professional Services",
    "rowid": "953672",
    "final_x": "3680174.97122",
    "final_y": "527316.807551",
    "longitude": "-90.07240033685378",
    "latitude": "29.94397847949933",
    "geocoded_column": {
      "latitude": "29.94397847949933",
      "longitude": "-90.07240033685378"
    }
  },
  {
    "service_request": "2022-953671",
    "request_type": "Trash/Recycling",
    "request_reason": "Return Recycling Cart",
    "date_created": "2022-12-15T15:51:43.000",
    "date_modified": "2022-12-15T15:51:44.000",
    "request_status": "Pending",
    "responsible_agency": "Department of Sanitation",
    "final_address": "4816 Howard Ave",
    "address_councildis": "B",
    "status": "Pending",
    "rowid": "953671",
    "final_x": "3670290.17556",
    "final_y": "534373.905861",
    "longitude": "-90.10337027303649",
    "latitude": "29.9636785743297",
    "geocoded_column": {
      "latitude": "29.9636785743297",
      "longitude": "-90.10337027303649"
    }
  },
  {
    "service_request": "2022-953670",
    "request_type": "Traffic Signals/Signs/Striping/Streetlights",
    "request_reason": "Street Light Outage/Malfunction",
    "date_created": "2022-12-15T15:50:18.000",
    "date_modified": "2022-12-15T15:50:18.000",
    "request_status": "Pending",
    "responsible_agency": "Department of Public Works",
    "final_address": "936 St Charles Ave",
    "address_councildis": "B",
    "status": "Pending",
    "contractor": "Legacy Professional Services",
    "rowid": "953670",
    "final_x": "3680311.02203",
    "final_y": "527218.761855",
    "longitude": "-90.07197419475932",
    "latitude": "29.943704769151296",
    "geocoded_column": {
      "latitude": "29.943704769151296",
      "longitude": "-90.07197419475932"
    }
  },
  {
    "service_request": "2022-953669",
    "request_type": "Trash/Recycling",
    "request_reason": "Illegal Dumping",
    "date_created": "2022-12-15T15:50:11.000",
    "date_modified": "2022-12-15T15:50:11.000",
    "request_status": "Pending",
    "responsible_agency": "Department of Sanitation",
    "final_address": "3114 Urquhart St",
    "address_councildis": "C",
    "status": "Pending",
    "rowid": "953669",
    "final_x": "3689302.7382",
    "final_y": "536662.775111",
    "longitude": "-90.04324932798569",
    "latitude": "29.969397306666934",
    "geocoded_column": {
      "latitude": "29.969397306666934",
      "longitude": "-90.04324932798569"
    }
  },
  {
    "service_request": "2022-953668",
    "request_type": "Mosquito, Termite & Rodent Control",
    "request_reason": "Mosquito Complaint",
    "date_created": "2022-12-15T15:48:08.000",
    "date_modified": "2022-12-15T15:48:08.000",
    "request_status": "Pending",
    "responsible_agency": "Mosquito, Termite & Rodent Control Board",
    "final_address": "3114 Urquhart St",
    "address_councildis": "C",
    "status": "Pending",
    "rowid": "953668",
    "final_x": "3689302.7382",
    "final_y": "536662.775111",
    "longitude": "-90.04324932798569",
    "latitude": "29.969397306666934",
    "geocoded_column": {
      "latitude": "29.969397306666934",
      "longitude": "-90.04324932798569"
    }
  },
  {
    "service_request": "2022-953667",
    "request_type": "Traffic Signals/Signs/Striping/Streetlights",
    "request_reason": "Street Light Outage/Malfunction",
    "date_created": "2022-12-15T15:47:37.000",
    "date_modified": "2022-12-15T15:47:37.000",
    "request_status": "Pending",
    "responsible_agency": "Department of Public Works",
    "final_address": "936 St Charles Ave",
    "address_councildis": "B",
    "status": "Pending",
    "contractor": "Legacy Professional Services",
    "rowid": "953667",
    "final_x": "3680311.02203",
    "final_y": "527218.761855",
    "longitude": "-90.07197419475932",
    "latitude": "29.943704769151296",
    "geocoded_column": {
      "latitude": "29.943704769151296",
      "longitude": "-90.07197419475932"
    }
  },
  {
    "service_request": "2022-953666",
    "request_type": "Traffic Signals/Signs/Striping/Streetlights",
    "request_reason": "Street Light Outage/Malfunction",
    "date_created": "2022-12-15T15:45:46.000",
    "date_modified": "2022-12-15T15:45:46.000",
    "request_status": "Pending",
    "responsible_agency": "Department of Public Works",
    "final_address": "936 St Charles Ave",
    "address_councildis": "B",
    "status": "Pending",
    "contractor": "Legacy Professional Services",
    "rowid": "953666",
    "final_x": "3680311.02203",
    "final_y": "527218.761855",
    "longitude": "-90.07197419475932",
    "latitude": "29.943704769151296",
    "geocoded_column": {
      "latitude": "29.943704769151296",
      "longitude": "-90.07197419475932"
    }
  },
  {
    "service_request": "2022-953665",
    "request_type": "Traffic Signals/Signs/Striping/Streetlights",
    "request_reason": "Street Light Outage/Malfunction",
    "date_created": "2022-12-15T15:43:09.000",
    "date_modified": "2022-12-15T15:43:10.000",
    "request_status": "Pending",
    "responsible_agency": "Department of Public Works",
    "final_address": "919 St Charles Ave",
    "address_councildis": "B",
    "status": "Pending",
    "contractor": "Legacy Professional Services",
    "rowid": "953665",
    "final_x": "3680174.97122",
    "final_y": "527316.807551",
    "longitude": "-90.07240033685378",
    "latitude": "29.94397847949933",
    "geocoded_column": {
      "latitude": "29.94397847949933",
      "longitude": "-90.07240033685378"
    }
  },
  {
    "service_request": "2022-953664",
    "request_type": "Trash/Recycling",
    "request_reason": "Order Recycling Cart",
    "date_created": "2022-12-15T15:41:53.000",
    "date_modified": "2022-12-15T15:41:53.000",
    "request_status": "Pending",
    "responsible_agency": "Department of Sanitation",
    "final_address": "1551 N Prieur St",
    "address_councildis": "D",
    "status": "Pending",
    "rowid": "953664",
    "final_x": "3681087.01749",
    "final_y": "538237.389385",
    "longitude": "-90.0691403512097",
    "latitude": "29.973978736733187",
    "geocoded_column": {
      "latitude": "29.973978736733187",
      "longitude": "-90.0691403512097"
    }
  },
  {
    "service_request": "2022-953663",
    "request_type": "Trash/Recycling",
    "request_reason": "Order Trash Cart",
    "date_created": "2022-12-15T15:39:06.000",
    "date_modified": "2022-12-15T15:39:06.000",
    "request_status": "Pending",
    "responsible_agency": "Department of Sanitation",
    "final_address": "36 Tennyson Pl, New Orleans, Louisiana, 70131",
    "address_councildis": "C",
    "status": "Assigned to Contractor",
    "contractor": "Richards Disposal",
    "rowid": "953663",
    "final_x": "3705067.35703",
    "final_y": "517540.351926",
    "longitude": "-89.99416958873512",
    "latitude": "29.916319967203467",
    "geocoded_column": {
      "latitude": "29.916319967203467",
      "longitude": "-89.99416958873512"
    }
  },
  {
    "service_request": "2022-953662",
    "request_type": "Traffic Signals/Signs/Striping/Streetlights",
    "request_reason": "Street Light Outage/Malfunction",
    "date_created": "2022-12-15T15:36:54.000",
    "date_modified": "2022-12-15T15:36:55.000",
    "request_status": "Pending",
    "responsible_agency": "Department of Public Works",
    "final_address": "1000 St Charles Ave",
    "address_councildis": "B",
    "status": "Pending",
    "contractor": "Legacy Professional Services",
    "rowid": "953662",
    "final_x": "3680334.074",
    "final_y": "526964.819646",
    "longitude": "-90.0719102399457",
    "latitude": "29.943005814995683",
    "geocoded_column": {
      "latitude": "29.943005814995683",
      "longitude": "-90.0719102399457"
    }
  },
  {
    "service_request": "2022-953661",
    "request_type": "Roads/Drainage",
    "request_reason": "Street Subsidence (Sinking)",
    "date_created": "2022-12-15T15:36:24.000",
    "date_modified": "2022-12-15T20:28:32.000",
    "case_close_date": "2022-12-15T14:28:32.000",
    "request_status": "Closed",
    "responsible_agency": "Department of Public Works",
    "final_address": "ANNETTE ST & FLORIDA AVE",
    "address_councildis": "D",
    "status": "Referred to External Agency",
    "rowid": "953661",
    "final_x": "3682591.8",
    "final_y": "543109.38",
    "longitude": "-90.0642174923735",
    "latitude": "29.987329270363002",
    "geocoded_column": {
      "latitude": "29.987329270363002",
      "longitude": "-90.0642174923735"
    }
  },
  {
    "service_request": "2022-953660",
    "request_type": "Trash/Recycling",
    "request_reason": "Order Trash Cart",
    "date_created": "2022-12-15T15:35:35.000",
    "date_modified": "2022-12-15T15:35:36.000",
    "request_status": "Pending",
    "responsible_agency": "Department of Sanitation",
    "final_address": "114 Atlantic Ave",
    "address_councildis": "C",
    "status": "Assigned to Contractor",
    "contractor": "Richards Disposal",
    "rowid": "953660",
    "final_x": "3688910.2031",
    "final_y": "531136.04109",
    "longitude": "-90.04468527296723",
    "latitude": "29.95421285646406",
    "geocoded_column": {
      "latitude": "29.95421285646406",
      "longitude": "-90.04468527296723"
    }
  },
  {
    "service_request": "2022-953658",
    "request_type": "Traffic Signals/Signs/Striping/Streetlights",
    "request_reason": "Street Light Outage/Malfunction",
    "date_created": "2022-12-15T15:34:02.000",
    "date_modified": "2022-12-15T15:34:02.000",
    "request_status": "Pending",
    "responsible_agency": "Department of Public Works",
    "final_address": "919 St Charles Ave",
    "address_councildis": "B",
    "status": "Pending",
    "contractor": "Legacy Professional Services",
    "rowid": "953658",
    "final_x": "3680174.97122",
    "final_y": "527316.807551",
    "longitude": "-90.07240033685378",
    "latitude": "29.94397847949933",
    "geocoded_column": {
      "latitude": "29.94397847949933",
      "longitude": "-90.07240033685378"
    }
  },
  {
    "service_request": "2022-953657",
    "request_type": "Trash/Recycling",
    "request_reason": "MIssed Recycling Pick-Up",
    "date_created": "2022-12-15T15:32:43.000",
    "date_modified": "2022-12-15T15:32:43.000",
    "request_status": "Pending",
    "responsible_agency": "Department of Sanitation",
    "final_address": "920 Dufossat St",
    "address_councildis": "B",
    "status": "Assigned to Contractor",
    "contractor": "Richards Disposal",
    "rowid": "953657",
    "final_x": "3668008.88666",
    "final_y": "518796.872119",
    "longitude": "-90.111099080286",
    "latitude": "29.92091389986732",
    "geocoded_column": {
      "latitude": "29.92091389986732",
      "longitude": "-90.111099080286"
    }
  },
  {
    "service_request": "2022-953656",
    "request_type": "Trash/Recycling",
    "request_reason": "Request a Large Item Pick Up",
    "date_created": "2022-12-15T15:32:18.000",
    "date_modified": "2022-12-15T15:32:18.000",
    "request_status": "Pending",
    "responsible_agency": "Department of Sanitation",
    "final_address": "324 S St Patrick St",
    "address_councildis": "A",
    "status": "Assigned to Contractor",
    "contractor": "Richards Disposal",
    "rowid": "953656",
    "final_x": "3668600.25972",
    "final_y": "539004.066378",
    "longitude": "-90.10855058369152",
    "latitude": "29.976459738768135",
    "geocoded_column": {
      "latitude": "29.976459738768135",
      "longitude": "-90.10855058369152"
    }
  },
  {
    "service_request": "2022-953655",
    "request_type": "Traffic Signals/Signs/Striping/Streetlights",
    "request_reason": "Street Light Outage/Malfunction",
    "date_created": "2022-12-15T15:32:13.000",
    "date_modified": "2022-12-15T15:32:14.000",
    "request_status": "Pending",
    "responsible_agency": "Department of Public Works",
    "final_address": "919 St Charles Ave",
    "address_councildis": "B",
    "status": "Pending",
    "contractor": "Legacy Professional Services",
    "rowid": "953655",
    "final_x": "3680174.97122",
    "final_y": "527316.807551",
    "longitude": "-90.07240033685378",
    "latitude": "29.94397847949933",
    "geocoded_column": {
      "latitude": "29.94397847949933",
      "longitude": "-90.07240033685378"
    }
  },
  {
    "service_request": "2022-953654",
    "request_type": "Traffic Signals/Signs/Striping/Streetlights",
    "request_reason": "Street Light Outage/Malfunction",
    "date_created": "2022-12-15T15:30:35.000",
    "date_modified": "2022-12-15T15:30:35.000",
    "request_status": "Pending",
    "responsible_agency": "Department of Public Works",
    "final_address": "725 Howard Ave",
    "address_councildis": "B",
    "status": "Pending",
    "contractor": "Legacy Professional Services",
    "rowid": "953654",
    "final_x": "3679861.19272",
    "final_y": "527383.161151",
    "longitude": "-90.0733887182506",
    "latitude": "29.944170420526486",
    "geocoded_column": {
      "latitude": "29.944170420526486",
      "longitude": "-90.0733887182506"
    }
  },
  {
    "service_request": "2022-953653",
    "request_type": "Roads/Drainage",
    "request_reason": "Pothole",
    "date_created": "2022-12-15T15:29:17.000",
    "date_modified": "2022-12-15T15:29:18.000",
    "request_status": "Pending",
    "responsible_agency": "Department of Public Works",
    "final_address": "SPRUCE ST & MONROE ST",
    "address_councildis": "A",
    "status": "Pending",
    "rowid": "953653",
    "final_x": "3662270.2",
    "final_y": "531886.88",
    "longitude": "-90.12877923419987",
    "latitude": "29.957074337254188",
    "geocoded_column": {
      "latitude": "29.957074337254188",
      "longitude": "-90.12877923419987"
    }
  },
  {
    "service_request": "2022-953652",
    "request_type": "Traffic Signals/Signs/Striping/Streetlights",
    "request_reason": "Street Light Outage/Malfunction",
    "date_created": "2022-12-15T15:29:11.000",
    "date_modified": "2022-12-15T15:29:12.000",
    "request_status": "Pending",
    "responsible_agency": "Department of Public Works",
    "final_address": "704 Howard Ave",
    "address_councildis": "B",
    "status": "Pending",
    "contractor": "Legacy Professional Services",
    "rowid": "953652",
    "final_x": "3679930.89691",
    "final_y": "527142.464447",
    "longitude": "-90.07317700018304",
    "latitude": "29.943506477151562",
    "geocoded_column": {
      "latitude": "29.943506477151562",
      "longitude": "-90.07317700018304"
    }
  },
  {
    "service_request": "2022-953651",
    "request_type": "Traffic Signals/Signs/Striping/Streetlights",
    "request_reason": "Street Light Outage/Malfunction",
    "date_created": "2022-12-15T15:26:34.000",
    "date_modified": "2022-12-15T15:26:35.000",
    "request_status": "Pending",
    "responsible_agency": "Department of Public Works",
    "final_address": "254 Pine St",
    "address_councildis": "A",
    "status": "Pending",
    "contractor": "Legacy Professional Services",
    "rowid": "953651",
    "final_x": "3661446.63424",
    "final_y": "523059.555963",
    "longitude": "-90.13167213227169",
    "latitude": "29.932825789884046",
    "geocoded_column": {
      "latitude": "29.932825789884046",
      "longitude": "-90.13167213227169"
    }
  },
  {
    "service_request": "2022-953650",
    "request_type": "Traffic Signals/Signs/Striping/Streetlights",
    "request_reason": "Street Light Outage/Malfunction",
    "date_created": "2022-12-15T15:26:04.000",
    "date_modified": "2022-12-15T15:26:05.000",
    "request_status": "Pending",
    "responsible_agency": "Department of Public Works",
    "final_address": "801 Howard Ave",
    "address_councildis": "B",
    "status": "Pending",
    "contractor": "Legacy Professional Services",
    "rowid": "953650",
    "final_x": "3679778.42696",
    "final_y": "527439.528895",
    "longitude": "-90.07364807650731",
    "latitude": "29.94432791517851",
    "geocoded_column": {
      "latitude": "29.94432791517851",
      "longitude": "-90.07364807650731"
    }
  },
  {
    "service_request": "2022-953649",
    "request_type": "Trash/Recycling",
    "request_reason": "Return Trash Cart",
    "date_created": "2022-12-15T15:24:02.000",
    "date_modified": "2022-12-15T15:24:03.000",
    "case_close_date": "2022-12-14T18:00:00.000",
    "request_status": "Pending",
    "responsible_agency": "Department of Sanitation",
    "final_address": "13118 Dwyer Blvd",
    "address_councildis": "E",
    "status": "Assigned to Contractor",
    "contractor": "Waste Pro",
    "rowid": "953649",
    "final_x": "3724198.54828",
    "final_y": "561238.55683",
    "longitude": "-89.93209804600616",
    "latitude": "30.035844541176957",
    "geocoded_column": {
      "latitude": "30.035844541176957",
      "longitude": "-89.93209804600616"
    }
  },
  {
    "service_request": "2022-953648",
    "request_type": "Traffic Signals/Signs/Striping/Streetlights",
    "request_reason": "Street Light Outage/Malfunction",
    "date_created": "2022-12-15T15:23:21.000",
    "date_modified": "2022-12-15T15:23:22.000",
    "request_status": "Pending",
    "responsible_agency": "Department of Public Works",
    "final_address": "901 Carondelet St",
    "address_councildis": "B",
    "status": "Pending",
    "contractor": "Legacy Professional Services",
    "rowid": "953648",
    "final_x": "3679796.79899",
    "final_y": "527490.126591",
    "longitude": "-90.0735883144357",
    "latitude": "29.944466486596873",
    "geocoded_column": {
      "latitude": "29.944466486596873",
      "longitude": "-90.0735883144357"
    }
  },
  {
    "service_request": "2022-953647",
    "request_type": "Trash/Recycling",
    "request_reason": "Request a Large Item Pick Up",
    "date_created": "2022-12-15T15:23:19.000",
    "date_modified": "2022-12-15T15:23:19.000",
    "case_close_date": "2022-12-14T18:00:00.000",
    "request_status": "Pending",
    "responsible_agency": "Department of Sanitation",
    "final_address": "13118 Dwyer Blvd",
    "address_councildis": "E",
    "status": "Assigned to Contractor",
    "contractor": "Waste Pro",
    "rowid": "953647",
    "final_x": "3724198.54828",
    "final_y": "561238.55683",
    "longitude": "-89.93209804600616",
    "latitude": "30.035844541176957",
    "geocoded_column": {
      "latitude": "30.035844541176957",
      "longitude": "-89.93209804600616"
    }
  },
  {
    "service_request": "2022-953646",
    "request_type": "Traffic Signals/Signs/Striping/Streetlights",
    "request_reason": "Street Light Outage/Malfunction",
    "date_created": "2022-12-15T15:21:18.000",
    "date_modified": "2022-12-15T15:21:18.000",
    "request_status": "Pending",
    "responsible_agency": "Department of Public Works",
    "final_address": "725 Howard Ave",
    "address_councildis": "B",
    "status": "Pending",
    "contractor": "Legacy Professional Services",
    "rowid": "953646",
    "final_x": "3679861.19272",
    "final_y": "527383.161151",
    "longitude": "-90.0733887182506",
    "latitude": "29.944170420526486",
    "geocoded_column": {
      "latitude": "29.944170420526486",
      "longitude": "-90.0733887182506"
    }
  },
  {
    "service_request": "2022-953645",
    "request_type": "Trash/Recycling",
    "request_reason": "Order Trash Cart",
    "date_created": "2022-12-15T15:20:01.000",
    "date_modified": "2022-12-15T15:20:02.000",
    "request_status": "Pending",
    "responsible_agency": "Department of Sanitation",
    "final_address": "2891 Abundance St",
    "address_councildis": "D",
    "status": "Assigned to Contractor",
    "contractor": "IV Waste",
    "rowid": "953645",
    "final_x": "3689970.92931",
    "final_y": "543850.122126",
    "longitude": "-90.04088311000729",
    "latitude": "29.989139252361273",
    "geocoded_column": {
      "latitude": "29.989139252361273",
      "longitude": "-90.04088311000729"
    }
  },
  {
    "service_request": "2022-953644",
    "request_type": "Traffic Signals/Signs/Striping/Streetlights",
    "request_reason": "Street Name Sign Damaged or Missing",
    "date_created": "2022-12-15T15:18:24.000",
    "date_modified": "2022-12-15T15:18:25.000",
    "request_status": "Pending",
    "responsible_agency": "Department of Public Works",
    "final_address": "ABUNDANCE ST & ST ROCH AVE",
    "address_councildis": "D",
    "status": "Pending",
    "rowid": "953644",
    "final_x": "3685932.9",
    "final_y": "543786.78",
    "longitude": "-90.05364026084193",
    "latitude": "29.989089704093477",
    "geocoded_column": {
      "latitude": "29.989089704093477",
      "longitude": "-90.05364026084193"
    }
  },
  {
    "service_request": "2022-953643",
    "request_type": "Traffic Signals/Signs/Striping/Streetlights",
    "request_reason": "Street Light Outage/Malfunction",
    "date_created": "2022-12-15T15:17:27.000",
    "date_modified": "2022-12-15T15:17:28.000",
    "request_status": "Pending",
    "responsible_agency": "Department of Public Works",
    "final_address": "724 St Joseph St",
    "address_councildis": "B",
    "status": "Pending",
    "contractor": "Legacy Professional Services",
    "rowid": "953643",
    "final_x": "3679958.90127",
    "final_y": "527506.239999",
    "longitude": "-90.07307595094099",
    "latitude": "29.944505891740956",
    "geocoded_column": {
      "latitude": "29.944505891740956",
      "longitude": "-90.07307595094099"
    }
  },
  {
    "service_request": "2022-953642",
    "request_type": "Trash/Recycling",
    "request_reason": "Replace Trash Cart",
    "date_created": "2022-12-15T15:16:51.000",
    "date_modified": "2022-12-15T15:16:52.000",
    "request_status": "Pending",
    "responsible_agency": "Department of Sanitation",
    "final_address": "2226 Upperline St",
    "address_councildis": "B",
    "status": "Assigned to Contractor",
    "contractor": "Richards Disposal",
    "rowid": "953642",
    "final_x": "3669055.68289",
    "final_y": "523039.677371",
    "longitude": "-90.10765155167162",
    "latitude": "29.932549520376263",
    "geocoded_column": {
      "latitude": "29.932549520376263",
      "longitude": "-90.10765155167162"
    }
  },
  {
    "service_request": "2022-953641",
    "request_type": "Trash/Recycling",
    "request_reason": "Repair Trash Cart",
    "date_created": "2022-12-15T15:15:46.000",
    "date_modified": "2022-12-15T15:15:47.000",
    "request_status": "Pending",
    "responsible_agency": "Department of Sanitation",
    "final_address": "7442 Burke Ave",
    "address_councildis": "E",
    "status": "Assigned to Contractor",
    "contractor": "Waste Pro",
    "rowid": "953641",
    "final_x": "3705717.86039",
    "final_y": "562344.782559",
    "longitude": "-89.9904589729099",
    "latitude": "30.03949468480141",
    "geocoded_column": {
      "latitude": "30.03949468480141",
      "longitude": "-89.9904589729099"
    }
  },
  {
    "service_request": "2022-953640",
    "request_type": "Trash/Recycling",
    "request_reason": "MIssed Recycling Pick-Up",
    "date_created": "2022-12-15T15:15:38.000",
    "date_modified": "2022-12-15T15:15:41.000",
    "request_status": "Pending",
    "responsible_agency": "Department of Sanitation",
    "final_address": "929 Saint Mary St, New Orleans, LA 70130",
    "status": "Assigned to Contractor",
    "rowid": "953640",
    "longitude": "0.0",
    "latitude": "0.0",
    "geocoded_column": {
      "latitude": "0.0",
      "longitude": "0.0"
    }
  },
  {
    "service_request": "2022-953639",
    "request_type": "Traffic Signals/Signs/Striping/Streetlights",
    "request_reason": "Street Light Outage/Malfunction",
    "date_created": "2022-12-15T15:15:30.000",
    "date_modified": "2022-12-15T15:15:31.000",
    "request_status": "Pending",
    "responsible_agency": "Department of Public Works",
    "final_address": "801 Howard Ave",
    "address_councildis": "B",
    "status": "Pending",
    "contractor": "Legacy Professional Services",
    "rowid": "953639",
    "final_x": "3679778.42696",
    "final_y": "527439.528895",
    "longitude": "-90.07364807650731",
    "latitude": "29.94432791517851",
    "geocoded_column": {
      "latitude": "29.94432791517851",
      "longitude": "-90.07364807650731"
    }
  },
  {
    "service_request": "2022-953638",
    "request_type": "Trash/Recycling",
    "request_reason": "Missed Trash Pick-Up",
    "date_created": "2022-12-15T15:14:53.000",
    "date_modified": "2022-12-15T15:14:54.000",
    "request_status": "Pending",
    "responsible_agency": "Department of Sanitation",
    "final_address": "2600 Dryades St",
    "address_councildis": "B",
    "status": "Assigned to Contractor",
    "contractor": "Richards Disposal",
    "rowid": "953638",
    "final_x": "3675814.31163",
    "final_y": "523694.237435",
    "longitude": "-90.08629263099286",
    "latitude": "29.934148827479667",
    "geocoded_column": {
      "latitude": "29.934148827479667",
      "longitude": "-90.08629263099286"
    }
  },
  {
    "service_request": "2022-953637",
    "request_type": "Trash/Recycling",
    "request_reason": "Replace Trash Cart",
    "date_created": "2022-12-15T15:13:46.000",
    "date_modified": "2022-12-15T15:13:47.000",
    "request_status": "Pending",
    "responsible_agency": "Department of Sanitation",
    "final_address": "8728 Green St",
    "address_councildis": "A",
    "status": "Assigned to Contractor",
    "contractor": "Richards Disposal",
    "rowid": "953637",
    "final_x": "3661361.93062",
    "final_y": "531241.164034",
    "longitude": "-90.13166866545957",
    "latitude": "29.95532504969928",
    "geocoded_column": {
      "latitude": "29.95532504969928",
      "longitude": "-90.13166866545957"
    }
  },
  {
    "service_request": "2022-953636",
    "request_type": "Trash/Recycling",
    "request_reason": "Request a Large Item Pick Up",
    "date_created": "2022-12-15T15:11:23.000",
    "date_modified": "2022-12-15T15:11:23.000",
    "request_status": "Pending",
    "responsible_agency": "Department of Sanitation",
    "final_address": "221 Hillary St",
    "address_councildis": "A",
    "status": "Assigned to Contractor",
    "contractor": "Richards Disposal",
    "rowid": "953636",
    "final_x": "3660885.77222",
    "final_y": "524463.991292",
    "longitude": "-90.13339630970391",
    "latitude": "29.93670370657923",
    "geocoded_column": {
      "latitude": "29.93670370657923",
      "longitude": "-90.13339630970391"
    }
  },
  {
    "service_request": "2022-953635",
    "request_type": "Traffic Signals/Signs/Striping/Streetlights",
    "request_reason": "Street Light Outage/Malfunction",
    "date_created": "2022-12-15T15:10:39.000",
    "date_modified": "2022-12-15T15:10:40.000",
    "request_status": "Pending",
    "responsible_agency": "Department of Public Works",
    "final_address": "861 Carondelet St",
    "address_councildis": "B",
    "status": "Pending",
    "contractor": "Legacy Professional Services",
    "rowid": "953635",
    "final_x": "3679840.76789",
    "final_y": "527654.579583",
    "longitude": "-90.07344378279099",
    "latitude": "29.944917348208243",
    "geocoded_column": {
      "latitude": "29.944917348208243",
      "longitude": "-90.07344378279099"
    }
  },
  {
    "service_request": "2022-953634",
    "request_type": "Trash/Recycling",
    "request_reason": "MIssed Recycling Pick-Up",
    "date_created": "2022-12-15T15:09:14.000",
    "date_modified": "2022-12-15T15:09:15.000",
    "request_status": "Pending",
    "responsible_agency": "Department of Sanitation",
    "final_address": "1031 Sixth St",
    "address_councildis": "B",
    "status": "Assigned to Contractor",
    "contractor": "Richards Disposal",
    "rowid": "953634",
    "final_x": "3676713.55835",
    "final_y": "520468.180728",
    "longitude": "-90.0835648216669",
    "latitude": "29.9252512808144",
    "geocoded_column": {
      "latitude": "29.9252512808144",
      "longitude": "-90.0835648216669"
    }
  },
  {
    "service_request": "2022-953633",
    "request_type": "Roads/Drainage",
    "request_reason": "Pothole",
    "date_created": "2022-12-15T15:08:59.000",
    "date_modified": "2022-12-15T15:08:59.000",
    "request_status": "Pending",
    "responsible_agency": "Department of Public Works",
    "final_address": "1917 Sixth St",
    "address_councildis": "B",
    "status": "Pending",
    "rowid": "953633",
    "final_x": "3674837.26619",
    "final_y": "523308.045435",
    "longitude": "-90.08939036870254",
    "latitude": "29.933116127278677",
    "geocoded_column": {
      "latitude": "29.933116127278677",
      "longitude": "-90.08939036870254"
    }
  },
  {
    "service_request": "2022-953632",
    "request_type": "Trash/Recycling",
    "request_reason": "Repair Trash Cart",
    "date_created": "2022-12-15T15:08:51.000",
    "date_modified": "2022-12-15T15:18:47.000",
    "case_close_date": "2022-12-15T09:18:47.000",
    "request_status": "Closed",
    "responsible_agency": "Department of Sanitation",
    "final_address": "7436 Burke Ave",
    "address_councildis": "E",
    "status": "Canceled By Citizen",
    "contractor": "Waste Pro",
    "rowid": "953632",
    "final_x": "3705747.36612",
    "final_y": "562304.314463",
    "longitude": "-89.99036722565523",
    "latitude": "30.0393824626931",
    "geocoded_column": {
      "latitude": "30.0393824626931",
      "longitude": "-89.99036722565523"
    }
  },
  {
    "service_request": "2022-953631",
    "request_type": "Traffic Signals/Signs/Striping/Streetlights",
    "request_reason": "Street Light Outage/Malfunction",
    "date_created": "2022-12-15T15:08:34.000",
    "date_modified": "2022-12-15T15:08:34.000",
    "request_status": "Pending",
    "responsible_agency": "Department of Public Works",
    "final_address": "856 Carondelet St",
    "address_councildis": "B",
    "status": "Pending",
    "contractor": "Legacy Professional Services",
    "rowid": "953631",
    "final_x": "3679907.27554",
    "final_y": "527606.798719",
    "longitude": "-90.07323545690095",
    "latitude": "29.94478395585134",
    "geocoded_column": {
      "latitude": "29.94478395585134",
      "longitude": "-90.07323545690095"
    }
  },
  {
    "service_request": "2022-953630",
    "request_type": "Trash/Recycling",
    "request_reason": "MIssed Recycling Pick-Up",
    "date_created": "2022-12-15T15:08:26.000",
    "date_modified": "2022-12-15T15:08:27.000",
    "request_status": "Pending",
    "responsible_agency": "Department of Sanitation",
    "final_address": "1334 Henry Clay Ave, New Orleans, Louisiana, 70118",
    "address_councildis": "A",
    "status": "Assigned to Contractor",
    "contractor": "Richards Disposal",
    "rowid": "953630",
    "final_x": "3664463.52551",
    "final_y": "521447.226105",
    "longitude": "-90.12220179822322",
    "latitude": "29.928305051290806",
    "geocoded_column": {
      "latitude": "29.928305051290806",
      "longitude": "-90.12220179822322"
    }
  },
  {
    "service_request": "2022-953629",
    "request_type": "Trash/Recycling",
    "request_reason": "MIssed Recycling Pick-Up",
    "date_created": "2022-12-15T15:07:30.000",
    "date_modified": "2022-12-15T15:07:31.000",
    "request_status": "Pending",
    "responsible_agency": "Department of Sanitation",
    "final_address": "2015 Sixth St",
    "address_councildis": "B",
    "status": "Assigned to Contractor",
    "contractor": "Richards Disposal",
    "rowid": "953629",
    "final_x": "3674655.1611",
    "final_y": "523585.780283",
    "longitude": "-90.08995574861271",
    "latitude": "29.933885242539358",
    "geocoded_column": {
      "latitude": "29.933885242539358",
      "longitude": "-90.08995574861271"
    }
  },
  {
    "service_request": "2022-953628",
    "request_type": "Trash/Recycling",
    "request_reason": "Order Recycling Cart",
    "date_created": "2022-12-15T15:07:16.000",
    "date_modified": "2022-12-15T15:07:17.000",
    "request_status": "Pending",
    "responsible_agency": "Department of Sanitation",
    "final_address": "1607 Jourdan Ave",
    "address_councildis": "E",
    "status": "Pending",
    "rowid": "953628",
    "final_x": "3695641.95491",
    "final_y": "536492.245255",
    "longitude": "-90.02323583458019",
    "latitude": "29.968730638632504",
    "geocoded_column": {
      "latitude": "29.968730638632504",
      "longitude": "-90.02323583458019"
    }
  },