[
  {
    "service_request": "2022-880916",
    "request_type": "Health Related Questions",
    "request_reason": "Noise Ordinance Complaint",
    "date_created": "2022-05-07T23:52:43.000",
    "date_modified": "2022-05-07T23:52:43.000",
    "request_status": "Pending",
    "responsible_agency": "Health Department",
    "final_address": "1500 N Claiborne Ave",
    "address_councildis": "C",
    "status": "Pending",
    "rowid": "880916",
    "final_x": "3681846.67516",
    "final_y": "537148.826504",
    "longitude": "-90.0667791844965",
    "latitude": "29.970962498120493",
    "geocoded_column": {
      "latitude": "29.970962498120493",
      "longitude": "-90.0667791844965"
    }
  },
  {
    "service_request": "2022-880915",
    "request_type": "Roads/Drainage",
    "request_reason": "Debris in Roadway",
    "date_created": "2022-05-07T22:18:29.000",
    "date_modified": "2022-05-07T22:18:29.000",
    "request_status": "Pending",
    "responsible_agency": "Department of Public Works",
    "final_address": "2400 Palmer Ave",
    "address_councildis": "A",
    "status": "Pending",
    "rowid": "880915",
    "final_x": "3666291.05741",
    "final_y": "525645.883453",
    "longitude": "-90.11629188180571",
    "latitude": "29.93979678034127",
    "geocoded_column": {
      "latitude": "29.93979678034127",
      "longitude": "-90.11629188180571"
    }
  },
  {
    "service_request": "2022-880914",
    "request_type": "Trash/Recycling",
    "request_reason": "Illegal Dumping",
    "date_created": "2022-05-07T22:06:13.000",
    "date_modified": "2022-05-07T22:06:13.000",
    "request_status": "Pending",
    "responsible_agency": "Department of Sanitation",
    "final_address": "1317 S Salcedo St",
    "address_councildis": "B",
    "status": "Pending",
    "rowid": "880914",
    "final_x": "3670735.83207",
    "final_y": "531422.233219",
    "longitude": "-90.10206309166773",
    "latitude": "29.955549292656972",
    "geocoded_column": {
      "latitude": "29.955549292656972",
      "longitude": "-90.10206309166773"
    }
  },
  {
    "service_request": "2022-880913",
    "request_type": "Traffic Signals/Signs/Striping/Streetlights",
    "request_reason": "Street Light Outage/Malfunction",
    "date_created": "2022-05-07T21:59:06.000",
    "date_modified": "2022-05-07T21:59:07.000",
    "request_status": "Pending",
    "responsible_agency": "Department of Public Works",
    "final_address": "2973 Potomac St",
    "address_councildis": "C",
    "status": "Pending",
    "contractor": "Royal Engineering",
    "rowid": "880913",
    "final_x": "3693310.81072",
    "final_y": "518954.553911",
    "longitude": "-90.03122707525212",
    "latitude": "29.920581120684854",
    "geocoded_column": {
      "latitude": "29.920581120684854",
      "longitude": "-90.03122707525212"
    }
  },
  {
    "service_request": "2022-880912",
    "request_type": "Mosquito, Termite & Rodent Control",
    "request_reason": "Mosquito Complaint",
    "date_created": "2022-05-07T21:56:40.000",
    "date_modified": "2022-05-07T21:56:40.000",
    "request_status": "Pending",
    "responsible_agency": "Mosquito, Termite & Rodent Control Board",
    "final_address": "2400 Palmer Ave",
    "address_councildis": "A",
    "status": "Pending",
    "rowid": "880912",
    "final_x": "3666291.05741",
    "final_y": "525645.883453",
    "longitude": "-90.11629188180571",
    "latitude": "29.93979678034127",
    "geocoded_column": {
      "latitude": "29.93979678034127",
      "longitude": "-90.11629188180571"
    }
  },
  {
    "service_request": "2022-880910",
    "request_type": "Traffic Signals/Signs/Striping/Streetlights",
    "request_reason": "Street Light Outage/Malfunction",
    "date_created": "2022-05-07T21:28:02.000",
    "date_modified": "2022-05-07T21:28:03.000",
    "request_status": "Pending",
    "responsible_agency": "Department of Public Works",
    "final_address": "1432 Chartres St",
    "address_councildis": "C",
    "status": "Pending",
    "contractor": "Royal Engineering",
    "rowid": "880910",
    "final_x": "3684565.83516",
    "final_y": "534395.091845",
    "longitude": "-90.0582885121374",
    "latitude": "29.96330775661264",
    "geocoded_column": {
      "latitude": "29.96330775661264",
      "longitude": "-90.0582885121374"
    }
  },
  {
    "service_request": "2022-880908",
    "request_type": "Trash/Recycling",
    "request_reason": "Missed Trash Pick-Up",
    "date_created": "2022-05-07T21:27:22.000",
    "date_modified": "2022-05-07T21:27:23.000",
    "request_status": "Pending",
    "responsible_agency": "Department of Sanitation",
    "final_address": "4977 Music St",
    "address_councildis": "D",
    "status": "Assigned to Contractor",
    "contractor": "Metro Disposal",
    "rowid": "880908",
    "final_x": "3685610.63426",
    "final_y": "551451.654805",
    "longitude": "-90.05438796574589",
    "latitude": "30.01017524056163",
    "geocoded_column": {
      "latitude": "30.01017524056163",
      "longitude": "-90.05438796574589"
    }
  },
  {
    "service_request": "2022-880907",
    "request_type": "Traffic Signals/Signs/Striping/Streetlights",
    "request_reason": "Street Light Outage/Malfunction",
    "date_created": "2022-05-07T21:23:35.000",
    "date_modified": "2022-05-07T21:23:36.000",
    "request_status": "Pending",
    "responsible_agency": "Department of Public Works",
    "final_address": "3300 Elysian Fields Ave",
    "address_councildis": "D",
    "status": "Pending",
    "contractor": "Royal Engineering",
    "rowid": "880907",
    "final_x": "3684184.66057",
    "final_y": "544817.221583",
    "longitude": "-90.05912622701356",
    "latitude": "29.99197662233376",
    "geocoded_column": {
      "latitude": "29.99197662233376",
      "longitude": "-90.05912622701356"
    }
  },
  {
    "service_request": "2022-880906",
    "request_type": "Traffic Signals/Signs/Striping/Streetlights",
    "request_reason": "Street Light Outage/Malfunction",
    "date_created": "2022-05-07T20:38:17.000",
    "date_modified": "2022-05-07T20:38:43.000",
    "request_status": "Pending",
    "responsible_agency": "Department of Public Works",
    "final_address": "2130 Painters St",
    "address_councildis": "D",
    "status": "Pending",
    "contractor": "Royal Engineering",
    "rowid": "880906",
    "final_x": "3687170.09954",
    "final_y": "540455.593611",
    "longitude": "-90.04985018604899",
    "latitude": "29.979892074611943",
    "geocoded_column": {
      "latitude": "29.979892074611943",
      "longitude": "-90.04985018604899"
    }
  },
  {
    "service_request": "2022-880905",
    "request_type": "Mosquito, Termite & Rodent Control",
    "request_reason": "Non-Rodent Complaint (Mice, Possums, Snakes)",
    "date_created": "2022-05-07T20:22:24.000",
    "date_modified": "2022-05-07T20:22:32.000",
    "request_status": "Pending",
    "responsible_agency": "Mosquito, Termite & Rodent Control Board",
    "final_address": "5936 Babylon St",
    "address_councildis": "D",
    "status": "Pending",
    "rowid": "880905",
    "final_x": "3696065.22045",
    "final_y": "555157.910681",
    "longitude": "-90.02122413648092",
    "latitude": "30.02004105232945",
    "geocoded_column": {
      "latitude": "30.02004105232945",
      "longitude": "-90.02122413648092"
    }
  },
  {
    "service_request": "2022-880904",
    "request_type": "Trash/Recycling",
    "request_reason": "Missed Trash Pick-Up",
    "date_created": "2022-05-07T20:17:44.000",
    "date_modified": "2022-05-07T20:17:45.000",
    "request_status": "Pending",
    "responsible_agency": "Department of Sanitation",
    "final_address": "8134 Belfast St",
    "address_councildis": "A",
    "status": "Assigned to Contractor",
    "contractor": "Richards Disposal",
    "rowid": "880904",
    "final_x": "3665339.83482",
    "final_y": "532475.577988",
    "longitude": "-90.11906654014317",
    "latitude": "29.958603977710823",
    "geocoded_column": {
      "latitude": "29.958603977710823",
      "longitude": "-90.11906654014317"
    }
  },
  {
    "service_request": "2022-880903",
    "request_type": "Trash/Recycling",
    "request_reason": "Missed Trash Pick-Up",
    "date_created": "2022-05-07T20:16:19.000",
    "date_modified": "2022-05-07T20:16:20.000",
    "request_status": "Pending",
    "responsible_agency": "Department of Sanitation",
    "final_address": "8324 Belfast St",
    "address_councildis": "A",
    "status": "Assigned to Contractor",
    "contractor": "Richards Disposal",
    "rowid": "880903",
    "final_x": "3664896.42733",
    "final_y": "532949.099396",
    "longitude": "-90.12045088343926",
    "latitude": "29.959918919634397",
    "geocoded_column": {
      "latitude": "29.959918919634397",
      "longitude": "-90.12045088343926"
    }
  },
  {
    "service_request": "2022-880902",
    "request_type": "Trash/Recycling",
    "request_reason": "Dead Animal Pick Up",
    "date_created": "2022-05-07T20:14:21.000",
    "date_modified": "2022-05-07T20:14:22.000",
    "request_status": "Pending",
    "responsible_agency": "Department of Sanitation",
    "final_address": "1936 Moss St",
    "address_councildis": "D",
    "status": "Assigned to Contractor",
    "contractor": "Metro Disposal",
    "rowid": "880902",
    "final_x": "3675509.39656",
    "final_y": "544011.373902",
    "longitude": "-90.08655733256766",
    "latitude": "29.99002323188243",
    "geocoded_column": {
      "latitude": "29.99002323188243",
      "longitude": "-90.08655733256766"
    }
  },
  {
    "service_request": "2022-880901",
    "request_type": "Trash/Recycling",
    "request_reason": "Missed Trash Pick-Up",
    "date_created": "2022-05-07T20:07:36.000",
    "date_modified": "2022-05-07T20:08:58.000",
    "request_status": "Pending",
    "responsible_agency": "Department of Sanitation",
    "final_address": "8701 Pritchard Pl",
    "address_councildis": "A",
    "status": "Assigned to Contractor",
    "contractor": "Richards Disposal",
    "rowid": "880901",
    "final_x": "3664491.29236",
    "final_y": "534366.411589",
    "longitude": "-90.1216828899228",
    "latitude": "29.963827849252564",
    "geocoded_column": {
      "latitude": "29.963827849252564",
      "longitude": "-90.1216828899228"
    }
  },
  {
    "service_request": "2022-880900",
    "request_type": "Roads/Drainage",
    "request_reason": "Pothole",
    "date_created": "2022-05-07T19:49:17.000",
    "date_modified": "2022-05-07T19:49:17.000",
    "request_status": "Pending",
    "responsible_agency": "Department of Public Works",
    "final_address": "2721 Baronne St",
    "address_councildis": "B",
    "status": "Pending",
    "rowid": "880900",
    "final_x": "3675597.2187",
    "final_y": "523240.372667",
    "longitude": "-90.08699357150044",
    "latitude": "29.93290734208012",
    "geocoded_column": {
      "latitude": "29.93290734208012",
      "longitude": "-90.08699357150044"
    }
  },
  {
    "service_request": "2022-880899",
    "request_type": "Traffic Signals/Signs/Striping/Streetlights",
    "request_reason": "Street Light Outage/Malfunction",
    "date_created": "2022-05-07T19:45:18.000",
    "date_modified": "2022-05-07T19:45:19.000",
    "request_status": "Pending",
    "responsible_agency": "Department of Public Works",
    "final_address": "4000 State Street Dr, New Orleans, Louisiana, 70125",
    "status": "Pending",
    "contractor": "Royal Engineering",
    "rowid": "880899",
    "longitude": "0.0",
    "latitude": "0.0",
    "geocoded_column": {
      "latitude": "0.0",
      "longitude": "0.0"
    }
  },
  {
    "service_request": "2022-880898",
    "request_type": "Traffic Signals/Signs/Striping/Streetlights",
    "request_reason": "Street Name Sign Damaged or Missing",
    "date_created": "2022-05-07T19:36:48.000",
    "date_modified": "2022-05-07T19:36:48.000",
    "request_status": "Pending",
    "responsible_agency": "Department of Public Works",
    "final_address": "7849 Read Blvd Apt 12",
    "address_councildis": "E",
    "status": "Pending",
    "rowid": "880898",
    "final_x": "3708429.38795",
    "final_y": "565267.44797",
    "longitude": "-89.98178086429685",
    "latitude": "30.047443191521047",
    "geocoded_column": {
      "latitude": "30.047443191521047",
      "longitude": "-89.98178086429685"
    }
  },
  {
    "service_request": "2022-880897",
    "request_type": "Abandoned Vehicles",
    "request_reason": "Abandoned/Junk Vehicles",
    "date_created": "2022-05-07T18:58:32.000",
    "date_modified": "2022-05-07T18:58:33.000",
    "request_status": "Pending",
    "responsible_agency": "Department of Public Works",
    "final_address": "PAPANIA DR & VIENNA ST",
    "address_councildis": "E",
    "status": "Pending",
    "rowid": "880897",
    "final_x": "3715470.3",
    "final_y": "557989.68",
    "longitude": "-89.95980367439643",
    "latitude": "30.02720202744033",
    "geocoded_column": {
      "latitude": "30.02720202744033",
      "longitude": "-89.95980367439643"
    }
  },
  {
    "service_request": "2022-880895",
    "request_type": "Trash/Recycling",
    "request_reason": "Missed Trash Pick-Up",
    "date_created": "2022-05-07T18:45:27.000",
    "date_modified": "2022-05-07T18:45:27.000",
    "request_status": "Pending",
    "responsible_agency": "Department of Sanitation",
    "final_address": "1615 Hollygrove St",
    "address_councildis": "A",
    "status": "Assigned to Contractor",
    "contractor": "Richards Disposal",
    "rowid": "880895",
    "final_x": "3660676.13638",
    "final_y": "531619.127875",
    "longitude": "-90.13382167110738",
    "latitude": "29.95638408640494",
    "geocoded_column": {
      "latitude": "29.95638408640494",
      "longitude": "-90.13382167110738"
    }
  },
  {
    "service_request": "2022-880894",
    "request_type": "Trash/Recycling",
    "request_reason": "Illegal Dumping",
    "date_created": "2022-05-07T18:44:31.000",
    "date_modified": "2022-05-07T18:44:31.000",
    "request_status": "Pending",
    "responsible_agency": "Department of Sanitation",
    "final_address": "834 N Robertson St",
    "address_councildis": "C",
    "status": "Pending",
    "rowid": "880894",
    "final_x": "3680494.12987",
    "final_y": "534874.21287",
    "longitude": "-90.0711298261434",
    "latitude": "29.964749129945513",
    "geocoded_column": {
      "latitude": "29.964749129945513",
      "longitude": "-90.0711298261434"
    }
  },
  {
    "service_request": "2022-880893",
    "request_type": "Roads/Drainage",
    "request_reason": "Pothole",
    "date_created": "2022-05-07T18:39:53.000",
    "date_modified": "2022-05-07T18:39:53.000",
    "request_status": "Pending",
    "responsible_agency": "Department of Public Works",
    "final_address": "811 Fulton St",
    "address_councildis": "B",
    "status": "Pending",
    "rowid": "880893",
    "final_x": "3682392.28559",
    "final_y": "527425.402815",
    "longitude": "-90.06539587723668",
    "latitude": "29.94420980110965",
    "geocoded_column": {
      "latitude": "29.94420980110965",
      "longitude": "-90.06539587723668"
    }
  },
  {
    "service_request": "2022-880892",
    "request_type": "Roads/Drainage",
    "request_reason": "Pothole",
    "date_created": "2022-05-07T18:39:51.000",
    "date_modified": "2022-05-07T18:39:51.000",
    "request_status": "Pending",
    "responsible_agency": "Department of Public Works",
    "final_address": "811 Fulton St",
    "address_councildis": "B",
    "status": "Pending",
    "rowid": "880892",
    "final_x": "3682392.28559",
    "final_y": "527425.402815",
    "longitude": "-90.06539587723668",
    "latitude": "29.94420980110965",
    "geocoded_column": {
      "latitude": "29.94420980110965",
      "longitude": "-90.06539587723668"
    }
  },
  {
    "service_request": "2022-880891",
    "request_type": "Traffic Signals/Signs/Striping/Streetlights",
    "request_reason": "Traffic Sign Missing/Damaged",
    "date_created": "2022-05-07T18:18:41.000",
    "date_modified": "2022-05-07T18:18:41.000",
    "request_status": "Pending",
    "responsible_agency": "Department of Public Works",
    "final_address": "6900 Downman Rd",
    "address_councildis": "D",
    "status": "Pending",
    "rowid": "880891",
    "final_x": "3695300.06608",
    "final_y": "556167.19561",
    "longitude": "-90.0236053187468",
    "latitude": "30.022840274037925",
    "geocoded_column": {
      "latitude": "30.022840274037925",
      "longitude": "-90.0236053187468"
    }
  },
  {
    "service_request": "2022-880890",
    "request_type": "Trash/Recycling",
    "request_reason": "Request a Large Item Pick Up",
    "date_created": "2022-05-07T18:06:16.000",
    "date_modified": "2022-05-07T18:06:16.000",
    "request_status": "Pending",
    "responsible_agency": "Department of Sanitation",
    "final_address": "1828 N Villere St",
    "address_councildis": "C",
    "status": "Assigned to Contractor",
    "contractor": "Metro Disposal",
    "rowid": "880890",
    "final_x": "3683656.7277",
    "final_y": "537224.960712",
    "longitude": "-90.06106014244102",
    "latitude": "29.971116703150354",
    "geocoded_column": {
      "latitude": "29.971116703150354",
      "longitude": "-90.06106014244102"
    }
  },
  {
    "service_request": "2022-880889",
    "request_type": "Trash/Recycling",
    "request_reason": "Request a Large Item Pick Up",
    "date_created": "2022-05-07T18:02:51.000",
    "date_modified": "2022-05-07T18:02:52.000",
    "request_status": "Pending",
    "responsible_agency": "Department of Sanitation",
    "final_address": "6735 E Hermes St",
    "address_councildis": "D",
    "status": "Assigned to Contractor",
    "contractor": "Metro Disposal",
    "rowid": "880889",
    "final_x": "3697714.32471",
    "final_y": "556425.274586",
    "longitude": "-90.0159674797979",
    "latitude": "30.02347379411678",
    "geocoded_column": {
      "latitude": "30.02347379411678",
      "longitude": "-90.0159674797979"
    }
  },
  {
    "service_request": "2022-880888",
    "request_type": "Trash/Recycling",
    "request_reason": "Missed Trash Pick-Up",
    "date_created": "2022-05-07T18:02:47.000",
    "date_modified": "2022-05-07T18:02:48.000",
    "request_status": "Pending",
    "responsible_agency": "Department of Sanitation",
    "final_address": "508 Millaudon St",
    "address_councildis": "A",
    "status": "Assigned to Contractor",
    "contractor": "Richards Disposal",
    "rowid": "880888",
    "final_x": "3662156.72192",
    "final_y": "525044.984253",
    "longitude": "-90.12936457079851",
    "latitude": "29.93826459526661",
    "geocoded_column": {
      "latitude": "29.93826459526661",
      "longitude": "-90.12936457079851"
    }
  },
  {
    "service_request": "2022-880887",
    "request_type": "Property Maintenance",
    "request_reason": "Property Maintenance",
    "date_created": "2022-05-07T17:52:38.000",
    "date_modified": "2022-05-07T17:53:45.000",
    "request_status": "Pending",
    "responsible_agency": "Department of Code Enforcement",
    "final_address": "815 North Robertson Street",
    "address_councildis": "C",
    "rowid": "880887",
    "final_x": "3680338.48917",
    "final_y": "534768.225094",
    "longitude": "-90.07162501430808",
    "latitude": "29.964462413044657",
    "geocoded_column": {
      "latitude": "29.964462413044657",
      "longitude": "-90.07162501430808"
    }
  },
  {
    "service_request": "2022-880886",
    "request_type": "Roads/Drainage",
    "request_reason": "Accessibility Ramps, Curbs and Sidewalk Repair",
    "date_created": "2022-05-07T17:07:15.000",
    "date_modified": "2022-05-07T17:07:15.000",
    "request_status": "Pending",
    "responsible_agency": "Department of Public Works",
    "final_address": "3200 Perdido St",
    "address_councildis": "B",
    "status": "Pending",
    "rowid": "880886",
    "final_x": "3671845.62766",
    "final_y": "533831.743621",
    "longitude": "-90.09847675281833",
    "latitude": "29.962141807918712",
    "geocoded_column": {
      "latitude": "29.962141807918712",
      "longitude": "-90.09847675281833"
    }
  },
  {
    "service_request": "2022-880885",
    "request_type": "Trash/Recycling",
    "request_reason": "Missed Trash Pick-Up",
    "date_created": "2022-05-07T16:56:28.000",
    "date_modified": "2022-05-07T16:56:29.000",
    "request_status": "Pending",
    "responsible_agency": "Department of Sanitation",
    "final_address": "2112 Cambronne St",
    "address_councildis": "A",
    "status": "Assigned to Contractor",
    "contractor": "Richards Disposal",
    "rowid": "880885",
    "final_x": "3663347.13248",
    "final_y": "531554.876867",
    "longitude": "-90.12538965128606",
    "latitude": "29.956130263088088",
    "geocoded_column": {
      "latitude": "29.956130263088088",
      "longitude": "-90.12538965128606"
    }
  },
  {
    "service_request": "2022-880884",
    "request_type": "Trash/Recycling",
    "request_reason": "Order Trash Cart",
    "date_created": "2022-05-07T16:51:05.000",
    "date_modified": "2022-05-07T16:51:05.000",
    "request_status": "Pending",
    "responsible_agency": "Department of Sanitation",
    "final_address": "1715 Feliciana St",
    "address_councildis": "D",
    "status": "Assigned to Contractor",
    "contractor": "Metro Disposal",
    "rowid": "880884",
    "final_x": "3689355.52521",
    "final_y": "538403.363337",
    "longitude": "-90.04302072308025",
    "latitude": "29.974181677183395",
    "geocoded_column": {
      "latitude": "29.974181677183395",
      "longitude": "-90.04302072308025"
    }
  },
  {
    "service_request": "2022-880883",
    "request_type": "Trash/Recycling",
    "request_reason": "Missed Trash Pick-Up",
    "date_created": "2022-05-07T16:39:16.000",
    "date_modified": "2022-05-07T16:40:09.000",
    "request_status": "Pending",
    "responsible_agency": "Department of Sanitation",
    "final_address": "New Orleans,LA",
    "address_councildis": "E",
    "status": "Assigned to Contractor",
    "contractor": "Metro Disposal",
    "rowid": "880883",
    "final_x": "3695676.20579",
    "final_y": "532720.641476",
    "longitude": "-90.02326384958405",
    "latitude": "29.9583589875805",
    "geocoded_column": {
      "latitude": "29.9583589875805",
      "longitude": "-90.02326384958405"
    }
  },
  {
    "service_request": "2022-880881",
    "request_type": "Trash/Recycling",
    "request_reason": "Missed Trash Pick-Up",
    "date_created": "2022-05-07T16:23:16.000",
    "date_modified": "2022-05-07T16:23:17.000",
    "request_status": "Pending",
    "responsible_agency": "Department of Sanitation",
    "final_address": "620 N Murat St",
    "address_councildis": "A",
    "status": "Assigned to Contractor",
    "contractor": "Richards Disposal",
    "rowid": "880881",
    "final_x": "3670946.77614",
    "final_y": "540965.483083",
    "longitude": "-90.10107293502566",
    "latitude": "29.981783793556936",
    "geocoded_column": {
      "latitude": "29.981783793556936",
      "longitude": "-90.10107293502566"
    }
  },
  {
    "service_request": "2022-880880",
    "request_type": "Trash/Recycling",
    "request_reason": "Illegal Dumping",
    "date_created": "2022-05-07T16:18:35.000",
    "date_modified": "2022-05-07T16:18:35.000",
    "request_status": "Pending",
    "responsible_agency": "Department of Sanitation",
    "final_address": "726 Upperline St",
    "address_councildis": "B",
    "status": "Pending",
    "rowid": "880880",
    "final_x": "3668862.63412",
    "final_y": "518044.35519",
    "longitude": "-90.10842957133552",
    "latitude": "29.918819647747018",
    "geocoded_column": {
      "latitude": "29.918819647747018",
      "longitude": "-90.10842957133552"
    }
  },
  {
    "service_request": "2022-880879",
    "request_type": "Trash/Recycling",
    "request_reason": "Illegal Dumping",
    "date_created": "2022-05-07T16:16:48.000",
    "date_modified": "2022-05-07T16:16:48.000",
    "request_status": "Pending",
    "responsible_agency": "Department of Sanitation",
    "final_address": "4909 Laurel St",
    "address_councildis": "B",
    "status": "Pending",
    "rowid": "880879",
    "final_x": "3668874.12193",
    "final_y": "517874.61023",
    "longitude": "-90.1083990379978",
    "latitude": "29.918352564918184",
    "geocoded_column": {
      "latitude": "29.918352564918184",
      "longitude": "-90.1083990379978"
    }
  },
  {
    "service_request": "2022-880878",
    "request_type": "Trash/Recycling",
    "request_reason": "Missed Trash Pick-Up",
    "date_created": "2022-05-07T16:16:24.000",
    "date_modified": "2022-05-07T16:17:16.000",
    "request_status": "Pending",
    "responsible_agency": "Department of Sanitation",
    "final_address": "New Orleans,LA",
    "address_councildis": "A",
    "status": "Assigned to Contractor",
    "contractor": "Richards Disposal",
    "rowid": "880878",
    "final_x": "3669997.4687",
    "final_y": "540393.019395",
    "longitude": "-90.10409070136359",
    "latitude": "29.980237750056244",
    "geocoded_column": {
      "latitude": "29.980237750056244",
      "longitude": "-90.10409070136359"
    }
  },
  {
    "service_request": "2022-880877",
    "request_type": "Property Maintenance",
    "request_reason": "Property Maintenance",
    "date_created": "2022-05-07T16:16:17.000",
    "date_modified": "2022-05-07T16:16:17.000",
    "request_status": "Pending",
    "responsible_agency": "Department of Code Enforcement",
    "final_address": "4537 Mark Twain Dr",
    "address_councildis": "D",
    "status": "Pending",
    "rowid": "880877",
    "final_x": "3691559.28899",
    "final_y": "550963.099221",
    "longitude": "-90.03561151114029",
    "latitude": "30.008647984865522",
    "geocoded_column": {
      "latitude": "30.008647984865522",
      "longitude": "-90.03561151114029"
    }
  },
  {
    "service_request": "2022-880875",
    "request_type": "Roads/Drainage",
    "request_reason": "Damaged Sidewalk",
    "date_created": "2022-05-07T16:07:27.000",
    "date_modified": "2022-05-07T16:07:27.000",
    "request_status": "Pending",
    "responsible_agency": "Department of Public Works",
    "final_address": "400 Lafayette St",
    "address_councildis": "B",
    "status": "Pending",
    "rowid": "880875",
    "final_x": "3681498.65909",
    "final_y": "528666.656768",
    "longitude": "-90.06817403606365",
    "latitude": "29.947649992871007",
    "geocoded_column": {
      "latitude": "29.947649992871007",
      "longitude": "-90.06817403606365"
    }
  },
  {
    "service_request": "2022-880874",
    "request_type": "Trash/Recycling",
    "request_reason": "MIssed Recycling Pick-Up",
    "date_created": "2022-05-07T15:58:43.000",
    "date_modified": "2022-05-07T15:58:44.000",
    "request_status": "Pending",
    "responsible_agency": "Department of Sanitation",
    "final_address": "9003 Fig St",
    "address_councildis": "A",
    "status": "Assigned to Contractor",
    "contractor": "Richards Disposal",
    "rowid": "880874",
    "final_x": "3663942.18503",
    "final_y": "535339.756102",
    "longitude": "-90.12338446872319",
    "latitude": "29.96652018130879",
    "geocoded_column": {
      "latitude": "29.96652018130879",
      "longitude": "-90.12338446872319"
    }
  },
  {
    "service_request": "2022-880873",
    "request_type": "Trash/Recycling",
    "request_reason": "Replace Trash Cart",
    "date_created": "2022-05-07T15:47:04.000",
    "date_modified": "2022-05-07T15:47:05.000",
    "request_status": "Pending",
    "responsible_agency": "Department of Sanitation",
    "final_address": "323 S Genois St",
    "address_councildis": "B",
    "status": "Assigned to Contractor",
    "contractor": "Richards Disposal",
    "rowid": "880873",
    "final_x": "3671917.72193",
    "final_y": "536445.565511",
    "longitude": "-90.09816011369082",
    "latitude": "29.969326805607377",
    "geocoded_column": {
      "latitude": "29.969326805607377",
      "longitude": "-90.09816011369082"
    }
  },
  {
    "service_request": "2022-880872",
    "request_type": "Roads/Drainage",
    "request_reason": "Accessibility Ramps, Curbs and Sidewalk Repair",
    "date_created": "2022-05-07T15:40:20.000",
    "date_modified": "2022-05-07T15:40:20.000",
    "request_status": "Pending",
    "responsible_agency": "Department of Public Works",
    "final_address": "600 Canal St",
    "address_councildis": "B",
    "status": "Pending",
    "rowid": "880872",
    "final_x": "3681390.76431",
    "final_y": "530409.599746",
    "longitude": "-90.06845395328503",
    "latitude": "29.952445774072807",
    "geocoded_column": {
      "latitude": "29.952445774072807",
      "longitude": "-90.06845395328503"
    }
  },
  {
    "service_request": "2022-880871",
    "request_type": "Traffic Signals/Signs/Striping/Streetlights",
    "request_reason": "Striping/Road Surface Markings",
    "date_created": "2022-05-07T15:39:08.000",
    "date_modified": "2022-05-07T15:39:08.000",
    "request_status": "Pending",
    "responsible_agency": "Department of Public Works",
    "final_address": "600 Canal St Apt 206",
    "address_councildis": "B",
    "status": "Pending",
    "rowid": "880871",
    "final_x": "3681376.81256",
    "final_y": "530396.617794",
    "longitude": "-90.06849845899166",
    "latitude": "29.9524105015631",
    "geocoded_column": {
      "latitude": "29.9524105015631",
      "longitude": "-90.06849845899166"
    }
  },
  {
    "service_request": "2022-880870",
    "request_type": "Roads/Drainage",
    "request_reason": "Pothole",
    "date_created": "2022-05-07T15:37:55.000",
    "date_modified": "2022-05-07T15:37:55.000",
    "request_status": "Pending",
    "responsible_agency": "Department of Public Works",
    "final_address": "3030 St Anthony Ave",
    "address_councildis": "D",
    "status": "Pending",
    "rowid": "880870",
    "final_x": "3682771.72866",
    "final_y": "543752.007182",
    "longitude": "-90.06362666919985",
    "latitude": "29.989090787278116",
    "geocoded_column": {
      "latitude": "29.989090787278116",
      "longitude": "-90.06362666919985"
    }
  },
  {
    "service_request": "2022-880869",
    "request_type": "Roads/Drainage",
    "request_reason": "Pothole",
    "date_created": "2022-05-07T15:37:55.000",
    "date_modified": "2022-05-07T15:37:55.000",
    "request_status": "Pending",
    "responsible_agency": "Department of Public Works",
    "final_address": "3030 St Anthony Ave",
    "address_councildis": "D",
    "status": "Pending",
    "rowid": "880869",
    "final_x": "3682771.72866",
    "final_y": "543752.007182",
    "longitude": "-90.06362666919985",
    "latitude": "29.989090787278116",
    "geocoded_column": {
      "latitude": "29.989090787278116",
      "longitude": "-90.06362666919985"
    }
  },
  {
    "service_request": "2022-880868",
    "request_type": "Property Maintenance",
    "request_reason": "Property Maintenance",
    "date_created": "2022-05-07T15:35:51.000",
    "date_modified": "2022-05-07T15:35:51.000",
    "request_status": "Pending",
    "responsible_agency": "Department of Code Enforcement",
    "final_address": "3030 St Anthony Ave",
    "address_councildis": "D",
    "status": "Pending",
    "rowid": "880868",
    "final_x": "3682771.72866",
    "final_y": "543752.007182",
    "longitude": "-90.06362666919985",
    "latitude": "29.989090787278116",
    "geocoded_column": {
      "latitude": "29.989090787278116",
      "longitude": "-90.06362666919985"
    }
  },
  {
    "service_request": "2022-880867",
    "request_type": "Trash/Recycling",
    "request_reason": "Missed Trash Pick-Up",
    "date_created": "2022-05-07T15:24:27.000",
    "date_modified": "2022-05-07T15:24:28.000",
    "request_status": "Pending",
    "responsible_agency": "Department of Sanitation",
    "final_address": "6554 Oakland Dr",
    "address_councildis": "A",
    "status": "Assigned to Contractor",
    "contractor": "Richards Disposal",
    "rowid": "880867",
    "final_x": "3666570.83668",
    "final_y": "540400.276683",
    "longitude": "-90.11491325164026",
    "latitude": "29.98035833880614",
    "geocoded_column": {
      "latitude": "29.98035833880614",
      "longitude": "-90.11491325164026"
    }
  },
  {
    "service_request": "2022-880866",
    "request_type": "Safety & Permits",
    "request_reason": "Licenses & Permits",
    "date_created": "2022-05-07T15:22:00.000",
    "date_modified": "2022-05-07T15:22:00.000",
    "request_status": "Pending",
    "responsible_agency": "Safety and Permits",
    "status": "Pending",
    "rowid": "880866",
    "longitude": "0.0",
    "latitude": "0.0",
    "geocoded_column": {
      "latitude": "0.0",
      "longitude": "0.0"
    }
  },
  {
    "service_request": "2022-880865",
    "request_type": "Trash/Recycling",
    "request_reason": "Request a Large Item Pick Up",
    "date_created": "2022-05-07T15:18:29.000",
    "date_modified": "2022-05-07T15:18:30.000",
    "request_status": "Pending",
    "responsible_agency": "Department of Sanitation",
    "final_address": "931 Kerlerec St, New Orleans, Louisiana, 70116",
    "address_councildis": "C",
    "status": "Assigned to Contractor",
    "contractor": "Metro Disposal",
    "rowid": "880865",
    "final_x": "3683542.29711",
    "final_y": "535285.041158",
    "longitude": "-90.06148953145365",
    "latitude": "29.96578608839588",
    "geocoded_column": {
      "latitude": "29.96578608839588",
      "longitude": "-90.06148953145365"
    }
  },
  {
    "service_request": "2022-880864",
    "request_type": "Trash/Recycling",
    "request_reason": "Missed Trash Pick-Up",
    "date_created": "2022-05-07T15:18:21.000",
    "date_modified": "2022-05-07T15:18:22.000",
    "request_status": "Pending",
    "responsible_agency": "Department of Sanitation",
    "final_address": "134 N Alexander St",
    "address_councildis": "A",
    "status": "Assigned to Contractor",
    "contractor": "Richards Disposal",
    "rowid": "880864",
    "final_x": "3670253.93831",
    "final_y": "539432.27457",
    "longitude": "-90.10331323336244",
    "latitude": "29.97758845966334",
    "geocoded_column": {
      "latitude": "29.97758845966334",
      "longitude": "-90.10331323336244"
    }
  },
  {
    "service_request": "2022-880863",
    "request_type": "Trash/Recycling",
    "request_reason": "Missed Trash Pick-Up",
    "date_created": "2022-05-07T15:15:48.000",
    "date_modified": "2022-05-07T15:15:48.000",
    "request_status": "Pending",
    "responsible_agency": "Department of Sanitation",
    "final_address": "4730 Pontchartrain Blvd",
    "address_councildis": "A",
    "status": "Assigned to Contractor",
    "contractor": "Richards Disposal",
    "rowid": "880863",
    "final_x": "3667497.33172",
    "final_y": "538483.786121",
    "longitude": "-90.11205149100157",
    "latitude": "29.975061512618705",
    "geocoded_column": {
      "latitude": "29.975061512618705",
      "longitude": "-90.11205149100157"
    }
  },
  {
    "service_request": "2022-880862",
    "request_type": "Trash/Recycling",
    "request_reason": "Replace Trash Cart",
    "date_created": "2022-05-07T15:14:59.000",
    "date_modified": "2022-05-07T15:15:00.000",
    "request_status": "Pending",
    "responsible_agency": "Department of Sanitation",
    "final_address": "1529 Dublin St",
    "address_councildis": "A",
    "status": "Assigned to Contractor",
    "contractor": "Richards Disposal",
    "rowid": "880862",
    "final_x": "3662604.53434",
    "final_y": "529538.818305",
    "longitude": "-90.12780151196084",
    "latitude": "29.950608257665813",
    "geocoded_column": {
      "latitude": "29.950608257665813",
      "longitude": "-90.12780151196084"
    }
  },
  {
    "service_request": "2022-880861",
    "request_type": "Roads/Drainage",
    "request_reason": "Pothole",
    "date_created": "2022-05-07T15:07:12.000",
    "date_modified": "2022-05-07T15:07:12.000",
    "request_status": "Pending",
    "responsible_agency": "Department of Public Works",
    "final_address": "4031 Hollygrove St",
    "address_councildis": "A",
    "status": "Pending",
    "rowid": "880861",
    "final_x": "3666507.59777",
    "final_y": "538034.632009",
    "longitude": "-90.11519241963721",
    "latitude": "29.973855457869274",
    "geocoded_column": {
      "latitude": "29.973855457869274",
      "longitude": "-90.11519241963721"
    }
  },
  {
    "service_request": "2022-880860",
    "request_type": "Property Maintenance",
    "request_reason": "Property Maintenance",
    "date_created": "2022-05-07T15:06:37.000",
    "date_modified": "2022-05-07T15:06:37.000",
    "request_status": "Pending",
    "responsible_agency": "Department of Code Enforcement",
    "final_address": "644 Camp St",
    "address_councildis": "B",
    "status": "Pending",
    "rowid": "880860",
    "final_x": "3680954.02901",
    "final_y": "528465.708032",
    "longitude": "-90.06990064150143",
    "latitude": "29.947113974972734",
    "geocoded_column": {
      "latitude": "29.947113974972734",
      "longitude": "-90.06990064150143"
    }
  },
  {
    "service_request": "2022-880859",
    "request_type": "Property Maintenance",
    "request_reason": "Property Maintenance",
    "date_created": "2022-05-07T15:04:01.000",
    "date_modified": "2022-05-07T15:04:02.000",
    "request_status": "Pending",
    "responsible_agency": "Department of Code Enforcement",
    "final_address": "3050 N Miro St",
    "address_councildis": "D",
    "status": "Pending",
    "rowid": "880859",
    "final_x": "3689851.97411",
    "final_y": "540150.067211",
    "longitude": "-90.04139062899957",
    "latitude": "29.978969112704686",
    "geocoded_column": {
      "latitude": "29.978969112704686",
      "longitude": "-90.04139062899957"
    }
  },
  {
    "service_request": "2022-880858",
    "request_type": "Traffic Signals/Signs/Striping/Streetlights",
    "request_reason": "Street Light Outage/Malfunction",
    "date_created": "2022-05-07T15:01:05.000",
    "date_modified": "2022-05-07T15:01:06.000",
    "request_status": "Pending",
    "responsible_agency": "Department of Public Works",
    "final_address": "4031 Hollygrove St",
    "address_councildis": "A",
    "status": "Pending",
    "contractor": "Royal Engineering",
    "rowid": "880858",
    "final_x": "3666507.59777",
    "final_y": "538034.632009",
    "longitude": "-90.11519241963721",
    "latitude": "29.973855457869274",
    "geocoded_column": {
      "latitude": "29.973855457869274",
      "longitude": "-90.11519241963721"
    }
  },
  {
    "service_request": "2022-880857",
    "request_type": "Property Maintenance",
    "request_reason": "Property Maintenance",
    "date_created": "2022-05-07T14:59:29.000",
    "date_modified": "2022-05-07T14:59:29.000",
    "request_status": "Pending",
    "responsible_agency": "Department of Code Enforcement",
    "final_address": "801 Girod St",
    "address_councildis": "B",
    "status": "Pending",
    "rowid": "880857",
    "final_x": "3680051.05787",
    "final_y": "528702.695936",
    "longitude": "-90.07274342708176",
    "latitude": "29.947792958209924",
    "geocoded_column": {
      "latitude": "29.947792958209924",
      "longitude": "-90.07274342708176"
    }
  },
  {
    "service_request": "2022-880856",
    "request_type": "Roads/Drainage",
    "request_reason": "Debris in Roadway",
    "date_created": "2022-05-07T14:56:19.000",
    "date_modified": "2022-05-07T14:56:19.000",
    "request_status": "Pending",
    "responsible_agency": "Department of Public Works",
    "final_address": "4031 Hollygrove St",
    "address_councildis": "A",
    "status": "Pending",
    "rowid": "880856",
    "final_x": "3666507.59777",
    "final_y": "538034.632009",
    "longitude": "-90.11519241963721",
    "latitude": "29.973855457869274",
    "geocoded_column": {
      "latitude": "29.973855457869274",
      "longitude": "-90.11519241963721"
    }
  },
  {
    "service_request": "2022-880855",
    "request_type": "Roads/Drainage",
    "request_reason": "Debris in Roadway",
    "date_created": "2022-05-07T14:53:04.000",
    "date_modified": "2022-05-07T14:53:04.000",
    "request_status": "Pending",
    "responsible_agency": "Department of Public Works",
    "final_address": "5174 Spain St",
    "address_councildis": "D",
    "status": "Pending",
    "rowid": "880855",
    "final_x": "3684821.5606",
    "final_y": "551914.917398",
    "longitude": "-90.05686463316141",
    "latitude": "30.011473237330218",
    "geocoded_column": {
      "latitude": "30.011473237330218",
      "longitude": "-90.05686463316141"
    }
  },
  {
    "service_request": "2022-880854",
    "request_type": "Trash/Recycling",
    "request_reason": "Missed Trash Pick-Up",
    "date_created": "2022-05-07T14:52:11.000",
    "date_modified": "2022-05-07T14:52:12.000",
    "request_status": "Pending",
    "responsible_agency": "Department of Sanitation",
    "final_address": "4911 Brittany Ct",
    "address_councildis": "E",
    "status": "Assigned to Contractor",
    "contractor": "Metro Disposal",
    "rowid": "880854",
    "final_x": "3726980.34189",
    "final_y": "561911.762527",
    "longitude": "-89.92328102050236",
    "latitude": "30.037601748145665",
    "geocoded_column": {
      "latitude": "30.037601748145665",
      "longitude": "-89.92328102050236"
    }
  },
  {
    "service_request": "2022-880853",
    "request_type": "Abandoned Vehicles",
    "request_reason": "Vehicle Blocking Your Driveway",
    "date_created": "2022-05-07T14:45:21.000",
    "date_modified": "2022-05-07T14:45:21.000",
    "request_status": "Pending",
    "responsible_agency": "Department of Public Works",
    "final_address": "3022 Toledano St",
    "address_councildis": "B",
    "status": "Pending",
    "rowid": "880853",
    "final_x": "3672285.11495",
    "final_y": "526913.979838",
    "longitude": "-90.09732455810125",
    "latitude": "29.943107212429492",
    "geocoded_column": {
      "latitude": "29.943107212429492",
      "longitude": "-90.09732455810125"
    }
  },
  {
    "service_request": "2022-880852",
    "request_type": "Trash/Recycling",
    "request_reason": "MIssed Recycling Pick-Up",
    "date_created": "2022-05-07T14:42:52.000",
    "date_modified": "2022-05-07T14:42:52.000",
    "request_status": "Pending",
    "responsible_agency": "Department of Sanitation",
    "final_address": "2724 Octavia St",
    "address_councildis": "A",
    "status": "Assigned to Contractor",
    "contractor": "Richards Disposal",
    "rowid": "880852",
    "final_x": "3667879.03162",
    "final_y": "525583.159933",
    "longitude": "-90.11128051480009",
    "latitude": "29.93957783801998",
    "geocoded_column": {
      "latitude": "29.93957783801998",
      "longitude": "-90.11128051480009"
    }
  },
  {
    "service_request": "2022-880851",
    "request_type": "Roads/Drainage",
    "request_reason": "Damaged Sidewalk",
    "date_created": "2022-05-07T14:42:35.000",
    "date_modified": "2022-05-07T14:42:35.000",
    "request_status": "Pending",
    "responsible_agency": "Department of Public Works",
    "final_address": "828 Girod St",
    "address_councildis": "B",
    "status": "Pending",
    "rowid": "880851",
    "final_x": "3679866.95605",
    "final_y": "528689.576192",
    "longitude": "-90.0733251648677",
    "latitude": "29.9477624511556",
    "geocoded_column": {
      "latitude": "29.9477624511556",
      "longitude": "-90.0733251648677"
    }
  },
  {
    "service_request": "2022-880850",
    "request_type": "Trash/Recycling",
    "request_reason": "Replace Recycling Cart",
    "date_created": "2022-05-07T14:21:15.000",
    "date_modified": "2022-05-07T14:21:16.000",
    "request_status": "Pending",
    "responsible_agency": "Department of Sanitation",
    "final_address": "519 Jefferson Ave",
    "address_councildis": "B",
    "status": "Pending",
    "rowid": "880850",
    "final_x": "3666547.2114",
    "final_y": "517315.950709",
    "longitude": "-90.11576261534495",
    "latitude": "29.916884620084595",
    "geocoded_column": {
      "latitude": "29.916884620084595",
      "longitude": "-90.11576261534495"
    }
  },
  {
    "service_request": "2022-880849",
    "request_type": "Abandoned Vehicles",
    "request_reason": "Abandoned/Junk Vehicles",
    "date_created": "2022-05-07T14:09:00.000",
    "date_modified": "2022-05-07T14:09:00.000",
    "request_status": "Pending",
    "responsible_agency": "Department of Public Works",
    "final_address": "1126 Independence St, New Orleans, Louisiana, 70117",
    "address_councildis": "C",
    "status": "Pending",
    "rowid": "880849",
    "final_x": "3690994.20291",
    "final_y": "535808.368071",
    "longitude": "-90.03793807134745",
    "latitude": "29.966995515438395",
    "geocoded_column": {
      "latitude": "29.966995515438395",
      "longitude": "-90.03793807134745"
    }
  },
  {
    "service_request": "2022-880847",
    "request_type": "Roads/Drainage",
    "request_reason": "Man hole cover issue",
    "date_created": "2022-05-07T14:01:46.000",
    "date_modified": "2022-05-07T14:01:47.000",
    "request_status": "Pending",
    "responsible_agency": "Department of Public Works",
    "final_address": "8711 Oleander St",
    "address_councildis": "A",
    "status": "Pending",
    "rowid": "880847",
    "final_x": "3665159.71053",
    "final_y": "535182.703878",
    "longitude": "-90.11954477461902",
    "latitude": "29.966052932441592",
    "geocoded_column": {
      "latitude": "29.966052932441592",
      "longitude": "-90.11954477461902"
    }
  },
  {
    "service_request": "2022-880846",
    "request_type": "Trash/Recycling",
    "request_reason": "Request a Large Item Pick Up",
    "date_created": "2022-05-07T13:05:51.000",
    "date_modified": "2022-05-07T13:05:51.000",
    "request_status": "Pending",
    "responsible_agency": "Department of Sanitation",
    "final_address": "1407 St Roch Ave",
    "address_councildis": "C",
    "status": "Assigned to Contractor",
    "contractor": "Metro Disposal",
    "rowid": "880846",
    "final_x": "3686464.81206",
    "final_y": "537611.311496",
    "longitude": "-90.05217821236053",
    "latitude": "29.97209300164535",
    "geocoded_column": {
      "latitude": "29.97209300164535",
      "longitude": "-90.05217821236053"
    }
  },
  {
    "service_request": "2022-880845",
    "request_type": "Roads/Drainage",
    "request_reason": "Accessibility Ramps, Curbs and Sidewalk Repair",
    "date_created": "2022-05-07T13:03:17.000",
    "date_modified": "2022-05-07T13:03:17.000",
    "request_status": "Pending",
    "responsible_agency": "Department of Public Works",
    "final_address": "1601 N Dorgenois St",
    "address_councildis": "D",
    "status": "Pending",
    "rowid": "880845",
    "final_x": "3679533.87618",
    "final_y": "539858.99713",
    "longitude": "-90.07398923302415",
    "latitude": "29.978484623320544",
    "geocoded_column": {
      "latitude": "29.978484623320544",
      "longitude": "-90.07398923302415"
    }
  },
  {
    "service_request": "2022-880844",
    "request_type": "Trash/Recycling",
    "request_reason": "Missed Trash Pick-Up",
    "date_created": "2022-05-07T12:58:01.000",
    "date_modified": "2022-05-07T12:58:01.000",
    "request_status": "Pending",
    "responsible_agency": "Department of Sanitation",
    "final_address": "8705 Pritchard Pl",
    "address_councildis": "A",
    "status": "Assigned to Contractor",
    "contractor": "Richards Disposal",
    "rowid": "880844",
    "final_x": "3664463.2642",
    "final_y": "534387.493957",
    "longitude": "-90.12177069658863",
    "latitude": "29.963886633755397",
    "geocoded_column": {
      "latitude": "29.963886633755397",
      "longitude": "-90.12177069658863"
    }
  },
  {
    "service_request": "2022-880842",
    "request_type": "Roads/Drainage",
    "request_reason": "Street Flooding / Drainage",
    "date_created": "2022-05-07T12:51:49.000",
    "date_modified": "2022-05-07T12:51:49.000",
    "request_status": "Pending",
    "responsible_agency": "Department of Public Works",
    "final_address": "825 N Gayoso St",
    "address_councildis": "A",
    "status": "Pending",
    "rowid": "880842",
    "final_x": "3675977.62766",
    "final_y": "538195.910985",
    "longitude": "-90.08527839565338",
    "latitude": "29.974018697805786",
    "geocoded_column": {
      "latitude": "29.974018697805786",
      "longitude": "-90.08527839565338"
    }
  },
  {
    "service_request": "2022-880841",
    "request_type": "Trash/Recycling",
    "request_reason": "Missed Trash Pick-Up",
    "date_created": "2022-05-07T12:51:08.000",
    "date_modified": "2022-05-07T12:51:09.000",
    "request_status": "Pending",
    "responsible_agency": "Department of Sanitation",
    "final_address": "4503 Baudin St",
    "address_councildis": "A",
    "status": "Assigned to Contractor",
    "contractor": "Richards Disposal",
    "rowid": "880841",
    "final_x": "3668713.0121",
    "final_y": "538180.957001",
    "longitude": "-90.10822227112772",
    "latitude": "29.9741931504233",
    "geocoded_column": {
      "latitude": "29.9741931504233",
      "longitude": "-90.10822227112772"
    }
  },
  {
    "service_request": "2022-880840",
    "request_type": "Trash/Recycling",
    "request_reason": "Return Recycling Cart",
    "date_created": "2022-05-07T12:51:04.000",
    "date_modified": "2022-05-07T12:51:05.000",
    "request_status": "Pending",
    "responsible_agency": "Department of Sanitation",
    "final_address": "1810 Marengo St",
    "address_councildis": "B",
    "status": "Pending",
    "rowid": "880840",
    "final_x": "3671814.18305",
    "final_y": "521807.871162",
    "longitude": "-90.09898507532803",
    "latitude": "29.929081026634424",
    "geocoded_column": {
      "latitude": "29.929081026634424",
      "longitude": "-90.09898507532803"
    }
  },
  {
    "service_request": "2022-880839",
    "request_type": "Trash/Recycling",
    "request_reason": "MIssed Recycling Pick-Up",
    "date_created": "2022-05-07T12:50:46.000",
    "date_modified": "2022-05-07T12:50:46.000",
    "request_status": "Pending",
    "responsible_agency": "Department of Sanitation",
    "final_address": "4503 Baudin St",
    "address_councildis": "A",
    "status": "Assigned to Contractor",
    "contractor": "Richards Disposal",
    "rowid": "880839",
    "final_x": "3668713.0121",
    "final_y": "538180.957001",
    "longitude": "-90.10822227112772",
    "latitude": "29.9741931504233",
    "geocoded_column": {
      "latitude": "29.9741931504233",
      "longitude": "-90.10822227112772"
    }
  },
  {
    "service_request": "2022-880838",
    "request_type": "Trash/Recycling",
    "request_reason": "Request a Large Item Pick Up",
    "date_created": "2022-05-07T12:34:01.000",
    "date_modified": "2022-05-07T12:34:02.000",
    "request_status": "Pending",
    "responsible_agency": "Department of Sanitation",
    "final_address": "3221 Annunciation St, New Orleans, Louisiana, 70115",
    "address_councildis": "B",
    "status": "Assigned to Contractor",
    "contractor": "Richards Disposal",
    "rowid": "880838",
    "final_x": "3676111.39585",
    "final_y": "518967.434039",
    "longitude": "-90.08551724964165",
    "latitude": "29.921142757212728",
    "geocoded_column": {
      "latitude": "29.921142757212728",
      "longitude": "-90.08551724964165"
    }
  },
  {
    "service_request": "2022-880837",
    "request_type": "Trash/Recycling",
    "request_reason": "Request a Large Item Pick Up",
    "date_created": "2022-05-07T12:32:51.000",
    "date_modified": "2022-05-07T12:32:52.000",
    "request_status": "Pending",
    "responsible_agency": "Department of Sanitation",
    "final_address": "510 Diana St",
    "address_councildis": "C",
    "status": "Assigned to Contractor",
    "contractor": "Richards Disposal",
    "rowid": "880837",
    "final_x": "3687085.07266",
    "final_y": "527622.084543",
    "longitude": "-90.0505725049408",
    "latitude": "29.944606989223065",
    "geocoded_column": {
      "latitude": "29.944606989223065",
      "longitude": "-90.0505725049408"
    }
  },
  {
    "service_request": "2022-880836",
    "request_type": "Trash/Recycling",
    "request_reason": "Missed Trash Pick-Up",
    "date_created": "2022-05-07T12:18:50.000",
    "date_modified": "2022-05-07T12:18:51.000",
    "request_status": "Pending",
    "responsible_agency": "Department of Sanitation",
    "final_address": "3326 Danneel St",
    "address_councildis": "B",
    "status": "Assigned to Contractor",
    "contractor": "Richards Disposal",
    "rowid": "880836",
    "final_x": "3673791.6548",
    "final_y": "522906.895931",
    "longitude": "-90.09270500971115",
    "latitude": "29.9320442671891",
    "geocoded_column": {
      "latitude": "29.9320442671891",
      "longitude": "-90.09270500971115"
    }
  },
  {
    "service_request": "2022-880835",
    "request_type": "Trash/Recycling",
    "request_reason": "Request a Large Item Pick Up",
    "date_created": "2022-05-07T12:07:44.000",
    "date_modified": "2022-05-07T12:07:44.000",
    "request_status": "Pending",
    "responsible_agency": "Department of Sanitation",
    "final_address": "6520 Coventry St",
    "address_councildis": "E",
    "status": "Assigned to Contractor",
    "contractor": "Metro Disposal",
    "rowid": "880835",
    "final_x": "3697522.75562",
    "final_y": "559000.364572",
    "longitude": "-90.01647928368726",
    "latitude": "30.030560361565982",
    "geocoded_column": {
      "latitude": "30.030560361565982",
      "longitude": "-90.01647928368726"
    }
  },
  {
    "service_request": "2022-880834",
    "request_type": "Trash/Recycling",
    "request_reason": "Missed Trash Pick-Up",
    "date_created": "2022-05-07T12:07:11.000",
    "date_modified": "2022-05-07T12:07:11.000",
    "request_status": "Pending",
    "responsible_agency": "Department of Sanitation",
    "final_address": "500 Passera Ct, New Orleans, Louisiana, 70119",
    "address_councildis": "A",
    "status": "Assigned to Contractor",
    "contractor": "Richards Disposal",
    "rowid": "880834",
    "final_x": "3670524.39233",
    "final_y": "540681.272395",
    "longitude": "-90.10241666911767",
    "latitude": "29.98101479413959",
    "geocoded_column": {
      "latitude": "29.98101479413959",
      "longitude": "-90.10241666911767"
    }
  },
  {
    "service_request": "2022-880832",
    "request_type": "Trash/Recycling",
    "request_reason": "Missed Trash Pick-Up",
    "date_created": "2022-05-07T12:02:52.000",
    "date_modified": "2022-05-07T12:02:53.000",
    "request_status": "Pending",
    "responsible_agency": "Department of Sanitation",
    "final_address": "25514 Chef Menteur Hwy",
    "address_councildis": "E",
    "status": "Assigned to Contractor",
    "contractor": "Metro Disposal",
    "rowid": "880832",
    "final_x": "3780531.0707",
    "final_y": "599748.723906",
    "longitude": "-89.7524039382491",
    "latitude": "30.13971413555277",
    "geocoded_column": {
      "latitude": "30.13971413555277",
      "longitude": "-89.7524039382491"
    }
  },
  {
    "service_request": "2022-880831",
    "request_type": "Property Maintenance",
    "request_reason": "Property Maintenance",
    "date_created": "2022-05-07T12:00:55.000",
    "date_modified": "2022-05-07T12:00:55.000",
    "request_status": "Pending",
    "responsible_agency": "Department of Code Enforcement",
    "final_address": "1623 Fourth St",
    "address_councildis": "B",
    "status": "Pending",
    "rowid": "880831",
    "final_x": "3676086.42875",
    "final_y": "522915.303419",
    "longitude": "-90.08546034644651",
    "latitude": "29.931998867056095",
    "geocoded_column": {
      "latitude": "29.931998867056095",
      "longitude": "-90.08546034644651"
    }
  },
  {
    "service_request": "2022-880830",
    "request_type": "Taxi Issues",
    "request_reason": "Taxi Complaint",
    "date_created": "2022-05-07T11:15:58.000",
    "date_modified": "2022-05-07T11:15:58.000",
    "request_status": "Pending",
    "responsible_agency": "Ground Transportation Bureau",
    "status": "Pending",
    "rowid": "880830",
    "longitude": "0.0",
    "latitude": "0.0",
    "geocoded_column": {
      "latitude": "0.0",
      "longitude": "0.0"
    }
  },
  {
    "service_request": "2022-880829",
    "request_type": "Health Related Questions",
    "request_reason": "Request Health Records (Immunization, Lead and Health)",
    "date_created": "2022-05-07T11:06:41.000",
    "date_modified": "2022-05-07T11:06:41.000",
    "request_status": "Pending",
    "responsible_agency": "Health Department",
    "final_address": "7849 Read Blvd Apt 12",
    "address_councildis": "E",
    "status": "Pending",
    "rowid": "880829",
    "final_x": "3708429.38795",
    "final_y": "565267.44797",
    "longitude": "-89.98178086429685",
    "latitude": "30.047443191521047",
    "geocoded_column": {
      "latitude": "30.047443191521047",
      "longitude": "-89.98178086429685"
    }
  },
  {
    "service_request": "2022-880828",
    "request_type": "Trash/Recycling",
    "request_reason": "Repair Trash Cart",
    "date_created": "2022-05-07T10:57:29.000",
    "date_modified": "2022-05-07T10:57:29.000",
    "request_status": "Pending",
    "responsible_agency": "Department of Sanitation",
    "final_address": "1920 Shalett St",
    "address_councildis": "C",
    "status": "Assigned to Contractor",
    "contractor": "Richards Disposal",
    "rowid": "880828",
    "final_x": "3694298.49942",
    "final_y": "523324.256571",
    "longitude": "-90.0279522795391",
    "latitude": "29.932565421814267",
    "geocoded_column": {
      "latitude": "29.932565421814267",
      "longitude": "-90.0279522795391"
    }
  },
  {
    "service_request": "2022-880827",
    "request_type": "Property Maintenance",
    "request_reason": "Property Maintenance",
    "date_created": "2022-05-07T10:57:07.000",
    "date_modified": "2022-05-07T10:57:08.000",
    "request_status": "Pending",
    "responsible_agency": "Department of Code Enforcement",
    "final_address": "3108 Hollygrove St",
    "address_councildis": "A",
    "status": "Pending",
    "rowid": "880827",
    "final_x": "3664211.40122",
    "final_y": "535620.388742",
    "longitude": "-90.12252491838757",
    "latitude": "29.96728400919649",
    "geocoded_column": {
      "latitude": "29.96728400919649",
      "longitude": "-90.12252491838757"
    }
  },
  {
    "service_request": "2022-880826",
    "request_type": "Trash/Recycling",
    "request_reason": "Repair Recycling Cart",
    "date_created": "2022-05-07T10:42:07.000",
    "date_modified": "2022-05-07T10:42:08.000",
    "request_status": "Pending",
    "responsible_agency": "Department of Sanitation",
    "final_address": "3806 Octavia St",
    "address_councildis": "A",
    "status": "Pending",
    "rowid": "880826",
    "final_x": "3668722.07918",
    "final_y": "529438.450497",
    "longitude": "-90.10848878131675",
    "latitude": "29.95015388610929",
    "geocoded_column": {
      "latitude": "29.95015388610929",
      "longitude": "-90.10848878131675"
    }
  },
  {
    "service_request": "2022-880825",
    "request_type": "Property Maintenance",
    "request_reason": "Property Maintenance",
    "date_created": "2022-05-07T10:34:18.000",
    "date_modified": "2022-05-07T10:34:18.000",
    "request_status": "Pending",
    "responsible_agency": "Department of Code Enforcement",
    "final_address": "1843 Marigny St",
    "address_councildis": "D",
    "status": "Pending",
    "rowid": "880825",
    "final_x": "3685217.64853",
    "final_y": "539254.242634",
    "longitude": "-90.05605911542231",
    "latitude": "29.97664877134958",
    "geocoded_column": {
      "latitude": "29.97664877134958",
      "longitude": "-90.05605911542231"
    }
  },
  {
    "service_request": "2022-880824",
    "request_type": "Trash/Recycling",
    "request_reason": "MIssed Recycling Pick-Up",
    "date_created": "2022-05-07T10:27:08.000",
    "date_modified": "2022-05-07T10:27:08.000",
    "request_status": "Pending",
    "responsible_agency": "Department of Sanitation",
    "final_address": "1729 Terpsichore St",
    "address_councildis": "B",
    "status": "Assigned to Contractor",
    "contractor": "Richards Disposal",
    "rowid": "880824",
    "final_x": "3678449.5229",
    "final_y": "525680.650173",
    "longitude": "-90.07790465245449",
    "latitude": "29.939531685636776",
    "geocoded_column": {
      "latitude": "29.939531685636776",
      "longitude": "-90.07790465245449"
    }
  },
  {
    "service_request": "2022-880823",
    "request_type": "Trash/Recycling",
    "request_reason": "Replace Trash Cart",
    "date_created": "2022-05-07T10:20:16.000",
    "date_modified": "2022-05-07T10:20:17.000",
    "request_status": "Pending",
    "responsible_agency": "Department of Sanitation",
    "final_address": "2448 Chelsea Dr",
    "address_councildis": "C",
    "status": "Assigned to Contractor",
    "contractor": "Richards Disposal",
    "rowid": "880823",
    "final_x": "3704744.19332",
    "final_y": "522245.652986",
    "longitude": "-89.9950161492184",
    "latitude": "29.929268293534133",
    "geocoded_column": {
      "latitude": "29.929268293534133",
      "longitude": "-89.9950161492184"
    }
  },
  {
    "service_request": "2022-880822",
    "request_type": "Trash/Recycling",
    "request_reason": "Repair Recycling Cart",
    "date_created": "2022-05-07T10:09:33.000",
    "date_modified": "2022-05-07T10:09:34.000",
    "request_status": "Pending",
    "responsible_agency": "Department of Sanitation",
    "final_address": "2701 General Meyer Ave",
    "address_councildis": "C",
    "status": "Pending",
    "rowid": "880822",
    "final_x": "3694333.04208",
    "final_y": "526907.040446",
    "longitude": "-90.02771435493369",
    "latitude": "29.942415765662563",
    "geocoded_column": {
      "latitude": "29.942415765662563",
      "longitude": "-90.02771435493369"
    }
  },
  {
    "service_request": "2022-880821",
    "request_type": "Traffic Signals/Signs/Striping/Streetlights",
    "request_reason": "Street Light Outage/Malfunction",
    "date_created": "2022-05-07T10:06:10.000",
    "date_modified": "2022-05-07T10:06:11.000",
    "request_status": "Pending",
    "responsible_agency": "Department of Public Works",
    "final_address": "6117 Marshal Foch St",
    "address_councildis": "A",
    "status": "Pending",
    "contractor": "Royal Engineering",
    "rowid": "880821",
    "final_x": "3669963.95655",
    "final_y": "547980.325074",
    "longitude": "-90.10393943352524",
    "latitude": "30.0011012223492",
    "geocoded_column": {
      "latitude": "30.0011012223492",
      "longitude": "-90.10393943352524"
    }
  },
  {
    "service_request": "2022-880819",
    "request_type": "Trash/Recycling",
    "request_reason": "Order Trash Cart",
    "date_created": "2022-05-07T10:00:19.000",
    "date_modified": "2022-05-07T10:00:20.000",
    "request_status": "Pending",
    "responsible_agency": "Department of Sanitation",
    "final_address": "25514 Chef Menteur Hwy, New Orleans, Louisiana, 70129",
    "address_councildis": "E",
    "status": "Assigned to Contractor",
    "contractor": "Metro Disposal",
    "rowid": "880819",
    "final_x": "3780531.0707",
    "final_y": "599748.723906",
    "longitude": "-89.7524039382491",
    "latitude": "30.13971413555277",
    "geocoded_column": {
      "latitude": "30.13971413555277",
      "longitude": "-89.7524039382491"
    }
  },
  {
    "service_request": "2022-880818",
    "request_type": "Safety & Permits",
    "request_reason": "Licenses & Permits",
    "date_created": "2022-05-07T09:53:56.000",
    "date_modified": "2022-05-07T09:53:56.000",
    "request_status": "Pending",
    "responsible_agency": "Safety and Permits",
    "final_address": "4000 BLK Behrman Hwy",
    "address_councildis": "C",
    "status": "Pending",
    "rowid": "880818",
    "final_x": "3697507.46059",
    "final_y": "514792.518103",
    "longitude": "-90.01813106948755",
    "latitude": "29.909005130063306",
    "geocoded_column": {
      "latitude": "29.909005130063306",
      "longitude": "-90.01813106948755"
    }
  },
  {
    "service_request": "2022-880817",
    "request_type": "Trash/Recycling",
    "request_reason": "Repair Trash Cart",
    "date_created": "2022-05-07T09:50:33.000",
    "date_modified": "2022-05-07T09:50:34.000",
    "request_status": "Pending",
    "responsible_agency": "Department of Sanitation",
    "final_address": "9234 Forshey St",
    "address_councildis": "A",
    "status": "Assigned to Contractor",
    "contractor": "Richards Disposal",
    "rowid": "880817",
    "final_x": "3663913.10579",
    "final_y": "536692.855047",
    "longitude": "-90.12343118128176",
    "latitude": "29.97024160158485",
    "geocoded_column": {
      "latitude": "29.97024160158485",
      "longitude": "-90.12343118128176"
    }
  },
  {
    "service_request": "2022-880816",
    "request_type": "Abandoned Vehicles",
    "request_reason": "Abandoned/Junk Vehicles",
    "date_created": "2022-05-07T09:44:30.000",
    "date_modified": "2022-05-07T09:44:30.000",
    "request_status": "Pending",
    "responsible_agency": "Department of Public Works",
    "final_address": "400 Lafayette St",
    "address_councildis": "B",
    "status": "Pending",
    "rowid": "880816",
    "final_x": "3681498.65909",
    "final_y": "528666.656768",
    "longitude": "-90.06817403606365",
    "latitude": "29.947649992871007",
    "geocoded_column": {
      "latitude": "29.947649992871007",
      "longitude": "-90.06817403606365"
    }
  },
  {
    "service_request": "2022-880815",
    "request_type": "Property Maintenance",
    "request_reason": "Property Maintenance",
    "date_created": "2022-05-07T09:41:09.000",
    "date_modified": "2022-05-07T09:41:09.000",
    "request_status": "Pending",
    "responsible_agency": "Department of Code Enforcement",
    "final_address": "1929 N Rampart St",
    "address_councildis": "C",
    "status": "Pending",
    "rowid": "880815",
    "final_x": "3684125.25013",
    "final_y": "535903.872775",
    "longitude": "-90.05962686541663",
    "latitude": "29.967469856719422",
    "geocoded_column": {
      "latitude": "29.967469856719422",
      "longitude": "-90.05962686541663"
    }
  },
  {
    "service_request": "2022-880814",
    "request_type": "Trash/Recycling",
    "request_reason": "MIssed Recycling Pick-Up",
    "date_created": "2022-05-07T09:34:12.000",
    "date_modified": "2022-05-07T09:35:01.000",
    "request_status": "Pending",
    "responsible_agency": "Department of Sanitation",
    "final_address": "259 Broadway St",
    "address_councildis": "A",
    "status": "Assigned to Contractor",
    "contractor": "Richards Disposal",
    "rowid": "880814",
    "final_x": "3661429.15725",
    "final_y": "522323.76025",
    "longitude": "-90.13175166460076",
    "latitude": "29.930803086581534",
    "geocoded_column": {
      "latitude": "29.930803086581534",
      "longitude": "-90.13175166460076"
    }
  },
  {
    "service_request": "2022-880813",
    "request_type": "Abandoned Vehicles",
    "request_reason": "Abandoned/Junk Vehicles",
    "date_created": "2022-05-07T09:31:48.000",
    "date_modified": "2022-05-07T09:33:50.000",
    "request_status": "Pending",
    "responsible_agency": "Department of Public Works",
    "final_address": "259 Broadway St",
    "address_councildis": "A",
    "status": "Pending",
    "rowid": "880813",
    "final_x": "3661429.15725",
    "final_y": "522323.76025",
    "longitude": "-90.13175166460076",
    "latitude": "29.930803086581534",
    "geocoded_column": {
      "latitude": "29.930803086581534",
      "longitude": "-90.13175166460076"
    }
  },
  {
    "service_request": "2022-880812",
    "request_type": "Trash/Recycling",
    "request_reason": "MIssed Recycling Pick-Up",
    "date_created": "2022-05-07T09:30:50.000",
    "date_modified": "2022-05-07T09:30:51.000",
    "request_status": "Pending",
    "responsible_agency": "Department of Sanitation",
    "final_address": "4133 General Pershing St",
    "address_councildis": "B",
    "status": "Assigned to Contractor",
    "contractor": "Richards Disposal",
    "rowid": "880812",
    "final_x": "3670028.04846",
    "final_y": "529492.805889",
    "longitude": "-90.10436336924452",
    "latitude": "29.95026489527118",
    "geocoded_column": {
      "latitude": "29.95026489527118",
      "longitude": "-90.10436336924452"
    }
  },
  {
    "service_request": "2022-880811",
    "request_type": "Roads/Drainage",
    "request_reason": "Accessibility Ramps, Curbs and Sidewalk Repair",
    "date_created": "2022-05-07T09:19:19.000",
    "date_modified": "2022-05-07T09:19:19.000",
    "request_status": "Pending",
    "responsible_agency": "Department of Public Works",
    "final_address": "1112 Canal St",
    "address_councildis": "B",
    "status": "Pending",
    "rowid": "880811",
    "final_x": "3679831.05135",
    "final_y": "531595.706051",
    "longitude": "-90.07333763071406",
    "latitude": "29.955754416618987",
    "geocoded_column": {
      "latitude": "29.955754416618987",
      "longitude": "-90.07333763071406"
    }
  },
  {
    "service_request": "2022-880810",
    "request_type": "Trash/Recycling",
    "request_reason": "Illegal Dumping",
    "date_created": "2022-05-07T09:09:53.000",
    "date_modified": "2022-05-07T09:11:25.000",
    "request_status": "Pending",
    "responsible_agency": "Department of Code Enforcement",
    "final_address": "3320 First St",
    "address_councildis": "B",
    "status": "Pending",
    "rowid": "880810",
    "final_x": "3673496.98753",
    "final_y": "528387.297536",
    "longitude": "-90.0934480351769",
    "latitude": "29.947122351763255",
    "geocoded_column": {
      "latitude": "29.947122351763255",
      "longitude": "-90.0934480351769"
    }
  },
  {
    "service_request": "2022-880809",
    "request_type": "Traffic Signals/Signs/Striping/Streetlights",
    "request_reason": "Street Light Outage/Malfunction",
    "date_created": "2022-05-07T09:08:59.000",
    "date_modified": "2022-05-07T09:09:00.000",
    "request_status": "Pending",
    "responsible_agency": "Department of Public Works",
    "final_address": "1661 Canal St",
    "address_councildis": "B",
    "status": "Pending",
    "contractor": "Royal Engineering",
    "rowid": "880809",
    "final_x": "3678577.27061",
    "final_y": "532797.578244",
    "longitude": "-90.0772550277696",
    "latitude": "29.959097009403244",
    "geocoded_column": {
      "latitude": "29.959097009403244",
      "longitude": "-90.0772550277696"
    }
  },
  {
    "service_request": "2022-880808",
    "request_type": "Traffic Signals/Signs/Striping/Streetlights",
    "request_reason": "Street Light Outage/Malfunction",
    "date_created": "2022-05-07T09:05:24.000",
    "date_modified": "2022-05-07T09:05:25.000",
    "request_status": "Pending",
    "responsible_agency": "Department of Public Works",
    "final_address": "1535 Canal St",
    "address_councildis": "C",
    "status": "Pending",
    "contractor": "Royal Engineering",
    "rowid": "880808",
    "final_x": "3678936.45589",
    "final_y": "532521.076676",
    "longitude": "-90.07613038878848",
    "latitude": "29.958325892153642",
    "geocoded_column": {
      "latitude": "29.958325892153642",
      "longitude": "-90.07613038878848"
    }
  },
  {
    "service_request": "2022-880807",
    "request_type": "Traffic Signals/Signs/Striping/Streetlights",
    "request_reason": "Street Light Outage/Malfunction",
    "date_created": "2022-05-07T09:01:36.000",
    "date_modified": "2022-05-07T09:01:37.000",
    "request_status": "Pending",
    "responsible_agency": "Department of Public Works",
    "final_address": "1535 Canal St",
    "address_councildis": "C",
    "status": "Pending",
    "contractor": "Royal Engineering",
    "rowid": "880807",
    "final_x": "3678936.45589",
    "final_y": "532521.076676",
    "longitude": "-90.07613038878848",
    "latitude": "29.958325892153642",
    "geocoded_column": {
      "latitude": "29.958325892153642",
      "longitude": "-90.07613038878848"
    }
  },
  {
    "service_request": "2022-880806",
    "request_type": "Traffic Signals/Signs/Striping/Streetlights",
    "request_reason": "Street Light Outage/Malfunction",
    "date_created": "2022-05-07T08:56:53.000",
    "date_modified": "2022-05-07T08:56:54.000",
    "request_status": "Pending",
    "responsible_agency": "Department of Public Works",
    "final_address": "1500 Canal St",
    "address_councildis": "B",
    "status": "Pending",
    "contractor": "Royal Engineering",
    "rowid": "880806",
    "final_x": "3679081.04053",
    "final_y": "532173.512067",
    "longitude": "-90.07568587566018",
    "latitude": "29.957365844181673",
    "geocoded_column": {
      "latitude": "29.957365844181673",
      "longitude": "-90.07568587566018"
    }
  },
  {
    "service_request": "2022-880805",
    "request_type": "Traffic Signals/Signs/Striping/Streetlights",
    "request_reason": "Street Light Outage/Malfunction",
    "date_created": "2022-05-07T08:48:01.000",
    "date_modified": "2022-05-07T08:48:02.000",
    "request_status": "Pending",
    "responsible_agency": "Department of Public Works",
    "final_address": "549 Baronne St",
    "address_councildis": "B",
    "status": "Pending",
    "contractor": "Royal Engineering",
    "rowid": "880805",
    "final_x": "3679796.76456",
    "final_y": "529153.082176",
    "longitude": "-90.07353069685988",
    "latitude": "29.949039059501192",
    "geocoded_column": {
      "latitude": "29.949039059501192",
      "longitude": "-90.07353069685988"
    }
  },
  {
    "service_request": "2022-880804",
    "request_type": "Traffic Signals/Signs/Striping/Streetlights",
    "request_reason": "Street Light Outage/Malfunction",
    "date_created": "2022-05-07T08:43:12.000",
    "date_modified": "2022-05-07T08:43:13.000",
    "request_status": "Pending",
    "responsible_agency": "Department of Public Works",
    "final_address": "1011 Canal St",
    "address_councildis": "C",
    "status": "Pending",
    "contractor": "Royal Engineering",
    "rowid": "880804",
    "final_x": "3680303.89487",
    "final_y": "531461.015555",
    "longitude": "-90.07184924006293",
    "latitude": "29.955369757928295",
    "geocoded_column": {
      "latitude": "29.955369757928295",
      "longitude": "-90.07184924006293"
    }
  },
  {
    "service_request": "2022-880803",
    "request_type": "Traffic Signals/Signs/Striping/Streetlights",
    "request_reason": "Road Surface Marking Maintenance-Parking Lane",
    "date_created": "2022-05-07T08:36:01.000",
    "date_modified": "2022-05-07T08:36:01.000",
    "request_status": "Pending",
    "responsible_agency": "Department of Public Works",
    "final_address": "7849 Read Blvd Apt 11",
    "address_councildis": "E",
    "status": "Pending",
    "rowid": "880803",
    "final_x": "3708416.49547",
    "final_y": "565259.392226",
    "longitude": "-89.9818219115805",
    "latitude": "30.047421459586367",
    "geocoded_column": {
      "latitude": "30.047421459586367",
      "longitude": "-89.9818219115805"
    }
  },
  {
    "service_request": "2022-880802",
    "request_type": "Traffic Signals/Signs/Striping/Streetlights",
    "request_reason": "Street Light Outage/Malfunction",
    "date_created": "2022-05-07T08:35:31.000",
    "date_modified": "2022-05-07T08:35:32.000",
    "request_status": "Pending",
    "responsible_agency": "Department of Public Works",
    "final_address": "916 Canal St",
    "address_councildis": "B",
    "status": "Pending",
    "contractor": "Royal Engineering",
    "rowid": "880802",
    "final_x": "3680406.73871",
    "final_y": "531146.266754",
    "longitude": "-90.07153544117196",
    "latitude": "29.95450119143562",
    "geocoded_column": {
      "latitude": "29.95450119143562",
      "longitude": "-90.07153544117196"
    }
  },
  {
    "service_request": "2022-880801",
    "request_type": "Trash/Recycling",
    "request_reason": "Order Recycling Cart",
    "date_created": "2022-05-07T08:33:17.000",
    "date_modified": "2022-05-07T08:33:17.000",
    "request_status": "Pending",
    "responsible_agency": "Department of Sanitation",
    "final_address": "7253 Onyx St",
    "address_councildis": "D",
    "status": "Pending",
    "rowid": "880801",
    "final_x": "3668960.7138",
    "final_y": "555519.462297",
    "longitude": "-90.10685384178595",
    "latitude": "30.02186075842164",
    "geocoded_column": {
      "latitude": "30.02186075842164",
      "longitude": "-90.10685384178595"
    }
  },
  {
    "service_request": "2022-880800",
    "request_type": "Traffic Signals/Signs/Striping/Streetlights",
    "request_reason": "Street Light Outage/Malfunction",
    "date_created": "2022-05-07T08:32:18.000",
    "date_modified": "2022-05-07T08:32:19.000",
    "request_status": "Pending",
    "responsible_agency": "Department of Public Works",
    "final_address": "921 Canal St",
    "address_councildis": "C",
    "status": "Pending",
    "contractor": "Royal Engineering",
    "rowid": "880800",
    "final_x": "3680566.91771",
    "final_y": "531286.97037",
    "longitude": "-90.07102476435877",
    "latitude": "29.954883227751075",
    "geocoded_column": {
      "latitude": "29.954883227751075",
      "longitude": "-90.07102476435877"
    }
  },
  {
    "service_request": "2022-880799",
    "request_type": "Trash/Recycling",
    "request_reason": "Missed Trash Pick-Up",
    "date_created": "2022-05-07T08:30:46.000",
    "date_modified": "2022-05-07T08:30:47.000",
    "request_status": "Pending",
    "responsible_agency": "Department of Sanitation",
    "final_address": "4600 Coronado Dr",
    "address_councildis": "E",
    "status": "Assigned to Contractor",
    "contractor": "Metro Disposal",
    "rowid": "880799",
    "final_x": "3714137.39103",
    "final_y": "555676.328793",
    "longitude": "-89.96410285168969",
    "latitude": "30.02088509255446",
    "geocoded_column": {
      "latitude": "30.02088509255446",
      "longitude": "-89.96410285168969"
    }
  },
  {
    "service_request": "2022-880798",
    "request_type": "Trash/Recycling",
    "request_reason": "Request a Large Item Pick Up",
    "date_created": "2022-05-07T08:22:40.000",
    "date_modified": "2022-05-07T08:22:41.000",
    "request_status": "Pending",
    "responsible_agency": "Department of Sanitation",
    "final_address": "7253 Onyx St",
    "address_councildis": "D",
    "status": "Assigned to Contractor",
    "contractor": "Metro Disposal",
    "rowid": "880798",
    "final_x": "3668960.7138",
    "final_y": "555519.462297",
    "longitude": "-90.10685384178595",
    "latitude": "30.02186075842164",
    "geocoded_column": {
      "latitude": "30.02186075842164",
      "longitude": "-90.10685384178595"
    }
  },
  {
    "service_request": "2022-880797",
    "request_type": "Trash/Recycling",
    "request_reason": "Missed Trash Pick-Up",
    "date_created": "2022-05-07T08:16:36.000",
    "date_modified": "2022-05-07T08:16:36.000",
    "request_status": "Pending",
    "responsible_agency": "Department of Sanitation",
    "final_address": "6321 Patton St",
    "address_councildis": "A",
    "status": "Assigned to Contractor",
    "contractor": "Richards Disposal",
    "rowid": "880797",
    "final_x": "3663062.5161",
    "final_y": "519269.573367",
    "longitude": "-90.12669688882211",
    "latitude": "29.92235783151548",
    "geocoded_column": {
      "latitude": "29.92235783151548",
      "longitude": "-90.12669688882211"
    }
  },
  {
    "service_request": "2022-880796",
    "request_type": "Trash/Recycling",
    "request_reason": "Missed Trash Pick-Up",
    "date_created": "2022-05-07T08:01:48.000",
    "date_modified": "2022-05-07T08:01:49.000",
    "request_status": "Pending",
    "responsible_agency": "Department of Sanitation",
    "final_address": "6030 Hurst St",
    "address_councildis": "A",
    "status": "Assigned to Contractor",
    "contractor": "Richards Disposal",
    "rowid": "880796",
    "final_x": "3665256.5074",
    "final_y": "521786.983866",
    "longitude": "-90.11968715854152",
    "latitude": "29.92921620713637",
    "geocoded_column": {
      "latitude": "29.92921620713637",
      "longitude": "-90.11968715854152"
    }
  },
  {
    "service_request": "2022-880795",
    "request_type": "Trash/Recycling",
    "request_reason": "Missed Trash Pick-Up",
    "date_created": "2022-05-07T08:00:53.000",
    "date_modified": "2022-05-07T08:00:54.000",
    "request_status": "Pending",
    "responsible_agency": "Department of Sanitation",
    "final_address": "6035 Hurst St",
    "address_councildis": "A",
    "status": "Assigned to Contractor",
    "contractor": "Richards Disposal",
    "rowid": "880795",
    "final_x": "3665255.04724",
    "final_y": "521962.79065",
    "longitude": "-90.1196858896912",
    "latitude": "29.929699662749368",
    "geocoded_column": {
      "latitude": "29.929699662749368",
      "longitude": "-90.1196858896912"
    }
  },
  {
    "service_request": "2022-880794",
    "request_type": "Property Maintenance",
    "request_reason": "Property Maintenance",
    "date_created": "2022-05-07T07:58:45.000",
    "date_modified": "2022-05-07T07:59:32.000",
    "request_status": "Pending",
    "responsible_agency": "Department of Code Enforcement",
    "final_address": "4751 Evangeline Dr",
    "address_councildis": "E",
    "status": "Pending",
    "rowid": "880794",
    "final_x": "3709166.68203",
    "final_y": "555862.183513",
    "longitude": "-89.9798017671515",
    "latitude": "30.021558505754737",
    "geocoded_column": {
      "latitude": "30.021558505754737",
      "longitude": "-89.9798017671515"
    }
  },
  {
    "service_request": "2022-880793",
    "request_type": "Trash/Recycling",
    "request_reason": "Request a Large Item Pick Up",
    "date_created": "2022-05-07T07:52:31.000",
    "date_modified": "2022-05-07T07:52:32.000",
    "request_status": "Pending",
    "responsible_agency": "Department of Sanitation",
    "final_address": "4920 Dryades St",
    "address_councildis": "B",
    "status": "Assigned to Contractor",
    "contractor": "Richards Disposal",
    "rowid": "880793",
    "final_x": "3668904.73338",
    "final_y": "521685.405177",
    "longitude": "-90.1081738005452",
    "latitude": "29.928830143455674",
    "geocoded_column": {
      "latitude": "29.928830143455674",
      "longitude": "-90.1081738005452"
    }
  },
  {
    "service_request": "2022-880792",
    "request_type": "Trash/Recycling",
    "request_reason": "Order Recycling Cart",
    "date_created": "2022-05-07T07:35:31.000",
    "date_modified": "2022-05-07T07:35:31.000",
    "request_status": "Pending",
    "responsible_agency": "Department of Sanitation",
    "final_address": "7923 Panola St",
    "address_councildis": "A",
    "status": "Pending",
    "rowid": "880792",
    "final_x": "3664546.59821",
    "final_y": "530349.257602",
    "longitude": "-90.12164238707688",
    "latitude": "29.952780378315854",
    "geocoded_column": {
      "latitude": "29.952780378315854",
      "longitude": "-90.12164238707688"
    }
  },
  {
    "service_request": "2022-880791",
    "request_type": "Trash/Recycling",
    "request_reason": "Illegal Dumping",
    "date_created": "2022-05-07T07:33:09.000",
    "date_modified": "2022-05-07T07:33:09.000",
    "request_status": "Pending",
    "responsible_agency": "Department of Sanitation",
    "final_address": "1900 Newton St",
    "address_councildis": "C",
    "status": "Pending",
    "rowid": "880791",
    "final_x": "3691168.78825",
    "final_y": "527850.126335",
    "longitude": "-90.03767091444506",
    "latitude": "29.9451076879333",
    "geocoded_column": {
      "latitude": "29.9451076879333",
      "longitude": "-90.03767091444506"
    }
  },
  {
    "service_request": "2022-880790",
    "request_type": "Roads/Drainage",
    "request_reason": "Debris in Roadway",
    "date_created": "2022-05-07T07:30:01.000",
    "date_modified": "2022-05-07T07:30:01.000",
    "request_status": "Pending",
    "responsible_agency": "Department of Public Works",
    "final_address": "BEAUREGARD AVE & ROBERT E LEE BLVD & WISNER BLVD",
    "address_councildis": "D",
    "status": "Pending",
    "rowid": "880790",
    "final_x": "3676304.9",
    "final_y": "555235.88",
    "longitude": "-90.08365786621745",
    "latitude": "30.020862814840186",
    "geocoded_column": {
      "latitude": "30.020862814840186",
      "longitude": "-90.08365786621745"
    }
  },
  {
    "service_request": "2022-880789",
    "request_type": "Traffic Signals/Signs/Striping/Streetlights",
    "request_reason": "Street Light Outage/Malfunction",
    "date_created": "2022-05-07T07:25:56.000",
    "date_modified": "2022-05-07T07:25:56.000",
    "request_status": "Pending",
    "responsible_agency": "Department of Public Works",
    "final_address": "1605 Iberville St",
    "address_councildis": "B",
    "status": "Pending",
    "contractor": "Royal Engineering",
    "rowid": "880789",
    "final_x": "3678938.67701",
    "final_y": "532943.2841",
    "longitude": "-90.07610874693853",
    "latitude": "29.959486752745995",
    "geocoded_column": {
      "latitude": "29.959486752745995",
      "longitude": "-90.07610874693853"
    }
  },
  {
    "service_request": "2022-880788",
    "request_type": "Roads/Drainage",
    "request_reason": "Street Subsidence (Sinking)",
    "date_created": "2022-05-07T07:17:36.000",
    "date_modified": "2022-05-07T07:17:36.000",
    "request_status": "Pending",
    "responsible_agency": "Department of Public Works",
    "final_address": "4842 Piety Dr",
    "address_councildis": "D",
    "status": "Pending",
    "rowid": "880788",
    "final_x": "3691512.74588",
    "final_y": "551536.203797",
    "longitude": "-90.035738051102",
    "latitude": "30.01022526002233",
    "geocoded_column": {
      "latitude": "30.01022526002233",
      "longitude": "-90.035738051102"
    }
  },
  {
    "service_request": "2022-880787",
    "request_type": "Roads/Drainage",
    "request_reason": "Accessibility Ramps, Curbs and Sidewalk Repair",
    "date_created": "2022-05-07T07:15:14.000",
    "date_modified": "2022-05-07T07:15:14.000",
    "request_status": "Pending",
    "responsible_agency": "Department of Public Works",
    "final_address": "231 Carondelet St",
    "address_councildis": "B",
    "status": "Pending",
    "rowid": "880787",
    "final_x": "3680500.81583",
    "final_y": "530298.833602",
    "longitude": "-90.0712678553801",
    "latitude": "29.952168187288517",
    "geocoded_column": {
      "latitude": "29.952168187288517",
      "longitude": "-90.0712678553801"
    }
  },
  {
    "service_request": "2022-880786",
    "request_type": "Trash/Recycling",
    "request_reason": "Missed Trash Pick-Up",
    "date_created": "2022-05-07T07:11:14.000",
    "date_modified": "2022-05-07T07:11:15.000",
    "request_status": "Pending",
    "responsible_agency": "Department of Sanitation",
    "final_address": "6026 Benjamin St",
    "address_councildis": "A",
    "status": "Assigned to Contractor",
    "contractor": "Richards Disposal",
    "rowid": "880786",
    "final_x": "3665360.39456",
    "final_y": "522127.85913",
    "longitude": "-90.11934780455478",
    "latitude": "29.930150480305272",
    "geocoded_column": {
      "latitude": "29.930150480305272",
      "longitude": "-90.11934780455478"
    }
  },
  {
    "service_request": "2022-880785",
    "request_type": "Parks & Parkways",
    "request_reason": "Request Tree Service (Right of Way/Public Property)",
    "date_created": "2022-05-07T07:05:23.000",
    "date_modified": "2022-05-07T07:31:51.000",
    "request_status": "Pending",
    "responsible_agency": "Department of Parks & Parkway",
    "final_address": "218 S Norman C Francis Prkwy",
    "address_councildis": "B",
    "status": "Pending",
    "rowid": "880785",
    "final_x": "3672956.00603",
    "final_y": "536170.012039",
    "longitude": "-90.0948905312567",
    "latitude": "29.96853831058137",
    "geocoded_column": {
      "latitude": "29.96853831058137",
      "longitude": "-90.0948905312567"
    }
  },
  {
    "service_request": "2022-880784",
    "request_type": "Traffic Signals/Signs/Striping/Streetlights",
    "request_reason": "Street Light Outage/Malfunction",
    "date_created": "2022-05-07T07:05:20.000",
    "date_modified": "2022-05-07T07:05:21.000",
    "request_status": "Pending",
    "responsible_agency": "Department of Public Works",
    "final_address": "555 Canal St",
    "address_councildis": "C",
    "status": "Pending",
    "contractor": "Royal Engineering",
    "rowid": "880784",
    "final_x": "3681657.1156",
    "final_y": "530427.761794",
    "longitude": "-90.06761230467993",
    "latitude": "29.952487626263423",
    "geocoded_column": {
      "latitude": "29.952487626263423",
      "longitude": "-90.06761230467993"
    }
  },
  {
    "service_request": "2022-880783",
    "request_type": "Traffic Signals/Signs/Striping/Streetlights",
    "request_reason": "Traffic Signal Malfunctioning/Damaged",
    "date_created": "2022-05-07T06:58:28.000",
    "date_modified": "2022-05-07T06:58:28.000",
    "request_status": "Pending",
    "responsible_agency": "Department of Public Works",
    "final_address": "101 Canal St",
    "address_councildis": "C",
    "status": "Pending",
    "rowid": "880783",
    "final_x": "3682807.63464",
    "final_y": "529525.388993",
    "longitude": "-90.06401105666887",
    "latitude": "29.949971411235513",
    "geocoded_column": {
      "latitude": "29.949971411235513",
      "longitude": "-90.06401105666887"
    }
  },
  {
    "service_request": "2022-880782",
    "request_type": "Roads/Drainage",
    "request_reason": "Accessibility Ramps, Curbs and Sidewalk Repair",
    "date_created": "2022-05-07T06:57:02.000",
    "date_modified": "2022-05-07T06:57:02.000",
    "request_status": "Pending",
    "responsible_agency": "Department of Public Works",
    "final_address": "423 Canal St",
    "address_councildis": "C",
    "status": "Pending",
    "rowid": "880782",
    "final_x": "3682021.85896",
    "final_y": "530158.680513",
    "longitude": "-90.06647000592992",
    "latitude": "29.951736660215918",
    "geocoded_column": {
      "latitude": "29.951736660215918",
      "longitude": "-90.06647000592992"
    }
  },
  {
    "service_request": "2022-880781",
    "request_type": "Traffic Signals/Signs/Striping/Streetlights",
    "request_reason": "Street Light Outage/Malfunction",
    "date_created": "2022-05-07T06:50:25.000",
    "date_modified": "2022-05-07T06:50:25.000",
    "request_status": "Pending",
    "responsible_agency": "Department of Public Works",
    "final_address": "333 Canal St Ste 115",
    "address_councildis": "C",
    "status": "Pending",
    "contractor": "Royal Engineering",
    "rowid": "880781",
    "final_x": "3682462.07285",
    "final_y": "529842.942657",
    "longitude": "-90.06509105716972",
    "latitude": "29.95085509772037",
    "geocoded_column": {
      "latitude": "29.95085509772037",
      "longitude": "-90.06509105716972"
    }
  },
  {
    "service_request": "2022-880780",
    "request_type": "Trash/Recycling",
    "request_reason": "Missed Trash Pick-Up",
    "date_created": "2022-05-07T06:26:51.000",
    "date_modified": "2022-05-07T06:26:52.000",
    "request_status": "Pending",
    "responsible_agency": "Department of Sanitation",
    "final_address": "5973 Laurel St",
    "address_councildis": "A",
    "status": "Assigned to Contractor",
    "contractor": "Richards Disposal",
    "rowid": "880780",
    "final_x": "3664479.1849",
    "final_y": "518248.924918",
    "longitude": "-90.12225907617788",
    "latitude": "29.91951027046028",
    "geocoded_column": {
      "latitude": "29.91951027046028",
      "longitude": "-90.12225907617788"
    }
  },
  {
    "service_request": "2022-880779",
    "request_type": "Roads/Drainage",
    "request_reason": "Pothole",
    "date_created": "2022-05-07T06:26:11.000",
    "date_modified": "2022-05-07T06:26:11.000",
    "request_status": "Pending",
    "responsible_agency": "Department of Public Works",
    "final_address": "8222 Willow St",
    "address_councildis": "A",
    "status": "Pending",
    "rowid": "880779",
    "final_x": "3662006.35744",
    "final_y": "529232.7664",
    "longitude": "-90.12970040728487",
    "latitude": "29.949784004382035",
    "geocoded_column": {
      "latitude": "29.949784004382035",
      "longitude": "-90.12970040728487"
    }
  },
  {
    "service_request": "2022-880778",
    "request_type": "Roads/Drainage",
    "request_reason": "Damaged Sidewalk",
    "date_created": "2022-05-07T06:11:36.000",
    "date_modified": "2022-05-07T06:11:36.000",
    "request_status": "Pending",
    "responsible_agency": "Department of Public Works",
    "final_address": "800 Bourbon St",
    "address_councildis": "C",
    "status": "Pending",
    "rowid": "880778",
    "final_x": "3682553.51528",
    "final_y": "533013.631428",
    "longitude": "-90.06469148499534",
    "latitude": "29.95957063099051",
    "geocoded_column": {
      "latitude": "29.95957063099051",
      "longitude": "-90.06469148499534"
    }
  },
  {
    "service_request": "2022-880777",
    "request_type": "Taxi Issues",
    "request_reason": "Taxi Complaint",
    "date_created": "2022-05-07T05:05:25.000",
    "date_modified": "2022-05-07T05:06:12.000",
    "request_status": "Pending",
    "responsible_agency": "Ground Transportation Bureau",
    "status": "Pending",
    "rowid": "880777",
    "longitude": "0.0",
    "latitude": "0.0",
    "geocoded_column": {
      "latitude": "0.0",
      "longitude": "0.0"
    }
  },
  {
    "service_request": "2022-880776",
    "request_type": "Parks & Parkways",
    "request_reason": "Request Tree Service (Right of Way/Public Property)",
    "date_created": "2022-05-07T04:29:19.000",
    "date_modified": "2022-05-07T04:29:19.000",
    "request_status": "Pending",
    "responsible_agency": "Department of Parks & Parkway",
    "final_address": "8812 Bunker Hill Rd",
    "address_councildis": "E",
    "status": "Pending",
    "rowid": "880776",
    "final_x": "3706274.20759",
    "final_y": "559875.491293",
    "longitude": "-89.98879233294379",
    "latitude": "30.032687167328515",
    "geocoded_column": {
      "latitude": "30.032687167328515",
      "longitude": "-89.98879233294379"
    }
  },
  {
    "service_request": "2022-880775",
    "request_type": "Abandoned Vehicles",
    "request_reason": "Vehicle Blocking Your Driveway",
    "date_created": "2022-05-07T02:00:31.000",
    "date_modified": "2022-05-07T02:00:31.000",
    "request_status": "Pending",
    "responsible_agency": "Department of Public Works",
    "final_address": "2351 Chippewa St",
    "address_councildis": "B",
    "status": "Pending",
    "rowid": "880775",
    "final_x": "3679056.49538",
    "final_y": "520430.778424",
    "longitude": "-90.07617020668322",
    "latitude": "29.925077962417294",
    "geocoded_column": {
      "latitude": "29.925077962417294",
      "longitude": "-90.07617020668322"
    }
  },
  {
    "service_request": "2022-880774",
    "request_type": "Abandoned Vehicles",
    "request_reason": "Vehicle Blocking Your Driveway",
    "date_created": "2022-05-07T01:38:16.000",
    "date_modified": "2022-05-07T01:38:16.000",
    "request_status": "Pending",
    "responsible_agency": "Department of Public Works",
    "final_address": "2031 Marengo St",
    "address_councildis": "B",
    "status": "Pending",
    "rowid": "880774",
    "final_x": "3671840.8843",
    "final_y": "522667.714234",
    "longitude": "-90.09887154160529",
    "latitude": "29.931444527536854",
    "geocoded_column": {
      "latitude": "29.931444527536854",
      "longitude": "-90.09887154160529"
    }
  },
  {
    "service_request": "2022-880773",
    "request_type": "Property Maintenance",
    "request_reason": "Property Maintenance",
    "date_created": "2022-05-07T00:24:56.000",
    "date_modified": "2022-05-07T00:24:56.000",
    "request_status": "Pending",
    "responsible_agency": "Department of Code Enforcement",
    "final_address": "2118 Clara St",
    "address_councildis": "B",
    "status": "Pending",
    "rowid": "880773",
    "final_x": "3675280.62203",
    "final_y": "527149.031423",
    "longitude": "-90.08785892183623",
    "latitude": "29.943664338856795",
    "geocoded_column": {
      "latitude": "29.943664338856795",
      "longitude": "-90.08785892183623"
    }
  },
  {
    "service_request": "2022-880772",
    "request_type": "Traffic Signals/Signs/Striping/Streetlights",
    "request_reason": "Traffic Signal Malfunctioning/Damaged",
    "date_created": "2022-05-07T00:02:42.000",
    "date_modified": "2022-05-07T00:02:43.000",
    "request_status": "Pending",
    "responsible_agency": "Department of Public Works",
    "final_address": "ELYSIAN FIELDS AVE & BENEFIT ST & ELYSIAN FIELDS EXIT",
    "address_councildis": "D",
    "status": "Pending",
    "rowid": "880772",
    "final_x": "3684317.2",
    "final_y": "544420.78",
    "longitude": "-90.0587214929242",
    "latitude": "29.990882495714988",
    "geocoded_column": {
      "latitude": "29.990882495714988",
      "longitude": "-90.0587214929242"
    }
  },
  {
    "service_request": "2022-880771",
    "request_type": "Traffic Signals/Signs/Striping/Streetlights",
    "request_reason": "Street Light Outage/Malfunction",
    "date_created": "2022-05-06T23:10:34.000",
    "date_modified": "2022-05-06T23:10:35.000",
    "request_status": "Pending",
    "responsible_agency": "Department of Public Works",
    "final_address": "900 Piety St",
    "address_councildis": "C",
    "status": "Pending",
    "contractor": "Royal Engineering",
    "rowid": "880771",
    "final_x": "3689621.06787",
    "final_y": "535034.80423",
    "longitude": "-90.0423019477998",
    "latitude": "29.96491109863251",
    "geocoded_column": {
      "latitude": "29.96491109863251",
      "longitude": "-90.0423019477998"
    }
  },
  {
    "service_request": "2022-880770",
    "request_type": "Health Related Questions",
    "request_reason": "Noise Ordinance Complaint",
    "date_created": "2022-05-06T22:45:30.000",
    "date_modified": "2022-05-06T22:45:30.000",
    "request_status": "Pending",
    "responsible_agency": "Health Department",
    "final_address": "550 baronne street",
    "address_councildis": "B",
    "status": "Pending",
    "rowid": "880770",
    "final_x": "3679871.27515",
    "final_y": "529133.143296",
    "longitude": "-90.07329612681656",
    "latitude": "29.948981981496516",
    "geocoded_column": {
      "latitude": "29.948981981496516",
      "longitude": "-90.07329612681656"
    }
  },
  {
    "service_request": "2022-880769",
    "request_type": "Trash/Recycling",
    "request_reason": "Missed Trash Pick-Up",
    "date_created": "2022-05-06T22:00:17.000",
    "date_modified": "2022-05-06T22:00:18.000",
    "request_status": "Pending",
    "responsible_agency": "Department of Sanitation",
    "final_address": "6034 St Charles Ave",
    "address_councildis": "A",
    "status": "Assigned to Contractor",
    "contractor": "Richards Disposal",
    "rowid": "880769",
    "final_x": "3665407.96992",
    "final_y": "522600.059258",
    "longitude": "-90.11918182093287",
    "latitude": "29.931447495065896",
    "geocoded_column": {
      "latitude": "29.931447495065896",
      "longitude": "-90.11918182093287"
    }
  },