[
  {
    "service_request": "2025-1191591",
    "request_type": "Roads and Streets",
    "request_reason": "Street Subsidence (Sinking)",
    "date_created": "2025-05-12T23:11:24.000",
    "date_modified": "2025-05-12T23:11:27.000",
    "request_status": "Pending",
    "responsible_agency": "Department of Public Works",
    "final_address": "2400 N Broad St",
    "address_councildis": "D",
    "status": "Pending",
    "rowid": "1191591",
    "final_x": "3681949.93896",
    "final_y": "543915.765838",
    "longitude": "-90.06621673670527",
    "latitude": "29.989566079204355",
    "geocoded_column": {
      "latitude": "29.989566079204355",
      "longitude": "-90.06621673670527"
    }
  },
  {
    "service_request": "2025-1191590",
    "request_type": "Trash/Recycling",
    "request_reason": "Damaged Caused By Contractor",
    "date_created": "2025-05-12T22:16:42.000",
    "date_modified": "2025-05-12T22:16:45.000",
    "request_status": "Pending",
    "responsible_agency": "Department of Sanitation",
    "final_address": "3129 Dauphine St",
    "address_councildis": "C",
    "status": "Assigned to Contractor",
    "contractor": "IV Waste",
    "rowid": "1191590",
    "final_x": "3688955.35894",
    "final_y": "534825.342598",
    "longitude": "-90.04441164958038",
    "latitude": "29.964355759559204",
    "geocoded_column": {
      "latitude": "29.964355759559204",
      "longitude": "-90.04441164958038"
    }
  },
  {
    "service_request": "2025-1191589",
    "request_type": "Alley Ways",
    "request_reason": "Alley Way Regrading",
    "date_created": "2025-05-12T21:30:41.000",
    "date_modified": "2025-05-12T21:30:46.000",
    "request_status": "Pending",
    "responsible_agency": "Department of Public Works",
    "final_address": "5668 Woodlawn Pl",
    "address_councildis": "A",
    "status": "Pending",
    "rowid": "1191589",
    "final_x": "3667440.07213",
    "final_y": "545227.659151",
    "longitude": "-90.11200531136583",
    "latitude": "29.993606555726096",
    "geocoded_column": {
      "latitude": "29.993606555726096",
      "longitude": "-90.11200531136583"
    }
  },
  {
    "service_request": "2025-1191588",
    "request_type": "Trash/Recycling",
    "request_reason": "Missed Trash Pick-Up",
    "date_created": "2025-05-12T20:57:47.000",
    "date_modified": "2025-05-12T20:57:49.000",
    "request_status": "Pending",
    "responsible_agency": "Department of Sanitation",
    "final_address": "5401 Bellaire Dr",
    "address_councildis": "A",
    "status": "Assigned to Contractor",
    "contractor": "IV Waste",
    "rowid": "1191588",
    "final_x": "3664071.29044",
    "final_y": "543682.75579",
    "longitude": "-90.12269838341616",
    "latitude": "29.98945689752274",
    "geocoded_column": {
      "latitude": "29.98945689752274",
      "longitude": "-90.12269838341616"
    }
  },
  {
    "service_request": "2025-1191587",
    "request_type": "Trash/Recycling",
    "request_reason": "Order Recycling Cart",
    "date_created": "2025-05-12T20:52:58.000",
    "date_modified": "2025-05-12T20:53:01.000",
    "request_status": "Pending",
    "responsible_agency": "Department of Sanitation",
    "final_address": "1347 Moss St",
    "address_councildis": "A",
    "status": "Pending",
    "rowid": "1191587",
    "final_x": "3674775.9876",
    "final_y": "540519.565323",
    "longitude": "-90.08899375693768",
    "latitude": "29.98044388613289",
    "geocoded_column": {
      "latitude": "29.98044388613289",
      "longitude": "-90.08899375693768"
    }
  },
  {
    "service_request": "2025-1191586",
    "request_type": "Mosquito, Termite & Rodent Control",
    "request_reason": "Mosquito Complaint",
    "date_created": "2025-05-12T20:51:12.000",
    "date_modified": "2025-05-12T20:51:15.000",
    "request_status": "Pending",
    "responsible_agency": "Mosquito, Termite & Rodent Control Board",
    "final_address": "1617 Reynes St",
    "address_councildis": "E",
    "status": "Pending",
    "rowid": "1191586",
    "final_x": "3696570.92682",
    "final_y": "536270.618247",
    "longitude": "-90.0203101227816",
    "latitude": "29.968092005587337",
    "geocoded_column": {
      "latitude": "29.968092005587337",
      "longitude": "-90.0203101227816"
    }
  },
  {
    "service_request": "2025-1191585",
    "request_type": "Trash/Recycling",
    "request_reason": "Request a Large Item Pick Up",
    "date_created": "2025-05-12T20:44:40.000",
    "date_modified": "2025-05-12T20:44:42.000",
    "request_status": "Pending",
    "responsible_agency": "Department of Sanitation",
    "final_address": "904 Pacific Ave",
    "address_councildis": "C",
    "status": "Assigned to Contractor",
    "contractor": "Richards Disposal",
    "rowid": "1191585",
    "final_x": "3688480.36265",
    "final_y": "528245.316992",
    "longitude": "-90.04614507016852",
    "latitude": "29.94627764183598",
    "geocoded_column": {
      "latitude": "29.94627764183598",
      "longitude": "-90.04614507016852"
    }
  },
  {
    "service_request": "2025-1191584",
    "request_type": "Trash/Recycling",
    "request_reason": "Request a Large Item Pick Up",
    "date_created": "2025-05-12T20:34:13.000",
    "date_modified": "2025-05-12T20:34:14.000",
    "request_status": "Pending",
    "responsible_agency": "Department of Sanitation",
    "final_address": "203 Audubon Blvd",
    "address_councildis": "A",
    "status": "Assigned to Contractor",
    "contractor": "IV Waste",
    "rowid": "1191584",
    "final_x": "3666360.57639",
    "final_y": "528402.465856",
    "longitude": "-90.11597993864528",
    "latitude": "29.947374463402497",
    "geocoded_column": {
      "latitude": "29.947374463402497",
      "longitude": "-90.11597993864528"
    }
  },
  {
    "service_request": "2025-1191583",
    "request_type": "Trash/Recycling",
    "request_reason": "Order Recycling Cart",
    "date_created": "2025-05-12T20:31:16.000",
    "date_modified": "2025-05-12T20:31:19.000",
    "request_status": "Pending",
    "responsible_agency": "Department of Sanitation",
    "final_address": "3014 Bienville Ave",
    "address_councildis": "B",
    "status": "Pending",
    "rowid": "1191583",
    "final_x": "3674671.89256",
    "final_y": "536533.477319",
    "longitude": "-90.0894592034039",
    "latitude": "29.96948661142675",
    "geocoded_column": {
      "latitude": "29.96948661142675",
      "longitude": "-90.0894592034039"
    }
  },
  {
    "service_request": "2025-1191582",
    "request_type": "Roads and Streets",
    "request_reason": "Sidewalk Damaged or Missing",
    "date_created": "2025-05-12T20:11:31.000",
    "date_modified": "2025-05-12T20:11:33.000",
    "request_status": "Pending",
    "responsible_agency": "Department of Public Works",
    "final_address": "7737 Panola St",
    "address_councildis": "A",
    "status": "Pending",
    "rowid": "1191582",
    "final_x": "3665012.00576",
    "final_y": "529985.274113",
    "longitude": "-90.12018499951277",
    "latitude": "29.951766000964376",
    "geocoded_column": {
      "latitude": "29.951766000964376",
      "longitude": "-90.12018499951277"
    }
  },
  {
    "service_request": "2025-1191581",
    "request_type": "Streetlights",
    "request_reason": "Streetlight Outage/Malfunction",
    "date_created": "2025-05-12T20:07:42.000",
    "date_modified": "2025-05-12T20:07:43.000",
    "request_status": "Pending",
    "responsible_agency": "Department of Public Works",
    "final_address": "5661 Catina St",
    "address_councildis": "A",
    "status": "Pending",
    "contractor": "Legacy Professional Services",
    "rowid": "1191581",
    "final_x": "3666704.69473",
    "final_y": "545226.211919",
    "longitude": "-90.11432831278773",
    "latitude": "29.993624108255926",
    "geocoded_column": {
      "latitude": "29.993624108255926",
      "longitude": "-90.11432831278773"
    }
  },
  {
    "service_request": "2025-1191580",
    "request_type": "Streetlights",
    "request_reason": "Streetlight Outage/Malfunction",
    "date_created": "2025-05-12T20:06:56.000",
    "date_modified": "2025-05-12T20:06:57.000",
    "request_status": "Pending",
    "responsible_agency": "Department of Public Works",
    "final_address": "5661 Catina St",
    "address_councildis": "A",
    "status": "Pending",
    "contractor": "Legacy Professional Services",
    "rowid": "1191580",
    "final_x": "3666704.69473",
    "final_y": "545226.211919",
    "longitude": "-90.11432831278773",
    "latitude": "29.993624108255926",
    "geocoded_column": {
      "latitude": "29.993624108255926",
      "longitude": "-90.11432831278773"
    }
  },
  {
    "service_request": "2025-1191579",
    "request_type": "Streetlights",
    "request_reason": "Streetlight Outage/Malfunction",
    "date_created": "2025-05-12T20:05:48.000",
    "date_modified": "2025-05-12T20:05:49.000",
    "request_status": "Pending",
    "responsible_agency": "Department of Public Works",
    "final_address": "5661 Catina St",
    "address_councildis": "A",
    "status": "Pending",
    "contractor": "Legacy Professional Services",
    "rowid": "1191579",
    "final_x": "3666704.69473",
    "final_y": "545226.211919",
    "longitude": "-90.11432831278773",
    "latitude": "29.993624108255926",
    "geocoded_column": {
      "latitude": "29.993624108255926",
      "longitude": "-90.11432831278773"
    }
  },
  {
    "service_request": "2025-1191578",
    "request_type": "Streetlights",
    "request_reason": "Streetlight Outage/Malfunction",
    "date_created": "2025-05-12T20:04:54.000",
    "date_modified": "2025-05-12T20:04:56.000",
    "request_status": "Pending",
    "responsible_agency": "Department of Public Works",
    "final_address": "5661 Catina St",
    "address_councildis": "A",
    "status": "Pending",
    "contractor": "Legacy Professional Services",
    "rowid": "1191578",
    "final_x": "3666704.69473",
    "final_y": "545226.211919",
    "longitude": "-90.11432831278773",
    "latitude": "29.993624108255926",
    "geocoded_column": {
      "latitude": "29.993624108255926",
      "longitude": "-90.11432831278773"
    }
  },
  {
    "service_request": "2025-1191577",
    "request_type": "Trash/Recycling",
    "request_reason": "Dead Animal Pick Up",
    "date_created": "2025-05-12T19:59:53.000",
    "date_modified": "2025-05-12T19:59:55.000",
    "request_status": "Pending",
    "responsible_agency": "Department of Sanitation",
    "final_address": "6752 Fleur-De-Lis Dr",
    "address_councildis": "A",
    "status": "Assigned to Contractor",
    "contractor": "IV Waste",
    "rowid": "1191577",
    "final_x": "3665373.98196",
    "final_y": "553178.133207",
    "longitude": "-90.11826548246938",
    "latitude": "30.015528002061245",
    "geocoded_column": {
      "latitude": "30.015528002061245",
      "longitude": "-90.11826548246938"
    }
  },
  {
    "service_request": "2025-1191576",
    "request_type": "Traffic Signals",
    "request_reason": "Traffic Signal Malfunctioning or Damaged",
    "date_created": "2025-05-12T19:59:30.000",
    "date_modified": "2025-05-12T19:59:31.000",
    "request_status": "Pending",
    "responsible_agency": "Department of Public Works",
    "final_address": "1500 St Charles Ave",
    "address_councildis": "B",
    "status": "Pending",
    "rowid": "1191576",
    "final_x": "3679261.02024",
    "final_y": "525418.112765",
    "longitude": "-90.07535174580558",
    "latitude": "29.938785322182135",
    "geocoded_column": {
      "latitude": "29.938785322182135",
      "longitude": "-90.07535174580558"
    }
  },
  {
    "service_request": "2025-1191575",
    "request_type": "Trash/Recycling",
    "request_reason": "Request a Large Item Pick Up",
    "date_created": "2025-05-12T19:58:44.000",
    "date_modified": "2025-05-12T19:58:46.000",
    "request_status": "Pending",
    "responsible_agency": "Department of Sanitation",
    "final_address": "342 40Th St",
    "address_councildis": "A",
    "status": "Assigned to Contractor",
    "contractor": "IV Waste",
    "rowid": "1191575",
    "final_x": "3665071.94253",
    "final_y": "553311.063063",
    "longitude": "-90.1192153420628",
    "latitude": "30.015902315914847",
    "geocoded_column": {
      "latitude": "30.015902315914847",
      "longitude": "-90.1192153420628"
    }
  },
  {
    "service_request": "2025-1191574",
    "request_type": "Roads and Streets",
    "request_reason": "Road Shoulder Damage",
    "date_created": "2025-05-12T19:38:12.000",
    "date_modified": "2025-05-12T19:38:13.000",
    "request_status": "Pending",
    "responsible_agency": "Department of Public Works",
    "final_address": "7500 Surf St",
    "address_councildis": "E",
    "status": "Pending",
    "rowid": "1191574",
    "final_x": "3715900.75237",
    "final_y": "568589.648613",
    "longitude": "-89.95804147866413",
    "latitude": "30.05633344941775",
    "geocoded_column": {
      "latitude": "30.05633344941775",
      "longitude": "-89.95804147866413"
    }
  },
  {
    "service_request": "2025-1191573",
    "request_type": "Street and Traffic Signs",
    "request_reason": "Additional Signage Request",
    "date_created": "2025-05-12T19:12:07.000",
    "date_modified": "2025-05-12T19:12:10.000",
    "request_status": "Pending",
    "responsible_agency": "Department of Public Works",
    "final_address": "1033 Cambronne St",
    "address_councildis": "A",
    "status": "Pending",
    "rowid": "1191573",
    "final_x": "3660900.95424",
    "final_y": "528746.14848",
    "longitude": "-90.13320678438693",
    "latitude": "29.94847784242557",
    "geocoded_column": {
      "latitude": "29.94847784242557",
      "longitude": "-90.13320678438693"
    }
  },
  {
    "service_request": "2025-1191572",
    "request_type": "Tax and Revenue",
    "request_reason": "Sales Tax Question",
    "date_created": "2025-05-12T18:55:29.000",
    "date_modified": "2025-05-12T18:55:30.000",
    "request_status": "Pending",
    "responsible_agency": "Bureau of Revenue",
    "final_address": "916 Navarre St",
    "address_councildis": "A",
    "status": "Pending",
    "rowid": "1191572",
    "final_x": "3669585.29594",
    "final_y": "543436.267854",
    "longitude": "-90.1052895066315",
    "latitude": "29.988617798298304",
    "geocoded_column": {
      "latitude": "29.988617798298304",
      "longitude": "-90.1052895066315"
    }
  },
  {
    "service_request": "2025-1191571",
    "request_type": "Drainage",
    "request_reason": "Street Flooding",
    "date_created": "2025-05-12T18:26:34.000",
    "date_modified": "2025-05-12T18:26:37.000",
    "request_status": "Pending",
    "responsible_agency": "Sewerage & Water Board",
    "final_address": "2341 Mendez St",
    "address_councildis": "D",
    "status": "Pending",
    "rowid": "1191571",
    "final_x": "3684800.87548",
    "final_y": "553546.050775",
    "longitude": "-90.05687257701973",
    "latitude": "30.015958891368566",
    "geocoded_column": {
      "latitude": "30.015958891368566",
      "longitude": "-90.05687257701973"
    }
  },
  {
    "service_request": "2025-1191570",
    "request_type": "Trash/Recycling",
    "request_reason": "Order Recycling Cart",
    "date_created": "2025-05-12T18:15:53.000",
    "date_modified": "2025-05-12T18:15:55.000",
    "request_status": "Pending",
    "responsible_agency": "Department of Sanitation",
    "final_address": "7540 Ligustrum Dr",
    "address_councildis": "E",
    "status": "Pending",
    "rowid": "1191570",
    "final_x": "3701508.27255",
    "final_y": "560958.916638",
    "longitude": "-90.00381325912241",
    "latitude": "30.03581907414187",
    "geocoded_column": {
      "latitude": "30.03581907414187",
      "longitude": "-90.00381325912241"
    }
  },
  {
    "service_request": "2025-1191569",
    "request_type": "Trash/Recycling",
    "request_reason": "Order Recycling Cart",
    "date_created": "2025-05-12T18:03:35.000",
    "date_modified": "2025-05-12T18:03:38.000",
    "request_status": "Pending",
    "responsible_agency": "Department of Sanitation",
    "final_address": "1020 Third St",
    "address_councildis": "B",
    "status": "Pending",
    "rowid": "1191569",
    "final_x": "3677640.45941",
    "final_y": "520974.025337",
    "longitude": "-90.08062143003492",
    "latitude": "29.926614358179837",
    "geocoded_column": {
      "latitude": "29.926614358179837",
      "longitude": "-90.08062143003492"
    }
  },
  {
    "service_request": "2025-1191568",
    "request_type": "Trash/Recycling",
    "request_reason": "Request a Large Item Pick Up",
    "date_created": "2025-05-12T17:57:57.000",
    "date_modified": "2025-05-12T17:57:59.000",
    "request_status": "Pending",
    "responsible_agency": "Department of Sanitation",
    "final_address": "7625 Lady Gray St",
    "address_councildis": "E",
    "status": "Assigned to Contractor",
    "contractor": "Waste Pro",
    "rowid": "1191568",
    "final_x": "3709993.01029",
    "final_y": "565324.215266",
    "longitude": "-89.97683687860402",
    "latitude": "30.04754847379839",
    "geocoded_column": {
      "latitude": "30.04754847379839",
      "longitude": "-89.97683687860402"
    }
  },
  {
    "service_request": "2025-1191567",
    "request_type": "Roads and Streets",
    "request_reason": "Pothole",
    "date_created": "2025-05-12T17:29:41.000",
    "date_modified": "2025-05-12T17:29:43.000",
    "request_status": "Pending",
    "responsible_agency": "Department of Public Works",
    "final_address": "717 Orleans Ave",
    "address_councildis": "C",
    "status": "Pending",
    "rowid": "1191567",
    "final_x": "3682502.39119",
    "final_y": "532793.756676",
    "longitude": "-90.06486060910726",
    "latitude": "29.958967606776813",
    "geocoded_column": {
      "latitude": "29.958967606776813",
      "longitude": "-90.06486060910726"
    }
  },
  {
    "service_request": "2025-1191566",
    "request_type": "Trash/Recycling",
    "request_reason": "Request a Large Item Pick Up",
    "date_created": "2025-05-12T17:17:37.000",
    "date_modified": "2025-05-12T17:17:40.000",
    "request_status": "Pending",
    "responsible_agency": "Department of Sanitation",
    "final_address": "5543 Press Dr",
    "address_councildis": "D",
    "status": "Assigned to Contractor",
    "contractor": "IV Waste",
    "rowid": "1191566",
    "final_x": "3689462.26646",
    "final_y": "553744.023383",
    "longitude": "-90.04213765739752",
    "latitude": "30.016359636764395",
    "geocoded_column": {
      "latitude": "30.016359636764395",
      "longitude": "-90.04213765739752"
    }
  },
  {
    "service_request": "2025-1191565",
    "request_type": "Trash/Recycling",
    "request_reason": "Request a Large Item Pick Up",
    "date_created": "2025-05-12T17:04:53.000",
    "date_modified": "2025-05-12T17:04:55.000",
    "request_status": "Pending",
    "responsible_agency": "Department of Sanitation",
    "final_address": "2414 State St",
    "address_councildis": "A",
    "status": "Assigned to Contractor",
    "contractor": "IV Waste",
    "rowid": "1191565",
    "final_x": "3666677.11079",
    "final_y": "525561.475901",
    "longitude": "-90.11507588472683",
    "latitude": "29.939553406201547",
    "geocoded_column": {
      "latitude": "29.939553406201547",
      "longitude": "-90.11507588472683"
    }
  },
  {
    "service_request": "2025-1191564",
    "request_type": "Trash/Recycling",
    "request_reason": "Order Second Trash Cart",
    "date_created": "2025-05-12T16:59:06.000",
    "date_modified": "2025-05-12T16:59:09.000",
    "request_status": "Pending",
    "responsible_agency": "Department of Sanitation",
    "final_address": "2719 Pine St",
    "address_councildis": "B",
    "status": "Assigned to Contractor",
    "contractor": "IV Waste",
    "rowid": "1191564",
    "final_x": "3667064.95809",
    "final_y": "531326.021954",
    "longitude": "-90.11365767177112",
    "latitude": "29.95539269486613",
    "geocoded_column": {
      "latitude": "29.95539269486613",
      "longitude": "-90.11365767177112"
    }
  },
  {
    "service_request": "2025-1191563",
    "request_type": "Utility Poles",
    "request_reason": "Wires Sagging/Hanging Low",
    "date_created": "2025-05-12T16:56:30.000",
    "date_modified": "2025-05-12T16:56:33.000",
    "request_status": "Pending",
    "responsible_agency": "Utility Company Collective",
    "final_address": "815 Leontine St",
    "address_councildis": "B",
    "status": "Pending",
    "rowid": "1191563",
    "final_x": "3667173.42644",
    "final_y": "518443.944438",
    "longitude": "-90.11374811573283",
    "latitude": "29.919967937328273",
    "geocoded_column": {
      "latitude": "29.919967937328273",
      "longitude": "-90.11374811573283"
    }
  },
  {
    "service_request": "2025-1191562",
    "request_type": "Trash/Recycling",
    "request_reason": "Order Trash Cart",
    "date_created": "2025-05-12T16:54:29.000",
    "date_modified": "2025-05-12T16:54:30.000",
    "request_status": "Pending",
    "responsible_agency": "Department of Sanitation",
    "final_address": "2224 Eads St",
    "address_councildis": "D",
    "status": "Assigned to Contractor",
    "contractor": "IV Waste",
    "rowid": "1191562",
    "final_x": "3687887.13999",
    "final_y": "540844.310539",
    "longitude": "-90.04757170641568",
    "latitude": "29.98093880448291",
    "geocoded_column": {
      "latitude": "29.98093880448291",
      "longitude": "-90.04757170641568"
    }
  },
  {
    "service_request": "2025-1191561",
    "request_type": "Street and Traffic Signs",
    "request_reason": "Additional Signage Request",
    "date_created": "2025-05-12T16:52:42.000",
    "date_modified": "2025-05-12T16:54:55.000",
    "request_status": "Pending",
    "responsible_agency": "Department of Public Works",
    "final_address": "1500 BLK Iberville St",
    "address_councildis": "C",
    "status": "Pending",
    "rowid": "1191561",
    "final_x": "3679085.34947",
    "final_y": "532810.058511",
    "longitude": "-90.0756502071695",
    "latitude": "29.959116001629294",
    "geocoded_column": {
      "latitude": "29.959116001629294",
      "longitude": "-90.0756502071695"
    }
  },
  {
    "service_request": "2025-1191560",
    "request_type": "Trash/Recycling",
    "request_reason": "Return Trash Cart",
    "date_created": "2025-05-12T16:46:58.000",
    "date_modified": "2025-05-12T16:47:44.000",
    "request_status": "Pending",
    "responsible_agency": "Department of Sanitation",
    "final_address": "922 Joseph St",
    "address_councildis": "A",
    "status": "Assigned to Contractor",
    "contractor": "IV Waste",
    "rowid": "1191560",
    "final_x": "3666187.84583",
    "final_y": "519398.759031",
    "longitude": "-90.11682713126949",
    "latitude": "29.92262218538632",
    "geocoded_column": {
      "latitude": "29.92262218538632",
      "longitude": "-90.11682713126949"
    }
  },
  {
    "service_request": "2025-1191559",
    "request_type": "Trash/Recycling",
    "request_reason": "Request a Large Item Pick Up",
    "date_created": "2025-05-12T16:40:10.000",
    "date_modified": "2025-05-12T16:40:12.000",
    "request_status": "Pending",
    "responsible_agency": "Department of Sanitation",
    "final_address": "505 S Alexander St",
    "address_councildis": "A",
    "status": "Assigned to Contractor",
    "contractor": "IV Waste",
    "rowid": "1191559",
    "final_x": "3668957.11598",
    "final_y": "537869.314313",
    "longitude": "-90.10746186202262",
    "latitude": "29.97332905908107",
    "geocoded_column": {
      "latitude": "29.97332905908107",
      "longitude": "-90.10746186202262"
    }
  },
  {
    "service_request": "2025-1191558",
    "request_type": "Property Maintenance",
    "request_reason": "Property Maintenance",
    "date_created": "2025-05-12T16:31:23.000",
    "date_modified": "2025-05-12T16:31:25.000",
    "request_status": "Pending",
    "responsible_agency": "Department of Code Enforcement",
    "final_address": "5614 N Johnson St",
    "address_councildis": "E",
    "status": "Pending",
    "rowid": "1191558",
    "final_x": "3699073.00266",
    "final_y": "536974.98292",
    "longitude": "-90.0123828761748",
    "latitude": "29.969949681746968",
    "geocoded_column": {
      "latitude": "29.969949681746968",
      "longitude": "-90.0123828761748"
    }
  },
  {
    "service_request": "2025-1191557",
    "request_type": "Trash/Recycling",
    "request_reason": "Request a Large Item Pick Up",
    "date_created": "2025-05-12T16:30:51.000",
    "date_modified": "2025-05-12T16:30:53.000",
    "request_status": "Pending",
    "responsible_agency": "Department of Sanitation",
    "final_address": "545 Octavia St",
    "address_councildis": "A",
    "status": "Assigned to Contractor",
    "contractor": "IV Waste",
    "rowid": "1191557",
    "final_x": "3666342.44058",
    "final_y": "518230.934198",
    "longitude": "-90.11637828707903",
    "latitude": "29.91940651979187",
    "geocoded_column": {
      "latitude": "29.91940651979187",
      "longitude": "-90.11637828707903"
    }
  },
  {
    "service_request": "2025-1191556",
    "request_type": "Abandoned Vehicles",
    "request_reason": "Abandoned/Junk Vehicles",
    "date_created": "2025-05-12T16:28:07.000",
    "date_modified": "2025-05-12T16:28:09.000",
    "request_status": "Pending",
    "responsible_agency": "Department of Public Works",
    "final_address": "4120 Pitt St",
    "address_councildis": "B",
    "status": "Pending",
    "rowid": "1191556",
    "final_x": "3671793.08596",
    "final_y": "520625.007416",
    "longitude": "-90.09909189639845",
    "latitude": "29.925829155507298",
    "geocoded_column": {
      "latitude": "29.925829155507298",
      "longitude": "-90.09909189639845"
    }
  },
  {
    "service_request": "2025-1191555",
    "request_type": "Trash/Recycling",
    "request_reason": "Request a Large Item Pick Up",
    "date_created": "2025-05-12T16:26:46.000",
    "date_modified": "2025-05-12T16:26:48.000",
    "request_status": "Pending",
    "responsible_agency": "Department of Sanitation",
    "final_address": "300 S Scott St",
    "address_councildis": "A",
    "status": "Assigned to Contractor",
    "contractor": "IV Waste",
    "rowid": "1191555",
    "final_x": "3671300.9931",
    "final_y": "537143.074696",
    "longitude": "-90.1000840875345",
    "latitude": "29.971262986826474",
    "geocoded_column": {
      "latitude": "29.971262986826474",
      "longitude": "-90.1000840875345"
    }
  },
  {
    "service_request": "2025-1191554",
    "request_type": "Trash/Recycling",
    "request_reason": "Request a Large Item Pick Up",
    "date_created": "2025-05-12T16:25:23.000",
    "date_modified": "2025-05-12T16:25:25.000",
    "request_status": "Pending",
    "responsible_agency": "Department of Sanitation",
    "final_address": "7562 Marquis St",
    "address_councildis": "E",
    "status": "Assigned to Contractor",
    "contractor": "Waste Pro",
    "rowid": "1191554",
    "final_x": "3711429.90475",
    "final_y": "565923.510115",
    "longitude": "-89.97227304181102",
    "latitude": "30.049149441461772",
    "geocoded_column": {
      "latitude": "30.049149441461772",
      "longitude": "-89.97227304181102"
    }
  },
  {
    "service_request": "2025-1191553",
    "request_type": "Street and Traffic Signs",
    "request_reason": "Stop Sign Missing or Damaged",
    "date_created": "2025-05-12T16:19:04.000",
    "date_modified": "2025-05-12T16:19:06.000",
    "request_status": "Pending",
    "responsible_agency": "Department of Public Works",
    "final_address": "CHEROKEE ST & MAPLE ST",
    "address_councildis": "A",
    "status": "Pending",
    "rowid": "1191553",
    "final_x": "3662593.3",
    "final_y": "525897.98",
    "longitude": "-90.12795791650288",
    "latitude": "29.94059744199086",
    "geocoded_column": {
      "latitude": "29.94059744199086",
      "longitude": "-90.12795791650288"
    }
  },
  {
    "service_request": "2025-1191552",
    "request_type": "Streetlights",
    "request_reason": "Streetlight Outage/Malfunction",
    "date_created": "2025-05-12T16:14:21.000",
    "date_modified": "2025-05-12T16:14:23.000",
    "request_status": "Pending",
    "responsible_agency": "Department of Public Works",
    "final_address": "3701 Behrman Pl",
    "address_councildis": "C",
    "status": "Pending",
    "contractor": "Legacy Professional Services",
    "rowid": "1191552",
    "final_x": "3697532.11869",
    "final_y": "517224.025461",
    "longitude": "-90.01796514836522",
    "latitude": "29.915690177619858",
    "geocoded_column": {
      "latitude": "29.915690177619858",
      "longitude": "-90.01796514836522"
    }
  },
  {
    "service_request": "2025-1191551",
    "request_type": "Parks & Parkways",
    "request_reason": "Tree Stump (removal, grind)",
    "date_created": "2025-05-12T16:13:38.000",
    "date_modified": "2025-05-12T16:13:40.000",
    "request_status": "Pending",
    "responsible_agency": "Department of Parks & Parkway",
    "final_address": "1784 Rosiere St",
    "address_councildis": "D",
    "status": "Pending",
    "rowid": "1191551",
    "final_x": "3678827.57973",
    "final_y": "542051.638604",
    "longitude": "-90.07614399567126",
    "latitude": "29.98453495184527",
    "geocoded_column": {
      "latitude": "29.98453495184527",
      "longitude": "-90.07614399567126"
    }
  },
  {
    "service_request": "2025-1191550",
    "request_type": "Abandoned Vehicles",
    "request_reason": "Abandoned/Junk Vehicles",
    "date_created": "2025-05-12T16:12:42.000",
    "date_modified": "2025-05-12T16:12:44.000",
    "request_status": "Pending",
    "responsible_agency": "Department of Public Works",
    "final_address": "1500 BLK Rev. John Raphael, Jr. Way",
    "address_councildis": "B",
    "status": "Pending",
    "rowid": "1191550",
    "final_x": "3676556.53136",
    "final_y": "526996.499929",
    "longitude": "-90.08383578547736",
    "latitude": "29.943206732115815",
    "geocoded_column": {
      "latitude": "29.943206732115815",
      "longitude": "-90.08383578547736"
    }
  },
  {
    "service_request": "2025-1191549",
    "request_type": "Abandoned Vehicles",
    "request_reason": "Abandoned/Junk Vehicles",
    "date_created": "2025-05-12T16:12:27.000",
    "date_modified": "2025-05-12T16:12:29.000",
    "request_status": "Pending",
    "responsible_agency": "Department of Public Works",
    "final_address": "UPPERLINE ST & WILLOW ST",
    "address_councildis": "B",
    "status": "Pending",
    "rowid": "1191549",
    "final_x": "3669217.0",
    "final_y": "525309.98",
    "longitude": "-90.10706558366319",
    "latitude": "29.938787376874554",
    "geocoded_column": {
      "latitude": "29.938787376874554",
      "longitude": "-90.10706558366319"
    }
  },
  {
    "service_request": "2025-1191548",
    "request_type": "Abandoned Vehicles",
    "request_reason": "Abandoned/Junk Vehicles",
    "date_created": "2025-05-12T16:10:24.000",
    "date_modified": "2025-05-12T16:10:25.000",
    "request_status": "Pending",
    "responsible_agency": "Department of Public Works",
    "final_address": "1500 BLK Rev. John Raphael, Jr. Way",
    "address_councildis": "B",
    "status": "Pending",
    "rowid": "1191548",
    "final_x": "3676556.53136",
    "final_y": "526996.499929",
    "longitude": "-90.08383578547736",
    "latitude": "29.943206732115815",
    "geocoded_column": {
      "latitude": "29.943206732115815",
      "longitude": "-90.08383578547736"
    }
  },
  {
    "service_request": "2025-1191547",
    "request_type": "Roads and Streets",
    "request_reason": "Road Shoulder Damage",
    "date_created": "2025-05-12T16:10:17.000",
    "date_modified": "2025-05-12T16:10:18.000",
    "request_status": "Pending",
    "responsible_agency": "Department of Public Works",
    "final_address": "2708 Urquhart St",
    "address_councildis": "C",
    "status": "Pending",
    "rowid": "1191547",
    "final_x": "3687691.26665",
    "final_y": "537067.913736",
    "longitude": "-90.04832412199688",
    "latitude": "29.97056108554226",
    "geocoded_column": {
      "latitude": "29.97056108554226",
      "longitude": "-90.04832412199688"
    }
  },
  {
    "service_request": "2025-1191546",
    "request_type": "Trash/Recycling",
    "request_reason": "Request a Large Item Pick Up",
    "date_created": "2025-05-12T16:09:36.000",
    "date_modified": "2025-05-12T16:09:38.000",
    "request_status": "Pending",
    "responsible_agency": "Department of Sanitation",
    "final_address": "328 S Clark St",
    "address_councildis": "B",
    "status": "Assigned to Contractor",
    "contractor": "IV Waste",
    "rowid": "1191546",
    "final_x": "3672267.35739",
    "final_y": "536144.735431",
    "longitude": "-90.09706618568343",
    "latitude": "29.968489256231194",
    "geocoded_column": {
      "latitude": "29.968489256231194",
      "longitude": "-90.09706618568343"
    }
  },
  {
    "service_request": "2025-1191545",
    "request_type": "Trash/Recycling",
    "request_reason": "Request a Large Item Pick Up",
    "date_created": "2025-05-12T16:07:48.000",
    "date_modified": "2025-05-12T16:07:50.000",
    "request_status": "Pending",
    "responsible_agency": "Department of Sanitation",
    "final_address": "11412 Campbell Ln",
    "address_councildis": "E",
    "status": "Assigned to Contractor",
    "contractor": "Waste Pro",
    "rowid": "1191545",
    "final_x": "3718003.88178",
    "final_y": "561318.794974",
    "longitude": "-89.95167103494012",
    "latitude": "30.036272002757624",
    "geocoded_column": {
      "latitude": "30.036272002757624",
      "longitude": "-89.95167103494012"
    }
  },
  {
    "service_request": "2025-1191544",
    "request_type": "Trash/Recycling",
    "request_reason": "Request a Large Item Pick Up",
    "date_created": "2025-05-12T16:07:12.000",
    "date_modified": "2025-05-12T16:07:14.000",
    "request_status": "Pending",
    "responsible_agency": "Department of Sanitation",
    "final_address": "12540 Carmel Pl",
    "address_councildis": "E",
    "status": "Assigned to Contractor",
    "contractor": "Waste Pro",
    "rowid": "1191544",
    "final_x": "3716537.90783",
    "final_y": "566906.62378",
    "longitude": "-89.95609150059532",
    "latitude": "30.051684780951163",
    "geocoded_column": {
      "latitude": "30.051684780951163",
      "longitude": "-89.95609150059532"
    }
  },
  {
    "service_request": "2025-1191543",
    "request_type": "Parks & Parkways",
    "request_reason": "Tree Stump (removal, grind)",
    "date_created": "2025-05-12T16:07:07.000",
    "date_modified": "2025-05-12T16:07:10.000",
    "request_status": "Pending",
    "responsible_agency": "Department of Parks & Parkway",
    "final_address": "1784 Rosiere St",
    "address_councildis": "D",
    "status": "Pending",
    "rowid": "1191543",
    "final_x": "3678827.57973",
    "final_y": "542051.638604",
    "longitude": "-90.07614399567126",
    "latitude": "29.98453495184527",
    "geocoded_column": {
      "latitude": "29.98453495184527",
      "longitude": "-90.07614399567126"
    }
  },
  {
    "service_request": "2025-1191542",
    "request_type": "Trash/Recycling",
    "request_reason": "Request a Large Item Pick Up",
    "date_created": "2025-05-12T16:05:07.000",
    "date_modified": "2025-05-12T16:05:10.000",
    "request_status": "Pending",
    "responsible_agency": "Department of Sanitation",
    "final_address": "10940 Harrow Rd",
    "address_councildis": "E",
    "status": "Assigned to Contractor",
    "contractor": "Waste Pro",
    "rowid": "1191542",
    "final_x": "3711778.88235",
    "final_y": "563817.623201",
    "longitude": "-89.97124919197346",
    "latitude": "30.043347700071017",
    "geocoded_column": {
      "latitude": "30.043347700071017",
      "longitude": "-89.97124919197346"
    }
  },
  {
    "service_request": "2025-1191541",
    "request_type": "Trash/Recycling",
    "request_reason": "Illegal Dumping",
    "date_created": "2025-05-12T15:57:40.000",
    "date_modified": "2025-05-12T15:57:41.000",
    "request_status": "Pending",
    "responsible_agency": "Department of Sanitation",
    "final_address": "6921 Salem Dr",
    "address_councildis": "E",
    "status": "Pending",
    "rowid": "1191541",
    "final_x": "3706899.27447",
    "final_y": "560406.37315",
    "longitude": "-89.9867973714592",
    "latitude": "30.034126701362325",
    "geocoded_column": {
      "latitude": "30.034126701362325",
      "longitude": "-89.9867973714592"
    }
  },
  {
    "service_request": "2025-1191540",
    "request_type": "Trash/Recycling",
    "request_reason": "Return Recycling Cart",
    "date_created": "2025-05-12T15:55:05.000",
    "date_modified": "2025-05-12T15:55:09.000",
    "request_status": "Pending",
    "responsible_agency": "Department of Sanitation",
    "final_address": "307 New Orleans-Hammond Hwy",
    "address_councildis": "A",
    "status": "Pending",
    "rowid": "1191540",
    "final_x": "3665799.27015",
    "final_y": "554765.00156",
    "longitude": "-90.11686853374997",
    "latitude": "30.019878924744866",
    "geocoded_column": {
      "latitude": "30.019878924744866",
      "longitude": "-90.11686853374997"
    }
  },
  {
    "service_request": "2025-1191539",
    "request_type": "Trash/Recycling",
    "request_reason": "Request a Large Item Pick Up",
    "date_created": "2025-05-12T15:53:24.000",
    "date_modified": "2025-05-12T15:53:25.000",
    "request_status": "Pending",
    "responsible_agency": "Department of Sanitation",
    "final_address": "8041 Wave Dr",
    "address_councildis": "E",
    "status": "Assigned to Contractor",
    "contractor": "Waste Pro",
    "rowid": "1191539",
    "final_x": "3714065.3964",
    "final_y": "570122.969447",
    "longitude": "-89.96378474204845",
    "latitude": "30.060609893722436",
    "geocoded_column": {
      "latitude": "30.060609893722436",
      "longitude": "-89.96378474204845"
    }
  },
  {
    "service_request": "2025-1191538",
    "request_type": "Trash/Recycling",
    "request_reason": "Return Trash Cart",
    "date_created": "2025-05-12T15:53:14.000",
    "date_modified": "2025-05-12T15:53:16.000",
    "request_status": "Pending",
    "responsible_agency": "Department of Sanitation",
    "final_address": "41 W Park Pl",
    "address_councildis": "A",
    "status": "Assigned to Contractor",
    "contractor": "IV Waste",
    "rowid": "1191538",
    "final_x": "3669972.78612",
    "final_y": "544370.356943",
    "longitude": "-90.10403388853632",
    "latitude": "29.991174797975575",
    "geocoded_column": {
      "latitude": "29.991174797975575",
      "longitude": "-90.10403388853632"
    }
  },
  {
    "service_request": "2025-1191537",
    "request_type": "Streetlights",
    "request_reason": "Streetlight Outage/Malfunction",
    "date_created": "2025-05-12T15:52:45.000",
    "date_modified": "2025-05-12T15:52:47.000",
    "request_status": "Pending",
    "responsible_agency": "Department of Public Works",
    "final_address": "1875 N Miro St",
    "address_councildis": "D",
    "status": "Pending",
    "contractor": "Legacy Professional Services",
    "rowid": "1191537",
    "final_x": "3682378.00245",
    "final_y": "540226.926475",
    "longitude": "-90.06499358292183",
    "latitude": "29.979410043830207",
    "geocoded_column": {
      "latitude": "29.979410043830207",
      "longitude": "-90.06499358292183"
    }
  },
  {
    "service_request": "2025-1191536",
    "request_type": "Street and Traffic Signs",
    "request_reason": "Additional Signage Request",
    "date_created": "2025-05-12T15:51:40.000",
    "date_modified": "2025-05-12T15:51:42.000",
    "request_status": "Pending",
    "responsible_agency": "Department of Public Works",
    "final_address": "4520 S Robertson St",
    "address_councildis": "B",
    "status": "Pending",
    "rowid": "1191536",
    "final_x": "3669918.97223",
    "final_y": "524297.936444",
    "longitude": "-90.10488362793032",
    "latitude": "29.93598390829717",
    "geocoded_column": {
      "latitude": "29.93598390829717",
      "longitude": "-90.10488362793032"
    }
  },
  {
    "service_request": "2025-1191535",
    "request_type": "Trash/Recycling",
    "request_reason": "Repair Trash Cart",
    "date_created": "2025-05-12T15:48:27.000",
    "date_modified": "2025-05-12T15:48:29.000",
    "request_status": "Pending",
    "responsible_agency": "Department of Sanitation",
    "final_address": "2833 Constance St",
    "address_councildis": "B",
    "status": "Assigned to Contractor",
    "contractor": "IV Waste",
    "rowid": "1191535",
    "final_x": "3676999.4436",
    "final_y": "520385.745272",
    "longitude": "-90.08266521218542",
    "latitude": "29.92501603303003",
    "geocoded_column": {
      "latitude": "29.92501603303003",
      "longitude": "-90.08266521218542"
    }
  },
  {
    "service_request": "2025-1191534",
    "request_type": "Abandoned Vehicles",
    "request_reason": "Abandoned/Junk Vehicles",
    "date_created": "2025-05-12T15:48:18.000",
    "date_modified": "2025-05-12T15:48:20.000",
    "request_status": "Pending",
    "responsible_agency": "Department of Public Works",
    "final_address": "4305 Freret St",
    "address_councildis": "B",
    "status": "Pending",
    "rowid": "1191534",
    "final_x": "3670849.33863",
    "final_y": "524112.150204",
    "longitude": "-90.10195273596725",
    "latitude": "29.93544559697131",
    "geocoded_column": {
      "latitude": "29.93544559697131",
      "longitude": "-90.10195273596725"
    }
  },
  {
    "service_request": "2025-1191533",
    "request_type": "Trash/Recycling",
    "request_reason": "Request a Large Item Pick Up",
    "date_created": "2025-05-12T15:47:56.000",
    "date_modified": "2025-05-12T16:45:31.000",
    "request_status": "Pending",
    "responsible_agency": "Department of Sanitation",
    "final_address": "7631 Mercier St",
    "address_councildis": "E",
    "status": "Assigned to Contractor",
    "contractor": "Waste Pro",
    "rowid": "1191533",
    "final_x": "3711573.23973",
    "final_y": "566396.808483",
    "longitude": "-89.9718022461311",
    "latitude": "30.050446138036158",
    "geocoded_column": {
      "latitude": "30.050446138036158",
      "longitude": "-89.9718022461311"
    }
  },
  {
    "service_request": "2025-1191532",
    "request_type": "Roads and Streets",
    "request_reason": "Abandoned Service Cut",
    "date_created": "2025-05-12T15:46:53.000",
    "date_modified": "2025-05-12T15:46:55.000",
    "request_status": "Pending",
    "responsible_agency": "Department of Public Works",
    "final_address": "603 River Oaks Dr",
    "address_councildis": "C",
    "status": "Pending",
    "rowid": "1191532",
    "final_x": "3701453.74634",
    "final_y": "520761.941177",
    "longitude": "-90.00545767302812",
    "latitude": "29.925293863300688",
    "geocoded_column": {
      "latitude": "29.925293863300688",
      "longitude": "-90.00545767302812"
    }
  },
  {
    "service_request": "2025-1191531",
    "request_type": "Trash/Recycling",
    "request_reason": "Replace Trash Cart",
    "date_created": "2025-05-12T15:45:49.000",
    "date_modified": "2025-05-12T15:45:51.000",
    "request_status": "Pending",
    "responsible_agency": "Department of Sanitation",
    "final_address": "4643 Arthur Dr",
    "address_councildis": "E",
    "status": "Assigned to Contractor",
    "contractor": "Waste Pro",
    "rowid": "1191531",
    "final_x": "3707831.25489",
    "final_y": "554800.06332",
    "longitude": "-89.98406083887308",
    "latitude": "30.018681395023204",
    "geocoded_column": {
      "latitude": "30.018681395023204",
      "longitude": "-89.98406083887308"
    }
  },
  {
    "service_request": "2025-1191530",
    "request_type": "Parks & Parkways",
    "request_reason": "Request Tree Service (Right of Way/Public Property)",
    "date_created": "2025-05-12T15:45:01.000",
    "date_modified": "2025-05-12T15:45:02.000",
    "request_status": "Pending",
    "responsible_agency": "Department of Parks & Parkway",
    "final_address": "2833 Bell St",
    "address_councildis": "A",
    "status": "Pending",
    "rowid": "1191530",
    "final_x": "3677115.40584",
    "final_y": "539247.521994",
    "longitude": "-90.08164875249498",
    "latitude": "29.97687614231091",
    "geocoded_column": {
      "latitude": "29.97687614231091",
      "longitude": "-90.08164875249498"
    }
  },
  {
    "service_request": "2025-1191529",
    "request_type": "Trash/Recycling",
    "request_reason": "Replace Trash Cart",
    "date_created": "2025-05-12T15:44:15.000",
    "date_modified": "2025-05-12T15:44:17.000",
    "request_status": "Pending",
    "responsible_agency": "Department of Sanitation",
    "final_address": "2921 St Philip St",
    "address_councildis": "A",
    "status": "Assigned to Contractor",
    "contractor": "IV Waste",
    "rowid": "1191529",
    "final_x": "3676556.61192",
    "final_y": "538566.406473",
    "longitude": "-90.08343706730815",
    "latitude": "29.975020080608815",
    "geocoded_column": {
      "latitude": "29.975020080608815",
      "longitude": "-90.08343706730815"
    }
  },
  {
    "service_request": "2025-1191528",
    "request_type": "Abandoned Vehicles",
    "request_reason": "Abandoned/Junk Vehicles",
    "date_created": "2025-05-12T15:42:00.000",
    "date_modified": "2025-05-12T15:44:30.000",
    "request_status": "Pending",
    "responsible_agency": "Department of Public Works",
    "final_address": "8830 Stroelitz St",
    "address_councildis": "A",
    "status": "Pending",
    "rowid": "1191528",
    "final_x": "3665883.47872",
    "final_y": "536790.598856",
    "longitude": "-90.11720523274704",
    "latitude": "29.97045300989812",
    "geocoded_column": {
      "latitude": "29.97045300989812",
      "longitude": "-90.11720523274704"
    }
  },
  {
    "service_request": "2025-1191527",
    "request_type": "Drainage",
    "request_reason": "Catch Basin Damaged",
    "date_created": "2025-05-12T15:41:31.000",
    "date_modified": "2025-05-12T15:41:34.000",
    "request_status": "Pending",
    "responsible_agency": "Sewerage & Water Board",
    "final_address": "4520 S Robertson St",
    "address_councildis": "B",
    "status": "Pending",
    "rowid": "1191527",
    "final_x": "3669918.97223",
    "final_y": "524297.936444",
    "longitude": "-90.10488362793032",
    "latitude": "29.93598390829717",
    "geocoded_column": {
      "latitude": "29.93598390829717",
      "longitude": "-90.10488362793032"
    }
  },
  {
    "service_request": "2025-1191526",
    "request_type": "Trash/Recycling",
    "request_reason": "Request a Large Item Pick Up",
    "date_created": "2025-05-12T15:38:09.000",
    "date_modified": "2025-05-12T15:38:11.000",
    "request_status": "Pending",
    "responsible_agency": "Department of Sanitation",
    "final_address": "5494 Tullis Dr",
    "address_councildis": "C",
    "status": "Assigned to Contractor",
    "contractor": "Richards Disposal",
    "rowid": "1191526",
    "final_x": "3704425.53745",
    "final_y": "512167.037105",
    "longitude": "-89.99639330142067",
    "latitude": "29.901565798291468",
    "geocoded_column": {
      "latitude": "29.901565798291468",
      "longitude": "-89.99639330142067"
    }
  },
  {
    "service_request": "2025-1191525",
    "request_type": "Mosquito, Termite & Rodent Control",
    "request_reason": "Mosquito Complaint",
    "date_created": "2025-05-12T15:38:03.000",
    "date_modified": "2025-05-12T15:38:04.000",
    "request_status": "Pending",
    "responsible_agency": "Mosquito, Termite & Rodent Control Board",
    "final_address": "423 S Solomon St",
    "address_councildis": "A",
    "status": "Pending",
    "rowid": "1191525",
    "final_x": "3669684.00743",
    "final_y": "537605.832264",
    "longitude": "-90.10517510291825",
    "latitude": "29.972583168970633",
    "geocoded_column": {
      "latitude": "29.972583168970633",
      "longitude": "-90.10517510291825"
    }
  },
  {
    "service_request": "2025-1191524",
    "request_type": "Trash/Recycling",
    "request_reason": "Request a Large Item Pick Up",
    "date_created": "2025-05-12T15:38:00.000",
    "date_modified": "2025-05-12T15:38:02.000",
    "request_status": "Pending",
    "responsible_agency": "Department of Sanitation",
    "final_address": "7347 Read Blvd",
    "address_councildis": "E",
    "status": "Assigned to Contractor",
    "contractor": "Waste Pro",
    "rowid": "1191524",
    "final_x": "3709278.85413",
    "final_y": "563308.174176",
    "longitude": "-89.97916928963214",
    "latitude": "30.042028396015056",
    "geocoded_column": {
      "latitude": "30.042028396015056",
      "longitude": "-89.97916928963214"
    }
  },
  {
    "service_request": "2025-1191523",
    "request_type": "Drainage",
    "request_reason": "Catch Basin Clogged",
    "date_created": "2025-05-12T15:37:53.000",
    "date_modified": "2025-05-12T15:37:54.000",
    "request_status": "Pending",
    "responsible_agency": "Sewerage & Water Board",
    "final_address": "4534 S Robertson St",
    "address_councildis": "B",
    "status": "Pending",
    "rowid": "1191523",
    "final_x": "3669809.87265",
    "final_y": "524290.635772",
    "longitude": "-90.10522830577403",
    "latitude": "29.93596704950747",
    "geocoded_column": {
      "latitude": "29.93596704950747",
      "longitude": "-90.10522830577403"
    }
  },
  {
    "service_request": "2025-1191522",
    "request_type": "Trash/Recycling",
    "request_reason": "Order Trash Cart",
    "date_created": "2025-05-12T15:37:24.000",
    "date_modified": "2025-05-12T15:37:26.000",
    "request_status": "Pending",
    "responsible_agency": "Department of Sanitation",
    "final_address": "5494 Tullis Dr",
    "address_councildis": "C",
    "status": "Assigned to Contractor",
    "contractor": "Richards Disposal",
    "rowid": "1191522",
    "final_x": "3704425.53745",
    "final_y": "512167.037105",
    "longitude": "-89.99639330142067",
    "latitude": "29.901565798291468",
    "geocoded_column": {
      "latitude": "29.901565798291468",
      "longitude": "-89.99639330142067"
    }
  },
  {
    "service_request": "2025-1191521",
    "request_type": "Drainage",
    "request_reason": "Street Flooding",
    "date_created": "2025-05-12T15:34:45.000",
    "date_modified": "2025-05-12T15:34:47.000",
    "request_status": "Pending",
    "responsible_agency": "Sewerage & Water Board",
    "final_address": "4217 Baudin St",
    "address_councildis": "A",
    "status": "Pending",
    "rowid": "1191521",
    "final_x": "3669540.85742",
    "final_y": "537587.578056",
    "longitude": "-90.10562781550783",
    "latitude": "29.972537194164378",
    "geocoded_column": {
      "latitude": "29.972537194164378",
      "longitude": "-90.10562781550783"
    }
  },
  {
    "service_request": "2025-1191520",
    "request_type": "Trash/Recycling",
    "request_reason": "Request a Large Item Pick Up",
    "date_created": "2025-05-12T15:34:08.000",
    "date_modified": "2025-05-12T15:34:10.000",
    "request_status": "Pending",
    "responsible_agency": "Department of Sanitation",
    "final_address": "7161 Bunker Hill Rd",
    "address_councildis": "E",
    "status": "Assigned to Contractor",
    "contractor": "Waste Pro",
    "rowid": "1191520",
    "final_x": "3705648.29534",
    "final_y": "561058.241246",
    "longitude": "-89.99072645793701",
    "latitude": "30.035959444968075",
    "geocoded_column": {
      "latitude": "30.035959444968075",
      "longitude": "-89.99072645793701"
    }
  },
  {
    "service_request": "2025-1191519",
    "request_type": "Trash/Recycling",
    "request_reason": "Replace Trash Cart",
    "date_created": "2025-05-12T15:29:26.000",
    "date_modified": "2025-05-12T15:29:27.000",
    "request_status": "Pending",
    "responsible_agency": "Department of Sanitation",
    "final_address": "128 N Johnson St",
    "address_councildis": "B",
    "status": "Assigned to Contractor",
    "contractor": "IV Waste",
    "rowid": "1191519",
    "final_x": "3677470.23502",
    "final_y": "533879.904197",
    "longitude": "-90.08071341336532",
    "latitude": "29.962106362087958",
    "geocoded_column": {
      "latitude": "29.962106362087958",
      "longitude": "-90.08071341336532"
    }
  },
  {
    "service_request": "2025-1191518",
    "request_type": "Roads and Streets",
    "request_reason": "Debris in Driving Lanes",
    "date_created": "2025-05-12T15:27:41.000",
    "date_modified": "2025-05-12T15:43:25.000",
    "request_status": "Pending",
    "responsible_agency": "Department of Public Works",
    "final_address": "3100 BLK Audubon St",
    "address_councildis": "B",
    "status": "Pending",
    "rowid": "1191518",
    "final_x": "3668232.36363",
    "final_y": "532090.524517",
    "longitude": "-90.10994564321702",
    "latitude": "29.957460605946977",
    "geocoded_column": {
      "latitude": "29.957460605946977",
      "longitude": "-90.10994564321702"
    }
  },
  {
    "service_request": "2025-1191517",
    "request_type": "Abandoned Vehicles",
    "request_reason": "Abandoned/Junk Vehicles",
    "date_created": "2025-05-12T15:26:46.000",
    "date_modified": "2025-05-12T15:26:49.000",
    "request_status": "Pending",
    "responsible_agency": "Department of Public Works",
    "final_address": "933 Soniat St",
    "address_councildis": "B",
    "status": "Pending",
    "rowid": "1191517",
    "final_x": "3668423.55694",
    "final_y": "518864.107063",
    "longitude": "-90.10978788400351",
    "latitude": "29.921086605947718",
    "geocoded_column": {
      "latitude": "29.921086605947718",
      "longitude": "-90.10978788400351"
    }
  },
  {
    "service_request": "2025-1191516",
    "request_type": "Trash/Recycling",
    "request_reason": "Replace Trash Cart",
    "date_created": "2025-05-12T15:24:56.000",
    "date_modified": "2025-05-12T15:24:58.000",
    "request_status": "Pending",
    "responsible_agency": "Department of Sanitation",
    "final_address": "2001 Independence St",
    "address_councildis": "D",
    "status": "Assigned to Contractor",
    "contractor": "IV Waste",
    "rowid": "1191516",
    "final_x": "3691832.15388",
    "final_y": "538925.666762",
    "longitude": "-90.03518029915362",
    "latitude": "29.97554090871235",
    "geocoded_column": {
      "latitude": "29.97554090871235",
      "longitude": "-90.03518029915362"
    }
  },
  {
    "service_request": "2025-1191515",
    "request_type": "Roads and Streets",
    "request_reason": "Debris in Driving Lanes",
    "date_created": "2025-05-12T15:24:12.000",
    "date_modified": "2025-05-12T15:24:59.000",
    "request_status": "Pending",
    "responsible_agency": "Department of Public Works",
    "final_address": "3100 Audubon St",
    "address_councildis": "B",
    "status": "Pending",
    "rowid": "1191515",
    "final_x": "3668118.56673",
    "final_y": "531997.339011",
    "longitude": "-90.11030812184775",
    "latitude": "29.95720771674986",
    "geocoded_column": {
      "latitude": "29.95720771674986",
      "longitude": "-90.11030812184775"
    }
  },
  {
    "service_request": "2025-1191514",
    "request_type": "Trash/Recycling",
    "request_reason": "Request a Large Item Pick Up",
    "date_created": "2025-05-12T15:23:30.000",
    "date_modified": "2025-05-12T15:23:31.000",
    "request_status": "Pending",
    "responsible_agency": "Department of Sanitation",
    "final_address": "5601 Canal Blvd",
    "address_councildis": "A",
    "status": "Assigned to Contractor",
    "contractor": "IV Waste",
    "rowid": "1191514",
    "final_x": "3668398.38798",
    "final_y": "544624.446799",
    "longitude": "-90.1089984890539",
    "latitude": "29.99191980765331",
    "geocoded_column": {
      "latitude": "29.99191980765331",
      "longitude": "-90.1089984890539"
    }
  },
  {
    "service_request": "2025-1191513",
    "request_type": "Trash/Recycling",
    "request_reason": "Request a Large Item Pick Up",
    "date_created": "2025-05-12T15:22:36.000",
    "date_modified": "2025-05-12T15:22:38.000",
    "request_status": "Pending",
    "responsible_agency": "Department of Sanitation",
    "final_address": "7241 Restgate Rd",
    "address_councildis": "E",
    "status": "Assigned to Contractor",
    "contractor": "Waste Pro",
    "rowid": "1191513",
    "final_x": "3710623.40933",
    "final_y": "563563.36112",
    "longitude": "-89.97491046486283",
    "latitude": "30.04268629765786",
    "geocoded_column": {
      "latitude": "30.04268629765786",
      "longitude": "-89.97491046486283"
    }
  },
  {
    "service_request": "2025-1191512",
    "request_type": "Trash/Recycling",
    "request_reason": "Request a Large Item Pick Up",
    "date_created": "2025-05-12T15:22:32.000",
    "date_modified": "2025-05-12T15:22:33.000",
    "request_status": "Pending",
    "responsible_agency": "Department of Sanitation",
    "final_address": "1336 Mandeville St",
    "address_councildis": "C",
    "status": "Assigned to Contractor",
    "contractor": "IV Waste",
    "rowid": "1191512",
    "final_x": "3685658.64674",
    "final_y": "537397.639176",
    "longitude": "-90.05473174054688",
    "latitude": "29.97153023717866",
    "geocoded_column": {
      "latitude": "29.97153023717866",
      "longitude": "-90.05473174054688"
    }
  },
  {
    "service_request": "2025-1191511",
    "request_type": "Trash/Recycling",
    "request_reason": "Request a Large Item Pick Up",
    "date_created": "2025-05-12T15:22:03.000",
    "date_modified": "2025-05-12T15:22:05.000",
    "request_status": "Pending",
    "responsible_agency": "Department of Sanitation",
    "final_address": "1723 Audubon St",
    "address_councildis": "A",
    "status": "Assigned to Contractor",
    "contractor": "IV Waste",
    "rowid": "1191511",
    "final_x": "3665539.14919",
    "final_y": "527930.691455",
    "longitude": "-90.11858930091044",
    "latitude": "29.946101206646272",
    "geocoded_column": {
      "latitude": "29.946101206646272",
      "longitude": "-90.11858930091044"
    }
  },
  {
    "service_request": "2025-1191510",
    "request_type": "Trash/Recycling",
    "request_reason": "Repair Recycling Cart",
    "date_created": "2025-05-12T15:21:03.000",
    "date_modified": "2025-05-12T15:21:05.000",
    "request_status": "Pending",
    "responsible_agency": "Department of Sanitation",
    "final_address": "6045 Constance St",
    "address_councildis": "A",
    "status": "Pending",
    "rowid": "1191510",
    "final_x": "3664263.44781",
    "final_y": "519053.150071",
    "longitude": "-90.12291323754471",
    "latitude": "29.921727906648044",
    "geocoded_column": {
      "latitude": "29.921727906648044",
      "longitude": "-90.12291323754471"
    }
  },
  {
    "service_request": "2025-1191509",
    "request_type": "Streetlights",
    "request_reason": "Streetlight Outage/Malfunction",
    "date_created": "2025-05-12T15:19:21.000",
    "date_modified": "2025-05-12T15:19:23.000",
    "request_status": "Pending",
    "responsible_agency": "Department of Public Works",
    "final_address": "ST ANTHONY ST & FLORIDA AVE",
    "address_councildis": "D",
    "status": "Pending",
    "contractor": "Legacy Professional Services",
    "rowid": "1191509",
    "final_x": "3682970.2",
    "final_y": "542967.18",
    "longitude": "-90.06302724102672",
    "latitude": "29.98692674105181",
    "geocoded_column": {
      "latitude": "29.98692674105181",
      "longitude": "-90.06302724102672"
    }
  },
  {
    "service_request": "2025-1191508",
    "request_type": "Streetlights",
    "request_reason": "Streetlight Outage/Malfunction",
    "date_created": "2025-05-12T15:18:16.000",
    "date_modified": "2025-05-12T15:18:18.000",
    "request_status": "Pending",
    "responsible_agency": "Department of Public Works",
    "final_address": "INDUSTRY ST & ST ANTHONY ST",
    "address_councildis": "D",
    "status": "Pending",
    "contractor": "Legacy Professional Services",
    "rowid": "1191508",
    "final_x": "3682976.8",
    "final_y": "542814.08",
    "longitude": "-90.06301175528549",
    "latitude": "29.986505568858224",
    "geocoded_column": {
      "latitude": "29.986505568858224",
      "longitude": "-90.06301175528549"
    }
  },
  {
    "service_request": "2025-1191507",
    "request_type": "Trash/Recycling",
    "request_reason": "Repair Trash Cart",
    "date_created": "2025-05-12T15:17:54.000",
    "date_modified": "2025-05-12T15:17:56.000",
    "request_status": "Pending",
    "responsible_agency": "Department of Sanitation",
    "final_address": "8724 Plum St",
    "address_councildis": "A",
    "status": "Assigned to Contractor",
    "contractor": "IV Waste",
    "rowid": "1191507",
    "final_x": "3660429.61171",
    "final_y": "530188.754305",
    "longitude": "-90.13464736807991",
    "latitude": "29.952458112775656",
    "geocoded_column": {
      "latitude": "29.952458112775656",
      "longitude": "-90.13464736807991"
    }
  },
  {
    "service_request": "2025-1191506",
    "request_type": "Trash/Recycling",
    "request_reason": "Request a Large Item Pick Up",
    "date_created": "2025-05-12T15:15:57.000",
    "date_modified": "2025-05-12T15:16:00.000",
    "request_status": "Pending",
    "responsible_agency": "Department of Sanitation",
    "final_address": "8722 Morrison Rd",
    "address_councildis": "E",
    "status": "Assigned to Contractor",
    "contractor": "Waste Pro",
    "rowid": "1191506",
    "final_x": "3705293.6691",
    "final_y": "561544.252255",
    "longitude": "-89.99182915285628",
    "latitude": "30.0373072045616",
    "geocoded_column": {
      "latitude": "30.0373072045616",
      "longitude": "-89.99182915285628"
    }
  },
  {
    "service_request": "2025-1191505",
    "request_type": "Trash/Recycling",
    "request_reason": "Request a Large Item Pick Up",
    "date_created": "2025-05-12T15:15:15.000",
    "date_modified": "2025-05-12T15:15:17.000",
    "request_status": "Pending",
    "responsible_agency": "Department of Sanitation",
    "final_address": "8720 Morrison Rd",
    "address_councildis": "E",
    "status": "Assigned to Contractor",
    "contractor": "Waste Pro",
    "rowid": "1191505",
    "final_x": "3705268.81534",
    "final_y": "561533.999199",
    "longitude": "-89.99190807515622",
    "latitude": "30.0372798127504",
    "geocoded_column": {
      "latitude": "30.0372798127504",
      "longitude": "-89.99190807515622"
    }
  },
  {
    "service_request": "2025-1191504",
    "request_type": "Trash/Recycling",
    "request_reason": "Repair Trash Cart",
    "date_created": "2025-05-12T15:14:30.000",
    "date_modified": "2025-05-12T15:14:33.000",
    "request_status": "Pending",
    "responsible_agency": "Department of Sanitation",
    "final_address": "3629 Touro St",
    "address_councildis": "D",
    "status": "Assigned to Contractor",
    "contractor": "IV Waste",
    "rowid": "1191504",
    "final_x": "3683482.47612",
    "final_y": "546019.935696",
    "longitude": "-90.06130210537383",
    "latitude": "29.995305109905683",
    "geocoded_column": {
      "latitude": "29.995305109905683",
      "longitude": "-90.06130210537383"
    }
  },
  {
    "service_request": "2025-1191503",
    "request_type": "Trash/Recycling",
    "request_reason": "Request a Large Item Pick Up",
    "date_created": "2025-05-12T15:14:24.000",
    "date_modified": "2025-05-12T15:14:25.000",
    "request_status": "Pending",
    "responsible_agency": "Department of Sanitation",
    "final_address": "2715 First St",
    "address_councildis": "B",
    "status": "Assigned to Contractor",
    "contractor": "IV Waste",
    "rowid": "1191503",
    "final_x": "3674728.64193",
    "final_y": "526641.669438",
    "longitude": "-90.08961905900301",
    "latitude": "29.94228574600177",
    "geocoded_column": {
      "latitude": "29.94228574600177",
      "longitude": "-90.08961905900301"
    }
  },
  {
    "service_request": "2025-1191502",
    "request_type": "Roads and Streets",
    "request_reason": "Pothole",
    "date_created": "2025-05-12T15:13:31.000",
    "date_modified": "2025-05-12T15:13:35.000",
    "request_status": "Pending",
    "responsible_agency": "Department of Public Works",
    "final_address": "2100 BLK N Rocheblave St",
    "address_councildis": "D",
    "status": "Pending",
    "rowid": "1191502",
    "final_x": "3683668.07652",
    "final_y": "541016.120183",
    "longitude": "-90.0608913428395",
    "latitude": "29.98154072181895",
    "geocoded_column": {
      "latitude": "29.98154072181895",
      "longitude": "-90.0608913428395"
    }
  },
  {
    "service_request": "2025-1191501",
    "request_type": "Trash/Recycling",
    "request_reason": "Request a Large Item Pick Up",
    "date_created": "2025-05-12T15:12:44.000",
    "date_modified": "2025-05-12T15:12:46.000",
    "request_status": "Pending",
    "responsible_agency": "Department of Sanitation",
    "final_address": "2343 N Villere St",
    "address_councildis": "C",
    "status": "Assigned to Contractor",
    "contractor": "IV Waste",
    "rowid": "1191501",
    "final_x": "3686087.10626",
    "final_y": "537538.182664",
    "longitude": "-90.05337364700308",
    "latitude": "29.97190352956304",
    "geocoded_column": {
      "latitude": "29.97190352956304",
      "longitude": "-90.05337364700308"
    }
  },
  {
    "service_request": "2025-1191500",
    "request_type": "Roads and Streets",
    "request_reason": "Pothole",
    "date_created": "2025-05-12T15:12:00.000",
    "date_modified": "2025-05-12T15:12:02.000",
    "request_status": "Pending",
    "responsible_agency": "Department of Public Works",
    "final_address": "3100 BLK Pauger St",
    "address_councildis": "D",
    "status": "Pending",
    "rowid": "1191500",
    "final_x": "3683474.09135",
    "final_y": "541185.15495",
    "longitude": "-90.061498111303",
    "latitude": "29.982011429902936",
    "geocoded_column": {
      "latitude": "29.982011429902936",
      "longitude": "-90.061498111303"
    }
  },
  {
    "service_request": "2025-1191499",
    "request_type": "Trash/Recycling",
    "request_reason": "Request a Large Item Pick Up",
    "date_created": "2025-05-12T15:09:04.000",
    "date_modified": "2025-05-12T15:09:06.000",
    "request_status": "Pending",
    "responsible_agency": "Department of Sanitation",
    "final_address": "7541 W Sandy Cove Dr",
    "address_councildis": "E",
    "status": "Assigned to Contractor",
    "contractor": "Waste Pro",
    "rowid": "1191499",
    "final_x": "3715640.52031",
    "final_y": "569152.879142",
    "longitude": "-89.95884266423397",
    "latitude": "30.05789068683771",
    "geocoded_column": {
      "latitude": "30.05789068683771",
      "longitude": "-89.95884266423397"
    }
  },
  {
    "service_request": "2025-1191498",
    "request_type": "Trash/Recycling",
    "request_reason": "Repair Trash Cart",
    "date_created": "2025-05-12T15:08:55.000",
    "date_modified": "2025-05-12T15:08:57.000",
    "request_status": "Pending",
    "responsible_agency": "Department of Sanitation",
    "final_address": "2418 S Tonti St",
    "address_councildis": "B",
    "status": "Assigned to Contractor",
    "contractor": "IV Waste",
    "rowid": "1191498",
    "final_x": "3672772.15016",
    "final_y": "529242.728897",
    "longitude": "-90.09570745025292",
    "latitude": "29.94949605297756",
    "geocoded_column": {
      "latitude": "29.94949605297756",
      "longitude": "-90.09570745025292"
    }
  },
  {
    "service_request": "2025-1191497",
    "request_type": "Drainage",
    "request_reason": "Catch Basin Clogged",
    "date_created": "2025-05-12T15:05:14.000",
    "date_modified": "2025-05-12T15:05:16.000",
    "request_status": "Pending",
    "responsible_agency": "Sewerage & Water Board",
    "final_address": "3100 Audubon St",
    "address_councildis": "B",
    "status": "Pending",
    "rowid": "1191497",
    "final_x": "3668118.56673",
    "final_y": "531997.339011",
    "longitude": "-90.11030812184775",
    "latitude": "29.95720771674986",
    "geocoded_column": {
      "latitude": "29.95720771674986",
      "longitude": "-90.11030812184775"
    }
  },
  {
    "service_request": "2025-1191496",
    "request_type": "Trash/Recycling",
    "request_reason": "Request a Large Item Pick Up",
    "date_created": "2025-05-12T15:05:10.000",
    "date_modified": "2025-05-12T15:05:12.000",
    "request_status": "Pending",
    "responsible_agency": "Department of Sanitation",
    "final_address": "5744 Rhodes Ave",
    "address_councildis": "C",
    "status": "Assigned to Contractor",
    "contractor": "Richards Disposal",
    "rowid": "1191496",
    "final_x": "3704685.90935",
    "final_y": "519735.87532",
    "longitude": "-89.99529265750934",
    "latitude": "29.922369150124663",
    "geocoded_column": {
      "latitude": "29.922369150124663",
      "longitude": "-89.99529265750934"
    }
  },
  {
    "service_request": "2025-1191495",
    "request_type": "Trash/Recycling",
    "request_reason": "Request a Large Item Pick Up",
    "date_created": "2025-05-12T15:04:58.000",
    "date_modified": "2025-05-12T15:05:01.000",
    "request_status": "Pending",
    "responsible_agency": "Department of Sanitation",
    "final_address": "5353 Perrier St",
    "address_councildis": "B",
    "status": "Assigned to Contractor",
    "contractor": "IV Waste",
    "rowid": "1191495",
    "final_x": "3667230.41421",
    "final_y": "520102.297272",
    "longitude": "-90.11351250634239",
    "latitude": "29.924526217147832",
    "geocoded_column": {
      "latitude": "29.924526217147832",
      "longitude": "-90.11351250634239"
    }
  },
  {
    "service_request": "2025-1191494",
    "request_type": "Property Maintenance",
    "request_reason": "Property Maintenance",
    "date_created": "2025-05-12T15:03:35.000",
    "date_modified": "2025-05-12T15:42:21.000",
    "case_close_date": "2025-05-12T10:42:20.000",
    "request_status": "Closed",
    "responsible_agency": "Department of Code Enforcement",
    "final_address": "5125 Sandhurst Dr",
    "address_councildis": "E",
    "status": "Referred to Code Enforcement",
    "rowid": "1191494",
    "final_x": "3705175.14308",
    "final_y": "556874.180762",
    "longitude": "-89.99237643508313",
    "latitude": "30.024470148016814",
    "geocoded_column": {
      "latitude": "30.024470148016814",
      "longitude": "-89.99237643508313"
    }
  },
  {
    "service_request": "2025-1191493",
    "request_type": "Trash/Recycling",
    "request_reason": "Request a Large Item Pick Up",
    "date_created": "2025-05-12T15:02:49.000",
    "date_modified": "2025-05-12T15:02:51.000",
    "request_status": "Pending",
    "responsible_agency": "Department of Sanitation",
    "final_address": "11210 Ivy Ln",
    "address_councildis": "E",
    "status": "Assigned to Contractor",
    "contractor": "Waste Pro",
    "rowid": "1191493",
    "final_x": "3716274.83916",
    "final_y": "559930.277021",
    "longitude": "-89.95718778671575",
    "latitude": "30.032511350272546",
    "geocoded_column": {
      "latitude": "30.032511350272546",
      "longitude": "-89.95718778671575"
    }
  },
  {
    "service_request": "2025-1191492",
    "request_type": "Parks & Parkways",
    "request_reason": "Request Tree Service (Right of Way/Public Property)",
    "date_created": "2025-05-12T15:01:54.000",
    "date_modified": "2025-05-12T15:56:41.000",
    "request_status": "Pending",
    "responsible_agency": "Department of Parks & Parkway",
    "final_address": "5177 Montegut Dr",
    "address_councildis": "D",
    "status": "Pending",
    "rowid": "1191492",
    "final_x": "3689726.81116",
    "final_y": "552648.994774",
    "longitude": "-90.04134082453848",
    "latitude": "30.01334051413877",
    "geocoded_column": {
      "latitude": "30.01334051413877",
      "longitude": "-90.04134082453848"
    }
  },
  {
    "service_request": "2025-1191491",
    "request_type": "Trash/Recycling",
    "request_reason": "Request a Large Item Pick Up",
    "date_created": "2025-05-12T15:00:17.000",
    "date_modified": "2025-05-12T15:00:18.000",
    "request_status": "Pending",
    "responsible_agency": "Department of Sanitation",
    "final_address": "8700 Gervais St",
    "address_councildis": "E",
    "status": "Assigned to Contractor",
    "contractor": "Waste Pro",
    "rowid": "1191491",
    "final_x": "3704305.08958",
    "final_y": "562872.485984",
    "longitude": "-89.99490423745516",
    "latitude": "30.04099111109184",
    "geocoded_column": {
      "latitude": "30.04099111109184",
      "longitude": "-89.99490423745516"
    }
  },
  {
    "service_request": "2025-1191490",
    "request_type": "Trash/Recycling",
    "request_reason": "Request a Large Item Pick Up",
    "date_created": "2025-05-12T14:57:21.000",
    "date_modified": "2025-05-12T14:57:23.000",
    "request_status": "Pending",
    "responsible_agency": "Department of Sanitation",
    "final_address": "10 Plover St",
    "address_councildis": "D",
    "status": "Assigned to Contractor",
    "contractor": "IV Waste",
    "rowid": "1191490",
    "final_x": "3674275.29633",
    "final_y": "556760.410074",
    "longitude": "-90.0900185652828",
    "latitude": "30.02511543009609",
    "geocoded_column": {
      "latitude": "30.02511543009609",
      "longitude": "-90.0900185652828"
    }
  },
  {
    "service_request": "2025-1191489",
    "request_type": "Trash/Recycling",
    "request_reason": "Repair Trash Cart",
    "date_created": "2025-05-12T14:56:44.000",
    "date_modified": "2025-05-12T14:56:46.000",
    "request_status": "Pending",
    "responsible_agency": "Department of Sanitation",
    "final_address": "5171 Montegut Dr",
    "address_councildis": "D",
    "status": "Assigned to Contractor",
    "contractor": "IV Waste",
    "rowid": "1191489",
    "final_x": "3689787.31542",
    "final_y": "552584.159766",
    "longitude": "-90.04115197374745",
    "latitude": "30.013160365847682",
    "geocoded_column": {
      "latitude": "30.013160365847682",
      "longitude": "-90.04115197374745"
    }
  },
  {
    "service_request": "2025-1191488",
    "request_type": "Trash/Recycling",
    "request_reason": "Return Trash Cart",
    "date_created": "2025-05-12T14:55:32.000",
    "date_modified": "2025-05-12T14:55:34.000",
    "request_status": "Pending",
    "responsible_agency": "Department of Sanitation",
    "final_address": "1506 Prytania St",
    "address_councildis": "B",
    "status": "Assigned to Contractor",
    "contractor": "IV Waste",
    "rowid": "1191488",
    "final_x": "3679631.02837",
    "final_y": "525152.892093",
    "longitude": "-90.07419279038263",
    "latitude": "29.938044878253773",
    "geocoded_column": {
      "latitude": "29.938044878253773",
      "longitude": "-90.07419279038263"
    }
  },
  {
    "service_request": "2025-1191487",
    "request_type": "Trash/Recycling",
    "request_reason": "Return Trash Cart",
    "date_created": "2025-05-12T14:54:50.000",
    "date_modified": "2025-05-12T14:54:53.000",
    "request_status": "Pending",
    "responsible_agency": "Department of Sanitation",
    "final_address": "2334 Chippewa St",
    "address_councildis": "B",
    "status": "Assigned to Contractor",
    "contractor": "IV Waste",
    "rowid": "1191487",
    "final_x": "3679226.57621",
    "final_y": "520473.14892",
    "longitude": "-90.07563184824423",
    "latitude": "29.925189335351394",
    "geocoded_column": {
      "latitude": "29.925189335351394",
      "longitude": "-90.07563184824423"
    }
  },
  {
    "service_request": "2025-1191486",
    "request_type": "Trash/Recycling",
    "request_reason": "Request a Large Item Pick Up",
    "date_created": "2025-05-12T14:52:28.000",
    "date_modified": "2025-05-12T14:52:30.000",
    "request_status": "Pending",
    "responsible_agency": "Department of Sanitation",
    "final_address": "3101 Kansas St",
    "address_councildis": "C",
    "status": "Assigned to Contractor",
    "contractor": "Richards Disposal",
    "rowid": "1191486",
    "final_x": "3694640.48202",
    "final_y": "520907.542841",
    "longitude": "-90.02695965707096",
    "latitude": "29.92590956480597",
    "geocoded_column": {
      "latitude": "29.92590956480597",
      "longitude": "-90.02695965707096"
    }
  },
  {
    "service_request": "2025-1191485",
    "request_type": "Trash/Recycling",
    "request_reason": "Request a Large Item Pick Up",
    "date_created": "2025-05-12T14:49:59.000",
    "date_modified": "2025-05-12T14:50:01.000",
    "request_status": "Pending",
    "responsible_agency": "Department of Sanitation",
    "final_address": "9412 Palmetto St",
    "address_councildis": "A",
    "status": "Assigned to Contractor",
    "contractor": "IV Waste",
    "rowid": "1191485",
    "final_x": "3664614.2201",
    "final_y": "538275.202697",
    "longitude": "-90.12116411297852",
    "latitude": "29.974572157827094",
    "geocoded_column": {
      "latitude": "29.974572157827094",
      "longitude": "-90.12116411297852"
    }
  },
  {
    "service_request": "2025-1191484",
    "request_type": "Streetlights",
    "request_reason": "Streetlight Outage/Malfunction",
    "date_created": "2025-05-12T14:46:46.000",
    "date_modified": "2025-05-12T14:46:48.000",
    "request_status": "Pending",
    "responsible_agency": "Department of Public Works",
    "final_address": "1406 Seventh St",
    "address_councildis": "B",
    "status": "Pending",
    "contractor": "Legacy Professional Services",
    "rowid": "1191484",
    "final_x": "3675697.65281",
    "final_y": "521262.216185",
    "longitude": "-90.08674444796534",
    "latitude": "29.92746505012124",
    "geocoded_column": {
      "latitude": "29.92746505012124",
      "longitude": "-90.08674444796534"
    }
  },
  {
    "service_request": "2025-1191483",
    "request_type": "Trash/Recycling",
    "request_reason": "Repair Recycling Cart",
    "date_created": "2025-05-12T14:42:34.000",
    "date_modified": "2025-05-12T14:42:35.000",
    "request_status": "Pending",
    "responsible_agency": "Department of Sanitation",
    "final_address": "4321 Carondelet St",
    "address_councildis": "B",
    "status": "Pending",
    "rowid": "1191483",
    "final_x": "3671021.52046",
    "final_y": "521302.171385",
    "longitude": "-90.10150452412492",
    "latitude": "29.927713969652142",
    "geocoded_column": {
      "latitude": "29.927713969652142",
      "longitude": "-90.10150452412492"
    }
  },
  {
    "service_request": "2025-1191482",
    "request_type": "Streetlights",
    "request_reason": "Streetlight Outage/Malfunction",
    "date_created": "2025-05-12T14:42:03.000",
    "date_modified": "2025-05-12T14:42:09.000",
    "request_status": "Pending",
    "responsible_agency": "Department of Public Works",
    "final_address": "1422 N Miro St",
    "address_councildis": "D",
    "status": "Pending",
    "contractor": "Legacy Professional Services",
    "rowid": "1191482",
    "final_x": "3679759.95848",
    "final_y": "538029.116617",
    "longitude": "-90.07333873425804",
    "latitude": "29.973446250201484",
    "geocoded_column": {
      "latitude": "29.973446250201484",
      "longitude": "-90.07333873425804"
    }
  },
  {
    "service_request": "2025-1191481",
    "request_type": "Trash/Recycling",
    "request_reason": "Order Recycling Cart",
    "date_created": "2025-05-12T14:41:22.000",
    "date_modified": "2025-05-12T14:41:24.000",
    "request_status": "Pending",
    "responsible_agency": "Department of Sanitation",
    "final_address": "1720 N Rocheblave St",
    "address_councildis": "D",
    "status": "Pending",
    "rowid": "1191481",
    "final_x": "3680519.186",
    "final_y": "540207.411531",
    "longitude": "-90.07086513953482",
    "latitude": "29.97941282874564",
    "geocoded_column": {
      "latitude": "29.97941282874564",
      "longitude": "-90.07086513953482"
    }
  },
  {
    "service_request": "2025-1191480",
    "request_type": "Property Maintenance",
    "request_reason": "Property Maintenance",
    "date_created": "2025-05-12T14:41:04.000",
    "date_modified": "2025-05-12T15:32:01.000",
    "case_close_date": "2025-05-12T10:31:59.000",
    "request_status": "Closed",
    "responsible_agency": "Department of Code Enforcement",
    "final_address": "2620 Cherry St",
    "address_councildis": "A",
    "status": "Referred to Code Enforcement",
    "rowid": "1191480",
    "final_x": "3662321.83283",
    "final_y": "535144.650822",
    "longitude": "-90.12850802695337",
    "latitude": "29.966030653200228",
    "geocoded_column": {
      "latitude": "29.966030653200228",
      "longitude": "-90.12850802695337"
    }
  },
  {
    "service_request": "2025-1191479",
    "request_type": "Trash/Recycling",
    "request_reason": "Request a Large Item Pick Up",
    "date_created": "2025-05-12T14:39:51.000",
    "date_modified": "2025-05-12T14:39:54.000",
    "request_status": "Pending",
    "responsible_agency": "Department of Sanitation",
    "final_address": "2105 General Pershing St",
    "address_councildis": "B",
    "status": "Assigned to Contractor",
    "contractor": "IV Waste",
    "rowid": "1191479",
    "final_x": "3671109.82004",
    "final_y": "522753.063674",
    "longitude": "-90.10117653131776",
    "latitude": "29.9317008474041",
    "geocoded_column": {
      "latitude": "29.9317008474041",
      "longitude": "-90.10117653131776"
    }
  },
  {
    "service_request": "2025-1191478",
    "request_type": "Trash/Recycling",
    "request_reason": "Request a Large Item Pick Up",
    "date_created": "2025-05-12T14:37:39.000",
    "date_modified": "2025-05-12T14:37:40.000",
    "request_status": "Pending",
    "responsible_agency": "Department of Sanitation",
    "final_address": "4040 Banks St",
    "address_councildis": "A",
    "status": "Assigned to Contractor",
    "contractor": "IV Waste",
    "rowid": "1191478",
    "final_x": "3670463.79892",
    "final_y": "537235.198536",
    "longitude": "-90.1027249453035",
    "latitude": "29.97154104588882",
    "geocoded_column": {
      "latitude": "29.97154104588882",
      "longitude": "-90.1027249453035"
    }
  },
  {
    "service_request": "2025-1191477",
    "request_type": "Trash/Recycling",
    "request_reason": "Request a Large Item Pick Up",
    "date_created": "2025-05-12T14:37:20.000",
    "date_modified": "2025-05-12T14:37:21.000",
    "request_status": "Pending",
    "responsible_agency": "Department of Sanitation",
    "final_address": "3532 Pin Oak Ave",
    "address_councildis": "C",
    "status": "Assigned to Contractor",
    "contractor": "Richards Disposal",
    "rowid": "1191477",
    "final_x": "3703413.43402",
    "final_y": "515048.661939",
    "longitude": "-89.99948154550616",
    "latitude": "29.909521719457512",
    "geocoded_column": {
      "latitude": "29.909521719457512",
      "longitude": "-89.99948154550616"
    }
  },
  {
    "service_request": "2025-1191476",
    "request_type": "Trash/Recycling",
    "request_reason": "Order Trash Cart",
    "date_created": "2025-05-12T14:37:19.000",
    "date_modified": "2025-05-12T14:37:20.000",
    "request_status": "Pending",
    "responsible_agency": "Department of Sanitation",
    "final_address": "1720 N Rocheblave St",
    "address_councildis": "D",
    "status": "Assigned to Contractor",
    "contractor": "IV Waste",
    "rowid": "1191476",
    "final_x": "3680519.186",
    "final_y": "540207.411531",
    "longitude": "-90.07086513953482",
    "latitude": "29.97941282874564",
    "geocoded_column": {
      "latitude": "29.97941282874564",
      "longitude": "-90.07086513953482"
    }
  },
  {
    "service_request": "2025-1191475",
    "request_type": "Drainage",
    "request_reason": "Drainage Manhole Cover Missing or Damaged",
    "date_created": "2025-05-12T14:35:59.000",
    "date_modified": "2025-05-12T14:36:00.000",
    "request_status": "Pending",
    "responsible_agency": "Sewerage & Water Board",
    "final_address": "4824 Mendez St",
    "address_councildis": "D",
    "status": "Pending",
    "rowid": "1191475",
    "final_x": "3691372.05923",
    "final_y": "554249.002648",
    "longitude": "-90.03608549859116",
    "latitude": "30.017688829550107",
    "geocoded_column": {
      "latitude": "30.017688829550107",
      "longitude": "-90.03608549859116"
    }
  },
  {
    "service_request": "2025-1191474",
    "request_type": "Drainage",
    "request_reason": "Catch Basin Clogged",
    "date_created": "2025-05-12T14:35:53.000",
    "date_modified": "2025-05-12T14:35:55.000",
    "request_status": "Pending",
    "responsible_agency": "Sewerage & Water Board",
    "final_address": "1422 N Miro St",
    "address_councildis": "D",
    "status": "Pending",
    "rowid": "1191474",
    "final_x": "3679759.95848",
    "final_y": "538029.116617",
    "longitude": "-90.07333873425804",
    "latitude": "29.973446250201484",
    "geocoded_column": {
      "latitude": "29.973446250201484",
      "longitude": "-90.07333873425804"
    }
  },
  {
    "service_request": "2025-1191473",
    "request_type": "Trash/Recycling",
    "request_reason": "Request a Large Item Pick Up",
    "date_created": "2025-05-12T14:29:09.000",
    "date_modified": "2025-05-12T14:29:36.000",
    "request_status": "Pending",
    "responsible_agency": "Department of Sanitation",
    "final_address": "8500 Chase St",
    "address_councildis": "E",
    "status": "Assigned to Contractor",
    "contractor": "Waste Pro",
    "rowid": "1191473",
    "final_x": "3703363.34174",
    "final_y": "563237.405152",
    "longitude": "-89.9978670241069",
    "latitude": "30.04202470813722",
    "geocoded_column": {
      "latitude": "30.04202470813722",
      "longitude": "-89.9978670241069"
    }
  },
  {
    "service_request": "2025-1191472",
    "request_type": "Safety & Permits",
    "request_reason": "Construction permit",
    "date_created": "2025-05-12T14:27:19.000",
    "date_modified": "2025-05-12T14:27:21.000",
    "request_status": "Pending",
    "responsible_agency": "Safety and Permits",
    "final_address": "2709 Edna St",
    "address_councildis": "D",
    "status": "Pending",
    "rowid": "1191472",
    "final_x": "3689483.27651",
    "final_y": "545318.952015",
    "longitude": "-90.04237118433618",
    "latitude": "29.993193121071425",
    "geocoded_column": {
      "latitude": "29.993193121071425",
      "longitude": "-90.04237118433618"
    }
  },
  {
    "service_request": "2025-1191471",
    "request_type": "Abandoned Vehicles",
    "request_reason": "Abandoned/Junk Vehicles",
    "date_created": "2025-05-12T14:25:54.000",
    "date_modified": "2025-05-12T14:25:56.000",
    "request_status": "Pending",
    "responsible_agency": "Department of Public Works",
    "final_address": "939 Harding Dr",
    "address_councildis": "A",
    "status": "Pending",
    "rowid": "1191471",
    "final_x": "3674328.82478",
    "final_y": "540014.442059",
    "longitude": "-90.09042339675442",
    "latitude": "29.97906831505053",
    "geocoded_column": {
      "latitude": "29.97906831505053",
      "longitude": "-90.09042339675442"
    }
  },
  {
    "service_request": "2025-1191470",
    "request_type": "Trash/Recycling",
    "request_reason": "Repair Trash Cart",
    "date_created": "2025-05-12T14:25:10.000",
    "date_modified": "2025-05-12T14:25:12.000",
    "request_status": "Pending",
    "responsible_agency": "Department of Sanitation",
    "final_address": "2621 Lepage St",
    "address_councildis": "A",
    "status": "Assigned to Contractor",
    "contractor": "IV Waste",
    "rowid": "1191470",
    "final_x": "3678343.41915",
    "final_y": "539580.89793",
    "longitude": "-90.07775875931902",
    "latitude": "29.9777558687838",
    "geocoded_column": {
      "latitude": "29.9777558687838",
      "longitude": "-90.07775875931902"
    }
  },
  {
    "service_request": "2025-1191469",
    "request_type": "Trash/Recycling",
    "request_reason": "Illegal Dumping",
    "date_created": "2025-05-12T14:24:53.000",
    "date_modified": "2025-05-12T14:24:55.000",
    "request_status": "Pending",
    "responsible_agency": "Department of Sanitation",
    "final_address": "7819 Dominican St",
    "address_councildis": "A",
    "status": "Pending",
    "rowid": "1191469",
    "final_x": "3660808.68166",
    "final_y": "525678.091965",
    "longitude": "-90.13359955684889",
    "latitude": "29.940044319628306",
    "geocoded_column": {
      "latitude": "29.940044319628306",
      "longitude": "-90.13359955684889"
    }
  },
  {
    "service_request": "2025-1191468",
    "request_type": "Trash/Recycling",
    "request_reason": "Request a Large Item Pick Up",
    "date_created": "2025-05-12T14:18:58.000",
    "date_modified": "2025-05-12T14:19:00.000",
    "request_status": "Pending",
    "responsible_agency": "Department of Sanitation",
    "final_address": "7718 Belfast St",
    "address_councildis": "A",
    "status": "Assigned to Contractor",
    "contractor": "IV Waste",
    "rowid": "1191468",
    "final_x": "3666594.42785",
    "final_y": "531394.049347",
    "longitude": "-90.11514115718226",
    "latitude": "29.955593511279886",
    "geocoded_column": {
      "latitude": "29.955593511279886",
      "longitude": "-90.11514115718226"
    }
  },
  {
    "service_request": "2025-1191467",
    "request_type": "Roads and Streets",
    "request_reason": "Sidewalk Damaged or Missing",
    "date_created": "2025-05-12T14:18:47.000",
    "date_modified": "2025-05-12T14:18:49.000",
    "request_status": "Pending",
    "responsible_agency": "Department of Public Works",
    "final_address": "5266 Annunciation St",
    "address_councildis": "B",
    "status": "Pending",
    "rowid": "1191467",
    "final_x": "3667464.67021",
    "final_y": "517523.661686",
    "longitude": "-90.11285973782358",
    "latitude": "29.917428921861948",
    "geocoded_column": {
      "latitude": "29.917428921861948",
      "longitude": "-90.11285973782358"
    }
  },
  {
    "service_request": "2025-1191466",
    "request_type": "Trash/Recycling",
    "request_reason": "Damaged Caused By Contractor",
    "date_created": "2025-05-12T14:18:17.000",
    "date_modified": "2025-05-12T14:18:19.000",
    "request_status": "Pending",
    "responsible_agency": "Department of Sanitation",
    "final_address": "731 Marigny St",
    "address_councildis": "C",
    "status": "Assigned to Contractor",
    "contractor": "IV Waste",
    "rowid": "1191466",
    "final_x": "3685542.01999",
    "final_y": "535163.035654",
    "longitude": "-90.0551787855153",
    "latitude": "29.965389431941176",
    "geocoded_column": {
      "latitude": "29.965389431941176",
      "longitude": "-90.0551787855153"
    }
  },
  {
    "service_request": "2025-1191465",
    "request_type": "Trash/Recycling",
    "request_reason": "Repair Trash Cart",
    "date_created": "2025-05-12T14:13:23.000",
    "date_modified": "2025-05-12T14:13:25.000",
    "request_status": "Pending",
    "responsible_agency": "Department of Sanitation",
    "final_address": "8936 Willow St",
    "address_councildis": "A",
    "status": "Assigned to Contractor",
    "contractor": "IV Waste",
    "rowid": "1191465",
    "final_x": "3660105.77952",
    "final_y": "530962.508482",
    "longitude": "-90.13564435097628",
    "latitude": "29.954594999461946",
    "geocoded_column": {
      "latitude": "29.954594999461946",
      "longitude": "-90.13564435097628"
    }
  },
  {
    "service_request": "2025-1191464",
    "request_type": "Trash/Recycling",
    "request_reason": "Repair Trash Cart",
    "date_created": "2025-05-12T14:12:24.000",
    "date_modified": "2025-05-12T14:12:25.000",
    "request_status": "Pending",
    "responsible_agency": "Department of Sanitation",
    "final_address": "2330 Soniat St",
    "address_councildis": "B",
    "status": "Assigned to Contractor",
    "contractor": "IV Waste",
    "rowid": "1191464",
    "final_x": "3668485.77063",
    "final_y": "524170.010364",
    "longitude": "-90.10941260617977",
    "latitude": "29.93567432433073",
    "geocoded_column": {
      "latitude": "29.93567432433073",
      "longitude": "-90.10941260617977"
    }
  },
  {
    "service_request": "2025-1191463",
    "request_type": "Abandoned Vehicles",
    "request_reason": "Abandoned/Junk Vehicles",
    "date_created": "2025-05-12T14:09:04.000",
    "date_modified": "2025-05-12T14:14:11.000",
    "request_status": "Pending",
    "responsible_agency": "Department of Public Works",
    "final_address": "4422 Chestnut St",
    "address_councildis": "B",
    "status": "Pending",
    "rowid": "1191463",
    "final_x": "3670745.88046",
    "final_y": "519457.795575",
    "longitude": "-90.1024372004076",
    "latitude": "29.922650669594727",
    "geocoded_column": {
      "latitude": "29.922650669594727",
      "longitude": "-90.1024372004076"
    }
  },
  {
    "service_request": "2025-1191462",
    "request_type": "Trash/Recycling",
    "request_reason": "MIssed Recycling Pick-Up",
    "date_created": "2025-05-12T14:08:49.000",
    "date_modified": "2025-05-12T14:08:51.000",
    "request_status": "Pending",
    "responsible_agency": "Department of Sanitation",
    "final_address": "7680 Vincent Rd",
    "address_councildis": "E",
    "status": "Assigned to Contractor",
    "contractor": "Waste Pro",
    "rowid": "1191462",
    "final_x": "3718262.38277",
    "final_y": "571717.571304",
    "longitude": "-89.95045752989452",
    "latitude": "30.0648557845783",
    "geocoded_column": {
      "latitude": "30.0648557845783",
      "longitude": "-89.95045752989452"
    }
  },
  {
    "service_request": "2025-1191461",
    "request_type": "Trash/Recycling",
    "request_reason": "Request a Large Item Pick Up",
    "date_created": "2025-05-12T14:07:09.000",
    "date_modified": "2025-05-12T14:07:11.000",
    "request_status": "Pending",
    "responsible_agency": "Department of Sanitation",
    "final_address": "191 Turnberry Dr",
    "address_councildis": "E",
    "status": "Assigned to Contractor",
    "contractor": "Waste Pro",
    "rowid": "1191461",
    "final_x": "3720625.01746",
    "final_y": "563947.142753",
    "longitude": "-89.94328707427304",
    "latitude": "30.043411720283125",
    "geocoded_column": {
      "latitude": "30.043411720283125",
      "longitude": "-89.94328707427304"
    }
  },
  {
    "service_request": "2025-1191460",
    "request_type": "Abandoned Vehicles",
    "request_reason": "Abandoned/Junk Vehicles",
    "date_created": "2025-05-12T14:06:21.000",
    "date_modified": "2025-05-12T14:06:24.000",
    "request_status": "Pending",
    "responsible_agency": "Department of Public Works",
    "final_address": "726 Alix St",
    "address_councildis": "C",
    "status": "Pending",
    "rowid": "1191460",
    "final_x": "3687752.99331",
    "final_y": "530396.186178",
    "longitude": "-90.04836546645329",
    "latitude": "29.952214243882917",
    "geocoded_column": {
      "latitude": "29.952214243882917",
      "longitude": "-90.04836546645329"
    }
  },
  {
    "service_request": "2025-1191459",
    "request_type": "Abandoned Vehicles",
    "request_reason": "Abandoned/Junk Vehicles",
    "date_created": "2025-05-12T14:03:38.000",
    "date_modified": "2025-05-12T14:03:40.000",
    "request_status": "Pending",
    "responsible_agency": "Department of Public Works",
    "final_address": "1739 Joliet St",
    "address_councildis": "A",
    "status": "Pending",
    "rowid": "1191459",
    "final_x": "3662318.40794",
    "final_y": "530823.917442",
    "longitude": "-90.12866229615634",
    "latitude": "29.954150140476823",
    "geocoded_column": {
      "latitude": "29.954150140476823",
      "longitude": "-90.12866229615634"
    }
  },
  {
    "service_request": "2025-1191458",
    "request_type": "General Services",
    "request_reason": "General Service Request",
    "date_created": "2025-05-12T14:00:59.000",
    "date_modified": "2025-05-12T14:53:14.000",
    "case_close_date": "2025-05-12T09:53:13.000",
    "request_status": "Closed",
    "responsible_agency": "Orleans Parish Communication District",
    "final_address": "7500 BLK Avalon Way",
    "address_councildis": "E",
    "status": "Question Answered.",
    "rowid": "1191458",
    "final_x": "3709170.66331",
    "final_y": "564331.854063",
    "longitude": "-89.9794729851561",
    "latitude": "30.04484662143618",
    "geocoded_column": {
      "latitude": "30.04484662143618",
      "longitude": "-89.9794729851561"
    }
  },
  {
    "service_request": "2025-1191457",
    "request_type": "Trash/Recycling",
    "request_reason": "Request a Large Item Pick Up",
    "date_created": "2025-05-12T14:00:53.000",
    "date_modified": "2025-05-12T14:00:55.000",
    "request_status": "Pending",
    "responsible_agency": "Department of Sanitation",
    "final_address": "4601 Lonely Oak Dr",
    "address_councildis": "E",
    "status": "Assigned to Contractor",
    "contractor": "Waste Pro",
    "rowid": "1191457",
    "final_x": "3702468.79889",
    "final_y": "553537.403479",
    "longitude": "-90.0010505358529",
    "latitude": "30.01538209854095",
    "geocoded_column": {
      "latitude": "30.01538209854095",
      "longitude": "-90.0010505358529"
    }
  },
  {
    "service_request": "2025-1191456",
    "request_type": "Abandoned Vehicles",
    "request_reason": "Abandoned/Junk Vehicles",
    "date_created": "2025-05-12T13:56:30.000",
    "date_modified": "2025-05-12T13:56:32.000",
    "request_status": "Pending",
    "responsible_agency": "Department of Public Works",
    "final_address": "1739 Joliet St",
    "address_councildis": "A",
    "status": "Pending",
    "rowid": "1191456",
    "final_x": "3662318.40794",
    "final_y": "530823.917442",
    "longitude": "-90.12866229615634",
    "latitude": "29.954150140476823",
    "geocoded_column": {
      "latitude": "29.954150140476823",
      "longitude": "-90.12866229615634"
    }
  },
  {
    "service_request": "2025-1191455",
    "request_type": "Abandoned Vehicles",
    "request_reason": "Abandoned/Junk Vehicles",
    "date_created": "2025-05-12T13:55:24.000",
    "date_modified": "2025-05-12T13:55:26.000",
    "request_status": "Pending",
    "responsible_agency": "Department of Public Works",
    "final_address": "1739 Joliet St",
    "address_councildis": "A",
    "status": "Pending",
    "rowid": "1191455",
    "final_x": "3662318.40794",
    "final_y": "530823.917442",
    "longitude": "-90.12866229615634",
    "latitude": "29.954150140476823",
    "geocoded_column": {
      "latitude": "29.954150140476823",
      "longitude": "-90.12866229615634"
    }
  },
  {
    "service_request": "2025-1191454",
    "request_type": "Trash/Recycling",
    "request_reason": "Repair Trash Cart",
    "date_created": "2025-05-12T13:53:58.000",
    "date_modified": "2025-05-12T13:54:00.000",
    "request_status": "Pending",
    "responsible_agency": "Department of Sanitation",
    "final_address": "6125 General Diaz St",
    "address_councildis": "A",
    "status": "Assigned to Contractor",
    "contractor": "IV Waste",
    "rowid": "1191454",
    "final_x": "3669647.30241",
    "final_y": "548031.497874",
    "longitude": "-90.10493804021442",
    "latitude": "30.001251267723486",
    "geocoded_column": {
      "latitude": "30.001251267723486",
      "longitude": "-90.10493804021442"
    }
  },