[
  {
    "service_request": "2025-1242757",
    "request_type": "Trash/Recycling",
    "request_reason": "Request a Large Item Pick Up",
    "date_created": "2025-11-28T23:18:21.000",
    "date_modified": "2025-11-28T23:18:24.000",
    "request_status": "Pending",
    "responsible_agency": "Department of Sanitation",
    "final_address": "8120 Lomond Rd",
    "address_councildis": "E",
    "status": "Assigned to Contractor",
    "contractor": "Waste Pro",
    "rowid": "1242757",
    "final_x": "3702677.39095",
    "final_y": "561481.336479",
    "longitude": "-90.00009944815555",
    "latitude": "30.037218173111096",
    "geocoded_column": {
      "latitude": "30.037218173111096",
      "longitude": "-90.00009944815555"
    }
  },
  {
    "service_request": "2025-1242756",
    "request_type": "Trash/Recycling",
    "request_reason": "Replace Trash Cart",
    "date_created": "2025-11-28T22:05:00.000",
    "date_modified": "2025-11-28T22:05:02.000",
    "request_status": "Pending",
    "responsible_agency": "Department of Sanitation",
    "final_address": "3224 Annunciation St",
    "address_councildis": "B",
    "status": "Assigned to Contractor",
    "contractor": "IV Waste",
    "rowid": "1242756",
    "final_x": "3676123.5108",
    "final_y": "518886.613623",
    "longitude": "-90.08548178638193",
    "latitude": "29.920920164311294",
    "geocoded_column": {
      "latitude": "29.920920164311294",
      "longitude": "-90.08548178638193"
    }
  },
  {
    "service_request": "2025-1242755",
    "request_type": "Healthy Homes",
    "request_reason": "Healthy Homes",
    "date_created": "2025-11-28T21:24:12.000",
    "date_modified": "2025-11-28T21:24:13.000",
    "request_status": "Pending",
    "responsible_agency": "Department of Code Enforcement",
    "final_address": "4136 Erato St Unit A",
    "address_councildis": "B",
    "status": "Pending",
    "rowid": "1242755",
    "final_x": "3671146.53121",
    "final_y": "531285.775874",
    "longitude": "-90.10077088279648",
    "latitude": "29.955161938857803",
    "geocoded_column": {
      "latitude": "29.955161938857803",
      "longitude": "-90.10077088279648"
    }
  },
  {
    "service_request": "2025-1242754",
    "request_type": "General Services",
    "request_reason": "General Service Request",
    "date_created": "2025-11-28T21:17:32.000",
    "date_modified": "2025-11-28T21:17:34.000",
    "request_status": "Pending",
    "responsible_agency": "Orleans Parish Communication District",
    "final_address": "Mardi Gras Boulevard",
    "address_councildis": "C",
    "status": "Pending",
    "rowid": "1242754",
    "final_x": "3692122.57117",
    "final_y": "523101.201595",
    "longitude": "-90.03482945160859",
    "latitude": "29.93202007830479",
    "geocoded_column": {
      "latitude": "29.93202007830479",
      "longitude": "-90.03482945160859"
    }
  },
  {
    "service_request": "2025-1242753",
    "request_type": "Trash/Recycling",
    "request_reason": "Request a Large Item Pick Up",
    "date_created": "2025-11-28T20:30:33.000",
    "date_modified": "2025-11-28T20:30:35.000",
    "request_status": "Pending",
    "responsible_agency": "Department of Sanitation",
    "final_address": "812 N Dupre St",
    "address_councildis": "A",
    "status": "Assigned to Contractor",
    "contractor": "IV Waste",
    "rowid": "1242753",
    "final_x": "3676297.76603",
    "final_y": "537826.48628",
    "longitude": "-90.08428004362302",
    "latitude": "29.972993314300705",
    "geocoded_column": {
      "latitude": "29.972993314300705",
      "longitude": "-90.08428004362302"
    }
  },
  {
    "service_request": "2025-1242752",
    "request_type": "Trash/Recycling",
    "request_reason": "Request a Large Item Pick Up",
    "date_created": "2025-11-28T20:28:07.000",
    "date_modified": "2025-11-28T20:28:09.000",
    "request_status": "Pending",
    "responsible_agency": "Department of Sanitation",
    "final_address": "8549 Fordham Ct",
    "address_councildis": "E",
    "status": "Assigned to Contractor",
    "contractor": "Waste Pro",
    "rowid": "1242752",
    "final_x": "3705127.11742",
    "final_y": "560495.786462",
    "longitude": "-89.9923942657572",
    "latitude": "30.034429696158455",
    "geocoded_column": {
      "latitude": "30.034429696158455",
      "longitude": "-89.9923942657572"
    }
  },
  {
    "service_request": "2025-1242751",
    "request_type": "Trash/Recycling",
    "request_reason": "Request a Large Item Pick Up",
    "date_created": "2025-11-28T19:55:38.000",
    "date_modified": "2025-11-28T19:55:50.000",
    "request_status": "Pending",
    "responsible_agency": "Department of Sanitation",
    "final_address": "9696 Hayne Blvd Apt E-27",
    "address_councildis": "E",
    "status": "Assigned to Contractor",
    "contractor": "Waste Pro",
    "rowid": "1242751",
    "final_x": "3706952.67896",
    "final_y": "565028.099042",
    "longitude": "-89.986456931065",
    "latitude": "30.046832888365277",
    "geocoded_column": {
      "latitude": "30.046832888365277",
      "longitude": "-89.986456931065"
    }
  },
  {
    "service_request": "2025-1242750",
    "request_type": "Trash/Recycling",
    "request_reason": "Missed Trash Pick-Up",
    "date_created": "2025-11-28T19:28:31.000",
    "date_modified": "2025-11-28T19:28:33.000",
    "request_status": "Pending",
    "responsible_agency": "Department of Sanitation",
    "final_address": "7121 Cove Dr, New Orleans, Louisiana, 70126",
    "address_councildis": "E",
    "status": "Assigned to Contractor",
    "contractor": "Waste Pro",
    "rowid": "1242750",
    "final_x": "3700335.43204",
    "final_y": "558686.491356",
    "longitude": "-90.00760271281641",
    "latitude": "30.02960815088477",
    "geocoded_column": {
      "latitude": "30.02960815088477",
      "longitude": "-90.00760271281641"
    }
  },
  {
    "service_request": "2025-1242749",
    "request_type": "Abandoned Vehicles",
    "request_reason": "Abandoned/Junk Vehicles",
    "date_created": "2025-11-28T17:24:52.000",
    "date_modified": "2025-11-28T17:24:54.000",
    "request_status": "Pending",
    "responsible_agency": "Department of Public Works",
    "final_address": "241 10Th St",
    "address_councildis": "A",
    "status": "Pending",
    "rowid": "1242749",
    "final_x": "3665231.83559",
    "final_y": "547577.891858",
    "longitude": "-90.11890213558247",
    "latitude": "30.00013342524247",
    "geocoded_column": {
      "latitude": "30.00013342524247",
      "longitude": "-90.11890213558247"
    }
  },
  {
    "service_request": "2025-1242748",
    "request_type": "Trash/Recycling",
    "request_reason": "Missed Trash Pick-Up",
    "date_created": "2025-11-28T16:56:14.000",
    "date_modified": "2025-11-28T16:56:15.000",
    "request_status": "Pending",
    "responsible_agency": "Department of Sanitation",
    "final_address": "5006 N Galvez St",
    "address_councildis": "E",
    "status": "Assigned to Contractor",
    "contractor": "Waste Pro",
    "rowid": "1242748",
    "final_x": "3697065.836",
    "final_y": "537903.945161",
    "longitude": "-90.01868800928291",
    "latitude": "29.972567466573878",
    "geocoded_column": {
      "latitude": "29.972567466573878",
      "longitude": "-90.01868800928291"
    }
  },
  {
    "service_request": "2025-1242747",
    "request_type": "Trash/Recycling",
    "request_reason": "Request a Large Item Pick Up",
    "date_created": "2025-11-28T16:50:37.000",
    "date_modified": "2025-11-28T16:50:39.000",
    "request_status": "Pending",
    "responsible_agency": "Department of Sanitation",
    "final_address": "4853 Gilbert St",
    "address_councildis": "E",
    "status": "Assigned to Contractor",
    "contractor": "Waste Pro",
    "rowid": "1242747",
    "final_x": "3729549.72774",
    "final_y": "562341.512607",
    "longitude": "-89.91514446726929",
    "latitude": "30.03869619313856",
    "geocoded_column": {
      "latitude": "30.03869619313856",
      "longitude": "-89.91514446726929"
    }
  },
  {
    "service_request": "2025-1242746",
    "request_type": "Trash/Recycling",
    "request_reason": "Missed Trash Pick-Up",
    "date_created": "2025-11-28T16:27:48.000",
    "date_modified": "2025-11-28T17:19:47.000",
    "case_close_date": "2025-11-28T11:19:46.000",
    "request_status": "Closed",
    "responsible_agency": "Department of Sanitation",
    "final_address": "1929 Valence St",
    "address_councildis": "B",
    "status": "Invalid Request",
    "contractor": "IV Waste",
    "contractor_action": "Invalid",
    "rowid": "1242746",
    "final_x": "3669684.2987",
    "final_y": "522058.755386",
    "longitude": "-90.10570023732886",
    "latitude": "29.92983379483144",
    "geocoded_column": {
      "latitude": "29.92983379483144",
      "longitude": "-90.10570023732886"
    }
  },
  {
    "service_request": "2025-1242745",
    "request_type": "Trash/Recycling",
    "request_reason": "Missed Trash Pick-Up",
    "date_created": "2025-11-28T16:20:56.000",
    "date_modified": "2025-11-28T16:20:58.000",
    "request_status": "Pending",
    "responsible_agency": "Department of Sanitation",
    "final_address": "1200 BLK Westchester St",
    "address_councildis": "C",
    "status": "Assigned to Contractor",
    "contractor": "Richards Disposal",
    "rowid": "1242745",
    "final_x": "3705962.47485",
    "final_y": "517270.020366",
    "longitude": "-89.99135425503593",
    "latitude": "29.915547853121502",
    "geocoded_column": {
      "latitude": "29.915547853121502",
      "longitude": "-89.99135425503593"
    }
  },
  {
    "service_request": "2025-1242744",
    "request_type": "General Services",
    "request_reason": "General Service Request",
    "date_created": "2025-11-28T16:12:37.000",
    "date_modified": "2025-11-28T16:12:38.000",
    "request_status": "Pending",
    "responsible_agency": "Orleans Parish Communication District",
    "final_address": "4900 Alsace st",
    "address_councildis": "E",
    "status": "Pending",
    "rowid": "1242744",
    "final_x": "3730466.5744",
    "final_y": "562919.295136",
    "longitude": "-89.91222438198615",
    "latitude": "30.04025362013727",
    "geocoded_column": {
      "latitude": "30.04025362013727",
      "longitude": "-89.91222438198615"
    }
  },
  {
    "service_request": "2025-1242743",
    "request_type": "Trash/Recycling",
    "request_reason": "Replace Trash Cart",
    "date_created": "2025-11-28T16:06:56.000",
    "date_modified": "2025-11-28T16:06:57.000",
    "request_status": "Pending",
    "responsible_agency": "Department of Sanitation",
    "final_address": "1027 Independence St",
    "address_councildis": "C",
    "status": "Assigned to Contractor",
    "contractor": "IV Waste",
    "rowid": "1242743",
    "final_x": "3690936.33948",
    "final_y": "535285.730246",
    "longitude": "-90.03813945983933",
    "latitude": "29.96556024357869",
    "geocoded_column": {
      "latitude": "29.96556024357869",
      "longitude": "-90.03813945983933"
    }
  },
  {
    "service_request": "2025-1242742",
    "request_type": "Streetlights",
    "request_reason": "Streetlight Outage/Malfunction",
    "date_created": "2025-11-28T16:03:13.000",
    "date_modified": "2025-11-28T16:03:14.000",
    "request_status": "Pending",
    "responsible_agency": "Department of Public Works",
    "final_address": "7733 Mayo Rd",
    "address_councildis": "E",
    "status": "Pending",
    "rowid": "1242742",
    "final_x": "3700722.07786",
    "final_y": "561268.175838",
    "longitude": "-90.00628644326783",
    "latitude": "30.036694475803113",
    "geocoded_column": {
      "latitude": "30.036694475803113",
      "longitude": "-90.00628644326783"
    }
  },
  {
    "service_request": "2025-1242741",
    "request_type": "Streetlights",
    "request_reason": "Streetlight Outage/Malfunction",
    "date_created": "2025-11-28T16:01:39.000",
    "date_modified": "2025-11-28T16:01:40.000",
    "request_status": "Pending",
    "responsible_agency": "Department of Public Works",
    "final_address": "11400 S Easterlyn Cir",
    "address_councildis": "E",
    "status": "Pending",
    "rowid": "1242741",
    "final_x": "3718534.43231",
    "final_y": "560209.175709",
    "longitude": "-89.95003674412662",
    "latitude": "30.03320339757007",
    "geocoded_column": {
      "latitude": "30.03320339757007",
      "longitude": "-89.95003674412662"
    }
  },
  {
    "service_request": "2025-1242740",
    "request_type": "Trash/Recycling",
    "request_reason": "Missed Trash Pick-Up",
    "date_created": "2025-11-28T16:00:53.000",
    "date_modified": "2025-11-28T16:00:54.000",
    "request_status": "Pending",
    "responsible_agency": "Department of Sanitation",
    "final_address": "2818 Milan St",
    "address_councildis": "B",
    "status": "Assigned to Contractor",
    "contractor": "IV Waste",
    "rowid": "1242740",
    "final_x": "3671109.95655",
    "final_y": "525318.857149",
    "longitude": "-90.10108899322604",
    "latitude": "29.938755946901885",
    "geocoded_column": {
      "latitude": "29.938755946901885",
      "longitude": "-90.10108899322604"
    }
  },
  {
    "service_request": "2025-1242739",
    "request_type": "Trash/Recycling",
    "request_reason": "Order Second Trash Cart",
    "date_created": "2025-11-28T15:42:56.000",
    "date_modified": "2025-11-28T15:42:57.000",
    "request_status": "Pending",
    "responsible_agency": "Department of Sanitation",
    "final_address": "1380 Mithra St",
    "address_councildis": "D",
    "status": "Assigned to Contractor",
    "contractor": "IV Waste",
    "rowid": "1242739",
    "final_x": "3677580.83848",
    "final_y": "552007.86831",
    "longitude": "-90.07973785670349",
    "latitude": "30.0119486224346",
    "geocoded_column": {
      "latitude": "30.0119486224346",
      "longitude": "-90.07973785670349"
    }
  },
  {
    "service_request": "2025-1242738",
    "request_type": "Trash/Recycling",
    "request_reason": "Request a Large Item Pick Up",
    "date_created": "2025-11-28T15:41:35.000",
    "date_modified": "2025-11-28T15:41:37.000",
    "request_status": "Pending",
    "responsible_agency": "Department of Sanitation",
    "final_address": "7822 Walmsley Ave",
    "address_councildis": "A",
    "status": "Assigned to Contractor",
    "contractor": "IV Waste",
    "rowid": "1242738",
    "final_x": "3666523.77069",
    "final_y": "531928.444483",
    "longitude": "-90.1153463313273",
    "latitude": "29.957064988424477",
    "geocoded_column": {
      "latitude": "29.957064988424477",
      "longitude": "-90.1153463313273"
    }
  },
  {
    "service_request": "2025-1242737",
    "request_type": "Safety & Permits",
    "request_reason": "Zoning Enforcement",
    "date_created": "2025-11-28T15:40:24.000",
    "date_modified": "2025-11-28T15:40:25.000",
    "request_status": "Pending",
    "responsible_agency": "Safety and Permits",
    "final_address": "2301 Ap Tureaud Ave",
    "address_councildis": "D",
    "status": "Pending",
    "rowid": "1242737",
    "final_x": "3681726.26901",
    "final_y": "540520.928907",
    "longitude": "-90.06704175224665",
    "latitude": "29.980238268096883",
    "geocoded_column": {
      "latitude": "29.980238268096883",
      "longitude": "-90.06704175224665"
    }
  },
  {
    "service_request": "2025-1242736",
    "request_type": "Roads and Streets",
    "request_reason": "Abandoned Service Cut",
    "date_created": "2025-11-28T15:38:00.000",
    "date_modified": "2025-11-28T15:38:02.000",
    "request_status": "Pending",
    "responsible_agency": "Department of Public Works",
    "final_address": "1031 S Carrollton Ave",
    "address_councildis": "A",
    "status": "Pending",
    "rowid": "1242736",
    "final_x": "3661802.12902",
    "final_y": "527925.366399",
    "longitude": "-90.13038859147233",
    "latitude": "29.94619497020936",
    "geocoded_column": {
      "latitude": "29.94619497020936",
      "longitude": "-90.13038859147233"
    }
  },
  {
    "service_request": "2025-1242735",
    "request_type": "Trash/Recycling",
    "request_reason": "Replace Trash Cart",
    "date_created": "2025-11-28T15:18:27.000",
    "date_modified": "2025-11-28T15:18:29.000",
    "request_status": "Pending",
    "responsible_agency": "Department of Sanitation",
    "final_address": "6219 Craigie Rd",
    "address_councildis": "E",
    "status": "Assigned to Contractor",
    "contractor": "Waste Pro",
    "rowid": "1242735",
    "final_x": "3696176.07197",
    "final_y": "558978.179164",
    "longitude": "-90.02073560742771",
    "latitude": "30.030541846644436",
    "geocoded_column": {
      "latitude": "30.030541846644436",
      "longitude": "-90.02073560742771"
    }
  },
  {
    "service_request": "2025-1242734",
    "request_type": "Abandoned Vehicles",
    "request_reason": "Abandoned/Junk Vehicles",
    "date_created": "2025-11-28T15:12:47.000",
    "date_modified": "2025-11-28T15:12:48.000",
    "request_status": "Pending",
    "responsible_agency": "Department of Public Works",
    "final_address": "1808 Iberville St",
    "address_councildis": "B",
    "status": "Pending",
    "rowid": "1242734",
    "final_x": "3678260.67918",
    "final_y": "533376.481284",
    "longitude": "-90.07823472246108",
    "latitude": "29.96069833594444",
    "geocoded_column": {
      "latitude": "29.96069833594444",
      "longitude": "-90.07823472246108"
    }
  },
  {
    "service_request": "2025-1242733",
    "request_type": "Property Maintenance",
    "request_reason": "Property Maintenance",
    "date_created": "2025-11-28T15:12:05.000",
    "date_modified": "2025-11-28T15:12:08.000",
    "request_status": "Pending",
    "responsible_agency": "Department of Code Enforcement",
    "final_address": "801 Roosevelt Pl",
    "address_councildis": "A",
    "status": "Pending",
    "rowid": "1242733",
    "final_x": "3673495.3499",
    "final_y": "539668.52929",
    "longitude": "-90.09306766220448",
    "latitude": "29.978142005898846",
    "geocoded_column": {
      "latitude": "29.978142005898846",
      "longitude": "-90.09306766220448"
    }
  },
  {
    "service_request": "2025-1242732",
    "request_type": "Property Maintenance",
    "request_reason": "Property Maintenance",
    "date_created": "2025-11-28T15:07:02.000",
    "date_modified": "2025-11-28T15:07:03.000",
    "request_status": "Pending",
    "responsible_agency": "Department of Code Enforcement",
    "final_address": "801 Roosevelt Pl",
    "address_councildis": "A",
    "status": "Pending",
    "rowid": "1242732",
    "final_x": "3673495.3499",
    "final_y": "539668.52929",
    "longitude": "-90.09306766220448",
    "latitude": "29.978142005898846",
    "geocoded_column": {
      "latitude": "29.978142005898846",
      "longitude": "-90.09306766220448"
    }
  },
  {
    "service_request": "2025-1242731",
    "request_type": "Trash/Recycling",
    "request_reason": "Missed Trash Pick-Up",
    "date_created": "2025-11-28T14:44:15.000",
    "date_modified": "2025-11-28T15:05:52.000",
    "case_close_date": "2025-11-28T09:05:52.000",
    "request_status": "Closed",
    "responsible_agency": "Department of Sanitation",
    "final_address": "1549 Philip St Apt B",
    "address_councildis": "B",
    "status": "Invalid Request",
    "contractor": "IV Waste",
    "contractor_action": "Invalid",
    "rowid": "1242731",
    "final_x": "3677463.66914",
    "final_y": "523331.144443",
    "longitude": "-90.08109819202863",
    "latitude": "29.9331009802532",
    "geocoded_column": {
      "latitude": "29.9331009802532",
      "longitude": "-90.08109819202863"
    }
  },
  {
    "service_request": "2025-1242730",
    "request_type": "Trash/Recycling",
    "request_reason": "Replace Trash Cart",
    "date_created": "2025-11-28T14:23:18.000",
    "date_modified": "2025-11-28T14:23:19.000",
    "request_status": "Pending",
    "responsible_agency": "Department of Sanitation",
    "final_address": "1027 St Philip St",
    "address_councildis": "C",
    "status": "Assigned to Contractor",
    "contractor": "IV Waste",
    "rowid": "1242730",
    "final_x": "3682201.92149",
    "final_y": "534169.134917",
    "longitude": "-90.06576137136271",
    "latitude": "29.96275856961333",
    "geocoded_column": {
      "latitude": "29.96275856961333",
      "longitude": "-90.06576137136271"
    }
  },
  {
    "service_request": "2025-1242729",
    "request_type": "Trash/Recycling",
    "request_reason": "Order Trash Cart",
    "date_created": "2025-11-28T14:18:24.000",
    "date_modified": "2025-11-28T14:18:26.000",
    "request_status": "Pending",
    "responsible_agency": "Department of Sanitation",
    "final_address": "22 Forest Oaks Dr",
    "address_councildis": "C",
    "status": "Assigned to Contractor",
    "contractor": "Richards Disposal",
    "rowid": "1242729",
    "final_x": "3722215.89721",
    "final_y": "510318.907631",
    "longitude": "-89.94031976623731",
    "latitude": "29.895901352742328",
    "geocoded_column": {
      "latitude": "29.895901352742328",
      "longitude": "-89.94031976623731"
    }
  },
  {
    "service_request": "2025-1242728",
    "request_type": "Roads and Streets",
    "request_reason": "Pothole",
    "date_created": "2025-11-28T14:04:48.000",
    "date_modified": "2025-11-28T14:04:50.000",
    "request_status": "Pending",
    "responsible_agency": "Department of Public Works",
    "final_address": "5400 BLK S Claiborne Ave",
    "address_councildis": "A",
    "status": "Pending",
    "rowid": "1242728",
    "final_x": "3668279.95901",
    "final_y": "526449.139803",
    "longitude": "-90.10998553870277",
    "latitude": "29.941947239736635",
    "geocoded_column": {
      "latitude": "29.941947239736635",
      "longitude": "-90.10998553870277"
    }
  },
  {
    "service_request": "2025-1242727",
    "request_type": "Trash/Recycling",
    "request_reason": "Request a Large Item Pick Up",
    "date_created": "2025-11-28T14:01:11.000",
    "date_modified": "2025-11-28T14:01:12.000",
    "request_status": "Pending",
    "responsible_agency": "Department of Sanitation",
    "final_address": "3119 Jefferson Ave",
    "address_councildis": "B",
    "status": "Assigned to Contractor",
    "contractor": "IV Waste",
    "rowid": "1242727",
    "final_x": "3668586.92167",
    "final_y": "526761.99859",
    "longitude": "-90.10900583544793",
    "latitude": "29.942798485227893",
    "geocoded_column": {
      "latitude": "29.942798485227893",
      "longitude": "-90.10900583544793"
    }
  },
  {
    "service_request": "2025-1242726",
    "request_type": "Trash/Recycling",
    "request_reason": "Request a Large Item Pick Up",
    "date_created": "2025-11-28T13:58:28.000",
    "date_modified": "2025-11-28T13:58:30.000",
    "request_status": "Pending",
    "responsible_agency": "Department of Sanitation",
    "final_address": "5610 Chamberlain Dr",
    "address_councildis": "D",
    "status": "Assigned to Contractor",
    "contractor": "IV Waste",
    "rowid": "1242726",
    "final_x": "3679326.19707",
    "final_y": "553068.697879",
    "longitude": "-90.07418669322648",
    "latitude": "30.014812901303078",
    "geocoded_column": {
      "latitude": "30.014812901303078",
      "longitude": "-90.07418669322648"
    }
  },
  {
    "service_request": "2025-1242725",
    "request_type": "Trash/Recycling",
    "request_reason": "Request a Large Item Pick Up",
    "date_created": "2025-11-28T13:56:51.000",
    "date_modified": "2025-11-28T13:56:53.000",
    "request_status": "Pending",
    "responsible_agency": "Department of Sanitation",
    "final_address": "4500 Palmyra St",
    "address_councildis": "A",
    "status": "Assigned to Contractor",
    "contractor": "IV Waste",
    "rowid": "1242725",
    "final_x": "3669175.3538",
    "final_y": "538760.147081",
    "longitude": "-90.10674250329562",
    "latitude": "29.975772127812668",
    "geocoded_column": {
      "latitude": "29.975772127812668",
      "longitude": "-90.10674250329562"
    }
  },
  {
    "service_request": "2025-1242724",
    "request_type": "Trash/Recycling",
    "request_reason": "Illegal Dumping",
    "date_created": "2025-11-28T13:44:42.000",
    "date_modified": "2025-11-28T13:44:44.000",
    "request_status": "Pending",
    "responsible_agency": "Department of Sanitation",
    "final_address": "620 Adams St",
    "address_councildis": "A",
    "status": "Pending",
    "rowid": "1242724",
    "final_x": "3661775.2615",
    "final_y": "526030.794686",
    "longitude": "-90.13053621364337",
    "latitude": "29.94098627694872",
    "geocoded_column": {
      "latitude": "29.94098627694872",
      "longitude": "-90.13053621364337"
    }
  },
  {
    "service_request": "2025-1242723",
    "request_type": "Trash/Recycling",
    "request_reason": "Order Recycling Cart",
    "date_created": "2025-11-28T13:38:58.000",
    "date_modified": "2025-11-28T13:39:00.000",
    "request_status": "Pending",
    "responsible_agency": "Department of Sanitation",
    "final_address": "12710 Curran Blvd, New Orleans, Louisiana, 70128",
    "status": "Pending",
    "rowid": "1242723",
    "longitude": "0.0",
    "latitude": "0.0",
    "geocoded_column": {
      "latitude": "0.0",
      "longitude": "0.0"
    }
  },
  {
    "service_request": "2025-1242722",
    "request_type": "Trash/Recycling",
    "request_reason": "Missed Trash Pick-Up",
    "date_created": "2025-11-28T13:18:48.000",
    "date_modified": "2025-11-28T13:38:25.000",
    "case_close_date": "2025-11-28T07:38:23.000",
    "request_status": "Closed",
    "responsible_agency": "Department of Sanitation",
    "final_address": "4842 Virgilian St",
    "address_councildis": "D",
    "status": "Duplicate Request",
    "contractor": "Waste Pro",
    "contractor_action": "Duplicate",
    "rowid": "1242722",
    "final_x": "3697341.83363",
    "final_y": "554366.490968",
    "longitude": "-90.0172191878006",
    "latitude": "30.01782469027153",
    "geocoded_column": {
      "latitude": "30.01782469027153",
      "longitude": "-90.0172191878006"
    }
  },
  {
    "service_request": "2025-1242721",
    "request_type": "Trash/Recycling",
    "request_reason": "Request a Large Item Pick Up",
    "date_created": "2025-11-28T13:17:35.000",
    "date_modified": "2025-11-28T13:17:38.000",
    "request_status": "Pending",
    "responsible_agency": "Department of Sanitation",
    "final_address": "1629 Jefferson Ave",
    "address_councildis": "B",
    "status": "Assigned to Contractor",
    "contractor": "IV Waste",
    "rowid": "1242721",
    "final_x": "3667497.91053",
    "final_y": "521816.652986",
    "longitude": "-90.11261045534874",
    "latitude": "29.9292323191064",
    "geocoded_column": {
      "latitude": "29.9292323191064",
      "longitude": "-90.11261045534874"
    }
  },
  {
    "service_request": "2025-1242720",
    "request_type": "Trash/Recycling",
    "request_reason": "Request a Large Item Pick Up",
    "date_created": "2025-11-28T12:50:48.000",
    "date_modified": "2025-11-28T15:04:12.000",
    "request_status": "Pending",
    "responsible_agency": "Department of Sanitation",
    "final_address": "6930 Queensway Dr",
    "address_councildis": "E",
    "status": "Assigned to Contractor",
    "contractor": "Waste Pro",
    "rowid": "1242720",
    "final_x": "3719546.04044",
    "final_y": "568891.027685",
    "longitude": "-89.9465079475778",
    "latitude": "30.05704131050695",
    "geocoded_column": {
      "latitude": "30.05704131050695",
      "longitude": "-89.9465079475778"
    }
  },
  {
    "service_request": "2025-1242719",
    "request_type": "Trash/Recycling",
    "request_reason": "Request a Large Item Pick Up",
    "date_created": "2025-11-28T12:45:40.000",
    "date_modified": "2025-11-28T12:45:49.000",
    "request_status": "Pending",
    "responsible_agency": "Department of Sanitation",
    "final_address": "2417 Bienville Ave",
    "address_councildis": "B",
    "status": "Assigned to Contractor",
    "contractor": "IV Waste",
    "rowid": "1242719",
    "final_x": "3676801.30427",
    "final_y": "535065.652742",
    "longitude": "-90.08278493140608",
    "latitude": "29.96538685979261",
    "geocoded_column": {
      "latitude": "29.96538685979261",
      "longitude": "-90.08278493140608"
    }
  },
  {
    "service_request": "2025-1242718",
    "request_type": "Trash/Recycling",
    "request_reason": "Order Second Trash Cart",
    "date_created": "2025-11-28T12:36:02.000",
    "date_modified": "2025-11-28T12:36:04.000",
    "request_status": "Pending",
    "responsible_agency": "Department of Sanitation",
    "final_address": "5710 Garfield St",
    "address_councildis": "A",
    "status": "Assigned to Contractor",
    "contractor": "IV Waste",
    "rowid": "1242718",
    "final_x": "3666210.39777",
    "final_y": "521252.848057",
    "longitude": "-90.11669380107593",
    "latitude": "29.927719687236237",
    "geocoded_column": {
      "latitude": "29.927719687236237",
      "longitude": "-90.11669380107593"
    }
  },
  {
    "service_request": "2025-1242717",
    "request_type": "Trash/Recycling",
    "request_reason": "Request a Large Item Pick Up",
    "date_created": "2025-11-28T12:19:18.000",
    "date_modified": "2025-11-28T12:19:19.000",
    "request_status": "Pending",
    "responsible_agency": "Department of Sanitation",
    "final_address": "6556 Pontchartrain Blvd",
    "address_councildis": "A",
    "status": "Assigned to Contractor",
    "contractor": "IV Waste",
    "rowid": "1242717",
    "final_x": "3666223.54081",
    "final_y": "551773.896917",
    "longitude": "-90.11562840654283",
    "latitude": "30.01164204553218",
    "geocoded_column": {
      "latitude": "30.01164204553218",
      "longitude": "-90.11562840654283"
    }
  },
  {
    "service_request": "2025-1242716",
    "request_type": "Trash/Recycling",
    "request_reason": "Return Recycling Cart",
    "date_created": "2025-11-28T12:17:36.000",
    "date_modified": "2025-11-28T12:17:37.000",
    "request_status": "Pending",
    "responsible_agency": "Department of Sanitation",
    "final_address": "331 N Olympia St",
    "address_councildis": "A",
    "status": "Pending",
    "rowid": "1242716",
    "final_x": "3670040.28193",
    "final_y": "540507.890443",
    "longitude": "-90.10395158606723",
    "latitude": "29.980552343476063",
    "geocoded_column": {
      "latitude": "29.980552343476063",
      "longitude": "-90.10395158606723"
    }
  },
  {
    "service_request": "2025-1242715",
    "request_type": "Trash/Recycling",
    "request_reason": "Repair Trash Cart",
    "date_created": "2025-11-28T12:16:25.000",
    "date_modified": "2025-11-28T12:16:26.000",
    "request_status": "Pending",
    "responsible_agency": "Department of Sanitation",
    "final_address": "331 N Olympia St",
    "address_councildis": "A",
    "status": "Assigned to Contractor",
    "contractor": "IV Waste",
    "rowid": "1242715",
    "final_x": "3670040.28193",
    "final_y": "540507.890443",
    "longitude": "-90.10395158606723",
    "latitude": "29.980552343476063",
    "geocoded_column": {
      "latitude": "29.980552343476063",
      "longitude": "-90.10395158606723"
    }
  },
  {
    "service_request": "2025-1242714",
    "request_type": "Trash/Recycling",
    "request_reason": "Replace Trash Cart",
    "date_created": "2025-11-28T12:05:27.000",
    "date_modified": "2025-11-28T12:05:29.000",
    "request_status": "Pending",
    "responsible_agency": "Department of Sanitation",
    "final_address": "1654 State St",
    "address_councildis": "A",
    "status": "Assigned to Contractor",
    "contractor": "IV Waste",
    "rowid": "1242714",
    "final_x": "3665891.11066",
    "final_y": "523164.071483",
    "longitude": "-90.11763770726988",
    "latitude": "29.932984263925317",
    "geocoded_column": {
      "latitude": "29.932984263925317",
      "longitude": "-90.11763770726988"
    }
  },
  {
    "service_request": "2025-1242713",
    "request_type": "Trash/Recycling",
    "request_reason": "Request a Large Item Pick Up",
    "date_created": "2025-11-28T12:02:08.000",
    "date_modified": "2025-11-28T12:02:15.000",
    "request_status": "Pending",
    "responsible_agency": "Department of Sanitation",
    "final_address": "3332 Gentilly Blvd",
    "address_councildis": "D",
    "status": "Assigned to Contractor",
    "contractor": "IV Waste",
    "rowid": "1242713",
    "final_x": "3684860.6422",
    "final_y": "548156.149842",
    "longitude": "-90.05687345078192",
    "latitude": "30.001136791824806",
    "geocoded_column": {
      "latitude": "30.001136791824806",
      "longitude": "-90.05687345078192"
    }
  },
  {
    "service_request": "2025-1242712",
    "request_type": "Trash/Recycling",
    "request_reason": "Illegal Dumping",
    "date_created": "2025-11-28T11:37:25.000",
    "date_modified": "2025-11-28T11:37:26.000",
    "request_status": "Pending",
    "responsible_agency": "Department of Sanitation",
    "final_address": "3285 Potomac St",
    "address_councildis": "C",
    "status": "Pending",
    "rowid": "1242712",
    "final_x": "3694882.31549",
    "final_y": "517536.244342",
    "longitude": "-90.02631765520378",
    "latitude": "29.916632049428795",
    "geocoded_column": {
      "latitude": "29.916632049428795",
      "longitude": "-90.02631765520378"
    }
  },
  {
    "service_request": "2025-1242711",
    "request_type": "Trash/Recycling",
    "request_reason": "Missed Trash Pick-Up",
    "date_created": "2025-11-28T11:37:17.000",
    "date_modified": "2025-11-28T12:38:02.000",
    "case_close_date": "2025-11-28T06:38:01.000",
    "request_status": "Closed",
    "responsible_agency": "Department of Sanitation",
    "final_address": "2323 Napoleon Ave",
    "address_councildis": "B",
    "status": "Invalid Request",
    "contractor": "IV Waste",
    "contractor_action": "Invalid",
    "rowid": "1242711",
    "final_x": "3670678.14228",
    "final_y": "523545.080315",
    "longitude": "-90.10251243535163",
    "latitude": "29.933891395218257",
    "geocoded_column": {
      "latitude": "29.933891395218257",
      "longitude": "-90.10251243535163"
    }
  },
  {
    "service_request": "2025-1242710",
    "request_type": "Trash/Recycling",
    "request_reason": "Missed Trash Pick-Up",
    "date_created": "2025-11-28T11:31:52.000",
    "date_modified": "2025-11-28T11:57:35.000",
    "case_close_date": "2025-11-28T05:57:34.000",
    "request_status": "Closed",
    "responsible_agency": "Department of Sanitation",
    "final_address": "1027 St Philip St",
    "address_councildis": "C",
    "status": "Invalid Request",
    "contractor": "IV Waste",
    "contractor_action": "Invalid",
    "rowid": "1242710",
    "final_x": "3682201.92149",
    "final_y": "534169.134917",
    "longitude": "-90.06576137136271",
    "latitude": "29.96275856961333",
    "geocoded_column": {
      "latitude": "29.96275856961333",
      "longitude": "-90.06576137136271"
    }
  },
  {
    "service_request": "2025-1242709",
    "request_type": "Trash/Recycling",
    "request_reason": "Missed Trash Pick-Up",
    "date_created": "2025-11-28T11:29:19.000",
    "date_modified": "2025-11-28T14:58:27.000",
    "case_close_date": "2025-11-28T08:58:25.000",
    "request_status": "Closed",
    "responsible_agency": "Department of Sanitation",
    "final_address": "4842 Virgilian St",
    "address_councildis": "D",
    "status": "Invalid Request",
    "contractor": "Waste Pro",
    "contractor_action": "Invalid",
    "rowid": "1242709",
    "final_x": "3697341.83363",
    "final_y": "554366.490968",
    "longitude": "-90.0172191878006",
    "latitude": "30.01782469027153",
    "geocoded_column": {
      "latitude": "30.01782469027153",
      "longitude": "-90.0172191878006"
    }
  },
  {
    "service_request": "2025-1242708",
    "request_type": "General Services",
    "request_reason": "General Service Request",
    "date_created": "2025-11-28T11:29:14.000",
    "date_modified": "2025-11-28T11:29:15.000",
    "request_status": "Pending",
    "responsible_agency": "Orleans Parish Communication District",
    "final_address": "1020 N Carrollton Ave",
    "address_councildis": "A",
    "status": "Pending",
    "rowid": "1242708",
    "final_x": "3673817.22766",
    "final_y": "541137.605452",
    "longitude": "-90.0920007903434",
    "latitude": "29.982171878507195",
    "geocoded_column": {
      "latitude": "29.982171878507195",
      "longitude": "-90.0920007903434"
    }
  },
  {
    "service_request": "2025-1242707",
    "request_type": "Trash/Recycling",
    "request_reason": "Replace Recycling Cart",
    "date_created": "2025-11-28T11:26:30.000",
    "date_modified": "2025-11-28T11:26:32.000",
    "request_status": "Pending",
    "responsible_agency": "Department of Sanitation",
    "final_address": "3311 Octavia St",
    "address_councildis": "A",
    "status": "Pending",
    "rowid": "1242707",
    "final_x": "3668470.02906",
    "final_y": "527769.967295",
    "longitude": "-90.10934089988201",
    "latitude": "29.945573506311465",
    "geocoded_column": {
      "latitude": "29.945573506311465",
      "longitude": "-90.10934089988201"
    }
  },
  {
    "service_request": "2025-1242706",
    "request_type": "Abandoned Vehicles",
    "request_reason": "Abandoned/Junk Vehicles",
    "date_created": "2025-11-28T11:04:11.000",
    "date_modified": "2025-11-28T11:04:12.000",
    "request_status": "Pending",
    "responsible_agency": "Department of Public Works",
    "final_address": "1315 St Andrew St",
    "address_councildis": "B",
    "status": "Pending",
    "rowid": "1242706",
    "final_x": "3678976.02146",
    "final_y": "523267.033787",
    "longitude": "-90.07632601935202",
    "latitude": "29.93287916439355",
    "geocoded_column": {
      "latitude": "29.93287916439355",
      "longitude": "-90.07632601935202"
    }
  },
  {
    "service_request": "2025-1242705",
    "request_type": "Trash/Recycling",
    "request_reason": "Missed Trash Pick-Up",
    "date_created": "2025-11-28T10:44:28.000",
    "date_modified": "2025-11-28T11:00:30.000",
    "case_close_date": "2025-11-28T05:00:22.000",
    "request_status": "Closed",
    "responsible_agency": "Department of Sanitation",
    "final_address": "4842 Virgilian St",
    "address_councildis": "D",
    "status": "Invalid Request",
    "contractor": "Waste Pro",
    "contractor_action": "Invalid",
    "rowid": "1242705",
    "final_x": "3697341.83363",
    "final_y": "554366.490968",
    "longitude": "-90.0172191878006",
    "latitude": "30.01782469027153",
    "geocoded_column": {
      "latitude": "30.01782469027153",
      "longitude": "-90.0172191878006"
    }
  },
  {
    "service_request": "2025-1242704",
    "request_type": "Abandoned Vehicles",
    "request_reason": "Abandoned/Junk Vehicles",
    "date_created": "2025-11-28T10:15:17.000",
    "date_modified": "2025-11-28T10:15:19.000",
    "request_status": "Pending",
    "responsible_agency": "Department of Public Works",
    "final_address": "3218 Constance St",
    "address_councildis": "B",
    "status": "Pending",
    "rowid": "1242704",
    "final_x": "3675839.40865",
    "final_y": "519558.193207",
    "longitude": "-90.08635549904402",
    "latitude": "29.92277529624708",
    "geocoded_column": {
      "latitude": "29.92277529624708",
      "longitude": "-90.08635549904402"
    }
  },
  {
    "service_request": "2025-1242703",
    "request_type": "Trash/Recycling",
    "request_reason": "Request a Large Item Pick Up",
    "date_created": "2025-11-28T10:15:09.000",
    "date_modified": "2025-11-28T10:15:10.000",
    "request_status": "Pending",
    "responsible_agency": "Department of Sanitation",
    "final_address": "10911 Lake Forest Blvd",
    "address_councildis": "E",
    "status": "Assigned to Contractor",
    "contractor": "Waste Pro",
    "rowid": "1242703",
    "final_x": "3713785.40063",
    "final_y": "560368.857566",
    "longitude": "-89.96503797213117",
    "latitude": "30.033799244623992",
    "geocoded_column": {
      "latitude": "30.033799244623992",
      "longitude": "-89.96503797213117"
    }
  },
  {
    "service_request": "2025-1242702",
    "request_type": "Property Maintenance",
    "request_reason": "Property Maintenance",
    "date_created": "2025-11-28T10:13:46.000",
    "date_modified": "2025-11-28T10:13:47.000",
    "request_status": "Pending",
    "responsible_agency": "Department of Code Enforcement",
    "final_address": "7030 Canal Blvd",
    "address_councildis": "A",
    "status": "Pending",
    "rowid": "1242702",
    "final_x": "3668980.8482",
    "final_y": "554195.359384",
    "longitude": "-90.10683500544249",
    "latitude": "30.018219353192602",
    "geocoded_column": {
      "latitude": "30.018219353192602",
      "longitude": "-90.10683500544249"
    }
  },
  {
    "service_request": "2025-1242701",
    "request_type": "Abandoned Vehicles",
    "request_reason": "Abandoned/Junk Vehicles",
    "date_created": "2025-11-28T10:12:51.000",
    "date_modified": "2025-11-28T10:12:54.000",
    "request_status": "Pending",
    "responsible_agency": "Department of Public Works",
    "final_address": "4424 Marais St",
    "address_councildis": "D",
    "status": "Pending",
    "rowid": "1242701",
    "final_x": "3693328.80361",
    "final_y": "535228.05767",
    "longitude": "-90.03058626120252",
    "latitude": "29.965327088338242",
    "geocoded_column": {
      "latitude": "29.965327088338242",
      "longitude": "-90.03058626120252"
    }
  },
  {
    "service_request": "2025-1242700",
    "request_type": "Trash/Recycling",
    "request_reason": "Missed Trash Pick-Up",
    "date_created": "2025-11-28T10:04:16.000",
    "date_modified": "2025-11-28T16:48:35.000",
    "case_close_date": "2025-11-28T10:48:34.000",
    "request_status": "Closed",
    "responsible_agency": "Department of Sanitation",
    "final_address": "3824 Gentilly Blvd",
    "address_councildis": "D",
    "status": "Invalid Request",
    "contractor": "IV Waste",
    "contractor_action": "Invalid",
    "rowid": "1242700",
    "final_x": "3688019.92105",
    "final_y": "548737.807187",
    "longitude": "-90.04687241817791",
    "latitude": "30.002638988474352",
    "geocoded_column": {
      "latitude": "30.002638988474352",
      "longitude": "-90.04687241817791"
    }
  },
  {
    "service_request": "2025-1242699",
    "request_type": "Trash/Recycling",
    "request_reason": "Request a Large Item Pick Up",
    "date_created": "2025-11-28T09:51:09.000",
    "date_modified": "2025-11-28T09:51:11.000",
    "request_status": "Pending",
    "responsible_agency": "Department of Sanitation",
    "final_address": "3110 Cleveland Ave",
    "address_councildis": "B",
    "status": "Assigned to Contractor",
    "contractor": "IV Waste",
    "rowid": "1242699",
    "final_x": "3673704.57908",
    "final_y": "535777.075527",
    "longitude": "-90.09253993171296",
    "latitude": "29.967435599880453",
    "geocoded_column": {
      "latitude": "29.967435599880453",
      "longitude": "-90.09253993171296"
    }
  },
  {
    "service_request": "2025-1242698",
    "request_type": "Trash/Recycling",
    "request_reason": "Missed Trash Pick-Up",
    "date_created": "2025-11-28T09:47:48.000",
    "date_modified": "2025-11-28T09:55:59.000",
    "case_close_date": "2025-11-28T03:55:58.000",
    "request_status": "Closed",
    "responsible_agency": "Department of Sanitation",
    "final_address": "2536 Soniat St",
    "address_councildis": "B",
    "status": "Invalid Request",
    "contractor": "IV Waste",
    "contractor_action": "Invalid",
    "rowid": "1242698",
    "final_x": "3668503.70273",
    "final_y": "524880.733244",
    "longitude": "-90.10933202596162",
    "latitude": "29.937628057199838",
    "geocoded_column": {
      "latitude": "29.937628057199838",
      "longitude": "-90.10933202596162"
    }
  },
  {
    "service_request": "2025-1242697",
    "request_type": "Abandoned Vehicles",
    "request_reason": "Abandoned/Junk Vehicles",
    "date_created": "2025-11-28T09:44:19.000",
    "date_modified": "2025-11-28T09:44:21.000",
    "request_status": "Pending",
    "responsible_agency": "Department of Public Works",
    "final_address": "3515 Dauphine St",
    "address_councildis": "C",
    "status": "Pending",
    "rowid": "1242697",
    "final_x": "3690322.70313",
    "final_y": "534490.752645",
    "longitude": "-90.04010562553749",
    "latitude": "29.96339339133775",
    "geocoded_column": {
      "latitude": "29.96339339133775",
      "longitude": "-90.04010562553749"
    }
  },
  {
    "service_request": "2025-1242696",
    "request_type": "Trash/Recycling",
    "request_reason": "Missed Trash Pick-Up",
    "date_created": "2025-11-28T09:25:07.000",
    "date_modified": "2025-11-28T11:43:36.000",
    "case_close_date": "2025-11-28T05:43:35.000",
    "request_status": "Closed",
    "responsible_agency": "Department of Sanitation",
    "final_address": "4839 Constance St",
    "address_councildis": "B",
    "status": "Invalid Request",
    "contractor": "IV Waste",
    "contractor_action": "Invalid",
    "rowid": "1242696",
    "final_x": "3669330.31207",
    "final_y": "518318.385782",
    "longitude": "-90.10694409317796",
    "latitude": "29.919559390119236",
    "geocoded_column": {
      "latitude": "29.919559390119236",
      "longitude": "-90.10694409317796"
    }
  },
  {
    "service_request": "2025-1242695",
    "request_type": "Trash/Recycling",
    "request_reason": "Request a Large Item Pick Up",
    "date_created": "2025-11-28T09:22:22.000",
    "date_modified": "2025-11-28T09:22:26.000",
    "request_status": "Pending",
    "responsible_agency": "Department of Sanitation",
    "final_address": "1301 Foy St",
    "address_councildis": "D",
    "status": "Assigned to Contractor",
    "contractor": "IV Waste",
    "rowid": "1242695",
    "final_x": "3677389.06862",
    "final_y": "546472.450193",
    "longitude": "-90.08053495228512",
    "latitude": "29.99673395729771",
    "geocoded_column": {
      "latitude": "29.99673395729771",
      "longitude": "-90.08053495228512"
    }
  },
  {
    "service_request": "2025-1242694",
    "request_type": "Trash/Recycling",
    "request_reason": "Request a Large Item Pick Up",
    "date_created": "2025-11-28T09:03:24.000",
    "date_modified": "2025-11-28T09:03:25.000",
    "request_status": "Pending",
    "responsible_agency": "Department of Sanitation",
    "final_address": "7584 Briarheath Dr",
    "address_councildis": "E",
    "status": "Assigned to Contractor",
    "contractor": "Waste Pro",
    "rowid": "1242694",
    "final_x": "3715210.87851",
    "final_y": "566489.020131",
    "longitude": "-89.96030159240065",
    "latitude": "30.050580331852732",
    "geocoded_column": {
      "latitude": "30.050580331852732",
      "longitude": "-89.96030159240065"
    }
  },
  {
    "service_request": "2025-1242693",
    "request_type": "Trash/Recycling",
    "request_reason": "Order Second Trash Cart",
    "date_created": "2025-11-28T08:36:10.000",
    "date_modified": "2025-11-28T08:36:12.000",
    "request_status": "Pending",
    "responsible_agency": "Department of Sanitation",
    "final_address": "743 Felicity St",
    "address_councildis": "B",
    "status": "Assigned to Contractor",
    "contractor": "IV Waste",
    "rowid": "1242693",
    "final_x": "3681052.04827",
    "final_y": "522025.25849",
    "longitude": "-90.06981539111247",
    "latitude": "29.929401906320233",
    "geocoded_column": {
      "latitude": "29.929401906320233",
      "longitude": "-90.06981539111247"
    }
  },
  {
    "service_request": "2025-1242692",
    "request_type": "Trash/Recycling",
    "request_reason": "Order Trash Cart",
    "date_created": "2025-11-28T08:25:54.000",
    "date_modified": "2025-11-28T08:25:56.000",
    "request_status": "Pending",
    "responsible_agency": "Department of Sanitation",
    "final_address": "2831 Chestnut St",
    "address_councildis": "B",
    "status": "Assigned to Contractor",
    "contractor": "IV Waste",
    "rowid": "1242692",
    "final_x": "3676393.61313",
    "final_y": "521316.328633",
    "longitude": "-90.08454560944632",
    "latitude": "29.927593004214867",
    "geocoded_column": {
      "latitude": "29.927593004214867",
      "longitude": "-90.08454560944632"
    }
  },
  {
    "service_request": "2025-1242691",
    "request_type": "Trash/Recycling",
    "request_reason": "Missed Trash Pick-Up",
    "date_created": "2025-11-28T08:19:40.000",
    "date_modified": "2025-11-28T08:42:49.000",
    "case_close_date": "2025-11-28T02:42:48.000",
    "request_status": "Closed",
    "responsible_agency": "Department of Sanitation",
    "final_address": "4839 Constance St",
    "address_councildis": "B",
    "status": "Invalid Request",
    "contractor": "IV Waste",
    "contractor_action": "Invalid",
    "rowid": "1242691",
    "final_x": "3669330.31207",
    "final_y": "518318.385782",
    "longitude": "-90.10694409317796",
    "latitude": "29.919559390119236",
    "geocoded_column": {
      "latitude": "29.919559390119236",
      "longitude": "-90.10694409317796"
    }
  },
  {
    "service_request": "2025-1242690",
    "request_type": "Trash/Recycling",
    "request_reason": "Request a Large Item Pick Up",
    "date_created": "2025-11-28T07:46:15.000",
    "date_modified": "2025-11-28T07:46:18.000",
    "request_status": "Pending",
    "responsible_agency": "Department of Sanitation",
    "final_address": "7433 Woodbine Dr",
    "address_councildis": "E",
    "status": "Assigned to Contractor",
    "contractor": "Waste Pro",
    "rowid": "1242690",
    "final_x": "3702213.53636",
    "final_y": "560866.665822",
    "longitude": "-90.00158790034071",
    "latitude": "30.035542900873217",
    "geocoded_column": {
      "latitude": "30.035542900873217",
      "longitude": "-90.00158790034071"
    }
  },
  {
    "service_request": "2025-1242689",
    "request_type": "Trash/Recycling",
    "request_reason": "Repair Trash Cart",
    "date_created": "2025-11-28T07:08:02.000",
    "date_modified": "2025-11-28T07:08:04.000",
    "request_status": "Pending",
    "responsible_agency": "Department of Sanitation",
    "final_address": "2835 Ernest St",
    "address_councildis": "C",
    "status": "Assigned to Contractor",
    "contractor": "Richards Disposal",
    "rowid": "1242689",
    "final_x": "3708789.90008",
    "final_y": "519820.05868",
    "longitude": "-89.9823350198974",
    "latitude": "29.92246821237949",
    "geocoded_column": {
      "latitude": "29.92246821237949",
      "longitude": "-89.9823350198974"
    }
  },
  {
    "service_request": "2025-1242688",
    "request_type": "Health Related Request",
    "request_reason": "Noise Ordinance Complaint",
    "date_created": "2025-11-27T22:45:11.000",
    "date_modified": "2025-11-27T22:45:13.000",
    "request_status": "Pending",
    "responsible_agency": "Health Department",
    "final_address": "7412 Lakeshore Dr",
    "address_councildis": "D",
    "status": "Pending",
    "rowid": "1242688",
    "final_x": "3666834.90644",
    "final_y": "556350.731994",
    "longitude": "-90.11354290644564",
    "latitude": "30.024208849408627",
    "geocoded_column": {
      "latitude": "30.024208849408627",
      "longitude": "-90.11354290644564"
    }
  },
  {
    "service_request": "2025-1242687",
    "request_type": "Streetlights",
    "request_reason": "Streetlight Outage/Malfunction",
    "date_created": "2025-11-27T22:40:25.000",
    "date_modified": "2025-11-27T22:40:27.000",
    "request_status": "Pending",
    "responsible_agency": "Department of Public Works",
    "final_address": "4345 St Bernard Ave",
    "address_councildis": "D",
    "status": "Pending",
    "rowid": "1242687",
    "final_x": "3676907.5405",
    "final_y": "548717.937619",
    "longitude": "-90.0819786086643",
    "latitude": "30.002922722331938",
    "geocoded_column": {
      "latitude": "30.002922722331938",
      "longitude": "-90.0819786086643"
    }
  },
  {
    "service_request": "2025-1242686",
    "request_type": "Health Related Request",
    "request_reason": "Smoke-Free Ordinance Complaint",
    "date_created": "2025-11-27T22:36:12.000",
    "date_modified": "2025-11-27T22:36:14.000",
    "request_status": "Pending",
    "responsible_agency": "Health Department",
    "final_address": "3415 S Carrollton Ave",
    "address_councildis": "B",
    "status": "Pending",
    "rowid": "1242686",
    "final_x": "3667497.20007",
    "final_y": "534133.842373",
    "longitude": "-90.11219831702358",
    "latitude": "29.963100619070108",
    "geocoded_column": {
      "latitude": "29.963100619070108",
      "longitude": "-90.11219831702358"
    }
  },
  {
    "service_request": "2025-1242685",
    "request_type": "Streetlights",
    "request_reason": "Streetlight Outage/Malfunction",
    "date_created": "2025-11-27T22:15:34.000",
    "date_modified": "2025-11-27T22:15:37.000",
    "request_status": "Pending",
    "responsible_agency": "Department of Public Works",
    "final_address": "11308 Fernley Dr",
    "address_councildis": "E",
    "status": "Pending",
    "rowid": "1242685",
    "final_x": "3718227.5694",
    "final_y": "560311.083293",
    "longitude": "-89.9510025647381",
    "latitude": "30.03349378482362",
    "geocoded_column": {
      "latitude": "30.03349378482362",
      "longitude": "-89.9510025647381"
    }
  },
  {
    "service_request": "2025-1242684",
    "request_type": "Traffic Signals",
    "request_reason": "Traffic Signal Malfunctioning or Damaged",
    "date_created": "2025-11-27T21:36:56.000",
    "date_modified": "2025-11-27T21:36:58.000",
    "request_status": "Pending",
    "responsible_agency": "Department of Public Works",
    "final_address": "2519 N Roman St",
    "address_councildis": "D",
    "status": "Pending",
    "rowid": "1242684",
    "final_x": "3687142.48642",
    "final_y": "539112.912842",
    "longitude": "-90.04998489595131",
    "latitude": "29.97620102649558",
    "geocoded_column": {
      "latitude": "29.97620102649558",
      "longitude": "-90.04998489595131"
    }
  },
  {
    "service_request": "2025-1242683",
    "request_type": "Health Related Request",
    "request_reason": "Noise Ordinance Complaint",
    "date_created": "2025-11-27T20:34:54.000",
    "date_modified": "2025-11-27T20:34:56.000",
    "request_status": "Pending",
    "responsible_agency": "Health Department",
    "final_address": "905 Toulouse St",
    "address_councildis": "A",
    "status": "Pending",
    "rowid": "1242683",
    "final_x": "3672833.87041",
    "final_y": "539324.734602",
    "longitude": "-90.09516858748749",
    "latitude": "29.977216358287198",
    "geocoded_column": {
      "latitude": "29.977216358287198",
      "longitude": "-90.09516858748749"
    }
  },
  {
    "service_request": "2025-1242682",
    "request_type": "Trash/Recycling",
    "request_reason": "Request a Large Item Pick Up",
    "date_created": "2025-11-27T20:26:48.000",
    "date_modified": "2025-11-27T20:26:50.000",
    "request_status": "Pending",
    "responsible_agency": "Department of Sanitation",
    "final_address": "1223 Coliseum St",
    "address_councildis": "B",
    "status": "Assigned to Contractor",
    "contractor": "IV Waste",
    "rowid": "1242682",
    "final_x": "3680102.37871",
    "final_y": "525457.270141",
    "longitude": "-90.07269412413372",
    "latitude": "29.93886756645799",
    "geocoded_column": {
      "latitude": "29.93886756645799",
      "longitude": "-90.07269412413372"
    }
  },
  {
    "service_request": "2025-1242681",
    "request_type": "Streetlights",
    "request_reason": "Streetlight Outage/Malfunction",
    "date_created": "2025-11-27T19:50:34.000",
    "date_modified": "2025-11-27T19:50:36.000",
    "request_status": "Pending",
    "responsible_agency": "Department of Public Works",
    "final_address": "521 Baronne St",
    "address_councildis": "B",
    "status": "Pending",
    "rowid": "1242681",
    "final_x": "3679846.69474",
    "final_y": "529353.524673",
    "longitude": "-90.07336608636082",
    "latitude": "29.949588699596685",
    "geocoded_column": {
      "latitude": "29.949588699596685",
      "longitude": "-90.07336608636082"
    }
  },
  {
    "service_request": "2025-1242680",
    "request_type": "Trash/Recycling",
    "request_reason": "Request a Large Item Pick Up",
    "date_created": "2025-11-27T19:15:55.000",
    "date_modified": "2025-11-27T19:15:57.000",
    "request_status": "Pending",
    "responsible_agency": "Department of Sanitation",
    "final_address": "4801 Sierra Madre Dr",
    "address_councildis": "E",
    "status": "Assigned to Contractor",
    "contractor": "Waste Pro",
    "rowid": "1242680",
    "final_x": "3713958.19519",
    "final_y": "556561.809754",
    "longitude": "-89.96463563225764",
    "latitude": "30.02332570222577",
    "geocoded_column": {
      "latitude": "30.02332570222577",
      "longitude": "-89.96463563225764"
    }
  },
  {
    "service_request": "2025-1242679",
    "request_type": "Trash/Recycling",
    "request_reason": "Request a Large Item Pick Up",
    "date_created": "2025-11-27T17:52:50.000",
    "date_modified": "2025-11-27T17:52:52.000",
    "request_status": "Pending",
    "responsible_agency": "Department of Sanitation",
    "final_address": "914 N Lopez St",
    "address_councildis": "A",
    "status": "Assigned to Contractor",
    "contractor": "IV Waste",
    "rowid": "1242679",
    "final_x": "3675810.08021",
    "final_y": "538723.138569",
    "longitude": "-90.08578941995138",
    "latitude": "29.975473410290032",
    "geocoded_column": {
      "latitude": "29.975473410290032",
      "longitude": "-90.08578941995138"
    }
  },
  {
    "service_request": "2025-1242678",
    "request_type": "Abandoned Vehicles",
    "request_reason": "Abandoned/Junk Vehicles",
    "date_created": "2025-11-27T17:28:49.000",
    "date_modified": "2025-11-27T17:28:51.000",
    "request_status": "Pending",
    "responsible_agency": "Department of Public Works",
    "final_address": "4418 Marais St",
    "address_councildis": "D",
    "status": "Pending",
    "rowid": "1242678",
    "final_x": "3693282.78128",
    "final_y": "535212.192006",
    "longitude": "-90.03073216641008",
    "latitude": "29.965284902022262",
    "geocoded_column": {
      "latitude": "29.965284902022262",
      "longitude": "-90.03073216641008"
    }
  },
  {
    "service_request": "2025-1242677",
    "request_type": "Trash/Recycling",
    "request_reason": "Request a Large Item Pick Up",
    "date_created": "2025-11-27T16:19:11.000",
    "date_modified": "2025-11-27T16:19:13.000",
    "request_status": "Pending",
    "responsible_agency": "Department of Sanitation",
    "final_address": "1114 Peniston St",
    "address_councildis": "B",
    "status": "Assigned to Contractor",
    "contractor": "IV Waste",
    "rowid": "1242677",
    "final_x": "3673108.52827",
    "final_y": "519883.284024",
    "longitude": "-90.09496473479635",
    "latitude": "29.923750627631325",
    "geocoded_column": {
      "latitude": "29.923750627631325",
      "longitude": "-90.09496473479635"
    }
  },
  {
    "service_request": "2025-1242676",
    "request_type": "Trash/Recycling",
    "request_reason": "Request a Large Item Pick Up",
    "date_created": "2025-11-27T12:33:23.000",
    "date_modified": "2025-11-27T12:33:25.000",
    "request_status": "Pending",
    "responsible_agency": "Department of Sanitation",
    "final_address": "3023 Iberville St",
    "address_councildis": "B",
    "status": "Assigned to Contractor",
    "contractor": "IV Waste",
    "rowid": "1242676",
    "final_x": "3674492.50593",
    "final_y": "536349.738887",
    "longitude": "-90.09003201817453",
    "latitude": "29.968986746263102",
    "geocoded_column": {
      "latitude": "29.968986746263102",
      "longitude": "-90.09003201817453"
    }
  },
  {
    "service_request": "2025-1242675",
    "request_type": "Safety & Permits",
    "request_reason": "Licenses & Permits",
    "date_created": "2025-11-27T12:18:26.000",
    "date_modified": "2025-11-27T12:18:27.000",
    "request_status": "Pending",
    "responsible_agency": "Safety and Permits",
    "final_address": "921 Chartres St",
    "address_councildis": "C",
    "status": "Pending",
    "rowid": "1242675",
    "final_x": "3683368.09148",
    "final_y": "532996.265988",
    "longitude": "-90.06211985326732",
    "latitude": "29.959498058320577",
    "geocoded_column": {
      "latitude": "29.959498058320577",
      "longitude": "-90.06211985326732"
    }
  },
  {
    "service_request": "2025-1242674",
    "request_type": "Safety & Permits",
    "request_reason": "Licenses & Permits",
    "date_created": "2025-11-27T12:14:16.000",
    "date_modified": "2025-11-27T12:14:18.000",
    "request_status": "Pending",
    "responsible_agency": "Safety and Permits",
    "final_address": "10921 Curran Rd",
    "address_councildis": "E",
    "status": "Pending",
    "rowid": "1242674",
    "final_x": "3710167.69976",
    "final_y": "565977.568419",
    "longitude": "-89.97626031206042",
    "latitude": "30.049339244015446",
    "geocoded_column": {
      "latitude": "30.049339244015446",
      "longitude": "-89.97626031206042"
    }
  },
  {
    "service_request": "2025-1242673",
    "request_type": "Trash/Recycling",
    "request_reason": "Request a Large Item Pick Up",
    "date_created": "2025-11-27T12:09:14.000",
    "date_modified": "2025-11-27T12:09:15.000",
    "request_status": "Pending",
    "responsible_agency": "Department of Sanitation",
    "final_address": "5534 Fontainebleau Dr",
    "address_councildis": "A",
    "status": "Assigned to Contractor",
    "contractor": "IV Waste",
    "rowid": "1242673",
    "final_x": "3668613.36378",
    "final_y": "529685.652033",
    "longitude": "-90.10882370690327",
    "latitude": "29.950836804578714",
    "geocoded_column": {
      "latitude": "29.950836804578714",
      "longitude": "-90.10882370690327"
    }
  },
  {
    "service_request": "2025-1242672",
    "request_type": "Trash/Recycling",
    "request_reason": "Request a Large Item Pick Up",
    "date_created": "2025-11-27T11:59:36.000",
    "date_modified": "2025-11-27T11:59:38.000",
    "request_status": "Pending",
    "responsible_agency": "Department of Sanitation",
    "final_address": "6631 Coveview Ct",
    "address_councildis": "E",
    "status": "Assigned to Contractor",
    "contractor": "Waste Pro",
    "rowid": "1242672",
    "final_x": "3699176.25661",
    "final_y": "555844.405913",
    "longitude": "-90.01136928268052",
    "latitude": "30.02183033097487",
    "geocoded_column": {
      "latitude": "30.02183033097487",
      "longitude": "-90.01136928268052"
    }
  },
  {
    "service_request": "2025-1242671",
    "request_type": "Trash/Recycling",
    "request_reason": "Illegal Dumping",
    "date_created": "2025-11-27T11:38:21.000",
    "date_modified": "2025-11-27T11:38:23.000",
    "request_status": "Pending",
    "responsible_agency": "Department of Sanitation",
    "final_address": "4928 Cartier Ave",
    "address_councildis": "D",
    "status": "Pending",
    "rowid": "1242671",
    "final_x": "3677673.11438",
    "final_y": "550467.417812",
    "longitude": "-90.07949957400453",
    "latitude": "30.007710158796847",
    "geocoded_column": {
      "latitude": "30.007710158796847",
      "longitude": "-90.07949957400453"
    }
  },
  {
    "service_request": "2025-1242670",
    "request_type": "General Services",
    "request_reason": "General Service Request",
    "date_created": "2025-11-27T11:14:06.000",
    "date_modified": "2025-11-27T11:14:08.000",
    "request_status": "Pending",
    "responsible_agency": "Orleans Parish Communication District",
    "final_address": "1300 Jefferson Ave 70115",
    "status": "Pending",
    "rowid": "1242670",
    "longitude": "0.0",
    "latitude": "0.0",
    "geocoded_column": {
      "latitude": "0.0",
      "longitude": "0.0"
    }
  },
  {
    "service_request": "2025-1242669",
    "request_type": "Trash/Recycling",
    "request_reason": "Order Recycling Cart",
    "date_created": "2025-11-27T11:00:12.000",
    "date_modified": "2025-11-27T11:00:14.000",
    "request_status": "Pending",
    "responsible_agency": "Department of Sanitation",
    "final_address": "2218 Feliciana St",
    "address_councildis": "D",
    "status": "Pending",
    "rowid": "1242669",
    "final_x": "3689780.07145",
    "final_y": "540365.258507",
    "longitude": "-90.04161006252546",
    "latitude": "29.979563041248444",
    "geocoded_column": {
      "latitude": "29.979563041248444",
      "longitude": "-90.04161006252546"
    }
  },
  {
    "service_request": "2025-1242668",
    "request_type": "Trash/Recycling",
    "request_reason": "Start Trash Service",
    "date_created": "2025-11-27T10:58:29.000",
    "date_modified": "2025-11-28T12:34:08.000",
    "case_close_date": "2025-11-28T06:34:06.000",
    "request_status": "Closed",
    "responsible_agency": "Department of Sanitation",
    "final_address": "2118 Seventh St",
    "address_councildis": "B",
    "status": "Invalid Request",
    "contractor": "IV Waste",
    "contractor_action": "Invalid",
    "rowid": "1242668",
    "final_x": "3674137.4091",
    "final_y": "523707.675131",
    "longitude": "-90.09158610126474",
    "latitude": "29.934235851937842",
    "geocoded_column": {
      "latitude": "29.934235851937842",
      "longitude": "-90.09158610126474"
    }
  },
  {
    "service_request": "2025-1242667",
    "request_type": "Trash/Recycling",
    "request_reason": "Request a Large Item Pick Up",
    "date_created": "2025-11-27T10:55:54.000",
    "date_modified": "2025-11-27T10:55:56.000",
    "request_status": "Pending",
    "responsible_agency": "Department of Sanitation",
    "final_address": "2218 Feliciana St",
    "address_councildis": "D",
    "status": "Assigned to Contractor",
    "contractor": "IV Waste",
    "rowid": "1242667",
    "final_x": "3689780.07145",
    "final_y": "540365.258507",
    "longitude": "-90.04161006252546",
    "latitude": "29.979563041248444",
    "geocoded_column": {
      "latitude": "29.979563041248444",
      "longitude": "-90.04161006252546"
    }
  },
  {
    "service_request": "2025-1242666",
    "request_type": "Trash/Recycling",
    "request_reason": "Request a Large Item Pick Up",
    "date_created": "2025-11-27T10:49:47.000",
    "date_modified": "2025-11-27T10:49:50.000",
    "request_status": "Pending",
    "responsible_agency": "Department of Sanitation",
    "final_address": "1726 Egania St",
    "address_councildis": "E",
    "status": "Assigned to Contractor",
    "contractor": "Waste Pro",
    "rowid": "1242666",
    "final_x": "3697460.15792",
    "final_y": "536537.168327",
    "longitude": "-90.01749224597185",
    "latitude": "29.96879687475703",
    "geocoded_column": {
      "latitude": "29.96879687475703",
      "longitude": "-90.01749224597185"
    }
  },
  {
    "service_request": "2025-1242665",
    "request_type": "Trash/Recycling",
    "request_reason": "Return Trash Cart",
    "date_created": "2025-11-27T09:41:23.000",
    "date_modified": "2025-11-27T09:41:25.000",
    "request_status": "Pending",
    "responsible_agency": "Department of Sanitation",
    "final_address": "7707 Jeannette St",
    "address_councildis": "A",
    "status": "Assigned to Contractor",
    "contractor": "IV Waste",
    "rowid": "1242665",
    "final_x": "3663696.75245",
    "final_y": "528274.35936",
    "longitude": "-90.12439495721364",
    "latitude": "29.947099760619817",
    "geocoded_column": {
      "latitude": "29.947099760619817",
      "longitude": "-90.12439495721364"
    }
  },
  {
    "service_request": "2025-1242664",
    "request_type": "Trash/Recycling",
    "request_reason": "Order Recycling Cart",
    "date_created": "2025-11-27T08:08:02.000",
    "date_modified": "2025-11-27T08:08:03.000",
    "request_status": "Pending",
    "responsible_agency": "Department of Sanitation",
    "final_address": "1930 S Dupre St",
    "address_councildis": "B",
    "status": "Pending",
    "rowid": "1242664",
    "final_x": "3670359.30561",
    "final_y": "529384.277569",
    "longitude": "-90.10332110898581",
    "latitude": "29.94995670453436",
    "geocoded_column": {
      "latitude": "29.94995670453436",
      "longitude": "-90.10332110898581"
    }
  },
  {
    "service_request": "2025-1242663",
    "request_type": "Trash/Recycling",
    "request_reason": "Order Trash Cart",
    "date_created": "2025-11-27T08:06:26.000",
    "date_modified": "2025-11-27T08:06:28.000",
    "request_status": "Pending",
    "responsible_agency": "Department of Sanitation",
    "final_address": "1930 S Dupre St",
    "address_councildis": "B",
    "status": "Assigned to Contractor",
    "contractor": "IV Waste",
    "rowid": "1242663",
    "final_x": "3670359.30561",
    "final_y": "529384.277569",
    "longitude": "-90.10332110898581",
    "latitude": "29.94995670453436",
    "geocoded_column": {
      "latitude": "29.94995670453436",
      "longitude": "-90.10332110898581"
    }
  },
  {
    "service_request": "2025-1242662",
    "request_type": "Trash/Recycling",
    "request_reason": "Order Second Trash Cart",
    "date_created": "2025-11-27T05:48:03.000",
    "date_modified": "2025-11-27T05:48:05.000",
    "request_status": "Pending",
    "responsible_agency": "Department of Sanitation",
    "final_address": "230 S Dupre St",
    "address_councildis": "B",
    "status": "Assigned to Contractor",
    "contractor": "IV Waste",
    "rowid": "1242662",
    "final_x": "3674228.30376",
    "final_y": "535051.024774",
    "longitude": "-90.09091085887941",
    "latitude": "29.96542360081309",
    "geocoded_column": {
      "latitude": "29.96542360081309",
      "longitude": "-90.09091085887941"
    }
  },
  {
    "service_request": "2025-1242661",
    "request_type": "Healthy Homes",
    "request_reason": "Healthy Homes",
    "date_created": "2025-11-27T04:47:02.000",
    "date_modified": "2025-11-27T04:47:06.000",
    "request_status": "Pending",
    "responsible_agency": "Department of Code Enforcement",
    "final_address": "8508 Hickory St",
    "address_councildis": "A",
    "status": "Pending",
    "rowid": "1242661",
    "final_x": "3662241.32717",
    "final_y": "530924.56045",
    "longitude": "-90.12890234700943",
    "latitude": "29.954429104311153",
    "geocoded_column": {
      "latitude": "29.954429104311153",
      "longitude": "-90.12890234700943"
    }
  },
  {
    "service_request": "2025-1242660",
    "request_type": "Streetlights",
    "request_reason": "Streetlight Outage/Malfunction",
    "date_created": "2025-11-26T23:37:31.000",
    "date_modified": "2025-11-26T23:37:34.000",
    "request_status": "Pending",
    "responsible_agency": "Department of Public Works",
    "final_address": "2224 N Prieur St",
    "address_councildis": "D",
    "status": "Pending",
    "rowid": "1242660",
    "final_x": "3685047.53653",
    "final_y": "539234.544138",
    "longitude": "-90.05659707399515",
    "latitude": "29.97659982031186",
    "geocoded_column": {
      "latitude": "29.97659982031186",
      "longitude": "-90.05659707399515"
    }
  },
  {
    "service_request": "2025-1242659",
    "request_type": "Trash/Recycling",
    "request_reason": "Replace Recycling Cart",
    "date_created": "2025-11-26T22:57:07.000",
    "date_modified": "2025-11-26T22:57:09.000",
    "request_status": "Pending",
    "responsible_agency": "Department of Sanitation",
    "final_address": "4468 Music St",
    "address_councildis": "D",
    "status": "Pending",
    "rowid": "1242659",
    "final_x": "3685636.72009",
    "final_y": "549364.994259",
    "longitude": "-90.05437913502635",
    "latitude": "30.0044368820551",
    "geocoded_column": {
      "latitude": "30.0044368820551",
      "longitude": "-90.05437913502635"
    }
  },
  {
    "service_request": "2025-1242658",
    "request_type": "Health Related Request",
    "request_reason": "Noise Ordinance Complaint",
    "date_created": "2025-11-26T22:51:32.000",
    "date_modified": "2025-11-26T22:51:34.000",
    "request_status": "Pending",
    "responsible_agency": "Health Department",
    "final_address": "530 Lyons St",
    "address_councildis": "B",
    "status": "Pending",
    "rowid": "1242658",
    "final_x": "3669312.65748",
    "final_y": "517527.298038",
    "longitude": "-90.10702654441026",
    "latitude": "29.91738466791682",
    "geocoded_column": {
      "latitude": "29.91738466791682",
      "longitude": "-90.10702654441026"
    }
  },
  {
    "service_request": "2025-1242657",
    "request_type": "Trash/Recycling",
    "request_reason": "Request a Large Item Pick Up",
    "date_created": "2025-11-26T20:10:25.000",
    "date_modified": "2025-11-26T20:10:27.000",
    "request_status": "Pending",
    "responsible_agency": "Department of Sanitation",
    "final_address": "2256 N Villere St",
    "address_councildis": "C",
    "status": "Assigned to Contractor",
    "contractor": "IV Waste",
    "rowid": "1242657",
    "final_x": "3685495.44329",
    "final_y": "537411.267592",
    "longitude": "-90.0552466800184",
    "latitude": "29.971572717033855",
    "geocoded_column": {
      "latitude": "29.971572717033855",
      "longitude": "-90.0552466800184"
    }
  },
  {
    "service_request": "2025-1242656",
    "request_type": "Trash/Recycling",
    "request_reason": "Request a Large Item Pick Up",
    "date_created": "2025-11-26T20:07:15.000",
    "date_modified": "2025-11-26T20:07:17.000",
    "request_status": "Pending",
    "responsible_agency": "Department of Sanitation",
    "final_address": "7730 Swift St",
    "address_councildis": "E",
    "status": "Assigned to Contractor",
    "contractor": "Waste Pro",
    "rowid": "1242656",
    "final_x": "3695270.65469",
    "final_y": "559134.242268",
    "longitude": "-90.02359108949773",
    "latitude": "30.030999448196816",
    "geocoded_column": {
      "latitude": "30.030999448196816",
      "longitude": "-90.02359108949773"
    }
  },
  {
    "service_request": "2025-1242655",
    "request_type": "Trash/Recycling",
    "request_reason": "Request a Large Item Pick Up",
    "date_created": "2025-11-26T20:05:27.000",
    "date_modified": "2025-11-26T20:05:39.000",
    "request_status": "Pending",
    "responsible_agency": "Department of Sanitation",
    "final_address": "438 Dauphine St Apt 2A",
    "address_councildis": "C",
    "status": "Assigned to Contractor",
    "contractor": "IV Waste",
    "rowid": "1242655",
    "final_x": "3681533.95938",
    "final_y": "532249.640131",
    "longitude": "-90.06793764682902",
    "latitude": "29.95750091431855",
    "geocoded_column": {
      "latitude": "29.95750091431855",
      "longitude": "-90.06793764682902"
    }
  },
  {
    "service_request": "2025-1242654",
    "request_type": "Trash/Recycling",
    "request_reason": "Replace Trash Cart",
    "date_created": "2025-11-26T18:22:22.000",
    "date_modified": "2025-11-26T18:22:24.000",
    "request_status": "Pending",
    "responsible_agency": "Department of Sanitation",
    "final_address": "122 N Murat St",
    "address_councildis": "A",
    "status": "Assigned to Contractor",
    "contractor": "IV Waste",
    "rowid": "1242654",
    "final_x": "3669903.16801",
    "final_y": "539603.870794",
    "longitude": "-90.1044152754615",
    "latitude": "29.978070640119675",
    "geocoded_column": {
      "latitude": "29.978070640119675",
      "longitude": "-90.1044152754615"
    }
  },
  {
    "service_request": "2025-1242653",
    "request_type": "Streetlights",
    "request_reason": "Streetlight Outage/Malfunction",
    "date_created": "2025-11-26T17:50:07.000",
    "date_modified": "2025-11-26T17:50:10.000",
    "request_status": "Pending",
    "responsible_agency": "Department of Public Works",
    "final_address": "7801 Breakwater Dr",
    "address_councildis": "A",
    "status": "Pending",
    "rowid": "1242653",
    "final_x": "3664778.46036",
    "final_y": "558161.731419",
    "longitude": "-90.11998032868254",
    "latitude": "30.02924848903839",
    "geocoded_column": {
      "latitude": "30.02924848903839",
      "longitude": "-90.11998032868254"
    }
  },
  {
    "service_request": "2025-1242652",
    "request_type": "Trash/Recycling",
    "request_reason": "Illegal Dumping",
    "date_created": "2025-11-26T16:50:35.000",
    "date_modified": "2025-11-26T16:50:37.000",
    "request_status": "Pending",
    "responsible_agency": "Department of Sanitation",
    "final_address": "JOURDAN AVE & CLAIBORNE BRIDGE",
    "address_councildis": "E",
    "status": "Pending",
    "rowid": "1242652",
    "final_x": "3695578.79",
    "final_y": "536364.77",
    "longitude": "-90.02343991417847",
    "latitude": "29.968382112720022",
    "geocoded_column": {
      "latitude": "29.968382112720022",
      "longitude": "-90.02343991417847"
    }
  },
  {
    "service_request": "2025-1242651",
    "request_type": "Trash/Recycling",
    "request_reason": "Replace Recycling Cart",
    "date_created": "2025-11-26T16:41:11.000",
    "date_modified": "2025-11-26T16:41:54.000",
    "request_status": "Pending",
    "responsible_agency": "Department of Sanitation",
    "final_address": "5140 Timber Crest Dr",
    "address_councildis": "C",
    "status": "Pending",
    "rowid": "1242651",
    "final_x": "3703242.56414",
    "final_y": "511257.75128",
    "longitude": "-90.00016004763533",
    "latitude": "29.899103469349086",
    "geocoded_column": {
      "latitude": "29.899103469349086",
      "longitude": "-90.00016004763533"
    }
  },
  {
    "service_request": "2025-1242650",
    "request_type": "Trash/Recycling",
    "request_reason": "Replace Recycling Cart",
    "date_created": "2025-11-26T16:39:32.000",
    "date_modified": "2025-11-26T16:39:33.000",
    "request_status": "Pending",
    "responsible_agency": "Department of Sanitation",
    "final_address": "6073 Warrington Dr",
    "address_councildis": "D",
    "status": "Pending",
    "rowid": "1242650",
    "final_x": "3680751.65359",
    "final_y": "555435.986457",
    "longitude": "-90.06960044965889",
    "latitude": "30.021278935335985",
    "geocoded_column": {
      "latitude": "30.021278935335985",
      "longitude": "-90.06960044965889"
    }
  },
  {
    "service_request": "2025-1242649",
    "request_type": "Trash/Recycling",
    "request_reason": "Request a Large Item Pick Up",
    "date_created": "2025-11-26T16:36:57.000",
    "date_modified": "2025-11-26T16:36:58.000",
    "request_status": "Pending",
    "responsible_agency": "Department of Sanitation",
    "final_address": "603 Fats Domino Ave",
    "address_councildis": "E",
    "status": "Assigned to Contractor",
    "contractor": "Waste Pro",
    "rowid": "1242649",
    "final_x": "3697601.45994",
    "final_y": "531965.147139",
    "longitude": "-90.01721185211875",
    "latitude": "29.956220979519568",
    "geocoded_column": {
      "latitude": "29.956220979519568",
      "longitude": "-90.01721185211875"
    }
  },
  {
    "service_request": "2025-1242648",
    "request_type": "Trash/Recycling",
    "request_reason": "Request a Large Item Pick Up",
    "date_created": "2025-11-26T16:35:19.000",
    "date_modified": "2025-11-26T16:35:21.000",
    "request_status": "Pending",
    "responsible_agency": "Department of Sanitation",
    "final_address": "2128 Philip St",
    "address_councildis": "B",
    "status": "Assigned to Contractor",
    "contractor": "IV Waste",
    "rowid": "1242648",
    "final_x": "3675998.5643",
    "final_y": "525018.721597",
    "longitude": "-90.085665421924",
    "latitude": "29.937785210484062",
    "geocoded_column": {
      "latitude": "29.937785210484062",
      "longitude": "-90.085665421924"
    }
  },
  {
    "service_request": "2025-1242647",
    "request_type": "Abandoned Vehicles",
    "request_reason": "Abandoned/Junk Vehicles",
    "date_created": "2025-11-26T16:32:25.000",
    "date_modified": "2025-11-26T16:32:27.000",
    "request_status": "Pending",
    "responsible_agency": "Department of Public Works",
    "final_address": "2115 Josephine St",
    "address_councildis": "B",
    "status": "Pending",
    "rowid": "1242647",
    "final_x": "3676699.76654",
    "final_y": "525575.693053",
    "longitude": "-90.08343248800833",
    "latitude": "29.939295686109034",
    "geocoded_column": {
      "latitude": "29.939295686109034",
      "longitude": "-90.08343248800833"
    }
  },
  {
    "service_request": "2025-1242646",
    "request_type": "Abandoned Vehicles",
    "request_reason": "Abandoned/Junk Vehicles",
    "date_created": "2025-11-26T16:30:20.000",
    "date_modified": "2025-11-26T16:30:22.000",
    "request_status": "Pending",
    "responsible_agency": "Department of Public Works",
    "final_address": "2115 Josephine St",
    "address_councildis": "B",
    "status": "Pending",
    "rowid": "1242646",
    "final_x": "3676699.76654",
    "final_y": "525575.693053",
    "longitude": "-90.08343248800833",
    "latitude": "29.939295686109034",
    "geocoded_column": {
      "latitude": "29.939295686109034",
      "longitude": "-90.08343248800833"
    }
  },
  {
    "service_request": "2025-1242645",
    "request_type": "Trash/Recycling",
    "request_reason": "Order Recycling Cart",
    "date_created": "2025-11-26T16:29:11.000",
    "date_modified": "2025-11-26T16:29:14.000",
    "request_status": "Pending",
    "responsible_agency": "Department of Sanitation",
    "final_address": "3327 General Taylor St",
    "address_councildis": "B",
    "status": "Pending",
    "rowid": "1242645",
    "final_x": "3671232.2578",
    "final_y": "527219.966783",
    "longitude": "-90.10063830407029",
    "latitude": "29.943979762985556",
    "geocoded_column": {
      "latitude": "29.943979762985556",
      "longitude": "-90.10063830407029"
    }
  },
  {
    "service_request": "2025-1242644",
    "request_type": "Trash/Recycling",
    "request_reason": "Order Trash Cart",
    "date_created": "2025-11-26T16:14:16.000",
    "date_modified": "2025-11-26T16:14:18.000",
    "request_status": "Pending",
    "responsible_agency": "Department of Sanitation",
    "final_address": "5720 Lafaye St",
    "address_councildis": "D",
    "status": "Assigned to Contractor",
    "contractor": "IV Waste",
    "rowid": "1242644",
    "final_x": "3687158.93724",
    "final_y": "554331.015704",
    "longitude": "-90.04939438077088",
    "latitude": "30.018044815117772",
    "geocoded_column": {
      "latitude": "30.018044815117772",
      "longitude": "-90.04939438077088"
    }
  },
  {
    "service_request": "2025-1242643",
    "request_type": "Streetlights",
    "request_reason": "Streetlight Outage/Malfunction",
    "date_created": "2025-11-26T16:12:17.000",
    "date_modified": "2025-11-26T16:12:20.000",
    "request_status": "Pending",
    "responsible_agency": "Department of Public Works",
    "final_address": "7550 Lucerne St",
    "address_councildis": "E",
    "status": "Pending",
    "rowid": "1242643",
    "final_x": "3711130.08933",
    "final_y": "565376.397474",
    "longitude": "-89.97324115601151",
    "latitude": "30.047654891537515",
    "geocoded_column": {
      "latitude": "30.047654891537515",
      "longitude": "-89.97324115601151"
    }
  },
  {
    "service_request": "2025-1242642",
    "request_type": "Trash/Recycling",
    "request_reason": "Repair Trash Cart",
    "date_created": "2025-11-26T16:10:42.000",
    "date_modified": "2025-11-26T16:10:43.000",
    "request_status": "Pending",
    "responsible_agency": "Department of Sanitation",
    "final_address": "1414 Adams St",
    "address_councildis": "A",
    "status": "Assigned to Contractor",
    "contractor": "IV Waste",
    "rowid": "1242642",
    "final_x": "3663579.77555",
    "final_y": "528010.633215",
    "longitude": "-90.12477308139907",
    "latitude": "29.946377991485985",
    "geocoded_column": {
      "latitude": "29.946377991485985",
      "longitude": "-90.12477308139907"
    }
  },
  {
    "service_request": "2025-1242640",
    "request_type": "Property Maintenance",
    "request_reason": "Property Maintenance",
    "date_created": "2025-11-26T16:07:30.000",
    "date_modified": "2025-11-26T16:07:31.000",
    "request_status": "Pending",
    "responsible_agency": "Department of Code Enforcement",
    "final_address": "4840 General Meyer Ave",
    "address_councildis": "C",
    "status": "Pending",
    "rowid": "1242640",
    "final_x": "3702045.85258",
    "final_y": "523476.933115",
    "longitude": "-90.00348912754504",
    "latitude": "29.932740268709548",
    "geocoded_column": {
      "latitude": "29.932740268709548",
      "longitude": "-90.00348912754504"
    }
  },
  {
    "service_request": "2025-1242639",
    "request_type": "Abandoned Vehicles",
    "request_reason": "Abandoned/Junk Vehicles",
    "date_created": "2025-11-26T16:06:23.000",
    "date_modified": "2025-11-26T16:06:25.000",
    "request_status": "Pending",
    "responsible_agency": "Department of Public Works",
    "final_address": "4840 General Meyer Ave",
    "address_councildis": "C",
    "status": "Pending",
    "rowid": "1242639",
    "final_x": "3702045.85258",
    "final_y": "523476.933115",
    "longitude": "-90.00348912754504",
    "latitude": "29.932740268709548",
    "geocoded_column": {
      "latitude": "29.932740268709548",
      "longitude": "-90.00348912754504"
    }
  },
  {
    "service_request": "2025-1242638",
    "request_type": "Trash/Recycling",
    "request_reason": "Request a Large Item Pick Up",
    "date_created": "2025-11-26T16:02:39.000",
    "date_modified": "2025-11-26T16:02:40.000",
    "request_status": "Pending",
    "responsible_agency": "Department of Sanitation",
    "final_address": "1130 Third St",
    "address_councildis": "B",
    "status": "Assigned to Contractor",
    "contractor": "IV Waste",
    "rowid": "1242638",
    "final_x": "3677401.18536",
    "final_y": "521353.852345",
    "longitude": "-90.08136365249929",
    "latitude": "29.927665949682126",
    "geocoded_column": {
      "latitude": "29.927665949682126",
      "longitude": "-90.08136365249929"
    }
  },
  {
    "service_request": "2025-1242637",
    "request_type": "Trash/Recycling",
    "request_reason": "Request a Large Item Pick Up",
    "date_created": "2025-11-26T16:01:53.000",
    "date_modified": "2025-11-26T16:01:54.000",
    "request_status": "Pending",
    "responsible_agency": "Department of Sanitation",
    "final_address": "2308 Third St",
    "address_councildis": "B",
    "status": "Assigned to Contractor",
    "contractor": "IV Waste",
    "rowid": "1242637",
    "final_x": "3674982.28558",
    "final_y": "525009.310525",
    "longitude": "-90.08887422152522",
    "latitude": "29.937789721634402",
    "geocoded_column": {
      "latitude": "29.937789721634402",
      "longitude": "-90.08887422152522"
    }
  },
  {
    "service_request": "2025-1242636",
    "request_type": "Streetlights",
    "request_reason": "Streetlight Outage/Malfunction",
    "date_created": "2025-11-26T15:56:28.000",
    "date_modified": "2025-11-26T15:56:30.000",
    "request_status": "Pending",
    "responsible_agency": "Department of Public Works",
    "final_address": "4008 America St",
    "address_councildis": "E",
    "status": "Pending",
    "rowid": "1242636",
    "final_x": "3700013.9297",
    "final_y": "551616.106453",
    "longitude": "-90.00887689972433",
    "latitude": "30.01017751302915",
    "geocoded_column": {
      "latitude": "30.01017751302915",
      "longitude": "-90.00887689972433"
    }
  },
  {
    "service_request": "2025-1242635",
    "request_type": "Roads and Streets",
    "request_reason": "Road Shoulder Damage",
    "date_created": "2025-11-26T15:51:57.000",
    "date_modified": "2025-11-26T15:51:58.000",
    "request_status": "Pending",
    "responsible_agency": "Department of Public Works",
    "final_address": "538 Madison St Unit 2B",
    "address_councildis": "C",
    "status": "Pending",
    "rowid": "1242635",
    "final_x": "3683193.56367",
    "final_y": "532629.843588",
    "longitude": "-90.0626838017673",
    "latitude": "29.9584958448272",
    "geocoded_column": {
      "latitude": "29.9584958448272",
      "longitude": "-90.0626838017673"
    }
  },
  {
    "service_request": "2025-1242634",
    "request_type": "Streetlights",
    "request_reason": "Streetlight Outage/Malfunction",
    "date_created": "2025-11-26T15:47:01.000",
    "date_modified": "2025-11-26T15:47:02.000",
    "request_status": "Pending",
    "responsible_agency": "Department of Public Works",
    "final_address": "2624 General Pershing St",
    "address_councildis": "B",
    "status": "Pending",
    "rowid": "1242634",
    "final_x": "3670834.01671",
    "final_y": "524620.46534",
    "longitude": "-90.10198386236775",
    "latitude": "29.93684375214446",
    "geocoded_column": {
      "latitude": "29.93684375214446",
      "longitude": "-90.10198386236775"
    }
  },
  {
    "service_request": "2025-1242633",
    "request_type": "Trash/Recycling",
    "request_reason": "Request a Large Item Pick Up",
    "date_created": "2025-11-26T15:45:40.000",
    "date_modified": "2025-11-26T15:45:41.000",
    "request_status": "Pending",
    "responsible_agency": "Department of Sanitation",
    "final_address": "1600 S Saratoga St",
    "address_councildis": "B",
    "status": "Assigned to Contractor",
    "contractor": "IV Waste",
    "rowid": "1242633",
    "final_x": "3677384.10862",
    "final_y": "526271.997822",
    "longitude": "-90.08124791012656",
    "latitude": "29.94118975073034",
    "geocoded_column": {
      "latitude": "29.94118975073034",
      "longitude": "-90.08124791012656"
    }
  },
  {
    "service_request": "2025-1242632",
    "request_type": "Trash/Recycling",
    "request_reason": "Request a Large Item Pick Up",
    "date_created": "2025-11-26T15:29:20.000",
    "date_modified": "2025-11-26T15:29:22.000",
    "request_status": "Pending",
    "responsible_agency": "Department of Sanitation",
    "final_address": "8636 Pear St",
    "address_councildis": "A",
    "status": "Assigned to Contractor",
    "contractor": "IV Waste",
    "rowid": "1242632",
    "final_x": "3667561.99489",
    "final_y": "537600.062472",
    "longitude": "-90.11187701940784",
    "latitude": "29.972629673208488",
    "geocoded_column": {
      "latitude": "29.972629673208488",
      "longitude": "-90.11187701940784"
    }
  },
  {
    "service_request": "2025-1242631",
    "request_type": "Roads and Streets",
    "request_reason": "Road Shoulder Damage",
    "date_created": "2025-11-26T15:28:03.000",
    "date_modified": "2025-11-26T15:28:05.000",
    "request_status": "Pending",
    "responsible_agency": "Department of Public Works",
    "final_address": "538 Madison St Unit 2B",
    "address_councildis": "C",
    "status": "Pending",
    "rowid": "1242631",
    "final_x": "3683193.56367",
    "final_y": "532629.843588",
    "longitude": "-90.0626838017673",
    "latitude": "29.9584958448272",
    "geocoded_column": {
      "latitude": "29.9584958448272",
      "longitude": "-90.0626838017673"
    }
  },
  {
    "service_request": "2025-1242630",
    "request_type": "Trash/Recycling",
    "request_reason": "Damaged Caused By Contractor",
    "date_created": "2025-11-26T15:16:59.000",
    "date_modified": "2025-11-28T12:31:40.000",
    "request_status": "Pending",
    "responsible_agency": "Department of Sanitation",
    "final_address": "5803 Canal Blvd",
    "address_councildis": "A",
    "status": "Assigned to Contractor",
    "contractor": "Sanitation Dept. ",
    "rowid": "1242630",
    "final_x": "3668525.43457",
    "final_y": "546007.265552",
    "longitude": "-90.10855048413956",
    "latitude": "29.995718350696553",
    "geocoded_column": {
      "latitude": "29.995718350696553",
      "longitude": "-90.10855048413956"
    }
  },
  {
    "service_request": "2025-1242629",
    "request_type": "Utility Poles",
    "request_reason": "Wires Sagging/Hanging Low",
    "date_created": "2025-11-26T15:15:00.000",
    "date_modified": "2025-11-26T15:16:46.000",
    "request_status": "Pending",
    "responsible_agency": "Utility Company Collective",
    "final_address": "4432 St Charles Ave",
    "address_councildis": "B",
    "status": "Pending",
    "rowid": "1242629",
    "final_x": "3670552.09966",
    "final_y": "520707.283321",
    "longitude": "-90.10300654114516",
    "latitude": "29.926092085341498",
    "geocoded_column": {
      "latitude": "29.926092085341498",
      "longitude": "-90.10300654114516"
    }
  },
  {
    "service_request": "2025-1242628",
    "request_type": "Trash/Recycling",
    "request_reason": "Request a Large Item Pick Up",
    "date_created": "2025-11-26T15:04:44.000",
    "date_modified": "2025-11-26T15:04:46.000",
    "request_status": "Pending",
    "responsible_agency": "Department of Sanitation",
    "final_address": "2203 Second St Apt A",
    "address_councildis": "B",
    "status": "Assigned to Contractor",
    "contractor": "IV Waste",
    "rowid": "1242628",
    "final_x": "3675602.40769",
    "final_y": "524936.105916",
    "longitude": "-90.086918958419",
    "latitude": "29.93756989950197",
    "geocoded_column": {
      "latitude": "29.93756989950197",
      "longitude": "-90.086918958419"
    }
  },
  {
    "service_request": "2025-1242627",
    "request_type": "Trash/Recycling",
    "request_reason": "Order Recycling Cart",
    "date_created": "2025-11-26T15:04:04.000",
    "date_modified": "2025-11-26T15:05:30.000",
    "request_status": "Pending",
    "responsible_agency": "Department of Sanitation",
    "final_address": "2203 Second St Apt A",
    "address_councildis": "B",
    "status": "Pending",
    "contractor": "Sanitation Dept. ",
    "rowid": "1242627",
    "final_x": "3675602.40769",
    "final_y": "524936.105916",
    "longitude": "-90.086918958419",
    "latitude": "29.93756989950197",
    "geocoded_column": {
      "latitude": "29.93756989950197",
      "longitude": "-90.086918958419"
    }
  },
  {
    "service_request": "2025-1242626",
    "request_type": "Trash/Recycling",
    "request_reason": "Order Trash Cart",
    "date_created": "2025-11-26T15:03:24.000",
    "date_modified": "2025-11-26T15:03:26.000",
    "request_status": "Pending",
    "responsible_agency": "Department of Sanitation",
    "final_address": "2203 Second St Apt A",
    "address_councildis": "B",
    "status": "Assigned to Contractor",
    "contractor": "IV Waste",
    "rowid": "1242626",
    "final_x": "3675602.40769",
    "final_y": "524936.105916",
    "longitude": "-90.086918958419",
    "latitude": "29.93756989950197",
    "geocoded_column": {
      "latitude": "29.93756989950197",
      "longitude": "-90.086918958419"
    }
  },
  {
    "service_request": "2025-1242625",
    "request_type": "Trash/Recycling",
    "request_reason": "Request a Large Item Pick Up",
    "date_created": "2025-11-26T15:02:23.000",
    "date_modified": "2025-11-26T15:02:25.000",
    "request_status": "Pending",
    "responsible_agency": "Department of Sanitation",
    "final_address": "873 Lemoyne St",
    "address_councildis": "A",
    "status": "Assigned to Contractor",
    "contractor": "IV Waste",
    "rowid": "1242625",
    "final_x": "3669391.16366",
    "final_y": "544973.717775",
    "longitude": "-90.10585068830609",
    "latitude": "29.992850977528192",
    "geocoded_column": {
      "latitude": "29.992850977528192",
      "longitude": "-90.10585068830609"
    }
  },
  {
    "service_request": "2025-1242624",
    "request_type": "Safety & Permits",
    "request_reason": "Zoning Enforcement",
    "date_created": "2025-11-26T14:43:38.000",
    "date_modified": "2025-11-26T14:43:40.000",
    "request_status": "Pending",
    "responsible_agency": "Safety and Permits",
    "final_address": "1519 Charbonnet St",
    "address_councildis": "E",
    "status": "Pending",
    "rowid": "1242624",
    "final_x": "3699101.81245",
    "final_y": "535251.782662",
    "longitude": "-90.01235463081194",
    "latitude": "29.965210586113084",
    "geocoded_column": {
      "latitude": "29.965210586113084",
      "longitude": "-90.01235463081194"
    }
  },
  {
    "service_request": "2025-1242623",
    "request_type": "Trash/Recycling",
    "request_reason": "Request a Large Item Pick Up",
    "date_created": "2025-11-26T14:41:57.000",
    "date_modified": "2025-11-26T14:41:59.000",
    "request_status": "Pending",
    "responsible_agency": "Department of Sanitation",
    "final_address": "6729 Dorchester St",
    "address_councildis": "E",
    "status": "Assigned to Contractor",
    "contractor": "Waste Pro",
    "rowid": "1242623",
    "final_x": "3698216.84336",
    "final_y": "559339.837725",
    "longitude": "-90.01427361861448",
    "latitude": "30.031471830690112",
    "geocoded_column": {
      "latitude": "30.031471830690112",
      "longitude": "-90.01427361861448"
    }
  },
  {
    "service_request": "2025-1242622",
    "request_type": "Abandoned Vehicles",
    "request_reason": "Abandoned/Junk Vehicles",
    "date_created": "2025-11-26T14:41:00.000",
    "date_modified": "2025-11-26T14:43:23.000",
    "request_status": "Pending",
    "responsible_agency": "Department of Public Works",
    "final_address": "4645 Freret St",
    "address_councildis": "B",
    "status": "Pending",
    "rowid": "1242622",
    "final_x": "3669522.96263",
    "final_y": "524037.168764",
    "longitude": "-90.10614265980237",
    "latitude": "29.935278549150258",
    "geocoded_column": {
      "latitude": "29.935278549150258",
      "longitude": "-90.10614265980237"
    }
  },
  {
    "service_request": "2025-1242621",
    "request_type": "Trash/Recycling",
    "request_reason": "Illegal Dumping",
    "date_created": "2025-11-26T14:36:39.000",
    "date_modified": "2025-11-26T14:36:40.000",
    "request_status": "Pending",
    "responsible_agency": "Department of Sanitation",
    "final_address": "N MIRO ST & PIETY ST",
    "address_councildis": "D",
    "status": "Pending",
    "rowid": "1242621",
    "final_x": "3690870.0",
    "final_y": "539932.68",
    "longitude": "-90.03818308563392",
    "latitude": "29.978339774675785",
    "geocoded_column": {
      "latitude": "29.978339774675785",
      "longitude": "-90.03818308563392"
    }
  },
  {
    "service_request": "2025-1242620",
    "request_type": "Trash/Recycling",
    "request_reason": "Repair Trash Cart",
    "date_created": "2025-11-26T14:31:18.000",
    "date_modified": "2025-11-26T14:31:20.000",
    "request_status": "Pending",
    "responsible_agency": "Department of Sanitation",
    "final_address": "3316 Joliet St",
    "address_councildis": "A",
    "status": "Assigned to Contractor",
    "contractor": "IV Waste",
    "rowid": "1242620",
    "final_x": "3666019.8162",
    "final_y": "535004.43815",
    "longitude": "-90.11683454937368",
    "latitude": "29.965537680108",
    "geocoded_column": {
      "latitude": "29.965537680108",
      "longitude": "-90.11683454937368"
    }
  },
  {
    "service_request": "2025-1242619",
    "request_type": "Trash/Recycling",
    "request_reason": "Request a Large Item Pick Up",
    "date_created": "2025-11-26T14:29:46.000",
    "date_modified": "2025-11-28T13:22:27.000",
    "case_close_date": "2025-11-28T07:22:27.000",
    "request_status": "Closed",
    "responsible_agency": "Department of Sanitation",
    "final_address": "4321 S Derbigny St",
    "address_councildis": "B",
    "status": "Assigned to Contractor",
    "contractor": "IV Waste",
    "contractor_action": "Completed",
    "rowid": "1242619",
    "final_x": "3670512.79406",
    "final_y": "526316.016766",
    "longitude": "-90.10294050149241",
    "latitude": "29.941515457210745",
    "geocoded_column": {
      "latitude": "29.941515457210745",
      "longitude": "-90.10294050149241"
    }
  },