[
  {
    "service_request": "2023-1047787",
    "request_type": "Roads/Drainage",
    "request_reason": "Pothole",
    "date_created": "2023-11-03T01:48:05.000",
    "date_modified": "2023-11-03T01:48:05.000",
    "request_status": "Pending",
    "responsible_agency": "Department of Public Works",
    "final_address": "3634 Coliseum St",
    "address_councildis": "B",
    "status": "Pending",
    "rowid": "1047787",
    "final_x": "3673515.78836",
    "final_y": "520081.900344",
    "longitude": "-90.09367237788514",
    "latitude": "29.92428464989518",
    "geocoded_column": {
      "latitude": "29.92428464989518",
      "longitude": "-90.09367237788514"
    }
  },
  {
    "service_request": "2023-1047786",
    "request_type": "Abandoned Vehicles",
    "request_reason": "Vehicle Blocking Your Driveway",
    "date_created": "2023-11-02T22:51:28.000",
    "date_modified": "2023-11-02T22:51:28.000",
    "request_status": "Pending",
    "responsible_agency": "Department of Public Works",
    "final_address": "2128 Kerlerec St",
    "address_councildis": "D",
    "status": "Pending",
    "rowid": "1047786",
    "final_x": "3679944.1124",
    "final_y": "538053.834825",
    "longitude": "-90.07275627918703",
    "latitude": "29.973508647406646",
    "geocoded_column": {
      "latitude": "29.973508647406646",
      "longitude": "-90.07275627918703"
    }
  },
  {
    "service_request": "2023-1047784",
    "request_type": "Trash/Recycling",
    "request_reason": "Replace Recycling Cart",
    "date_created": "2023-11-02T20:40:00.000",
    "date_modified": "2023-11-02T20:40:00.000",
    "request_status": "Pending",
    "responsible_agency": "Department of Sanitation",
    "final_address": "3012 Laurel St",
    "address_councildis": "B",
    "status": "Pending",
    "rowid": "1047784",
    "final_x": "3676687.92949",
    "final_y": "519661.71948",
    "longitude": "-90.08367348793556",
    "latitude": "29.923034541858936",
    "geocoded_column": {
      "latitude": "29.923034541858936",
      "longitude": "-90.08367348793556"
    }
  },
  {
    "service_request": "2023-1047783",
    "request_type": "Trash/Recycling",
    "request_reason": "Order Trash Cart",
    "date_created": "2023-11-02T20:18:37.000",
    "date_modified": "2023-11-02T20:18:38.000",
    "request_status": "Pending",
    "responsible_agency": "Department of Sanitation",
    "final_address": "4217 Fontainebleau Dr",
    "address_councildis": "B",
    "status": "Assigned to Contractor",
    "contractor": "Richards Disposal",
    "rowid": "1047783",
    "final_x": "3669694.10593",
    "final_y": "529340.321793",
    "longitude": "-90.10542294672956",
    "latitude": "29.949855458162762",
    "geocoded_column": {
      "latitude": "29.949855458162762",
      "longitude": "-90.10542294672956"
    }
  },
  {
    "service_request": "2023-1047782",
    "request_type": "Property Maintenance",
    "request_reason": "Property Maintenance",
    "date_created": "2023-11-02T19:51:02.000",
    "date_modified": "2023-11-02T19:51:02.000",
    "request_status": "Pending",
    "responsible_agency": "Department of Code Enforcement",
    "final_address": "7996 Pompano St",
    "address_councildis": "E",
    "status": "Pending",
    "rowid": "1047782",
    "final_x": "3700086.77194",
    "final_y": "561663.254175",
    "longitude": "-90.00827969310566",
    "latitude": "30.037801003212305",
    "geocoded_column": {
      "latitude": "30.037801003212305",
      "longitude": "-90.00827969310566"
    }
  },
  {
    "service_request": "2023-1047781",
    "request_type": "Roads/Drainage",
    "request_reason": "Street Flooding / Drainage",
    "date_created": "2023-11-02T19:41:46.000",
    "date_modified": "2023-11-02T19:53:10.000",
    "request_status": "Pending",
    "responsible_agency": "Department of Public Works",
    "final_address": "1340 Franklin Ave",
    "address_councildis": "C",
    "status": "Inspected",
    "rowid": "1047781",
    "final_x": "3687272.47305",
    "final_y": "537532.785928",
    "longitude": "-90.04963027020557",
    "latitude": "29.97185222866897",
    "geocoded_column": {
      "latitude": "29.97185222866897",
      "longitude": "-90.04963027020557"
    }
  },
  {
    "service_request": "2023-1047780",
    "request_type": "Trash/Recycling",
    "request_reason": "Order Trash Cart",
    "date_created": "2023-11-02T19:36:16.000",
    "date_modified": "2023-11-02T19:36:17.000",
    "request_status": "Pending",
    "responsible_agency": "Department of Sanitation",
    "final_address": "927 Sixth St",
    "address_councildis": "B",
    "status": "Assigned to Contractor",
    "contractor": "Richards Disposal",
    "rowid": "1047780",
    "final_x": "3676933.1901",
    "final_y": "520145.523448",
    "longitude": "-90.082882628471",
    "latitude": "29.924357489069706",
    "geocoded_column": {
      "latitude": "29.924357489069706",
      "longitude": "-90.082882628471"
    }
  },
  {
    "service_request": "2023-1047779",
    "request_type": "Trash/Recycling",
    "request_reason": "Order Recycling Cart",
    "date_created": "2023-11-02T19:29:02.000",
    "date_modified": "2023-11-02T19:29:02.000",
    "request_status": "Pending",
    "responsible_agency": "Department of Sanitation",
    "final_address": "1202 Octavia St",
    "address_councildis": "A",
    "status": "Pending",
    "rowid": "1047779",
    "final_x": "3666752.18029",
    "final_y": "520458.044408",
    "longitude": "-90.11501019386108",
    "latitude": "29.925518399707617",
    "geocoded_column": {
      "latitude": "29.925518399707617",
      "longitude": "-90.11501019386108"
    }
  },
  {
    "service_request": "2023-1047778",
    "request_type": "Trash/Recycling",
    "request_reason": "Request a Large Item Pick Up",
    "date_created": "2023-11-02T19:01:27.000",
    "date_modified": "2023-11-02T19:01:28.000",
    "request_status": "Pending",
    "responsible_agency": "Department of Sanitation",
    "final_address": "2014 N Roman St",
    "address_councildis": "D",
    "status": "Assigned to Contractor",
    "contractor": "IV Waste",
    "rowid": "1047778",
    "final_x": "3684166.55145",
    "final_y": "538797.082889",
    "longitude": "-90.05939485279828",
    "latitude": "29.97542391658076",
    "geocoded_column": {
      "latitude": "29.97542391658076",
      "longitude": "-90.05939485279828"
    }
  },
  {
    "service_request": "2023-1047776",
    "request_type": "Trash/Recycling",
    "request_reason": "Request a Large Item Pick Up",
    "date_created": "2023-11-02T18:43:48.000",
    "date_modified": "2023-11-02T18:43:49.000",
    "request_status": "Pending",
    "responsible_agency": "Department of Sanitation",
    "final_address": "1913 Orleans Ave",
    "address_councildis": "D",
    "status": "Assigned to Contractor",
    "contractor": "Richards Disposal",
    "rowid": "1047776",
    "final_x": "3679211.93743",
    "final_y": "535271.116998",
    "longitude": "-90.07516514090682",
    "latitude": "29.96587925491779",
    "geocoded_column": {
      "latitude": "29.96587925491779",
      "longitude": "-90.07516514090682"
    }
  },
  {
    "service_request": "2023-1047775",
    "request_type": "Trash/Recycling",
    "request_reason": "Start Trash Service",
    "date_created": "2023-11-02T18:33:50.000",
    "date_modified": "2023-11-02T18:33:51.000",
    "request_status": "Pending",
    "responsible_agency": "Department of Sanitation",
    "final_address": "3000 BLK Orleans Ave",
    "address_councildis": "A",
    "status": "Assigned to Contractor",
    "contractor": "Richards Disposal",
    "rowid": "1047775",
    "final_x": "3675631.81176",
    "final_y": "537840.696088",
    "longitude": "-90.08638277005649",
    "latitude": "29.973052330502913",
    "geocoded_column": {
      "latitude": "29.973052330502913",
      "longitude": "-90.08638277005649"
    }
  },
  {
    "service_request": "2023-1047774",
    "request_type": "Trash/Recycling",
    "request_reason": "Request a Large Item Pick Up",
    "date_created": "2023-11-02T18:28:26.000",
    "date_modified": "2023-11-02T18:28:26.000",
    "request_status": "Pending",
    "responsible_agency": "Department of Sanitation",
    "final_address": "4920 Dryades St",
    "address_councildis": "B",
    "status": "Assigned to Contractor",
    "contractor": "Richards Disposal",
    "rowid": "1047774",
    "final_x": "3668904.73338",
    "final_y": "521685.405177",
    "longitude": "-90.1081738005452",
    "latitude": "29.928830143455674",
    "geocoded_column": {
      "latitude": "29.928830143455674",
      "longitude": "-90.1081738005452"
    }
  },
  {
    "service_request": "2023-1047773",
    "request_type": "Abandoned Vehicles",
    "request_reason": "Abandoned/Junk Vehicles",
    "date_created": "2023-11-02T17:51:34.000",
    "date_modified": "2023-11-02T17:51:34.000",
    "request_status": "Pending",
    "responsible_agency": "Department of Public Works",
    "final_address": "4400 BLK S Liberty St",
    "address_councildis": "B",
    "status": "Pending",
    "rowid": "1047773",
    "final_x": "3670383.18446",
    "final_y": "523325.333058",
    "longitude": "-90.10345105295711",
    "latitude": "29.933295869539958",
    "geocoded_column": {
      "latitude": "29.933295869539958",
      "longitude": "-90.10345105295711"
    }
  },
  {
    "service_request": "2023-1047772",
    "request_type": "Trash/Recycling",
    "request_reason": "Missed Trash Pick-Up",
    "date_created": "2023-11-02T17:45:07.000",
    "date_modified": "2023-11-02T17:45:08.000",
    "request_status": "Pending",
    "responsible_agency": "Department of Sanitation",
    "final_address": "2514 Audubon St",
    "address_councildis": "A",
    "status": "Assigned to Contractor",
    "contractor": "Richards Disposal",
    "rowid": "1047772",
    "final_x": "3667076.18017",
    "final_y": "530369.826562",
    "longitude": "-90.11365437526892",
    "latitude": "29.952763141456803",
    "geocoded_column": {
      "latitude": "29.952763141456803",
      "longitude": "-90.11365437526892"
    }
  },
  {
    "service_request": "2023-1047771",
    "request_type": "Roads/Drainage",
    "request_reason": "Pothole",
    "date_created": "2023-11-02T17:41:04.000",
    "date_modified": "2023-11-02T17:41:04.000",
    "request_status": "Pending",
    "responsible_agency": "Department of Public Works",
    "final_address": "5920 Hurst St",
    "address_councildis": "A",
    "status": "Pending",
    "rowid": "1047771",
    "final_x": "3665634.94816",
    "final_y": "521728.61017",
    "longitude": "-90.1184944423846",
    "latitude": "29.9290446708389",
    "geocoded_column": {
      "latitude": "29.9290446708389",
      "longitude": "-90.1184944423846"
    }
  },
  {
    "service_request": "2023-1047770",
    "request_type": "Roads/Drainage",
    "request_reason": "Pothole",
    "date_created": "2023-11-02T17:37:26.000",
    "date_modified": "2023-11-02T17:37:26.000",
    "request_status": "Pending",
    "responsible_agency": "Department of Public Works",
    "final_address": "1015 Eleonore St",
    "address_councildis": "A",
    "status": "Pending",
    "rowid": "1047770",
    "final_x": "3665479.93786",
    "final_y": "519825.987512",
    "longitude": "-90.11904743126631",
    "latitude": "29.923817576210073",
    "geocoded_column": {
      "latitude": "29.923817576210073",
      "longitude": "-90.11904743126631"
    }
  },
  {
    "service_request": "2023-1047769",
    "request_type": "Roads/Drainage",
    "request_reason": "Pothole",
    "date_created": "2023-11-02T17:34:53.000",
    "date_modified": "2023-11-02T17:34:53.000",
    "request_status": "Pending",
    "responsible_agency": "Department of Public Works",
    "final_address": "6026 Benjamin St",
    "address_councildis": "A",
    "status": "Pending",
    "rowid": "1047769",
    "final_x": "3665368.24487",
    "final_y": "522189.506042",
    "longitude": "-90.11932096041569",
    "latitude": "29.93031976110733",
    "geocoded_column": {
      "latitude": "29.93031976110733",
      "longitude": "-90.11932096041569"
    }
  },
  {
    "service_request": "2023-1047768",
    "request_type": "Trash/Recycling",
    "request_reason": "MIssed Recycling Pick-Up",
    "date_created": "2023-11-02T17:23:37.000",
    "date_modified": "2023-11-02T17:23:38.000",
    "request_status": "Pending",
    "responsible_agency": "Department of Sanitation",
    "final_address": "11200 Chef Menteur Hwy",
    "address_councildis": "E",
    "status": "Assigned to Contractor",
    "contractor": "Waste Pro",
    "rowid": "1047768",
    "final_x": "3716501.04197",
    "final_y": "555743.655193",
    "longitude": "-89.95663193198165",
    "latitude": "30.020992339521815",
    "geocoded_column": {
      "latitude": "30.020992339521815",
      "longitude": "-89.95663193198165"
    }
  },
  {
    "service_request": "2023-1047767",
    "request_type": "Abandoned Vehicles",
    "request_reason": "Abandoned/Junk Vehicles",
    "date_created": "2023-11-02T17:19:09.000",
    "date_modified": "2023-11-02T17:19:09.000",
    "request_status": "Pending",
    "responsible_agency": "Department of Public Works",
    "final_address": "2611 Dryades St",
    "address_councildis": "B",
    "status": "Pending",
    "rowid": "1047767",
    "final_x": "3675727.50593",
    "final_y": "523747.379771",
    "longitude": "-90.08656484834319",
    "latitude": "29.934297548955968",
    "geocoded_column": {
      "latitude": "29.934297548955968",
      "longitude": "-90.08656484834319"
    }
  },
  {
    "service_request": "2023-1047766",
    "request_type": "Trash/Recycling",
    "request_reason": "MIssed Recycling Pick-Up",
    "date_created": "2023-11-02T17:07:01.000",
    "date_modified": "2023-11-02T17:07:01.000",
    "request_status": "Pending",
    "responsible_agency": "Department of Sanitation",
    "final_address": "2118 Freret St",
    "address_councildis": "B",
    "status": "Assigned to Contractor",
    "contractor": "Richards Disposal",
    "rowid": "1047766",
    "final_x": "3675801.34357",
    "final_y": "526418.156094",
    "longitude": "-90.08623997872645",
    "latitude": "29.941639099133855",
    "geocoded_column": {
      "latitude": "29.941639099133855",
      "longitude": "-90.08623997872645"
    }
  },
  {
    "service_request": "2023-1047765",
    "request_type": "Roads/Drainage",
    "request_reason": "Pothole",
    "date_created": "2023-11-02T16:58:58.000",
    "date_modified": "2023-11-02T16:58:59.000",
    "request_status": "Pending",
    "responsible_agency": "Department of Public Works",
    "final_address": "SANDALWOOD ST & HAMMOND ST",
    "address_councildis": "E",
    "status": "Pending",
    "rowid": "1047765",
    "final_x": "3712212.8",
    "final_y": "556340.88",
    "longitude": "-89.9701589578486",
    "latitude": "30.02277544274229",
    "geocoded_column": {
      "latitude": "30.02277544274229",
      "longitude": "-89.9701589578486"
    }
  },
  {
    "service_request": "2023-1047764",
    "request_type": "Trash/Recycling",
    "request_reason": "Repair Recycling Cart",
    "date_created": "2023-11-02T16:54:41.000",
    "date_modified": "2023-11-02T16:54:41.000",
    "request_status": "Pending",
    "responsible_agency": "Department of Sanitation",
    "final_address": "529 Pacific Ave",
    "address_councildis": "C",
    "status": "Pending",
    "rowid": "1047764",
    "final_x": "3688449.6463",
    "final_y": "529640.004993",
    "longitude": "-90.04619258676541",
    "latitude": "29.9501135053638",
    "geocoded_column": {
      "latitude": "29.9501135053638",
      "longitude": "-90.04619258676541"
    }
  },
  {
    "service_request": "2023-1047763",
    "request_type": "Trash/Recycling",
    "request_reason": "Request a Large Item Pick Up",
    "date_created": "2023-11-02T16:47:30.000",
    "date_modified": "2023-11-02T16:47:30.000",
    "request_status": "Pending",
    "responsible_agency": "Department of Sanitation",
    "final_address": "52 Allard Blvd",
    "address_councildis": "A",
    "status": "Assigned to Contractor",
    "contractor": "Richards Disposal",
    "rowid": "1047763",
    "final_x": "3672886.9563",
    "final_y": "540588.875083",
    "longitude": "-90.09495777453637",
    "latitude": "29.98069073592567",
    "geocoded_column": {
      "latitude": "29.98069073592567",
      "longitude": "-90.09495777453637"
    }
  },
  {
    "service_request": "2023-1047762",
    "request_type": "Trash/Recycling",
    "request_reason": "Repair Trash Cart",
    "date_created": "2023-11-02T16:46:30.000",
    "date_modified": "2023-11-02T16:46:31.000",
    "request_status": "Pending",
    "responsible_agency": "Department of Sanitation",
    "final_address": "50 Allard Blvd",
    "address_councildis": "A",
    "status": "Assigned to Contractor",
    "contractor": "Richards Disposal",
    "rowid": "1047762",
    "final_x": "3672888.34516",
    "final_y": "540609.013963",
    "longitude": "-90.09495270045598",
    "latitude": "29.980746069687573",
    "geocoded_column": {
      "latitude": "29.980746069687573",
      "longitude": "-90.09495270045598"
    }
  },
  {
    "service_request": "2023-1047761",
    "request_type": "Trash/Recycling",
    "request_reason": "Repair Trash Cart",
    "date_created": "2023-11-02T16:45:06.000",
    "date_modified": "2023-11-02T16:45:07.000",
    "request_status": "Pending",
    "responsible_agency": "Department of Sanitation",
    "final_address": "52 Allard Blvd",
    "address_councildis": "A",
    "status": "Assigned to Contractor",
    "contractor": "Richards Disposal",
    "rowid": "1047761",
    "final_x": "3672886.9563",
    "final_y": "540588.875083",
    "longitude": "-90.09495777453637",
    "latitude": "29.98069073592567",
    "geocoded_column": {
      "latitude": "29.98069073592567",
      "longitude": "-90.09495777453637"
    }
  },
  {
    "service_request": "2023-1047760",
    "request_type": "Trash/Recycling",
    "request_reason": "MIssed Recycling Pick-Up",
    "date_created": "2023-11-02T16:39:55.000",
    "date_modified": "2023-11-02T16:39:56.000",
    "request_status": "Pending",
    "responsible_agency": "Department of Sanitation",
    "final_address": "5001 Hauck Dr",
    "address_councildis": "E",
    "status": "Assigned to Contractor",
    "contractor": "Waste Pro",
    "rowid": "1047760",
    "final_x": "3714522.35499",
    "final_y": "557804.972827",
    "longitude": "-89.96280604327599",
    "latitude": "30.026725366310885",
    "geocoded_column": {
      "latitude": "30.026725366310885",
      "longitude": "-89.96280604327599"
    }
  },
  {
    "service_request": "2023-1047759",
    "request_type": "Trash/Recycling",
    "request_reason": "Order Trash Cart",
    "date_created": "2023-11-02T16:37:04.000",
    "date_modified": "2023-11-02T16:37:27.000",
    "request_status": "Pending",
    "responsible_agency": "Department of Sanitation",
    "final_address": "5212 Danneel St",
    "address_councildis": "B",
    "status": "Assigned to Contractor",
    "contractor": "Richards Disposal",
    "rowid": "1047759",
    "final_x": "3668061.71629",
    "final_y": "522115.860666",
    "longitude": "-90.11082054481848",
    "latitude": "29.930038516955683",
    "geocoded_column": {
      "latitude": "29.930038516955683",
      "longitude": "-90.11082054481848"
    }
  },
  {
    "service_request": "2023-1047758",
    "request_type": "Graffiti Removal",
    "request_reason": "Graffiti Removal",
    "date_created": "2023-11-02T16:28:45.000",
    "date_modified": "2023-11-02T16:28:45.000",
    "request_status": "Pending",
    "responsible_agency": "Department of Code Enforcement",
    "final_address": "405 Third St",
    "address_councildis": "B",
    "status": "Pending",
    "rowid": "1047758",
    "final_x": "3678946.86754",
    "final_y": "519166.924727",
    "longitude": "-90.07656002471438",
    "latitude": "29.921606082401034",
    "geocoded_column": {
      "latitude": "29.921606082401034",
      "longitude": "-90.07656002471438"
    }
  },
  {
    "service_request": "2023-1047757",
    "request_type": "Trash/Recycling",
    "request_reason": "Missed Trash Pick-Up",
    "date_created": "2023-11-02T16:26:02.000",
    "date_modified": "2023-11-02T16:26:03.000",
    "request_status": "Pending",
    "responsible_agency": "Department of Sanitation",
    "final_address": "1719 Toledano St",
    "address_councildis": "B",
    "status": "Assigned to Contractor",
    "contractor": "Richards Disposal",
    "rowid": "1047757",
    "final_x": "3674403.64788",
    "final_y": "522246.697082",
    "longitude": "-90.09079560780958",
    "latitude": "29.930210700280217",
    "geocoded_column": {
      "latitude": "29.930210700280217",
      "longitude": "-90.09079560780958"
    }
  },
  {
    "service_request": "2023-1047756",
    "request_type": "Abandoned Vehicles",
    "request_reason": "Abandoned/Junk Vehicles",
    "date_created": "2023-11-02T16:25:30.000",
    "date_modified": "2023-11-02T16:25:30.000",
    "request_status": "Pending",
    "responsible_agency": "Department of Public Works",
    "final_address": "4900 Sandalwood St",
    "address_councildis": "E",
    "status": "Pending",
    "rowid": "1047756",
    "final_x": "3712062.4243",
    "final_y": "557061.801754",
    "longitude": "-89.97060701447117",
    "latitude": "30.024762611832276",
    "geocoded_column": {
      "latitude": "30.024762611832276",
      "longitude": "-89.97060701447117"
    }
  },
  {
    "service_request": "2023-1047755",
    "request_type": "Property Maintenance",
    "request_reason": "Property Maintenance",
    "date_created": "2023-11-02T16:16:01.000",
    "date_modified": "2023-11-02T16:16:01.000",
    "request_status": "Pending",
    "responsible_agency": "Department of Code Enforcement",
    "final_address": "7101 Warfield St",
    "address_councildis": "E",
    "status": "Pending",
    "rowid": "1047755",
    "final_x": "3701416.96778",
    "final_y": "553135.001879",
    "longitude": "-90.00438855672648",
    "latitude": "30.01430923264679",
    "geocoded_column": {
      "latitude": "30.01430923264679",
      "longitude": "-90.00438855672648"
    }
  },
  {
    "service_request": "2023-1047754",
    "request_type": "Trash/Recycling",
    "request_reason": "Repair Recycling Cart",
    "date_created": "2023-11-02T16:14:05.000",
    "date_modified": "2023-11-02T16:14:06.000",
    "request_status": "Pending",
    "responsible_agency": "Department of Sanitation",
    "final_address": "1516 Dublin St",
    "address_councildis": "A",
    "status": "Pending",
    "rowid": "1047754",
    "final_x": "3662477.62311",
    "final_y": "529522.417473",
    "longitude": "-90.12820277893546",
    "latitude": "29.9505668314714",
    "geocoded_column": {
      "latitude": "29.9505668314714",
      "longitude": "-90.12820277893546"
    }
  },
  {
    "service_request": "2023-1047753",
    "request_type": "Trash/Recycling",
    "request_reason": "Missed Trash Pick-Up",
    "date_created": "2023-11-02T16:13:44.000",
    "date_modified": "2023-11-02T16:16:32.000",
    "request_status": "Pending",
    "responsible_agency": "Department of Sanitation",
    "final_address": "4835 Charlene Dr",
    "address_councildis": "E",
    "status": "Assigned to Contractor",
    "contractor": "Waste Pro",
    "rowid": "1047753",
    "final_x": "3707897.22712",
    "final_y": "556274.311962",
    "longitude": "-89.98379753076408",
    "latitude": "30.02273286952363",
    "geocoded_column": {
      "latitude": "30.02273286952363",
      "longitude": "-89.98379753076408"
    }
  },
  {
    "service_request": "2023-1047752",
    "request_type": "Property Maintenance",
    "request_reason": "Property Maintenance",
    "date_created": "2023-11-02T16:13:03.000",
    "date_modified": "2023-11-02T16:13:03.000",
    "request_status": "Pending",
    "responsible_agency": "Department of Code Enforcement",
    "final_address": "7101 Warfield St",
    "address_councildis": "E",
    "status": "Pending",
    "rowid": "1047752",
    "final_x": "3701416.96778",
    "final_y": "553135.001879",
    "longitude": "-90.00438855672648",
    "latitude": "30.01430923264679",
    "geocoded_column": {
      "latitude": "30.01430923264679",
      "longitude": "-90.00438855672648"
    }
  },
  {
    "service_request": "2023-1047751",
    "request_type": "Abandoned Vehicles",
    "request_reason": "Abandoned/Junk Vehicles",
    "date_created": "2023-11-02T16:08:10.000",
    "date_modified": "2023-11-02T16:08:10.000",
    "request_status": "Pending",
    "responsible_agency": "Department of Public Works",
    "final_address": "2703 Ursulines Ave",
    "address_councildis": "A",
    "status": "Pending",
    "rowid": "1047751",
    "final_x": "3677446.70402",
    "final_y": "538372.739913",
    "longitude": "-90.08063261240814",
    "latitude": "29.97446083697984",
    "geocoded_column": {
      "latitude": "29.97446083697984",
      "longitude": "-90.08063261240814"
    }
  },
  {
    "service_request": "2023-1047750",
    "request_type": "Property Maintenance",
    "request_reason": "Property Maintenance",
    "date_created": "2023-11-02T16:00:00.000",
    "date_modified": "2023-11-02T16:00:00.000",
    "request_status": "Pending",
    "responsible_agency": "Department of Code Enforcement",
    "final_address": "1401 Casa Calvo St",
    "address_councildis": "C",
    "status": "Pending",
    "rowid": "1047750",
    "final_x": "3692017.22563",
    "final_y": "526159.769406",
    "longitude": "-90.03505261405658",
    "latitude": "29.940433379682077",
    "geocoded_column": {
      "latitude": "29.940433379682077",
      "longitude": "-90.03505261405658"
    }
  },
  {
    "service_request": "2023-1047749",
    "request_type": "Trash/Recycling",
    "request_reason": "Request a Large Item Pick Up",
    "date_created": "2023-11-02T15:55:42.000",
    "date_modified": "2023-11-02T15:56:37.000",
    "request_status": "Pending",
    "responsible_agency": "Department of Sanitation",
    "final_address": "6500 Beauregard Ave",
    "address_councildis": "D",
    "status": "Assigned to Contractor",
    "contractor": "IV Waste",
    "rowid": "1047749",
    "final_x": "3676213.8788",
    "final_y": "556138.989722",
    "longitude": "-90.08391435189047",
    "latitude": "30.02334876881581",
    "geocoded_column": {
      "latitude": "30.02334876881581",
      "longitude": "-90.08391435189047"
    }
  },
  {
    "service_request": "2023-1047747",
    "request_type": "Trash/Recycling",
    "request_reason": "Request a Large Item Pick Up",
    "date_created": "2023-11-02T15:48:54.000",
    "date_modified": "2023-11-02T15:48:54.000",
    "request_status": "Pending",
    "responsible_agency": "Department of Sanitation",
    "final_address": "4750 Spain St",
    "address_councildis": "D",
    "status": "Assigned to Contractor",
    "contractor": "IV Waste",
    "rowid": "1047747",
    "final_x": "3684894.79036",
    "final_y": "550539.092948",
    "longitude": "-90.05668170088994",
    "latitude": "30.007687977442906",
    "geocoded_column": {
      "latitude": "30.007687977442906",
      "longitude": "-90.05668170088994"
    }
  },
  {
    "service_request": "2023-1047746",
    "request_type": "Trash/Recycling",
    "request_reason": "Request a Large Item Pick Up",
    "date_created": "2023-11-02T15:47:05.000",
    "date_modified": "2023-11-02T15:47:06.000",
    "request_status": "Pending",
    "responsible_agency": "Department of Sanitation",
    "final_address": "1114 Bartholomew St",
    "address_councildis": "C",
    "status": "Assigned to Contractor",
    "contractor": "IV Waste",
    "rowid": "1047746",
    "final_x": "3691823.80048",
    "final_y": "535507.495686",
    "longitude": "-90.03532897254436",
    "latitude": "29.966142407880547",
    "geocoded_column": {
      "latitude": "29.966142407880547",
      "longitude": "-90.03532897254436"
    }
  },
  {
    "service_request": "2023-1047745",
    "request_type": "Trash/Recycling",
    "request_reason": "Request a Large Item Pick Up",
    "date_created": "2023-11-02T15:46:11.000",
    "date_modified": "2023-11-02T15:46:12.000",
    "request_status": "Pending",
    "responsible_agency": "Department of Sanitation",
    "final_address": "6218 Cambridge St",
    "address_councildis": "C",
    "status": "Assigned to Contractor",
    "contractor": "Richards Disposal",
    "rowid": "1047745",
    "final_x": "3707098.50372",
    "final_y": "518465.167158",
    "longitude": "-89.98772425163699",
    "latitude": "29.91879745907295",
    "geocoded_column": {
      "latitude": "29.91879745907295",
      "longitude": "-89.98772425163699"
    }
  },
  {
    "service_request": "2023-1047744",
    "request_type": "Trash/Recycling",
    "request_reason": "MIssed Recycling Pick-Up",
    "date_created": "2023-11-02T15:43:48.000",
    "date_modified": "2023-11-02T15:43:49.000",
    "request_status": "Pending",
    "responsible_agency": "Department of Sanitation",
    "final_address": "2617 Danneel St",
    "address_councildis": "B",
    "status": "Assigned to Contractor",
    "contractor": "Richards Disposal",
    "rowid": "1047744",
    "final_x": "3675487.8132",
    "final_y": "524006.052988",
    "longitude": "-90.08731267157579",
    "latitude": "29.93501598501583",
    "geocoded_column": {
      "latitude": "29.93501598501583",
      "longitude": "-90.08731267157579"
    }
  },
  {
    "service_request": "2023-1047743",
    "request_type": "Trash/Recycling",
    "request_reason": "Order Recycling Cart",
    "date_created": "2023-11-02T15:30:48.000",
    "date_modified": "2023-11-02T15:30:49.000",
    "request_status": "Pending",
    "responsible_agency": "Department of Sanitation",
    "final_address": "1728 Eagle St",
    "address_councildis": "A",
    "status": "Pending",
    "rowid": "1047743",
    "final_x": "3661464.49766",
    "final_y": "531581.475843",
    "longitude": "-90.13133352204527",
    "latitude": "29.95625783925377",
    "geocoded_column": {
      "latitude": "29.95625783925377",
      "longitude": "-90.13133352204527"
    }
  },
  {
    "service_request": "2023-1047742",
    "request_type": "Trash/Recycling",
    "request_reason": "Replace Trash Cart",
    "date_created": "2023-11-02T15:27:50.000",
    "date_modified": "2023-11-02T15:27:51.000",
    "request_status": "Pending",
    "responsible_agency": "Department of Sanitation",
    "final_address": "3630 Rue Denise",
    "address_councildis": "C",
    "status": "Assigned to Contractor",
    "contractor": "Richards Disposal",
    "rowid": "1047742",
    "final_x": "3704310.76529",
    "final_y": "517182.625845",
    "longitude": "-89.99657084944063",
    "latitude": "29.915360635652995",
    "geocoded_column": {
      "latitude": "29.915360635652995",
      "longitude": "-89.99657084944063"
    }
  },
  {
    "service_request": "2023-1047740",
    "request_type": "Trash/Recycling",
    "request_reason": "Repair Trash Cart",
    "date_created": "2023-11-02T15:24:50.000",
    "date_modified": "2023-11-02T15:24:51.000",
    "request_status": "Pending",
    "responsible_agency": "Department of Sanitation",
    "final_address": "1130 Burdette St",
    "address_councildis": "A",
    "status": "Assigned to Contractor",
    "contractor": "Richards Disposal",
    "rowid": "1047740",
    "final_x": "3662734.72845",
    "final_y": "527597.931903",
    "longitude": "-90.12745491829595",
    "latitude": "29.945267675804953",
    "geocoded_column": {
      "latitude": "29.945267675804953",
      "longitude": "-90.12745491829595"
    }
  },
  {
    "service_request": "2023-1047739",
    "request_type": "Trash/Recycling",
    "request_reason": "Request a Large Item Pick Up",
    "date_created": "2023-11-02T15:21:52.000",
    "date_modified": "2023-11-02T15:54:21.000",
    "case_close_date": "2023-11-02T10:54:21.000",
    "request_status": "Closed",
    "responsible_agency": "Department of Sanitation",
    "final_address": "3001 Marigny St",
    "address_councildis": "D",
    "status": "Assigned to Contractor",
    "contractor": "IV Waste",
    "contractor_action": "Completed",
    "rowid": "1047739",
    "final_x": "3684868.08303",
    "final_y": "543747.733326",
    "longitude": "-90.05700506964357",
    "latitude": "29.98901499558169",
    "geocoded_column": {
      "latitude": "29.98901499558169",
      "longitude": "-90.05700506964357"
    }
  },
  {
    "service_request": "2023-1047738",
    "request_type": "Parks & Parkways",
    "request_reason": "Request Tree Service (Right of Way/Public Property)",
    "date_created": "2023-11-02T15:19:29.000",
    "date_modified": "2023-11-02T15:19:30.000",
    "request_status": "Pending",
    "responsible_agency": "Department of Parks & Parkway",
    "final_address": "7900 Pebble Dr",
    "address_councildis": "E",
    "status": "Pending",
    "rowid": "1047738",
    "final_x": "3714469.59301",
    "final_y": "569729.988774",
    "longitude": "-89.96252196405383",
    "latitude": "30.05951606916631",
    "geocoded_column": {
      "latitude": "30.05951606916631",
      "longitude": "-89.96252196405383"
    }
  },
  {
    "service_request": "2023-1047737",
    "request_type": "Trash/Recycling",
    "request_reason": "Order Trash Cart",
    "date_created": "2023-11-02T15:14:53.000",
    "date_modified": "2023-11-02T15:14:53.000",
    "request_status": "Pending",
    "responsible_agency": "Department of Sanitation",
    "final_address": "2106 Lizardi St",
    "address_councildis": "E",
    "status": "Assigned to Contractor",
    "contractor": "Waste Pro",
    "rowid": "1047737",
    "final_x": "3697572.13763",
    "final_y": "537957.886473",
    "longitude": "-90.01708706970336",
    "latitude": "29.972699803633542",
    "geocoded_column": {
      "latitude": "29.972699803633542",
      "longitude": "-90.01708706970336"
    }
  },
  {
    "service_request": "2023-1047736",
    "request_type": "Trash/Recycling",
    "request_reason": "Request a Large Item Pick Up",
    "date_created": "2023-11-02T15:14:05.000",
    "date_modified": "2023-11-02T15:14:05.000",
    "request_status": "Pending",
    "responsible_agency": "Department of Sanitation",
    "final_address": "2106 Lizardi St",
    "address_councildis": "E",
    "status": "Assigned to Contractor",
    "contractor": "Waste Pro",
    "rowid": "1047736",
    "final_x": "3697572.13763",
    "final_y": "537957.886473",
    "longitude": "-90.01708706970336",
    "latitude": "29.972699803633542",
    "geocoded_column": {
      "latitude": "29.972699803633542",
      "longitude": "-90.01708706970336"
    }
  },
  {
    "service_request": "2023-1047735",
    "request_type": "Trash/Recycling",
    "request_reason": "Request a Large Item Pick Up",
    "date_created": "2023-11-02T15:00:57.000",
    "date_modified": "2023-11-02T15:00:58.000",
    "request_status": "Pending",
    "responsible_agency": "Department of Sanitation",
    "final_address": "4607 Haydel St",
    "address_councildis": "E",
    "status": "Assigned to Contractor",
    "contractor": "Waste Pro",
    "rowid": "1047735",
    "final_x": "3699167.99428",
    "final_y": "553673.120855",
    "longitude": "-90.01147453520497",
    "latitude": "30.01586038464293",
    "geocoded_column": {
      "latitude": "30.01586038464293",
      "longitude": "-90.01147453520497"
    }
  },
  {
    "service_request": "2023-1047734",
    "request_type": "Trash/Recycling",
    "request_reason": "Replace Trash Cart",
    "date_created": "2023-11-02T14:54:04.000",
    "date_modified": "2023-11-02T14:54:05.000",
    "request_status": "Pending",
    "responsible_agency": "Department of Sanitation",
    "final_address": "2301 Magazine St",
    "address_councildis": "B",
    "status": "Assigned to Contractor",
    "contractor": "Richards Disposal",
    "rowid": "1047734",
    "final_x": "3678487.91016",
    "final_y": "521851.003578",
    "longitude": "-90.07791592815494",
    "latitude": "29.929000259503336",
    "geocoded_column": {
      "latitude": "29.929000259503336",
      "longitude": "-90.07791592815494"
    }
  },
  {
    "service_request": "2023-1047733",
    "request_type": "Trash/Recycling",
    "request_reason": "Order Trash Cart",
    "date_created": "2023-11-02T14:51:06.000",
    "date_modified": "2023-11-02T14:51:06.000",
    "request_status": "Pending",
    "responsible_agency": "Department of Sanitation",
    "final_address": "2304 Laurel St",
    "address_councildis": "B",
    "status": "Assigned to Contractor",
    "contractor": "Richards Disposal",
    "rowid": "1047733",
    "final_x": "3678957.30798",
    "final_y": "521197.589497",
    "longitude": "-90.0764567579841",
    "latitude": "29.92718943476003",
    "geocoded_column": {
      "latitude": "29.92718943476003",
      "longitude": "-90.0764567579841"
    }
  },
  {
    "service_request": "2023-1047732",
    "request_type": "Trash/Recycling",
    "request_reason": "Illegal Dumping",
    "date_created": "2023-11-02T14:46:05.000",
    "date_modified": "2023-11-02T14:46:05.000",
    "request_status": "Pending",
    "responsible_agency": "Department of Sanitation",
    "final_address": "3312 Martin Luther King, Jr. Blvd",
    "address_councildis": "B",
    "status": "Pending",
    "rowid": "1047732",
    "final_x": "3673998.14753",
    "final_y": "528732.368192",
    "longitude": "-90.09185387809642",
    "latitude": "29.948056261482336",
    "geocoded_column": {
      "latitude": "29.948056261482336",
      "longitude": "-90.09185387809642"
    }
  },
  {
    "service_request": "2023-1047731",
    "request_type": "Roads/Drainage",
    "request_reason": "Pothole",
    "date_created": "2023-11-02T14:44:25.000",
    "date_modified": "2023-11-02T14:44:25.000",
    "request_status": "Pending",
    "responsible_agency": "Department of Public Works",
    "final_address": "4900 Baronne St",
    "address_councildis": "B",
    "status": "Pending",
    "rowid": "1047731",
    "final_x": "3669045.36097",
    "final_y": "521386.857657",
    "longitude": "-90.10773994704329",
    "latitude": "29.928005097714955",
    "geocoded_column": {
      "latitude": "29.928005097714955",
      "longitude": "-90.10773994704329"
    }
  },
  {
    "service_request": "2023-1047730",
    "request_type": "Abandoned Vehicles",
    "request_reason": "Abandoned/Junk Vehicles",
    "date_created": "2023-11-02T14:43:20.000",
    "date_modified": "2023-11-02T14:43:20.000",
    "request_status": "Pending",
    "responsible_agency": "Department of Public Works",
    "final_address": "6313 Pritchard Pl",
    "address_councildis": "B",
    "status": "Pending",
    "rowid": "1047730",
    "final_x": "3668313.93562",
    "final_y": "531029.06509",
    "longitude": "-90.10972385497395",
    "latitude": "29.954539546124092",
    "geocoded_column": {
      "latitude": "29.954539546124092",
      "longitude": "-90.10972385497395"
    }
  },
  {
    "service_request": "2023-1047729",
    "request_type": "Trash/Recycling",
    "request_reason": "Order Trash Cart",
    "date_created": "2023-11-02T14:40:47.000",
    "date_modified": "2023-11-02T14:41:11.000",
    "request_status": "Pending",
    "responsible_agency": "Department of Sanitation",
    "final_address": "5544 Grand Bayou Dr",
    "address_councildis": "E",
    "status": "Assigned to Contractor",
    "contractor": "Waste Pro",
    "rowid": "1047729",
    "final_x": "3725031.44441",
    "final_y": "564080.163297",
    "longitude": "-89.92935594965988",
    "latitude": "30.04362975367219",
    "geocoded_column": {
      "latitude": "30.04362975367219",
      "longitude": "-89.92935594965988"
    }
  },
  {
    "service_request": "2023-1047728",
    "request_type": "Trash/Recycling",
    "request_reason": "Request a Large Item Pick Up",
    "date_created": "2023-11-02T14:39:36.000",
    "date_modified": "2023-11-02T14:39:36.000",
    "request_status": "Pending",
    "responsible_agency": "Department of Sanitation",
    "final_address": "11210 N Idlewood Ct",
    "address_councildis": "E",
    "status": "Assigned to Contractor",
    "contractor": "Waste Pro",
    "rowid": "1047728",
    "final_x": "3716144.48428",
    "final_y": "560169.947165",
    "longitude": "-89.95759062022891",
    "latitude": "30.033174650962454",
    "geocoded_column": {
      "latitude": "30.033174650962454",
      "longitude": "-89.95759062022891"
    }
  },
  {
    "service_request": "2023-1047727",
    "request_type": "Taxi Issues",
    "request_reason": "Taxi Complaint",
    "date_created": "2023-11-02T14:39:19.000",
    "date_modified": "2023-11-02T14:39:20.000",
    "request_status": "Pending",
    "responsible_agency": "Ground Transportation Bureau",
    "final_address": "601 Loyola Ave",
    "address_councildis": "B",
    "status": "Pending",
    "rowid": "1047727",
    "final_x": "3678884.56987",
    "final_y": "529323.933185",
    "longitude": "-90.07640497564194",
    "latitude": "29.949536388012802",
    "geocoded_column": {
      "latitude": "29.949536388012802",
      "longitude": "-90.07640497564194"
    }
  },
  {
    "service_request": "2023-1047726",
    "request_type": "Trash/Recycling",
    "request_reason": "Order Trash Cart",
    "date_created": "2023-11-02T14:34:00.000",
    "date_modified": "2023-11-02T14:34:00.000",
    "request_status": "Pending",
    "responsible_agency": "Department of Sanitation",
    "final_address": "219 40Th St",
    "address_councildis": "A",
    "status": "Assigned to Contractor",
    "contractor": "IV Waste",
    "rowid": "1047726",
    "final_x": "3665948.15008",
    "final_y": "553357.957719",
    "longitude": "-90.11644533392814",
    "latitude": "30.016005702471855",
    "geocoded_column": {
      "latitude": "30.016005702471855",
      "longitude": "-90.11644533392814"
    }
  },
  {
    "service_request": "2023-1047725",
    "request_type": "Trash/Recycling",
    "request_reason": "Replace Trash Cart",
    "date_created": "2023-11-02T14:33:49.000",
    "date_modified": "2023-11-02T14:33:50.000",
    "request_status": "Pending",
    "responsible_agency": "Department of Sanitation",
    "final_address": "1914 Fern St",
    "address_councildis": "A",
    "status": "Assigned to Contractor",
    "contractor": "Richards Disposal",
    "rowid": "1047725",
    "final_x": "3664250.11424",
    "final_y": "529797.660097",
    "longitude": "-90.12259695882295",
    "latitude": "29.95127228119527",
    "geocoded_column": {
      "latitude": "29.95127228119527",
      "longitude": "-90.12259695882295"
    }
  },
  {
    "service_request": "2023-1047724",
    "request_type": "Trash/Recycling",
    "request_reason": "Request a Large Item Pick Up",
    "date_created": "2023-11-02T14:32:32.000",
    "date_modified": "2023-11-02T14:32:33.000",
    "request_status": "Pending",
    "responsible_agency": "Department of Sanitation",
    "final_address": "3426 Elysian Fields Ave",
    "address_councildis": "D",
    "status": "Assigned to Contractor",
    "contractor": "IV Waste",
    "rowid": "1047724",
    "final_x": "3684164.91036",
    "final_y": "545384.37512",
    "longitude": "-90.059168692222",
    "latitude": "29.99353669643361",
    "geocoded_column": {
      "latitude": "29.99353669643361",
      "longitude": "-90.059168692222"
    }
  },
  {
    "service_request": "2023-1047723",
    "request_type": "Roads/Drainage",
    "request_reason": "Pothole",
    "date_created": "2023-11-02T14:26:22.000",
    "date_modified": "2023-11-02T14:26:22.000",
    "request_status": "Pending",
    "responsible_agency": "Department of Public Works",
    "final_address": "2326 Holiday Dr",
    "address_councildis": "C",
    "status": "Pending",
    "rowid": "1047723",
    "final_x": "3698951.64836",
    "final_y": "522751.404922",
    "longitude": "-90.0132836097515",
    "latitude": "29.930843696750383",
    "geocoded_column": {
      "latitude": "29.930843696750383",
      "longitude": "-90.0132836097515"
    }
  },
  {
    "service_request": "2023-1047722",
    "request_type": "Trash/Recycling",
    "request_reason": "Request a Large Item Pick Up",
    "date_created": "2023-11-02T14:25:00.000",
    "date_modified": "2023-11-02T14:25:01.000",
    "request_status": "Pending",
    "responsible_agency": "Department of Sanitation",
    "final_address": "7425 Strathmore Dr",
    "address_councildis": "E",
    "status": "Assigned to Contractor",
    "contractor": "Waste Pro",
    "rowid": "1047722",
    "final_x": "3714800.60491",
    "final_y": "566671.308451",
    "longitude": "-89.96159141225273",
    "latitude": "30.05109506153823",
    "geocoded_column": {
      "latitude": "30.05109506153823",
      "longitude": "-89.96159141225273"
    }
  },
  {
    "service_request": "2023-1047721",
    "request_type": "Trash/Recycling",
    "request_reason": "Dead Animal Pick Up",
    "date_created": "2023-11-02T14:23:48.000",
    "date_modified": "2023-11-02T14:23:49.000",
    "request_status": "Pending",
    "responsible_agency": "Department of Sanitation",
    "final_address": "ST CLAUDE AVE & FLOOD ST",
    "address_councildis": "E",
    "status": "Assigned to Contractor",
    "contractor": "Waste Pro",
    "rowid": "1047721",
    "final_x": "3697704.8",
    "final_y": "533837.38",
    "longitude": "-90.01681761638523",
    "latitude": "29.961365692599365",
    "geocoded_column": {
      "latitude": "29.961365692599365",
      "longitude": "-90.01681761638523"
    }
  },
  {
    "service_request": "2023-1047720",
    "request_type": "Trash/Recycling",
    "request_reason": "Request a Large Item Pick Up",
    "date_created": "2023-11-02T14:21:38.000",
    "date_modified": "2023-11-02T14:21:39.000",
    "request_status": "Pending",
    "responsible_agency": "Department of Sanitation",
    "final_address": "3929 Mithra St",
    "address_councildis": "D",
    "status": "Assigned to Contractor",
    "contractor": "IV Waste",
    "rowid": "1047720",
    "final_x": "3688611.86179",
    "final_y": "553092.045527",
    "longitude": "-90.04484772419288",
    "latitude": "30.014593260488443",
    "geocoded_column": {
      "latitude": "30.014593260488443",
      "longitude": "-90.04484772419288"
    }
  },
  {
    "service_request": "2023-1047719",
    "request_type": "Trash/Recycling",
    "request_reason": "Illegal Dumping",
    "date_created": "2023-11-02T14:13:23.000",
    "date_modified": "2023-11-02T14:13:23.000",
    "request_status": "Pending",
    "responsible_agency": "Department of Sanitation",
    "final_address": "1729 Shirley Dr",
    "address_councildis": "C",
    "status": "Pending",
    "rowid": "1047719",
    "final_x": "3692911.17731",
    "final_y": "523754.343739",
    "longitude": "-90.03231650218923",
    "latitude": "29.93379140029755",
    "geocoded_column": {
      "latitude": "29.93379140029755",
      "longitude": "-90.03231650218923"
    }
  },
  {
    "service_request": "2023-1047718",
    "request_type": "Traffic Signals/Signs/Striping/Streetlights",
    "request_reason": "Street Light Knocked Down/Leaning",
    "date_created": "2023-11-02T14:03:34.000",
    "date_modified": "2023-11-02T14:18:00.000",
    "request_status": "Pending",
    "responsible_agency": "Department of Public Works",
    "final_address": "7816 Hayne Blvd",
    "address_councildis": "E",
    "status": "Pending",
    "contractor": "Legacy Professional Services",
    "rowid": "1047718",
    "final_x": "3701179.37393",
    "final_y": "562190.348319",
    "longitude": "-90.00480751215733",
    "latitude": "30.039215519750535",
    "geocoded_column": {
      "latitude": "30.039215519750535",
      "longitude": "-90.00480751215733"
    }
  },
  {
    "service_request": "2023-1047717",
    "request_type": "Trash/Recycling",
    "request_reason": "Replace Trash Cart",
    "date_created": "2023-11-02T13:58:32.000",
    "date_modified": "2023-11-02T13:58:32.000",
    "request_status": "Pending",
    "responsible_agency": "Department of Sanitation",
    "final_address": "2815 Aubry St",
    "address_councildis": "D",
    "status": "Assigned to Contractor",
    "contractor": "IV Waste",
    "rowid": "1047717",
    "final_x": "3679109.43714",
    "final_y": "541601.815116",
    "longitude": "-90.07526933184889",
    "latitude": "29.98328958769813",
    "geocoded_column": {
      "latitude": "29.98328958769813",
      "longitude": "-90.07526933184889"
    }
  },
  {
    "service_request": "2023-1047716",
    "request_type": "Trash/Recycling",
    "request_reason": "Missed Trash Pick-Up",
    "date_created": "2023-11-02T13:52:53.000",
    "date_modified": "2023-11-02T15:48:52.000",
    "case_close_date": "2023-11-02T10:48:52.000",
    "request_status": "Closed",
    "responsible_agency": "Department of Sanitation",
    "final_address": "2301 Loyola Ave",
    "address_councildis": "B",
    "status": "Resolved",
    "contractor": "Richards Disposal",
    "contractor_action": "Completed",
    "rowid": "1047716",
    "final_x": "3675921.99419",
    "final_y": "525134.912701",
    "longitude": "-90.08590316662502",
    "latitude": "29.938106990233003",
    "geocoded_column": {
      "latitude": "29.938106990233003",
      "longitude": "-90.08590316662502"
    }
  },
  {
    "service_request": "2023-1047715",
    "request_type": "Trash/Recycling",
    "request_reason": "Replace Trash Cart",
    "date_created": "2023-11-02T13:51:39.000",
    "date_modified": "2023-11-02T13:51:40.000",
    "request_status": "Pending",
    "responsible_agency": "Department of Sanitation",
    "final_address": "2728 Bruxelles St",
    "address_councildis": "D",
    "status": "Assigned to Contractor",
    "contractor": "IV Waste",
    "rowid": "1047715",
    "final_x": "3680290.31317",
    "final_y": "542462.391885",
    "longitude": "-90.0715095802014",
    "latitude": "29.985620170096446",
    "geocoded_column": {
      "latitude": "29.985620170096446",
      "longitude": "-90.0715095802014"
    }
  },
  {
    "service_request": "2023-1047714",
    "request_type": "Trash/Recycling",
    "request_reason": "MIssed Recycling Pick-Up",
    "date_created": "2023-11-02T13:45:38.000",
    "date_modified": "2023-11-02T13:45:39.000",
    "request_status": "Pending",
    "responsible_agency": "Department of Sanitation",
    "final_address": "11151 S Parkwood Ct",
    "address_councildis": "E",
    "status": "Assigned to Contractor",
    "contractor": "Waste Pro",
    "rowid": "1047714",
    "final_x": "3716503.87826",
    "final_y": "558949.283612",
    "longitude": "-89.95650126309059",
    "latitude": "30.029806446392488",
    "geocoded_column": {
      "latitude": "30.029806446392488",
      "longitude": "-89.95650126309059"
    }
  },
  {
    "service_request": "2023-1047713",
    "request_type": "Trash/Recycling",
    "request_reason": "Request a Large Item Pick Up",
    "date_created": "2023-11-02T13:45:03.000",
    "date_modified": "2023-11-02T13:45:04.000",
    "request_status": "Pending",
    "responsible_agency": "Department of Sanitation",
    "final_address": "3233 St Philip St",
    "address_councildis": "A",
    "status": "Assigned to Contractor",
    "contractor": "Richards Disposal",
    "rowid": "1047713",
    "final_x": "3675464.68782",
    "final_y": "539395.052298",
    "longitude": "-90.08685717970607",
    "latitude": "29.977331278605547",
    "geocoded_column": {
      "latitude": "29.977331278605547",
      "longitude": "-90.08685717970607"
    }
  },
  {
    "service_request": "2023-1047712",
    "request_type": "Trash/Recycling",
    "request_reason": "Order Trash Cart",
    "date_created": "2023-11-02T13:35:52.000",
    "date_modified": "2023-11-02T13:35:53.000",
    "request_status": "Pending",
    "responsible_agency": "Department of Sanitation",
    "final_address": "3022 Delachaise St A",
    "address_councildis": "B",
    "status": "Assigned to Contractor",
    "contractor": "Richards Disposal",
    "rowid": "1047712",
    "final_x": "3671748.69012",
    "final_y": "526321.616062",
    "longitude": "-90.09903833425366",
    "latitude": "29.941494304887982",
    "geocoded_column": {
      "latitude": "29.941494304887982",
      "longitude": "-90.09903833425366"
    }
  },
  {
    "service_request": "2023-1047711",
    "request_type": "Trash/Recycling",
    "request_reason": "MIssed Recycling Pick-Up",
    "date_created": "2023-11-02T13:35:27.000",
    "date_modified": "2023-11-02T16:32:56.000",
    "case_close_date": "2023-11-02T11:32:56.000",
    "request_status": "Closed",
    "responsible_agency": "Department of Sanitation",
    "final_address": "1815 Dumaine St",
    "address_councildis": "D",
    "status": "Resolved",
    "contractor": "Richards Disposal",
    "contractor_action": "Completed",
    "rowid": "1047711",
    "final_x": "3679827.44815",
    "final_y": "535532.284422",
    "longitude": "-90.0732123076612",
    "latitude": "29.96657877813849",
    "geocoded_column": {
      "latitude": "29.96657877813849",
      "longitude": "-90.0732123076612"
    }
  },
  {
    "service_request": "2023-1047709",
    "request_type": "Trash/Recycling",
    "request_reason": "Request a Large Item Pick Up",
    "date_created": "2023-11-02T13:25:17.000",
    "date_modified": "2023-11-02T13:25:17.000",
    "request_status": "Pending",
    "responsible_agency": "Department of Sanitation",
    "final_address": "432 14Th St",
    "address_councildis": "A",
    "status": "Assigned to Contractor",
    "contractor": "IV Waste",
    "rowid": "1047709",
    "final_x": "3664494.42266",
    "final_y": "548120.031954",
    "longitude": "-90.12121355506527",
    "latitude": "30.001645593735713",
    "geocoded_column": {
      "latitude": "30.001645593735713",
      "longitude": "-90.12121355506527"
    }
  },
  {
    "service_request": "2023-1047708",
    "request_type": "Trash/Recycling",
    "request_reason": "Request a Large Item Pick Up",
    "date_created": "2023-11-02T13:24:12.000",
    "date_modified": "2023-11-02T13:24:13.000",
    "request_status": "Pending",
    "responsible_agency": "Department of Sanitation",
    "final_address": "3225 Gravier St",
    "address_councildis": "B",
    "status": "Assigned to Contractor",
    "contractor": "Richards Disposal",
    "rowid": "1047708",
    "final_x": "3672161.36155",
    "final_y": "534375.476997",
    "longitude": "-90.09746119097116",
    "latitude": "29.963627533146266",
    "geocoded_column": {
      "latitude": "29.963627533146266",
      "longitude": "-90.09746119097116"
    }
  },
  {
    "service_request": "2023-1047707",
    "request_type": "Trash/Recycling",
    "request_reason": "Missed Trash Pick-Up",
    "date_created": "2023-11-02T13:18:22.000",
    "date_modified": "2023-11-02T14:45:26.000",
    "case_close_date": "2023-11-02T09:45:26.000",
    "request_status": "Closed",
    "responsible_agency": "Department of Sanitation",
    "final_address": "2320 Constance St",
    "address_councildis": "B",
    "status": "Resolved",
    "contractor": "Richards Disposal",
    "contractor_action": "Completed",
    "rowid": "1047707",
    "final_x": "3678639.19592",
    "final_y": "521411.457593",
    "longitude": "-90.07745355703689",
    "latitude": "29.92778709306982",
    "geocoded_column": {
      "latitude": "29.92778709306982",
      "longitude": "-90.07745355703689"
    }
  },
  {
    "service_request": "2023-1047706",
    "request_type": "Roads/Drainage",
    "request_reason": "Street Subsidence (Sinking)",
    "date_created": "2023-11-02T13:15:48.000",
    "date_modified": "2023-11-02T13:15:49.000",
    "request_status": "Pending",
    "responsible_agency": "Department of Public Works",
    "final_address": "913 Pacific Ave",
    "address_councildis": "C",
    "status": "Pending",
    "rowid": "1047706",
    "final_x": "3688377.65539",
    "final_y": "528170.269568",
    "longitude": "-90.0464720129731",
    "latitude": "29.946074459115962",
    "geocoded_column": {
      "latitude": "29.946074459115962",
      "longitude": "-90.0464720129731"
    }
  },
  {
    "service_request": "2023-1047705",
    "request_type": "Abandoned Vehicles",
    "request_reason": "Abandoned/Junk Vehicles",
    "date_created": "2023-11-02T13:10:12.000",
    "date_modified": "2023-11-02T13:10:12.000",
    "request_status": "Pending",
    "responsible_agency": "Department of Public Works",
    "final_address": "8010 Trapier Ave",
    "address_councildis": "E",
    "status": "Pending",
    "rowid": "1047705",
    "final_x": "3705933.59518",
    "final_y": "564614.909601",
    "longitude": "-89.98969306482903",
    "latitude": "30.04572967978005",
    "geocoded_column": {
      "latitude": "30.04572967978005",
      "longitude": "-89.98969306482903"
    }
  },
  {
    "service_request": "2023-1047704",
    "request_type": "Roads/Drainage",
    "request_reason": "Damaged Sidewalk",
    "date_created": "2023-11-02T13:06:28.000",
    "date_modified": "2023-11-02T13:06:28.000",
    "request_status": "Pending",
    "responsible_agency": "Department of Public Works",
    "final_address": "4820 N Prieur St",
    "address_councildis": "E",
    "status": "Pending",
    "rowid": "1047704",
    "final_x": "3696055.37501",
    "final_y": "537396.487432",
    "longitude": "-90.02189755304026",
    "latitude": "29.971203978047985",
    "geocoded_column": {
      "latitude": "29.971203978047985",
      "longitude": "-90.02189755304026"
    }
  },
  {
    "service_request": "2023-1047703",
    "request_type": "Trash/Recycling",
    "request_reason": "Illegal Dumping",
    "date_created": "2023-11-02T12:55:07.000",
    "date_modified": "2023-11-02T12:55:08.000",
    "request_status": "Pending",
    "responsible_agency": "Department of Sanitation",
    "final_address": "6700 Plaza Dr",
    "address_councildis": "E",
    "status": "Pending",
    "rowid": "1047703",
    "final_x": "3708600.87569",
    "final_y": "559744.969757",
    "longitude": "-89.98144479994687",
    "latitude": "30.032253010900185",
    "geocoded_column": {
      "latitude": "30.032253010900185",
      "longitude": "-89.98144479994687"
    }
  },
  {
    "service_request": "2023-1047702",
    "request_type": "Utility Poles",
    "request_reason": "Utility Pole Leaning",
    "date_created": "2023-11-02T12:54:28.000",
    "date_modified": "2023-11-02T12:54:30.000",
    "request_status": "Pending",
    "responsible_agency": "Utility Company Collective",
    "final_address": "1400 BLK Lamarque St",
    "address_councildis": "C",
    "status": "Pending",
    "rowid": "1047702",
    "final_x": "3689897.29537",
    "final_y": "526607.906218",
    "longitude": "-90.04172961008526",
    "latitude": "29.941731478864664",
    "geocoded_column": {
      "latitude": "29.941731478864664",
      "longitude": "-90.04172961008526"
    }
  },
  {
    "service_request": "2023-1047701",
    "request_type": "Health Related Request",
    "request_reason": "Noise Ordinance Complaint",
    "date_created": "2023-11-02T12:52:04.000",
    "date_modified": "2023-11-02T12:52:04.000",
    "request_status": "Pending",
    "responsible_agency": "Health Department",
    "final_address": "6201 Elysian Fields Ave",
    "address_councildis": "D",
    "status": "Pending",
    "rowid": "1047701",
    "final_x": "3683605.97116",
    "final_y": "555974.068121",
    "longitude": "-90.06056272436395",
    "latitude": "30.022671594683796",
    "geocoded_column": {
      "latitude": "30.022671594683796",
      "longitude": "-90.06056272436395"
    }
  },
  {
    "service_request": "2023-1047700",
    "request_type": "Property Maintenance",
    "request_reason": "Property Maintenance",
    "date_created": "2023-11-02T12:49:57.000",
    "date_modified": "2023-11-02T12:49:57.000",
    "request_status": "Pending",
    "responsible_agency": "Department of Code Enforcement",
    "final_address": "1840 Deslonde St",
    "address_councildis": "E",
    "status": "Pending",
    "rowid": "1047700",
    "final_x": "3696158.29712",
    "final_y": "537344.93844",
    "longitude": "-90.02157437633733",
    "latitude": "29.971058997368544",
    "geocoded_column": {
      "latitude": "29.971058997368544",
      "longitude": "-90.02157437633733"
    }
  },
  {
    "service_request": "2023-1047699",
    "request_type": "Parks & Parkways",
    "request_reason": "Request Tree Service (Right of Way/Public Property)",
    "date_created": "2023-11-02T12:47:07.000",
    "date_modified": "2023-11-02T12:47:07.000",
    "request_status": "Pending",
    "responsible_agency": "Department of Parks & Parkway",
    "final_address": "1331 Sixth St",
    "address_councildis": "B",
    "status": "Pending",
    "rowid": "1047699",
    "final_x": "3676093.71905",
    "final_y": "521405.140089",
    "longitude": "-90.0854892500147",
    "latitude": "29.927846190488818",
    "geocoded_column": {
      "latitude": "29.927846190488818",
      "longitude": "-90.0854892500147"
    }
  },
  {
    "service_request": "2023-1047698",
    "request_type": "Traffic Signals/Signs/Striping/Streetlights",
    "request_reason": "Street Light Outage/Malfunction",
    "date_created": "2023-11-02T12:45:26.000",
    "date_modified": "2023-11-02T12:45:27.000",
    "request_status": "Pending",
    "responsible_agency": "Department of Public Works",
    "final_address": "5701 Cartier Ave",
    "address_councildis": "D",
    "status": "Assigned to Contractor",
    "contractor": "Legacy Professional Services",
    "rowid": "1047698",
    "final_x": "3677570.29634",
    "final_y": "553447.761687",
    "longitude": "-90.0797213926865",
    "latitude": "30.01590812850912",
    "geocoded_column": {
      "latitude": "30.01590812850912",
      "longitude": "-90.0797213926865"
    }
  },
  {
    "service_request": "2023-1047697",
    "request_type": "Trash/Recycling",
    "request_reason": "Order Recycling Cart",
    "date_created": "2023-11-02T12:42:32.000",
    "date_modified": "2023-11-02T12:42:32.000",
    "request_status": "Pending",
    "responsible_agency": "Department of Sanitation",
    "final_address": "923 Elysian Fields Ave Unit B",
    "address_councildis": "C",
    "status": "Pending",
    "rowid": "1047697",
    "final_x": "3685176.99356",
    "final_y": "535782.479559",
    "longitude": "-90.05630971842886",
    "latitude": "29.967103879069974",
    "geocoded_column": {
      "latitude": "29.967103879069974",
      "longitude": "-90.05630971842886"
    }
  },
  {
    "service_request": "2023-1047696",
    "request_type": "Property Maintenance",
    "request_reason": "Property Maintenance",
    "date_created": "2023-11-02T12:40:22.000",
    "date_modified": "2023-11-02T12:40:23.000",
    "request_status": "Pending",
    "responsible_agency": "Department of Code Enforcement",
    "final_address": "8322 Palm St",
    "address_councildis": "A",
    "status": "Pending",
    "rowid": "1047696",
    "final_x": "3667003.92148",
    "final_y": "535266.352838",
    "longitude": "-90.11371797155165",
    "latitude": "29.966229093857677",
    "geocoded_column": {
      "latitude": "29.966229093857677",
      "longitude": "-90.11371797155165"
    }
  },
  {
    "service_request": "2023-1047695",
    "request_type": "Trash/Recycling",
    "request_reason": "Order Recycling Cart",
    "date_created": "2023-11-02T12:36:08.000",
    "date_modified": "2023-11-02T12:36:57.000",
    "request_status": "Pending",
    "responsible_agency": "Department of Sanitation",
    "final_address": "4316 St Anthony Ave",
    "address_councildis": "D",
    "status": "Pending",
    "rowid": "1047695",
    "final_x": "3682399.18306",
    "final_y": "548532.745682",
    "longitude": "-90.06463622857191",
    "latitude": "30.002247462383846",
    "geocoded_column": {
      "latitude": "30.002247462383846",
      "longitude": "-90.06463622857191"
    }
  },
  {
    "service_request": "2023-1047694",
    "request_type": "Traffic Signals/Signs/Striping/Streetlights",
    "request_reason": "Street Light Outage/Malfunction",
    "date_created": "2023-11-02T12:34:59.000",
    "date_modified": "2023-11-02T12:35:00.000",
    "request_status": "Pending",
    "responsible_agency": "Department of Public Works",
    "final_address": "4316 St Anthony Ave",
    "address_councildis": "D",
    "status": "Assigned to Contractor",
    "contractor": "Legacy Professional Services",
    "rowid": "1047694",
    "final_x": "3682399.18306",
    "final_y": "548532.745682",
    "longitude": "-90.06463622857191",
    "latitude": "30.002247462383846",
    "geocoded_column": {
      "latitude": "30.002247462383846",
      "longitude": "-90.06463622857191"
    }
  },
  {
    "service_request": "2023-1047693",
    "request_type": "Traffic Signals/Signs/Striping/Streetlights",
    "request_reason": "Street Light Outage/Malfunction",
    "date_created": "2023-11-02T12:34:22.000",
    "date_modified": "2023-11-02T14:06:29.000",
    "case_close_date": "2023-11-02T09:06:29.000",
    "request_status": "Closed",
    "responsible_agency": "Department of Public Works",
    "final_address": "4316 St Anthony Ave",
    "address_councildis": "D",
    "status": "Duplicate Request",
    "contractor": "Legacy Professional Services",
    "rowid": "1047693",
    "final_x": "3682399.18306",
    "final_y": "548532.745682",
    "longitude": "-90.06463622857191",
    "latitude": "30.002247462383846",
    "geocoded_column": {
      "latitude": "30.002247462383846",
      "longitude": "-90.06463622857191"
    }
  },
  {
    "service_request": "2023-1047692",
    "request_type": "Mosquito, Termite & Rodent Control",
    "request_reason": "Rodent Complaint (Rats)",
    "date_created": "2023-11-02T12:32:25.000",
    "date_modified": "2023-11-02T12:32:26.000",
    "request_status": "Pending",
    "responsible_agency": "Mosquito, Termite & Rodent Control Board",
    "final_address": "5142 Chamberlain Dr",
    "address_councildis": "D",
    "status": "Pending",
    "rowid": "1047692",
    "final_x": "3679468.5389",
    "final_y": "551285.559189",
    "longitude": "-90.07379889038431",
    "latitude": "30.00990561111516",
    "geocoded_column": {
      "latitude": "30.00990561111516",
      "longitude": "-90.07379889038431"
    }
  },
  {
    "service_request": "2023-1047691",
    "request_type": "Trash/Recycling",
    "request_reason": "Repair Trash Cart",
    "date_created": "2023-11-02T12:26:44.000",
    "date_modified": "2023-11-02T12:26:45.000",
    "request_status": "Pending",
    "responsible_agency": "Department of Sanitation",
    "final_address": "4625 Erickson Ave",
    "address_councildis": "C",
    "status": "Assigned to Contractor",
    "contractor": "Richards Disposal",
    "rowid": "1047691",
    "final_x": "3702118.65809",
    "final_y": "519423.100407",
    "longitude": "-90.00340782393812",
    "latitude": "29.921591308831466",
    "geocoded_column": {
      "latitude": "29.921591308831466",
      "longitude": "-90.00340782393812"
    }
  },
  {
    "service_request": "2023-1047690",
    "request_type": "Trash/Recycling",
    "request_reason": "Request a Large Item Pick Up",
    "date_created": "2023-11-02T12:25:42.000",
    "date_modified": "2023-11-02T12:25:42.000",
    "request_status": "Pending",
    "responsible_agency": "Department of Sanitation",
    "final_address": "2226 Burgundy St",
    "address_councildis": "C",
    "status": "Assigned to Contractor",
    "contractor": "IV Waste",
    "rowid": "1047690",
    "final_x": "3685343.30722",
    "final_y": "535574.711238",
    "longitude": "-90.05579181515296",
    "latitude": "29.966527490566225",
    "geocoded_column": {
      "latitude": "29.966527490566225",
      "longitude": "-90.05579181515296"
    }
  },
  {
    "service_request": "2023-1047689",
    "request_type": "Trash/Recycling",
    "request_reason": "MIssed Recycling Pick-Up",
    "date_created": "2023-11-02T12:23:34.000",
    "date_modified": "2023-11-02T16:32:13.000",
    "case_close_date": "2023-11-02T11:32:13.000",
    "request_status": "Closed",
    "responsible_agency": "Department of Sanitation",
    "final_address": "609 Eleonore St",
    "address_councildis": "A",
    "status": "Resolved",
    "contractor": "Richards Disposal",
    "contractor_action": "Completed",
    "rowid": "1047689",
    "final_x": "3665134.981",
    "final_y": "518484.693558",
    "longitude": "-90.12018116679658",
    "latitude": "29.920139485356092",
    "geocoded_column": {
      "latitude": "29.920139485356092",
      "longitude": "-90.12018116679658"
    }
  },
  {
    "service_request": "2023-1047688",
    "request_type": "Trash/Recycling",
    "request_reason": "Request a Large Item Pick Up",
    "date_created": "2023-11-02T12:23:29.000",
    "date_modified": "2023-11-02T12:23:30.000",
    "request_status": "Pending",
    "responsible_agency": "Department of Sanitation",
    "final_address": "4226 Jena St",
    "address_councildis": "A",
    "status": "Assigned to Contractor",
    "contractor": "Richards Disposal",
    "rowid": "1047688",
    "final_x": "3669327.5401",
    "final_y": "528922.74304",
    "longitude": "-90.10659448340216",
    "latitude": "29.948718049187242",
    "geocoded_column": {
      "latitude": "29.948718049187242",
      "longitude": "-90.10659448340216"
    }
  },
  {
    "service_request": "2023-1047687",
    "request_type": "Trash/Recycling",
    "request_reason": "Request a Large Item Pick Up",
    "date_created": "2023-11-02T12:15:32.000",
    "date_modified": "2023-11-02T12:15:33.000",
    "request_status": "Pending",
    "responsible_agency": "Department of Sanitation",
    "final_address": "605 River Oaks Dr",
    "address_councildis": "C",
    "status": "Assigned to Contractor",
    "contractor": "Richards Disposal",
    "rowid": "1047687",
    "final_x": "3701451.84183",
    "final_y": "520706.946233",
    "longitude": "-90.00546569671816",
    "latitude": "29.92514270686297",
    "geocoded_column": {
      "latitude": "29.92514270686297",
      "longitude": "-90.00546569671816"
    }
  },
  {
    "service_request": "2023-1047686",
    "request_type": "Trash/Recycling",
    "request_reason": "Order Trash Cart",
    "date_created": "2023-11-02T12:12:53.000",
    "date_modified": "2023-11-02T12:12:54.000",
    "request_status": "Pending",
    "responsible_agency": "Department of Sanitation",
    "final_address": "1938 Jo Ann Pl",
    "address_councildis": "C",
    "status": "Assigned to Contractor",
    "contractor": "Richards Disposal",
    "rowid": "1047686",
    "final_x": "3695032.73021",
    "final_y": "523470.121467",
    "longitude": "-90.02562913169758",
    "latitude": "29.932943480065372",
    "geocoded_column": {
      "latitude": "29.932943480065372",
      "longitude": "-90.02562913169758"
    }
  },
  {
    "service_request": "2023-1047685",
    "request_type": "Trash/Recycling",
    "request_reason": "Repair Trash Cart",
    "date_created": "2023-11-02T12:10:18.000",
    "date_modified": "2023-11-02T12:10:19.000",
    "request_status": "Pending",
    "responsible_agency": "Department of Sanitation",
    "final_address": "4821 Dixon St",
    "address_councildis": "B",
    "status": "Assigned to Contractor",
    "contractor": "Richards Disposal",
    "rowid": "1047685",
    "final_x": "3670130.677",
    "final_y": "534156.503493",
    "longitude": "-90.10388132103695",
    "latitude": "29.963085496842897",
    "geocoded_column": {
      "latitude": "29.963085496842897",
      "longitude": "-90.10388132103695"
    }
  },
  {
    "service_request": "2023-1047684",
    "request_type": "Roads/Drainage",
    "request_reason": "Pothole",
    "date_created": "2023-11-02T12:08:03.000",
    "date_modified": "2023-11-02T15:56:32.000",
    "case_close_date": "2023-11-01T19:00:00.000",
    "request_status": "Closed",
    "responsible_agency": "Department of Public Works",
    "final_address": "LEON C SIMON DR & MUSIC ST",
    "address_councildis": "D",
    "status": "Duplicate Request",
    "rowid": "1047684",
    "final_x": "3685371.3",
    "final_y": "557150.18",
    "longitude": "-90.05494324603646",
    "latitude": "30.025851431157097",
    "geocoded_column": {
      "latitude": "30.025851431157097",
      "longitude": "-90.05494324603646"
    }
  },
  {
    "service_request": "2023-1047682",
    "request_type": "Traffic Signals/Signs/Striping/Streetlights",
    "request_reason": "Street Light Outage/Malfunction",
    "date_created": "2023-11-02T12:05:00.000",
    "date_modified": "2023-11-02T12:05:01.000",
    "request_status": "Pending",
    "responsible_agency": "Department of Public Works",
    "final_address": "3143 Yupon St",
    "address_councildis": "D",
    "status": "Assigned to Contractor",
    "contractor": "Legacy Professional Services",
    "rowid": "1047682",
    "final_x": "3675637.86293",
    "final_y": "544055.971086",
    "longitude": "-90.0861500079001",
    "latitude": "29.99014201445666",
    "geocoded_column": {
      "latitude": "29.99014201445666",
      "longitude": "-90.0861500079001"
    }
  },
  {
    "service_request": "2023-1047681",
    "request_type": "Trash/Recycling",
    "request_reason": "Request a Large Item Pick Up",
    "date_created": "2023-11-02T12:04:25.000",
    "date_modified": "2023-11-02T12:04:26.000",
    "request_status": "Pending",
    "responsible_agency": "Department of Sanitation",
    "final_address": "7440 Alabama St",
    "address_councildis": "D",
    "status": "Assigned to Contractor",
    "contractor": "Waste Pro",
    "rowid": "1047681",
    "final_x": "3695001.17603",
    "final_y": "558056.641883",
    "longitude": "-90.02448154306744",
    "latitude": "30.028044924776378",
    "geocoded_column": {
      "latitude": "30.028044924776378",
      "longitude": "-90.02448154306744"
    }
  },
  {
    "service_request": "2023-1047680",
    "request_type": "Trash/Recycling",
    "request_reason": "Order Trash Cart",
    "date_created": "2023-11-02T12:02:21.000",
    "date_modified": "2023-11-02T12:02:21.000",
    "request_status": "Pending",
    "responsible_agency": "Department of Sanitation",
    "final_address": "7901 Haney Dr",
    "address_councildis": "E",
    "status": "Assigned to Contractor",
    "contractor": "Waste Pro",
    "rowid": "1047680",
    "final_x": "3712126.80958",
    "final_y": "568037.545189",
    "longitude": "-89.96999092408602",
    "latitude": "30.0549393984319",
    "geocoded_column": {
      "latitude": "30.0549393984319",
      "longitude": "-89.96999092408602"
    }
  },
  {
    "service_request": "2023-1047679",
    "request_type": "Trash/Recycling",
    "request_reason": "Repair Trash Cart",
    "date_created": "2023-11-02T12:00:26.000",
    "date_modified": "2023-11-02T12:00:27.000",
    "request_status": "Pending",
    "responsible_agency": "Department of Sanitation",
    "final_address": "326 S White St",
    "address_councildis": "B",
    "status": "Assigned to Contractor",
    "contractor": "Richards Disposal",
    "rowid": "1047679",
    "final_x": "3674299.50888",
    "final_y": "534627.380614",
    "longitude": "-90.09070050466292",
    "latitude": "29.96425659890453",
    "geocoded_column": {
      "latitude": "29.96425659890453",
      "longitude": "-90.09070050466292"
    }
  },
  {
    "service_request": "2023-1047678",
    "request_type": "Trash/Recycling",
    "request_reason": "Request a Large Item Pick Up",
    "date_created": "2023-11-02T11:56:10.000",
    "date_modified": "2023-11-02T11:56:11.000",
    "request_status": "Pending",
    "responsible_agency": "Department of Sanitation",
    "final_address": "4804 Crowder Blvd",
    "address_councildis": "E",
    "status": "Assigned to Contractor",
    "contractor": "Waste Pro",
    "rowid": "1047678",
    "final_x": "3706295.12011",
    "final_y": "555980.839641",
    "longitude": "-89.98887065598569",
    "latitude": "30.02197772026598",
    "geocoded_column": {
      "latitude": "30.02197772026598",
      "longitude": "-89.98887065598569"
    }
  },
  {
    "service_request": "2023-1047677",
    "request_type": "Property Maintenance",
    "request_reason": "Property Maintenance",
    "date_created": "2023-11-02T11:55:59.000",
    "date_modified": "2023-11-02T11:56:00.000",
    "request_status": "Pending",
    "responsible_agency": "Department of Code Enforcement",
    "final_address": "3032 Second St",
    "address_councildis": "B",
    "status": "Pending",
    "rowid": "1047677",
    "final_x": "3673729.60443",
    "final_y": "527476.768831",
    "longitude": "-90.09274470121231",
    "latitude": "29.944611774172042",
    "geocoded_column": {
      "latitude": "29.944611774172042",
      "longitude": "-90.09274470121231"
    }
  },
  {
    "service_request": "2023-1047676",
    "request_type": "Abandoned Vehicles",
    "request_reason": "Vehicle Blocking Your Driveway",
    "date_created": "2023-11-02T11:55:33.000",
    "date_modified": "2023-11-02T11:55:33.000",
    "request_status": "Pending",
    "responsible_agency": "Department of Public Works",
    "final_address": "4312 Banks St",
    "address_councildis": "A",
    "status": "Pending",
    "rowid": "1047676",
    "final_x": "3669418.04724",
    "final_y": "538018.373257",
    "longitude": "-90.10600110029718",
    "latitude": "29.973725353766064",
    "geocoded_column": {
      "latitude": "29.973725353766064",
      "longitude": "-90.10600110029718"
    }
  },
  {
    "service_request": "2023-1047675",
    "request_type": "Trash/Recycling",
    "request_reason": "Missed Trash Pick-Up",
    "date_created": "2023-11-02T11:52:44.000",
    "date_modified": "2023-11-02T11:52:45.000",
    "request_status": "Pending",
    "responsible_agency": "Department of Sanitation",
    "final_address": "4719 Lynhuber Dr",
    "address_councildis": "D",
    "status": "Assigned to Contractor",
    "contractor": "Waste Pro",
    "rowid": "1047675",
    "final_x": "3698089.36195",
    "final_y": "554186.299672",
    "longitude": "-90.0148638522872",
    "latitude": "30.01730560257968",
    "geocoded_column": {
      "latitude": "30.01730560257968",
      "longitude": "-90.0148638522872"
    }
  },
  {
    "service_request": "2023-1047674",
    "request_type": "Trash/Recycling",
    "request_reason": "Order Trash Cart",
    "date_created": "2023-11-02T11:47:27.000",
    "date_modified": "2023-11-02T11:47:28.000",
    "request_status": "Pending",
    "responsible_agency": "Department of Sanitation",
    "final_address": "6628 Pontchartrain Blvd",
    "address_councildis": "A",
    "status": "Assigned to Contractor",
    "contractor": "IV Waste",
    "rowid": "1047674",
    "final_x": "3666276.29652",
    "final_y": "552225.700886",
    "longitude": "-90.11544655667598",
    "latitude": "30.012882806781967",
    "geocoded_column": {
      "latitude": "30.012882806781967",
      "longitude": "-90.11544655667598"
    }
  },
  {
    "service_request": "2023-1047673",
    "request_type": "Trash/Recycling",
    "request_reason": "Replace Trash Cart",
    "date_created": "2023-11-02T11:43:50.000",
    "date_modified": "2023-11-02T11:43:51.000",
    "request_status": "Pending",
    "responsible_agency": "Department of Sanitation",
    "final_address": "5463 Marais St",
    "address_councildis": "E",
    "status": "Assigned to Contractor",
    "contractor": "Waste Pro",
    "rowid": "1047673",
    "final_x": "3697766.03338",
    "final_y": "534235.086277",
    "longitude": "-90.01660982136929",
    "latitude": "29.962457308857445",
    "geocoded_column": {
      "latitude": "29.962457308857445",
      "longitude": "-90.01660982136929"
    }
  },
  {
    "service_request": "2023-1047672",
    "request_type": "Traffic Signals/Signs/Striping/Streetlights",
    "request_reason": "Street Light Outage/Malfunction",
    "date_created": "2023-11-02T11:37:05.000",
    "date_modified": "2023-11-02T11:37:06.000",
    "request_status": "Pending",
    "responsible_agency": "Department of Public Works",
    "final_address": "7718 Sandy Cove Dr",
    "address_councildis": "E",
    "status": "Assigned to Contractor",
    "contractor": "Legacy Professional Services",
    "rowid": "1047672",
    "final_x": "3715234.64543",
    "final_y": "569734.994662",
    "longitude": "-89.96010352130575",
    "latitude": "30.059504645013728",
    "geocoded_column": {
      "latitude": "30.059504645013728",
      "longitude": "-89.96010352130575"
    }
  },
  {
    "service_request": "2023-1047671",
    "request_type": "Trash/Recycling",
    "request_reason": "Request a Large Item Pick Up",
    "date_created": "2023-11-02T11:25:23.000",
    "date_modified": "2023-11-02T11:25:24.000",
    "request_status": "Pending",
    "responsible_agency": "Department of Sanitation",
    "final_address": "7824 Michigan St",
    "address_councildis": "E",
    "status": "Assigned to Contractor",
    "contractor": "Waste Pro",
    "rowid": "1047671",
    "final_x": "3711273.24274",
    "final_y": "567211.6465",
    "longitude": "-89.97271983982452",
    "latitude": "30.052696410095237",
    "geocoded_column": {
      "latitude": "30.052696410095237",
      "longitude": "-89.97271983982452"
    }
  },
  {
    "service_request": "2023-1047670",
    "request_type": "Trash/Recycling",
    "request_reason": "Repair Trash Cart",
    "date_created": "2023-11-02T11:24:52.000",
    "date_modified": "2023-11-02T11:24:53.000",
    "request_status": "Pending",
    "responsible_agency": "Department of Sanitation",
    "final_address": "7814 Burthe St",
    "address_councildis": "A",
    "status": "Assigned to Contractor",
    "contractor": "Richards Disposal",
    "rowid": "1047670",
    "final_x": "3661961.5792",
    "final_y": "526901.140286",
    "longitude": "-90.12991911285515",
    "latitude": "29.943374071387478",
    "geocoded_column": {
      "latitude": "29.943374071387478",
      "longitude": "-90.12991911285515"
    }
  },
  {
    "service_request": "2023-1047669",
    "request_type": "Trash/Recycling",
    "request_reason": "Missed Trash Pick-Up",
    "date_created": "2023-11-02T11:20:05.000",
    "date_modified": "2023-11-02T11:57:27.000",
    "case_close_date": "2023-11-02T06:57:27.000",
    "request_status": "Closed",
    "responsible_agency": "Department of Sanitation",
    "final_address": "1441 Marigny St",
    "address_councildis": "C",
    "status": "Invalid Request",
    "contractor": "IV Waste",
    "contractor_action": "Invalid Pick-Up",
    "rowid": "1047669",
    "final_x": "3685336.73698",
    "final_y": "537779.775048",
    "longitude": "-90.05573492096602",
    "latitude": "29.972590850583554",
    "geocoded_column": {
      "latitude": "29.972590850583554",
      "longitude": "-90.05573492096602"
    }
  },
  {
    "service_request": "2023-1047668",
    "request_type": "Abandoned Vehicles",
    "request_reason": "Abandoned/Junk Vehicles",
    "date_created": "2023-11-02T11:16:30.000",
    "date_modified": "2023-11-02T11:16:30.000",
    "request_status": "Pending",
    "responsible_agency": "Department of Public Works",
    "final_address": "4731 Canal St",
    "address_councildis": "A",
    "status": "Pending",
    "rowid": "1047668",
    "final_x": "3669015.67764",
    "final_y": "540110.791115",
    "longitude": "-90.10720116083343",
    "latitude": "29.97949064208057",
    "geocoded_column": {
      "latitude": "29.97949064208057",
      "longitude": "-90.10720116083343"
    }
  },
  {
    "service_request": "2023-1047667",
    "request_type": "Parks & Parkways",
    "request_reason": "Request Tree Service (Right of Way/Public Property)",
    "date_created": "2023-11-02T11:12:52.000",
    "date_modified": "2023-11-02T11:12:53.000",
    "request_status": "Pending",
    "responsible_agency": "Department of Parks & Parkway",
    "final_address": "3396 Roger Williams St",
    "address_councildis": "D",
    "status": "Pending",
    "rowid": "1047667",
    "final_x": "3676855.76853",
    "final_y": "543883.263886",
    "longitude": "-90.08230891840505",
    "latitude": "29.9896306237251",
    "geocoded_column": {
      "latitude": "29.9896306237251",
      "longitude": "-90.08230891840505"
    }
  },
  {
    "service_request": "2023-1047666",
    "request_type": "Abandoned Vehicles",
    "request_reason": "Abandoned/Junk Vehicles",
    "date_created": "2023-11-02T11:00:48.000",
    "date_modified": "2023-11-02T11:00:49.000",
    "request_status": "Pending",
    "responsible_agency": "Department of Public Works",
    "final_address": "2819 Annette St",
    "address_councildis": "D",
    "status": "Pending",
    "rowid": "1047666",
    "final_x": "3682655.53858",
    "final_y": "542633.113997",
    "longitude": "-90.06403282932618",
    "latitude": "29.98601776540078",
    "geocoded_column": {
      "latitude": "29.98601776540078",
      "longitude": "-90.06403282932618"
    }
  },
  {
    "service_request": "2023-1047665",
    "request_type": "Trash/Recycling",
    "request_reason": "Return Trash Cart",
    "date_created": "2023-11-02T11:00:05.000",
    "date_modified": "2023-11-02T11:00:06.000",
    "request_status": "Pending",
    "responsible_agency": "Department of Sanitation",
    "final_address": "1321 Dante St",
    "address_councildis": "A",
    "status": "Assigned to Contractor",
    "contractor": "Richards Disposal",
    "rowid": "1047665",
    "final_x": "3661819.59782",
    "final_y": "529236.024065",
    "longitude": "-90.13028998820234",
    "latitude": "29.949798354873224",
    "geocoded_column": {
      "latitude": "29.949798354873224",
      "longitude": "-90.13028998820234"
    }
  },
  {
    "service_request": "2023-1047664",
    "request_type": "Trash/Recycling",
    "request_reason": "Repair Trash Cart",
    "date_created": "2023-11-02T10:59:30.000",
    "date_modified": "2023-11-02T12:33:11.000",
    "case_close_date": "2023-11-02T07:33:11.000",
    "request_status": "Closed",
    "responsible_agency": "Department of Sanitation",
    "final_address": "1321 Dante St",
    "address_councildis": "A",
    "status": "Resolved",
    "contractor": "Richards Disposal",
    "rowid": "1047664",
    "final_x": "3661819.59782",
    "final_y": "529236.024065",
    "longitude": "-90.13028998820234",
    "latitude": "29.949798354873224",
    "geocoded_column": {
      "latitude": "29.949798354873224",
      "longitude": "-90.13028998820234"
    }
  },
  {
    "service_request": "2023-1047663",
    "request_type": "Trash/Recycling",
    "request_reason": "Repair Trash Cart",
    "date_created": "2023-11-02T10:58:52.000",
    "date_modified": "2023-11-02T10:58:53.000",
    "request_status": "Pending",
    "responsible_agency": "Department of Sanitation",
    "final_address": "4719 Erato St",
    "address_councildis": "B",
    "status": "Assigned to Contractor",
    "contractor": "Richards Disposal",
    "rowid": "1047663",
    "final_x": "3669453.22714",
    "final_y": "532431.047491",
    "longitude": "-90.10607899203548",
    "latitude": "29.958361033701706",
    "geocoded_column": {
      "latitude": "29.958361033701706",
      "longitude": "-90.10607899203548"
    }
  },
  {
    "service_request": "2023-1047662",
    "request_type": "Trash/Recycling",
    "request_reason": "MIssed Recycling Pick-Up",
    "date_created": "2023-11-02T10:57:44.000",
    "date_modified": "2023-11-02T16:31:42.000",
    "case_close_date": "2023-11-02T11:31:42.000",
    "request_status": "Closed",
    "responsible_agency": "Department of Sanitation",
    "final_address": "10 Palm Ter",
    "address_councildis": "B",
    "status": "Resolved",
    "contractor": "Richards Disposal",
    "contractor_action": "Completed",
    "rowid": "1047662",
    "final_x": "3671773.60148",
    "final_y": "521238.328441",
    "longitude": "-90.09913254951194",
    "latitude": "29.927516168928225",
    "geocoded_column": {
      "latitude": "29.927516168928225",
      "longitude": "-90.09913254951194"
    }
  },
  {
    "service_request": "2023-1047661",
    "request_type": "Abandoned Vehicles",
    "request_reason": "Abandoned/Junk Vehicles",
    "date_created": "2023-11-02T10:54:31.000",
    "date_modified": "2023-11-02T10:54:31.000",
    "request_status": "Pending",
    "responsible_agency": "Department of Public Works",
    "final_address": "1300 BLK Charbonnet St",
    "address_councildis": "E",
    "status": "Pending",
    "rowid": "1047661",
    "final_x": "3698866.2082",
    "final_y": "534526.556391",
    "longitude": "-90.01312503944106",
    "latitude": "29.96322393938165",
    "geocoded_column": {
      "latitude": "29.96322393938165",
      "longitude": "-90.01312503944106"
    }
  },
  {
    "service_request": "2023-1047660",
    "request_type": "Trash/Recycling",
    "request_reason": "Repair Trash Cart",
    "date_created": "2023-11-02T10:45:27.000",
    "date_modified": "2023-11-02T10:45:27.000",
    "request_status": "Pending",
    "responsible_agency": "Department of Sanitation",
    "final_address": "2349 Constance St",
    "address_councildis": "B",
    "status": "Assigned to Contractor",
    "contractor": "Richards Disposal",
    "rowid": "1047660",
    "final_x": "3678398.19739",
    "final_y": "521314.540985",
    "longitude": "-90.07821768376151",
    "latitude": "29.92752786486386",
    "geocoded_column": {
      "latitude": "29.92752786486386",
      "longitude": "-90.07821768376151"
    }
  },
  {
    "service_request": "2023-1047659",
    "request_type": "Trash/Recycling",
    "request_reason": "Order Recycling Cart",
    "date_created": "2023-11-02T10:42:57.000",
    "date_modified": "2023-11-02T10:42:58.000",
    "request_status": "Pending",
    "responsible_agency": "Department of Sanitation",
    "final_address": "6315 Patton St",
    "address_councildis": "A",
    "status": "Pending",
    "rowid": "1047659",
    "final_x": "3663096.91117",
    "final_y": "519201.378551",
    "longitude": "-90.1265905841598",
    "latitude": "29.922169321054106",
    "geocoded_column": {
      "latitude": "29.922169321054106",
      "longitude": "-90.1265905841598"
    }
  },
  {
    "service_request": "2023-1047658",
    "request_type": "Utility Poles",
    "request_reason": "Utility Pole Leaning",
    "date_created": "2023-11-02T10:39:47.000",
    "date_modified": "2023-11-02T10:39:53.000",
    "request_status": "Pending",
    "responsible_agency": "Utility Company Collective",
    "final_address": "7421 Sheffield St",
    "address_councildis": "E",
    "status": "Pending",
    "rowid": "1047658",
    "final_x": "3699493.3537",
    "final_y": "559711.864925",
    "longitude": "-90.01022623807616",
    "latitude": "30.032454294719255",
    "geocoded_column": {
      "latitude": "30.032454294719255",
      "longitude": "-90.01022623807616"
    }
  },
  {
    "service_request": "2023-1047657",
    "request_type": "Trash/Recycling",
    "request_reason": "Missed Trash Pick-Up",
    "date_created": "2023-11-02T10:34:34.000",
    "date_modified": "2023-11-02T10:34:35.000",
    "request_status": "Pending",
    "responsible_agency": "Department of Sanitation",
    "final_address": "5450 Dauphine St",
    "address_councildis": "E",
    "status": "Assigned to Contractor",
    "contractor": "Waste Pro",
    "rowid": "1047657",
    "final_x": "3697219.47453",
    "final_y": "532710.04762",
    "longitude": "-90.01839103386715",
    "latitude": "29.95828125140014",
    "geocoded_column": {
      "latitude": "29.95828125140014",
      "longitude": "-90.01839103386715"
    }
  },
  {
    "service_request": "2023-1047656",
    "request_type": "Trash/Recycling",
    "request_reason": "Start Trash Service",
    "date_created": "2023-11-02T10:33:17.000",
    "date_modified": "2023-11-02T10:33:18.000",
    "request_status": "Pending",
    "responsible_agency": "Department of Sanitation",
    "final_address": "8604 Willow St",
    "address_councildis": "A",
    "status": "Assigned to Contractor",
    "contractor": "Richards Disposal",
    "rowid": "1047656",
    "final_x": "3661044.9984",
    "final_y": "530108.745409",
    "longitude": "-90.13270689433463",
    "latitude": "29.95222039817451",
    "geocoded_column": {
      "latitude": "29.95222039817451",
      "longitude": "-90.13270689433463"
    }
  },
  {
    "service_request": "2023-1047655",
    "request_type": "Trash/Recycling",
    "request_reason": "Request a Large Item Pick Up",
    "date_created": "2023-11-02T10:31:38.000",
    "date_modified": "2023-11-02T10:31:39.000",
    "request_status": "Pending",
    "responsible_agency": "Department of Sanitation",
    "final_address": "8604 Willow St",
    "address_councildis": "A",
    "status": "Assigned to Contractor",
    "contractor": "Richards Disposal",
    "rowid": "1047655",
    "final_x": "3661044.9984",
    "final_y": "530108.745409",
    "longitude": "-90.13270689433463",
    "latitude": "29.95222039817451",
    "geocoded_column": {
      "latitude": "29.95222039817451",
      "longitude": "-90.13270689433463"
    }
  },
  {
    "service_request": "2023-1047654",
    "request_type": "Parks & Parkways",
    "request_reason": "Request Tree Service (Right of Way/Public Property)",
    "date_created": "2023-11-02T10:26:28.000",
    "date_modified": "2023-11-02T10:28:28.000",
    "request_status": "Pending",
    "responsible_agency": "Department of Parks & Parkway",
    "final_address": "1126 Toledano St",
    "address_councildis": "B",
    "status": "Pending",
    "rowid": "1047654",
    "final_x": "3675269.11201",
    "final_y": "519990.102584",
    "longitude": "-90.08814088655272",
    "latitude": "29.923979961040057",
    "geocoded_column": {
      "latitude": "29.923979961040057",
      "longitude": "-90.08814088655272"
    }
  },
  {
    "service_request": "2023-1047653",
    "request_type": "Trash/Recycling",
    "request_reason": "Replace Trash Cart",
    "date_created": "2023-11-02T10:25:54.000",
    "date_modified": "2023-11-02T10:25:55.000",
    "request_status": "Pending",
    "responsible_agency": "Department of Sanitation",
    "final_address": "7732 Mill St",
    "address_councildis": "E",
    "status": "Assigned to Contractor",
    "contractor": "Waste Pro",
    "rowid": "1047653",
    "final_x": "3696391.30986",
    "final_y": "559499.446173",
    "longitude": "-90.02003657644735",
    "latitude": "30.031968349855312",
    "geocoded_column": {
      "latitude": "30.031968349855312",
      "longitude": "-90.02003657644735"
    }
  },
  {
    "service_request": "2023-1047652",
    "request_type": "Abandoned Vehicles",
    "request_reason": "Abandoned/Junk Vehicles",
    "date_created": "2023-11-02T10:24:33.000",
    "date_modified": "2023-11-02T10:24:33.000",
    "request_status": "Pending",
    "responsible_agency": "Department of Public Works",
    "final_address": "6031 Pauline Dr",
    "address_councildis": "D",
    "status": "Pending",
    "rowid": "1047652",
    "final_x": "3691542.23318",
    "final_y": "556302.026778",
    "longitude": "-90.03547434407834",
    "latitude": "30.023328578923845",
    "geocoded_column": {
      "latitude": "30.023328578923845",
      "longitude": "-90.03547434407834"
    }
  },
  {
    "service_request": "2023-1047651",
    "request_type": "Trash/Recycling",
    "request_reason": "Request a Large Item Pick Up",
    "date_created": "2023-11-02T10:23:15.000",
    "date_modified": "2023-11-02T10:23:16.000",
    "request_status": "Pending",
    "responsible_agency": "Department of Sanitation",
    "final_address": "1708 Desire St",
    "address_councildis": "D",
    "status": "Assigned to Contractor",
    "contractor": "IV Waste",
    "rowid": "1047651",
    "final_x": "3690722.50025",
    "final_y": "538046.877769",
    "longitude": "-90.03871623549315",
    "latitude": "29.973159071062742",
    "geocoded_column": {
      "latitude": "29.973159071062742",
      "longitude": "-90.03871623549315"
    }
  },
  {
    "service_request": "2023-1047650",
    "request_type": "Trash/Recycling",
    "request_reason": "Missed Trash Pick-Up",
    "date_created": "2023-11-02T10:21:23.000",
    "date_modified": "2023-11-02T10:58:28.000",
    "case_close_date": "2023-11-02T05:58:28.000",
    "request_status": "Closed",
    "responsible_agency": "Department of Sanitation",
    "final_address": "4516 Citrus Dr",
    "address_councildis": "E",
    "status": "Duplicate Request",
    "contractor": "Waste Pro",
    "contractor_action": "duplicate",
    "rowid": "1047650",
    "final_x": "3710675.84651",
    "final_y": "554865.600856",
    "longitude": "-89.97507058658634",
    "latitude": "30.018769188829157",
    "geocoded_column": {
      "latitude": "30.018769188829157",
      "longitude": "-89.97507058658634"
    }
  },
  {
    "service_request": "2023-1047648",
    "request_type": "Trash/Recycling",
    "request_reason": "Order Recycling Cart",
    "date_created": "2023-11-02T10:10:56.000",
    "date_modified": "2023-11-02T10:11:01.000",
    "request_status": "Pending",
    "responsible_agency": "Department of Sanitation",
    "final_address": "628 Fern St",
    "address_councildis": "A",
    "status": "Pending",
    "rowid": "1047648",
    "final_x": "3661294.46477",
    "final_y": "526541.529406",
    "longitude": "-90.1320372786745",
    "latitude": "29.94240450405092",
    "geocoded_column": {
      "latitude": "29.94240450405092",
      "longitude": "-90.1320372786745"
    }
  },
  {
    "service_request": "2023-1047647",
    "request_type": "Trash/Recycling",
    "request_reason": "Replace Recycling Cart",
    "date_created": "2023-11-02T10:09:15.000",
    "date_modified": "2023-11-02T10:09:16.000",
    "request_status": "Pending",
    "responsible_agency": "Department of Sanitation",
    "final_address": "1036 Soniat St",
    "address_councildis": "B",
    "status": "Pending",
    "rowid": "1047647",
    "final_x": "3668319.45338",
    "final_y": "519263.105143",
    "longitude": "-90.11010304809294",
    "latitude": "29.9221867809085",
    "geocoded_column": {
      "latitude": "29.9221867809085",
      "longitude": "-90.11010304809294"
    }
  },
  {
    "service_request": "2023-1047646",
    "request_type": "Trash/Recycling",
    "request_reason": "Missed Trash Pick-Up",
    "date_created": "2023-11-02T10:04:24.000",
    "date_modified": "2023-11-02T10:04:24.000",
    "request_status": "Pending",
    "responsible_agency": "Department of Sanitation",
    "final_address": "4516 Citrus Dr",
    "address_councildis": "E",
    "status": "Assigned to Contractor",
    "contractor": "Waste Pro",
    "rowid": "1047646",
    "final_x": "3710675.84651",
    "final_y": "554865.600856",
    "longitude": "-89.97507058658634",
    "latitude": "30.018769188829157",
    "geocoded_column": {
      "latitude": "30.018769188829157",
      "longitude": "-89.97507058658634"
    }
  },
  {
    "service_request": "2023-1047645",
    "request_type": "Trash/Recycling",
    "request_reason": "Return Recycling Cart",
    "date_created": "2023-11-02T10:01:33.000",
    "date_modified": "2023-11-02T10:01:34.000",
    "request_status": "Pending",
    "responsible_agency": "Department of Sanitation",
    "final_address": "5617 Oxford Pl",
    "address_councildis": "C",
    "status": "Pending",
    "rowid": "1047645",
    "final_x": "3704316.39479",
    "final_y": "520061.213048",
    "longitude": "-89.99644707331024",
    "latitude": "29.923275575636932",
    "geocoded_column": {
      "latitude": "29.923275575636932",
      "longitude": "-89.99644707331024"
    }
  },
  {
    "service_request": "2023-1047644",
    "request_type": "Trash/Recycling",
    "request_reason": "Repair Recycling Cart",
    "date_created": "2023-11-02T10:01:15.000",
    "date_modified": "2023-11-02T10:01:16.000",
    "request_status": "Pending",
    "responsible_agency": "Department of Sanitation",
    "final_address": "5617 Oxford Pl",
    "address_councildis": "C",
    "status": "Pending",
    "rowid": "1047644",
    "final_x": "3704316.39479",
    "final_y": "520061.213048",
    "longitude": "-89.99644707331024",
    "latitude": "29.923275575636932",
    "geocoded_column": {
      "latitude": "29.923275575636932",
      "longitude": "-89.99644707331024"
    }
  },