[
  {
    "service_request": "2022-926437",
    "request_type": "Trash/Recycling",
    "request_reason": "Illegal Dumping",
    "date_created": "2022-10-06T00:10:11.000",
    "date_modified": "2022-10-06T00:10:11.000",
    "request_status": "Pending",
    "responsible_agency": "Department of Sanitation",
    "final_address": "1901 St Ferdinand St",
    "address_councildis": "D",
    "status": "Pending",
    "rowid": "926437",
    "final_x": "3688656.64553",
    "final_y": "539379.395338",
    "longitude": "-90.04519328688323",
    "latitude": "29.976887041850095",
    "geocoded_column": {
      "latitude": "29.976887041850095",
      "longitude": "-90.04519328688323"
    }
  },
  {
    "service_request": "2022-926436",
    "request_type": "Trash/Recycling",
    "request_reason": "Illegal Dumping",
    "date_created": "2022-10-06T00:06:03.000",
    "date_modified": "2022-10-06T00:06:03.000",
    "request_status": "Pending",
    "responsible_agency": "Department of Sanitation",
    "final_address": "1716 Louisa St",
    "address_councildis": "D",
    "status": "Pending",
    "rowid": "926436",
    "final_x": "3690114.22908",
    "final_y": "538244.502665",
    "longitude": "-90.04063022905629",
    "latitude": "29.973721352643018",
    "geocoded_column": {
      "latitude": "29.973721352643018",
      "longitude": "-90.04063022905629"
    }
  },
  {
    "service_request": "2022-926435",
    "request_type": "Trash/Recycling",
    "request_reason": "Illegal Dumping",
    "date_created": "2022-10-06T00:04:04.000",
    "date_modified": "2022-10-06T00:04:04.000",
    "request_status": "Pending",
    "responsible_agency": "Department of Sanitation",
    "final_address": "1750 Clouet St",
    "address_councildis": "D",
    "status": "Pending",
    "rowid": "926435",
    "final_x": "3689591.82876",
    "final_y": "538507.479113",
    "longitude": "-90.0422707192424",
    "latitude": "29.974460639907825",
    "geocoded_column": {
      "latitude": "29.974460639907825",
      "longitude": "-90.0422707192424"
    }
  },
  {
    "service_request": "2022-926434",
    "request_type": "Abandoned Vehicles",
    "request_reason": "Abandoned/Junk Vehicles",
    "date_created": "2022-10-06T00:00:30.000",
    "date_modified": "2022-10-06T00:00:30.000",
    "request_status": "Pending",
    "responsible_agency": "Department of Public Works",
    "final_address": "2222 Brainard St",
    "address_councildis": "B",
    "status": "Pending",
    "rowid": "926434",
    "final_x": "3677035.87605",
    "final_y": "524043.301052",
    "longitude": "-90.08242416254478",
    "latitude": "29.93507202599129",
    "geocoded_column": {
      "latitude": "29.93507202599129",
      "longitude": "-90.08242416254478"
    }
  },
  {
    "service_request": "2022-926433",
    "request_type": "Trash/Recycling",
    "request_reason": "Order Trash Cart",
    "date_created": "2022-10-05T23:59:10.000",
    "date_modified": "2022-10-05T23:59:11.000",
    "request_status": "Pending",
    "responsible_agency": "Department of Sanitation",
    "final_address": "New Orleans,LA",
    "status": "Assigned to Contractor",
    "rowid": "926433",
    "longitude": "0.0",
    "latitude": "0.0",
    "geocoded_column": {
      "latitude": "0.0",
      "longitude": "0.0"
    }
  },
  {
    "service_request": "2022-926431",
    "request_type": "Traffic Signals/Signs/Striping/Streetlights",
    "request_reason": "Street Light Outage/Malfunction",
    "date_created": "2022-10-05T23:02:52.000",
    "date_modified": "2022-10-05T23:02:54.000",
    "request_status": "Pending",
    "responsible_agency": "Department of Public Works",
    "final_address": "1240 Eighth St",
    "address_councildis": "B",
    "status": "Pending",
    "contractor": "Legacy Professional Services",
    "rowid": "926431",
    "final_x": "3675693.45057",
    "final_y": "520764.085945",
    "longitude": "-90.08677482034872",
    "latitude": "29.9260954788643",
    "geocoded_column": {
      "latitude": "29.9260954788643",
      "longitude": "-90.08677482034872"
    }
  },
  {
    "service_request": "2022-926430",
    "request_type": "Health Related Questions",
    "request_reason": "Noise Ordinance Complaint",
    "date_created": "2022-10-05T22:40:35.000",
    "date_modified": "2022-10-05T22:40:35.000",
    "request_status": "Pending",
    "responsible_agency": "Health Department",
    "final_address": "2515 N Galvez St",
    "address_councildis": "D",
    "status": "Pending",
    "rowid": "926430",
    "final_x": "3687065.79945",
    "final_y": "540205.674763",
    "longitude": "-90.05018844723845",
    "latitude": "29.979208098038146",
    "geocoded_column": {
      "latitude": "29.979208098038146",
      "longitude": "-90.05018844723845"
    }
  },
  {
    "service_request": "2022-926429",
    "request_type": "Health Related Questions",
    "request_reason": "Noise Ordinance Complaint",
    "date_created": "2022-10-05T22:38:43.000",
    "date_modified": "2022-10-05T22:38:43.000",
    "request_status": "Pending",
    "responsible_agency": "Health Department",
    "final_address": "2515 N Galvez St",
    "address_councildis": "D",
    "status": "Pending",
    "rowid": "926429",
    "final_x": "3687065.79945",
    "final_y": "540205.674763",
    "longitude": "-90.05018844723845",
    "latitude": "29.979208098038146",
    "geocoded_column": {
      "latitude": "29.979208098038146",
      "longitude": "-90.05018844723845"
    }
  },
  {
    "service_request": "2022-926428",
    "request_type": "Health Related Questions",
    "request_reason": "Noise Ordinance Complaint",
    "date_created": "2022-10-05T22:37:09.000",
    "date_modified": "2022-10-05T22:37:09.000",
    "request_status": "Pending",
    "responsible_agency": "Health Department",
    "final_address": "2515 N Galvez St",
    "address_councildis": "D",
    "status": "Pending",
    "rowid": "926428",
    "final_x": "3687065.79945",
    "final_y": "540205.674763",
    "longitude": "-90.05018844723845",
    "latitude": "29.979208098038146",
    "geocoded_column": {
      "latitude": "29.979208098038146",
      "longitude": "-90.05018844723845"
    }
  },
  {
    "service_request": "2022-926427",
    "request_type": "Trash/Recycling",
    "request_reason": "MIssed Recycling Pick-Up",
    "date_created": "2022-10-05T22:18:14.000",
    "date_modified": "2022-10-05T22:18:15.000",
    "request_status": "Pending",
    "responsible_agency": "Department of Sanitation",
    "final_address": "1604 Robert C. Blakes, Sr. Dr",
    "address_councildis": "B",
    "status": "Assigned to Contractor",
    "contractor": "Richards Disposal",
    "rowid": "926427",
    "final_x": "3678647.1204",
    "final_y": "525437.572413",
    "longitude": "-90.07728922277693",
    "latitude": "29.938857347755224",
    "geocoded_column": {
      "latitude": "29.938857347755224",
      "longitude": "-90.07728922277693"
    }
  },
  {
    "service_request": "2022-926426",
    "request_type": "Abandoned Vehicles",
    "request_reason": "Abandoned/Junk Vehicles",
    "date_created": "2022-10-05T22:04:06.000",
    "date_modified": "2022-10-05T22:04:06.000",
    "request_status": "Pending",
    "responsible_agency": "Department of Public Works",
    "final_address": "3700 Rue Delphine",
    "address_councildis": "C",
    "status": "Pending",
    "rowid": "926426",
    "final_x": "3703075.93226",
    "final_y": "516947.119413",
    "longitude": "-90.00047705768716",
    "latitude": "29.914752627239714",
    "geocoded_column": {
      "latitude": "29.914752627239714",
      "longitude": "-90.00047705768716"
    }
  },
  {
    "service_request": "2022-926425",
    "request_type": "Trash/Recycling",
    "request_reason": "Missed Trash Pick-Up",
    "date_created": "2022-10-05T21:11:28.000",
    "date_modified": "2022-10-05T21:11:29.000",
    "request_status": "Pending",
    "responsible_agency": "Department of Sanitation",
    "final_address": "7048 Milne Blvd",
    "address_councildis": "A",
    "status": "Assigned to Contractor",
    "contractor": "Metro Disposal",
    "rowid": "926425",
    "final_x": "3667609.53665",
    "final_y": "554453.6918",
    "longitude": "-90.11115914569247",
    "latitude": "30.018969965062563",
    "geocoded_column": {
      "latitude": "30.018969965062563",
      "longitude": "-90.11115914569247"
    }
  },
  {
    "service_request": "2022-926424",
    "request_type": "Trash/Recycling",
    "request_reason": "Replace Trash Cart",
    "date_created": "2022-10-05T21:07:06.000",
    "date_modified": "2022-10-05T21:07:07.000",
    "request_status": "Pending",
    "responsible_agency": "Department of Sanitation",
    "final_address": "7910 Sycamore St",
    "address_councildis": "A",
    "status": "Assigned to Contractor",
    "contractor": "Richards Disposal",
    "rowid": "926424",
    "final_x": "3664797.51264",
    "final_y": "530494.596034",
    "longitude": "-90.12084525175393",
    "latitude": "29.953172713655064",
    "geocoded_column": {
      "latitude": "29.953172713655064",
      "longitude": "-90.12084525175393"
    }
  },
  {
    "service_request": "2022-926423",
    "request_type": "Mosquito, Termite & Rodent Control",
    "request_reason": "Mosquito Complaint",
    "date_created": "2022-10-05T20:30:40.000",
    "date_modified": "2022-10-05T20:30:40.000",
    "request_status": "Pending",
    "responsible_agency": "Mosquito, Termite & Rodent Control Board",
    "final_address": "1630 Washington Ave",
    "address_councildis": "B",
    "status": "Pending",
    "rowid": "926423",
    "final_x": "3675728.51483",
    "final_y": "522748.708858",
    "longitude": "-90.08659596719141",
    "latitude": "29.931551499180358",
    "geocoded_column": {
      "latitude": "29.931551499180358",
      "longitude": "-90.08659596719141"
    }
  },
  {
    "service_request": "2022-926422",
    "request_type": "Trash/Recycling",
    "request_reason": "MIssed Recycling Pick-Up",
    "date_created": "2022-10-05T20:28:17.000",
    "date_modified": "2022-10-05T20:28:18.000",
    "request_status": "Pending",
    "responsible_agency": "Department of Sanitation",
    "final_address": "3151 Chippewa St",
    "address_councildis": "B",
    "status": "Assigned to Contractor",
    "contractor": "Richards Disposal",
    "rowid": "926422",
    "final_x": "3676551.3179",
    "final_y": "518743.805879",
    "longitude": "-90.08413630679688",
    "latitude": "29.92051467152263",
    "geocoded_column": {
      "latitude": "29.92051467152263",
      "longitude": "-90.08413630679688"
    }
  },
  {
    "service_request": "2022-926421",
    "request_type": "Trash/Recycling",
    "request_reason": "MIssed Recycling Pick-Up",
    "date_created": "2022-10-05T20:18:21.000",
    "date_modified": "2022-10-05T20:18:22.000",
    "request_status": "Pending",
    "responsible_agency": "Department of Sanitation",
    "final_address": "1301 General Taylor St",
    "address_councildis": "B",
    "status": "Assigned to Contractor",
    "contractor": "Richards Disposal",
    "rowid": "926421",
    "final_x": "3672844.37032",
    "final_y": "520291.135864",
    "longitude": "-90.09578468200387",
    "latitude": "29.924879936904606",
    "geocoded_column": {
      "latitude": "29.924879936904606",
      "longitude": "-90.09578468200387"
    }
  },
  {
    "service_request": "2022-926420",
    "request_type": "Trash/Recycling",
    "request_reason": "Request a Large Item Pick Up",
    "date_created": "2022-10-05T19:45:30.000",
    "date_modified": "2022-10-05T19:45:31.000",
    "request_status": "Pending",
    "responsible_agency": "Department of Sanitation",
    "final_address": "418 S Gayoso St",
    "address_councildis": "B",
    "status": "Assigned to Contractor",
    "contractor": "Richards Disposal",
    "rowid": "926420",
    "final_x": "3673526.59444",
    "final_y": "534723.525254",
    "longitude": "-90.09313802239298",
    "latitude": "29.96454398951844",
    "geocoded_column": {
      "latitude": "29.96454398951844",
      "longitude": "-90.09313802239298"
    }
  },
  {
    "service_request": "2022-926419",
    "request_type": "Traffic Signals/Signs/Striping/Streetlights",
    "request_reason": "Street Light Outage/Malfunction",
    "date_created": "2022-10-05T19:42:25.000",
    "date_modified": "2022-10-05T19:42:25.000",
    "request_status": "Pending",
    "responsible_agency": "Department of Public Works",
    "final_address": "4972 Miles Dr",
    "address_councildis": "D",
    "status": "Pending",
    "contractor": "Legacy Professional Services",
    "rowid": "926419",
    "final_x": "3680189.62018",
    "final_y": "549823.895444",
    "longitude": "-90.07157158501303",
    "latitude": "30.005864746699455",
    "geocoded_column": {
      "latitude": "30.005864746699455",
      "longitude": "-90.07157158501303"
    }
  },
  {
    "service_request": "2022-926418",
    "request_type": "Trash/Recycling",
    "request_reason": "MIssed Recycling Pick-Up",
    "date_created": "2022-10-05T19:42:01.000",
    "date_modified": "2022-10-05T19:42:02.000",
    "request_status": "Pending",
    "responsible_agency": "Department of Sanitation",
    "final_address": "719 Ninth St",
    "address_councildis": "B",
    "status": "Assigned to Contractor",
    "contractor": "Richards Disposal",
    "rowid": "926418",
    "final_x": "3676638.94773",
    "final_y": "518953.604919",
    "longitude": "-90.0838524787258",
    "latitude": "29.92108892410324",
    "geocoded_column": {
      "latitude": "29.92108892410324",
      "longitude": "-90.0838524787258"
    }
  },
  {
    "service_request": "2022-926417",
    "request_type": "Property Maintenance",
    "request_reason": "Property Maintenance",
    "date_created": "2022-10-05T19:38:42.000",
    "date_modified": "2022-10-05T19:38:42.000",
    "request_status": "Pending",
    "responsible_agency": "Department of Code Enforcement",
    "final_address": "4974 Miles Dr",
    "address_councildis": "D",
    "status": "Pending",
    "rowid": "926417",
    "final_x": "3680185.36488",
    "final_y": "549879.809876",
    "longitude": "-90.0715830833409",
    "latitude": "30.006018620190464",
    "geocoded_column": {
      "latitude": "30.006018620190464",
      "longitude": "-90.0715830833409"
    }
  },
  {
    "service_request": "2022-926416",
    "request_type": "Trash/Recycling",
    "request_reason": "Order Trash Cart",
    "date_created": "2022-10-05T19:25:53.000",
    "date_modified": "2022-10-05T19:25:53.000",
    "request_status": "Pending",
    "responsible_agency": "Department of Sanitation",
    "final_address": "1772 Pratt Dr",
    "address_councildis": "D",
    "status": "Assigned to Contractor",
    "contractor": "Metro Disposal",
    "rowid": "926416",
    "final_x": "3680638.9028",
    "final_y": "549483.086995",
    "longitude": "-90.07016406592169",
    "latitude": "30.004914034553988",
    "geocoded_column": {
      "latitude": "30.004914034553988",
      "longitude": "-90.07016406592169"
    }
  },
  {
    "service_request": "2022-926414",
    "request_type": "Trash/Recycling",
    "request_reason": "Missed Trash Pick-Up",
    "date_created": "2022-10-05T19:21:41.000",
    "date_modified": "2022-10-05T19:21:41.000",
    "request_status": "Pending",
    "responsible_agency": "Department of Sanitation",
    "final_address": "313 N Johnson St, New Orleans, Louisiana, 70112",
    "address_councildis": "D",
    "status": "Assigned to Contractor",
    "contractor": "Metro Disposal",
    "rowid": "926414",
    "final_x": "3685675.99318",
    "final_y": "539739.835466",
    "longitude": "-90.05459440879407",
    "latitude": "29.97796992465731",
    "geocoded_column": {
      "latitude": "29.97796992465731",
      "longitude": "-90.05459440879407"
    }
  },
  {
    "service_request": "2022-926413",
    "request_type": "Trash/Recycling",
    "request_reason": "MIssed Recycling Pick-Up",
    "date_created": "2022-10-05T18:48:10.000",
    "date_modified": "2022-10-05T18:48:10.000",
    "request_status": "Pending",
    "responsible_agency": "Department of Sanitation",
    "final_address": "3025 Laurel St",
    "address_councildis": "B",
    "status": "Assigned to Contractor",
    "contractor": "Richards Disposal",
    "rowid": "926413",
    "final_x": "3676575.44123",
    "final_y": "519667.637624",
    "longitude": "-90.08402836645416",
    "latitude": "29.92305418767449",
    "geocoded_column": {
      "latitude": "29.92305418767449",
      "longitude": "-90.08402836645416"
    }
  },
  {
    "service_request": "2022-926412",
    "request_type": "Trash/Recycling",
    "request_reason": "Request a Large Item Pick Up",
    "date_created": "2022-10-05T18:36:45.000",
    "date_modified": "2022-10-05T18:36:46.000",
    "request_status": "Pending",
    "responsible_agency": "Department of Sanitation",
    "final_address": "7468 Pitt St, New Orleans, Louisiana, 70118",
    "address_councildis": "A",
    "status": "Assigned to Contractor",
    "contractor": "Richards Disposal",
    "rowid": "926412",
    "final_x": "3660843.67008",
    "final_y": "523785.155323",
    "longitude": "-90.13355166887943",
    "latitude": "29.93483833365833",
    "geocoded_column": {
      "latitude": "29.93483833365833",
      "longitude": "-90.13355166887943"
    }
  },
  {
    "service_request": "2022-926411",
    "request_type": "Trash/Recycling",
    "request_reason": "Missed Trash Pick-Up",
    "date_created": "2022-10-05T18:36:37.000",
    "date_modified": "2022-10-05T18:36:38.000",
    "request_status": "Pending",
    "responsible_agency": "Department of Sanitation",
    "final_address": "2234 Upperline St",
    "address_councildis": "B",
    "status": "Assigned to Contractor",
    "contractor": "Richards Disposal",
    "rowid": "926411",
    "final_x": "3669058.16033",
    "final_y": "523103.464955",
    "longitude": "-90.10764157652953",
    "latitude": "29.93272484293292",
    "geocoded_column": {
      "latitude": "29.93272484293292",
      "longitude": "-90.10764157652953"
    }
  },
  {
    "service_request": "2022-926410",
    "request_type": "Trash/Recycling",
    "request_reason": "MIssed Recycling Pick-Up",
    "date_created": "2022-10-05T18:30:53.000",
    "date_modified": "2022-10-05T18:30:54.000",
    "request_status": "Pending",
    "responsible_agency": "Department of Sanitation",
    "final_address": "7471 Pitt St, New Orleans, Louisiana, 70118",
    "address_councildis": "A",
    "status": "Assigned to Contractor",
    "contractor": "Richards Disposal",
    "rowid": "926410",
    "final_x": "3660918.94387",
    "final_y": "523832.040379",
    "longitude": "-90.13331247911697",
    "latitude": "29.93496508537649",
    "geocoded_column": {
      "latitude": "29.93496508537649",
      "longitude": "-90.13331247911697"
    }
  },
  {
    "service_request": "2022-926409",
    "request_type": "Property Maintenance",
    "request_reason": "Property Maintenance",
    "date_created": "2022-10-05T18:21:41.000",
    "date_modified": "2022-10-05T18:21:41.000",
    "request_status": "Pending",
    "responsible_agency": "Department of Code Enforcement",
    "final_address": "600 Aurora Dr",
    "address_councildis": "C",
    "status": "Pending",
    "rowid": "926409",
    "final_x": "3706854.63038",
    "final_y": "519307.626551",
    "longitude": "-89.98846281514332",
    "latitude": "29.9211218018844",
    "geocoded_column": {
      "latitude": "29.9211218018844",
      "longitude": "-89.98846281514332"
    }
  },
  {
    "service_request": "2022-926408",
    "request_type": "Roads/Drainage",
    "request_reason": "Street Subsidence (Sinking)",
    "date_created": "2022-10-05T18:18:07.000",
    "date_modified": "2022-10-05T18:18:07.000",
    "request_status": "Pending",
    "responsible_agency": "Department of Public Works",
    "final_address": "4761 Press Dr",
    "address_councildis": "D",
    "status": "Pending",
    "rowid": "926408",
    "final_x": "3689682.5039",
    "final_y": "551043.423061",
    "longitude": "-90.04153800069814",
    "latitude": "30.008927157400688",
    "geocoded_column": {
      "latitude": "30.008927157400688",
      "longitude": "-90.04153800069814"
    }
  },
  {
    "service_request": "2022-926407",
    "request_type": "Trash/Recycling",
    "request_reason": "MIssed Recycling Pick-Up",
    "date_created": "2022-10-05T18:15:04.000",
    "date_modified": "2022-10-05T18:15:05.000",
    "request_status": "Pending",
    "responsible_agency": "Department of Sanitation",
    "final_address": "3026 Baudin St",
    "address_councildis": "B",
    "status": "Assigned to Contractor",
    "contractor": "Richards Disposal",
    "rowid": "926407",
    "final_x": "3673179.7524",
    "final_y": "534691.69031",
    "longitude": "-90.09423441309634",
    "latitude": "29.964466771858454",
    "geocoded_column": {
      "latitude": "29.964466771858454",
      "longitude": "-90.09423441309634"
    }
  },
  {
    "service_request": "2022-926406",
    "request_type": "Abandoned Vehicles",
    "request_reason": "Abandoned/Junk Vehicles",
    "date_created": "2022-10-05T18:14:50.000",
    "date_modified": "2022-10-05T18:14:50.000",
    "request_status": "Pending",
    "responsible_agency": "Department of Public Works",
    "final_address": "1309 Short St",
    "address_councildis": "A",
    "status": "Pending",
    "rowid": "926406",
    "final_x": "3662625.1712",
    "final_y": "528381.122176",
    "longitude": "-90.12777481030504",
    "latitude": "29.94742436813652",
    "geocoded_column": {
      "latitude": "29.94742436813652",
      "longitude": "-90.12777481030504"
    }
  },
  {
    "service_request": "2022-926405",
    "request_type": "Abandoned Vehicles",
    "request_reason": "Abandoned/Junk Vehicles",
    "date_created": "2022-10-05T18:12:59.000",
    "date_modified": "2022-10-05T18:15:47.000",
    "request_status": "Pending",
    "responsible_agency": "Department of Public Works",
    "final_address": "4512 S Miro St",
    "address_councildis": "B",
    "status": "Pending",
    "rowid": "926405",
    "final_x": "3669626.14554",
    "final_y": "527725.079359",
    "longitude": "-90.10569217126428",
    "latitude": "29.94541607089053",
    "geocoded_column": {
      "latitude": "29.94541607089053",
      "longitude": "-90.10569217126428"
    }
  },
  {
    "service_request": "2022-926404",
    "request_type": "Property Maintenance",
    "request_reason": "Property Maintenance",
    "date_created": "2022-10-05T18:06:48.000",
    "date_modified": "2022-10-05T18:06:48.000",
    "request_status": "Pending",
    "responsible_agency": "Department of Code Enforcement",
    "final_address": "2725 Comet St",
    "address_councildis": "C",
    "status": "Pending",
    "rowid": "926404",
    "final_x": "3699769.64951",
    "final_y": "520877.473721",
    "longitude": "-90.0107695921316",
    "latitude": "29.925665094371567",
    "geocoded_column": {
      "latitude": "29.925665094371567",
      "longitude": "-90.0107695921316"
    }
  },
  {
    "service_request": "2022-926403",
    "request_type": "Trash/Recycling",
    "request_reason": "Request a Large Item Pick Up",
    "date_created": "2022-10-05T18:00:19.000",
    "date_modified": "2022-10-05T18:00:20.000",
    "request_status": "Pending",
    "responsible_agency": "Department of Sanitation",
    "final_address": "3917 N Claiborne Ave",
    "address_councildis": "D",
    "status": "Assigned to Contractor",
    "contractor": "Metro Disposal",
    "rowid": "926403",
    "final_x": "3692119.82307",
    "final_y": "537248.518152",
    "longitude": "-90.03433181362814",
    "latitude": "29.970920380979553",
    "geocoded_column": {
      "latitude": "29.970920380979553",
      "longitude": "-90.03433181362814"
    }
  },
  {
    "service_request": "2022-926402",
    "request_type": "Roads/Drainage",
    "request_reason": "Street Subsidence (Sinking)",
    "date_created": "2022-10-05T17:56:14.000",
    "date_modified": "2022-10-05T17:56:14.000",
    "request_status": "Pending",
    "responsible_agency": "Department of Public Works",
    "final_address": "5107 N Rampart St",
    "address_councildis": "E",
    "status": "Pending",
    "rowid": "926402",
    "final_x": "3696211.36554",
    "final_y": "533780.808261",
    "longitude": "-90.02153564240864",
    "latitude": "29.961257236745315",
    "geocoded_column": {
      "latitude": "29.961257236745315",
      "longitude": "-90.02153564240864"
    }
  },
  {
    "service_request": "2022-926401",
    "request_type": "Trash/Recycling",
    "request_reason": "Replace Trash Cart",
    "date_created": "2022-10-05T17:55:19.000",
    "date_modified": "2022-10-05T17:55:20.000",
    "request_status": "Pending",
    "responsible_agency": "Department of Sanitation",
    "final_address": "2120 Valmont St",
    "address_councildis": "B",
    "status": "Assigned to Contractor",
    "contractor": "Richards Disposal",
    "rowid": "926401",
    "final_x": "3668085.23514",
    "final_y": "523430.270907",
    "longitude": "-90.11070202485854",
    "latitude": "29.933652035545443",
    "geocoded_column": {
      "latitude": "29.933652035545443",
      "longitude": "-90.11070202485854"
    }
  },
  {
    "service_request": "2022-926400",
    "request_type": "Trash/Recycling",
    "request_reason": "Request a Large Item Pick Up",
    "date_created": "2022-10-05T17:49:08.000",
    "date_modified": "2022-10-05T17:49:09.000",
    "request_status": "Pending",
    "responsible_agency": "Department of Sanitation",
    "final_address": "4310 Dumaine St",
    "address_councildis": "A",
    "status": "Assigned to Contractor",
    "contractor": "Richards Disposal",
    "rowid": "926400",
    "final_x": "3671990.50599",
    "final_y": "541375.634828",
    "longitude": "-90.09776236748047",
    "latitude": "29.982880665925336",
    "geocoded_column": {
      "latitude": "29.982880665925336",
      "longitude": "-90.09776236748047"
    }
  },
  {
    "service_request": "2022-926399",
    "request_type": "Trash/Recycling",
    "request_reason": "Request a Large Item Pick Up",
    "date_created": "2022-10-05T17:38:25.000",
    "date_modified": "2022-10-05T17:38:26.000",
    "request_status": "Pending",
    "responsible_agency": "Department of Sanitation",
    "final_address": "816 N Lopez St",
    "address_councildis": "A",
    "status": "Assigned to Contractor",
    "contractor": "Richards Disposal",
    "rowid": "926399",
    "final_x": "3675579.37467",
    "final_y": "538427.774409",
    "longitude": "-90.08652820200057",
    "latitude": "29.974668164456347",
    "geocoded_column": {
      "latitude": "29.974668164456347",
      "longitude": "-90.08652820200057"
    }
  },
  {
    "service_request": "2022-926398",
    "request_type": "Trash/Recycling",
    "request_reason": "Repair Trash Cart",
    "date_created": "2022-10-05T17:37:08.000",
    "date_modified": "2022-10-05T17:37:09.000",
    "request_status": "Pending",
    "responsible_agency": "Department of Sanitation",
    "final_address": "816 N Lopez St",
    "address_councildis": "A",
    "status": "Assigned to Contractor",
    "contractor": "Richards Disposal",
    "rowid": "926398",
    "final_x": "3675579.37467",
    "final_y": "538427.774409",
    "longitude": "-90.08652820200057",
    "latitude": "29.974668164456347",
    "geocoded_column": {
      "latitude": "29.974668164456347",
      "longitude": "-90.08652820200057"
    }
  },
  {
    "service_request": "2022-926397",
    "request_type": "Trash/Recycling",
    "request_reason": "Request a Large Item Pick Up",
    "date_created": "2022-10-05T17:37:07.000",
    "date_modified": "2022-10-05T17:37:08.000",
    "request_status": "Pending",
    "responsible_agency": "Department of Sanitation",
    "final_address": "6043 Bellaire Dr",
    "address_councildis": "A",
    "status": "Assigned to Contractor",
    "contractor": "Metro Disposal",
    "rowid": "926397",
    "final_x": "3664394.15386",
    "final_y": "547991.011602",
    "longitude": "-90.12153462621811",
    "latitude": "30.001293748230047",
    "geocoded_column": {
      "latitude": "30.001293748230047",
      "longitude": "-90.12153462621811"
    }
  },
  {
    "service_request": "2022-926396",
    "request_type": "Trash/Recycling",
    "request_reason": "Missed Trash Pick-Up",
    "date_created": "2022-10-05T17:34:22.000",
    "date_modified": "2022-10-05T17:34:23.000",
    "request_status": "Pending",
    "responsible_agency": "Department of Sanitation",
    "final_address": "3965 Constance St",
    "address_councildis": "B",
    "status": "Assigned to Contractor",
    "contractor": "Richards Disposal",
    "rowid": "926396",
    "final_x": "3672630.12603",
    "final_y": "518611.610039",
    "longitude": "-90.09651820865471",
    "latitude": "29.920268138418123",
    "geocoded_column": {
      "latitude": "29.920268138418123",
      "longitude": "-90.09651820865471"
    }
  },
  {
    "service_request": "2022-926395",
    "request_type": "Abandoned Vehicles",
    "request_reason": "Abandoned/Junk Vehicles",
    "date_created": "2022-10-05T17:17:10.000",
    "date_modified": "2022-10-05T17:17:10.000",
    "request_status": "Pending",
    "responsible_agency": "Department of Public Works",
    "final_address": "314 N Miro St",
    "address_councildis": "B",
    "status": "Pending",
    "rowid": "926395",
    "final_x": "3677309.60456",
    "final_y": "534809.056646",
    "longitude": "-90.08118859706171",
    "latitude": "29.96466604408139",
    "geocoded_column": {
      "latitude": "29.96466604408139",
      "longitude": "-90.08118859706171"
    }
  },
  {
    "service_request": "2022-926394",
    "request_type": "Trash/Recycling",
    "request_reason": "Replace Trash Cart",
    "date_created": "2022-10-05T17:14:55.000",
    "date_modified": "2022-10-05T17:14:56.000",
    "request_status": "Pending",
    "responsible_agency": "Department of Sanitation",
    "final_address": "1131 Orange St",
    "address_councildis": "B",
    "status": "Assigned to Contractor",
    "contractor": "Richards Disposal",
    "rowid": "926394",
    "final_x": "3679856.47944",
    "final_y": "523577.759035",
    "longitude": "-90.07353569564594",
    "latitude": "29.933706968638734",
    "geocoded_column": {
      "latitude": "29.933706968638734",
      "longitude": "-90.07353569564594"
    }
  },
  {
    "service_request": "2022-926393",
    "request_type": "Abandoned Vehicles",
    "request_reason": "Abandoned/Junk Vehicles",
    "date_created": "2022-10-05T17:09:00.000",
    "date_modified": "2022-10-05T17:09:00.000",
    "request_status": "Pending",
    "responsible_agency": "Department of Public Works",
    "final_address": "2301 Conti St",
    "address_councildis": "B",
    "status": "Pending",
    "rowid": "926393",
    "final_x": "3677398.87893",
    "final_y": "535057.434694",
    "longitude": "-90.08089810141071",
    "latitude": "29.965346316646812",
    "geocoded_column": {
      "latitude": "29.965346316646812",
      "longitude": "-90.08089810141071"
    }
  },
  {
    "service_request": "2022-926392",
    "request_type": "Roads/Drainage",
    "request_reason": "Catch Basin - Clogged",
    "date_created": "2022-10-05T17:01:54.000",
    "date_modified": "2022-10-05T17:01:54.000",
    "request_status": "Pending",
    "responsible_agency": "Department of Public Works",
    "final_address": "3328 Cleveland Ave",
    "address_councildis": "B",
    "status": "Pending",
    "rowid": "926392",
    "final_x": "3673104.01473",
    "final_y": "536236.090823",
    "longitude": "-90.09442085482789",
    "latitude": "29.968715605488164",
    "geocoded_column": {
      "latitude": "29.968715605488164",
      "longitude": "-90.09442085482789"
    }
  },
  {
    "service_request": "2022-926391",
    "request_type": "Trash/Recycling",
    "request_reason": "Missed Trash Pick-Up",
    "date_created": "2022-10-05T16:58:05.000",
    "date_modified": "2022-10-05T16:58:05.000",
    "request_status": "Pending",
    "responsible_agency": "Department of Sanitation",
    "final_address": "3202 Castiglione St",
    "address_councildis": "A",
    "status": "Assigned to Contractor",
    "contractor": "Metro Disposal",
    "rowid": "926391",
    "final_x": "3678213.06798",
    "final_y": "542746.048269",
    "longitude": "-90.07806093981567",
    "latitude": "29.986462861222783",
    "geocoded_column": {
      "latitude": "29.986462861222783",
      "longitude": "-90.07806093981567"
    }
  },
  {
    "service_request": "2022-926390",
    "request_type": "Trash/Recycling",
    "request_reason": "Missed Trash Pick-Up",
    "date_created": "2022-10-05T16:48:17.000",
    "date_modified": "2022-10-05T16:48:18.000",
    "request_status": "Pending",
    "responsible_agency": "Department of Sanitation",
    "final_address": "1227 S Carrollton Ave",
    "address_councildis": "A",
    "status": "Assigned to Contractor",
    "contractor": "Richards Disposal",
    "rowid": "926390",
    "final_x": "3662218.77888",
    "final_y": "528407.768704",
    "longitude": "-90.1290570693439",
    "latitude": "29.947509388128207",
    "geocoded_column": {
      "latitude": "29.947509388128207",
      "longitude": "-90.1290570693439"
    }
  },
  {
    "service_request": "2022-926389",
    "request_type": "Roads/Drainage",
    "request_reason": "Pothole",
    "date_created": "2022-10-05T16:47:06.000",
    "date_modified": "2022-10-05T16:47:06.000",
    "request_status": "Pending",
    "responsible_agency": "Department of Public Works",
    "final_address": "632 Julia St",
    "address_councildis": "B",
    "status": "Pending",
    "rowid": "926389",
    "final_x": "3680497.30325",
    "final_y": "527957.768319",
    "longitude": "-90.07136035829298",
    "latitude": "29.945731150163244",
    "geocoded_column": {
      "latitude": "29.945731150163244",
      "longitude": "-90.07136035829298"
    }
  },
  {
    "service_request": "2022-926388",
    "request_type": "Trash/Recycling",
    "request_reason": "Request a Large Item Pick Up",
    "date_created": "2022-10-05T16:44:41.000",
    "date_modified": "2022-10-05T16:44:42.000",
    "request_status": "Pending",
    "responsible_agency": "Department of Sanitation",
    "final_address": "1725 Port St",
    "address_councildis": "D",
    "status": "Assigned to Contractor",
    "contractor": "Metro Disposal",
    "rowid": "926388",
    "final_x": "3688067.25225",
    "final_y": "538833.081417",
    "longitude": "-90.04707414135557",
    "latitude": "29.97540307698583",
    "geocoded_column": {
      "latitude": "29.97540307698583",
      "longitude": "-90.04707414135557"
    }
  },
  {
    "service_request": "2022-926387",
    "request_type": "Roads/Drainage",
    "request_reason": "Pothole",
    "date_created": "2022-10-05T16:41:00.000",
    "date_modified": "2022-10-05T16:41:00.000",
    "request_status": "Pending",
    "responsible_agency": "Department of Public Works",
    "final_address": "800 Valmont St",
    "address_councildis": "B",
    "status": "Pending",
    "rowid": "926387",
    "final_x": "3667399.80359",
    "final_y": "518305.780406",
    "longitude": "-90.11303819464234",
    "latitude": "29.919581402475536",
    "geocoded_column": {
      "latitude": "29.919581402475536",
      "longitude": "-90.11303819464234"
    }
  },
  {
    "service_request": "2022-926386",
    "request_type": "Trash/Recycling",
    "request_reason": "Illegal Dumping",
    "date_created": "2022-10-05T16:39:11.000",
    "date_modified": "2022-10-05T16:39:11.000",
    "request_status": "Pending",
    "responsible_agency": "Department of Sanitation",
    "final_address": "2800 N Claiborne Ave",
    "address_councildis": "C",
    "status": "Pending",
    "rowid": "926386",
    "final_x": "3688224.90121",
    "final_y": "538109.458377",
    "longitude": "-90.04660190879868",
    "latitude": "29.97340850149827",
    "geocoded_column": {
      "latitude": "29.97340850149827",
      "longitude": "-90.04660190879868"
    }
  },
  {
    "service_request": "2022-926385",
    "request_type": "Roads/Drainage",
    "request_reason": "Pothole",
    "date_created": "2022-10-05T16:38:11.000",
    "date_modified": "2022-10-05T16:38:11.000",
    "request_status": "Pending",
    "responsible_agency": "Department of Public Works",
    "final_address": "800 Valmont St",
    "address_councildis": "B",
    "status": "Pending",
    "rowid": "926385",
    "final_x": "3667399.80359",
    "final_y": "518305.780406",
    "longitude": "-90.11303819464234",
    "latitude": "29.919581402475536",
    "geocoded_column": {
      "latitude": "29.919581402475536",
      "longitude": "-90.11303819464234"
    }
  },
  {
    "service_request": "2022-926384",
    "request_type": "Trash/Recycling",
    "request_reason": "Illegal Dumping",
    "date_created": "2022-10-05T16:37:21.000",
    "date_modified": "2022-10-05T16:38:39.000",
    "request_status": "Pending",
    "responsible_agency": "Department of Sanitation",
    "final_address": "2800 N Claiborne Ave",
    "address_councildis": "C",
    "status": "Pending",
    "rowid": "926384",
    "final_x": "3688224.90121",
    "final_y": "538109.458377",
    "longitude": "-90.04660190879868",
    "latitude": "29.97340850149827",
    "geocoded_column": {
      "latitude": "29.97340850149827",
      "longitude": "-90.04660190879868"
    }
  },
  {
    "service_request": "2022-926383",
    "request_type": "Trash/Recycling",
    "request_reason": "Replace Recycling Cart",
    "date_created": "2022-10-05T16:33:11.000",
    "date_modified": "2022-10-05T16:33:11.000",
    "request_status": "Pending",
    "responsible_agency": "Department of Sanitation",
    "final_address": "935 N Dupre St, New Orleans, Louisiana, 70119",
    "address_councildis": "A",
    "status": "Pending",
    "rowid": "926383",
    "final_x": "3676524.91208",
    "final_y": "538350.228297",
    "longitude": "-90.08354463049538",
    "latitude": "29.974426615412064",
    "geocoded_column": {
      "latitude": "29.974426615412064",
      "longitude": "-90.08354463049538"
    }
  },
  {
    "service_request": "2022-926382",
    "request_type": "Trash/Recycling",
    "request_reason": "Request a Large Item Pick Up",
    "date_created": "2022-10-05T16:33:00.000",
    "date_modified": "2022-10-05T16:33:00.000",
    "request_status": "Pending",
    "responsible_agency": "Department of Sanitation",
    "final_address": "3521 Rue Denise",
    "address_councildis": "C",
    "status": "Assigned to Contractor",
    "contractor": "Richards Disposal",
    "rowid": "926382",
    "final_x": "3704219.02417",
    "final_y": "517689.239414",
    "longitude": "-89.99684176499171",
    "latitude": "29.916756591189397",
    "geocoded_column": {
      "latitude": "29.916756591189397",
      "longitude": "-89.99684176499171"
    }
  },
  {
    "service_request": "2022-926381",
    "request_type": "Abandoned Vehicles",
    "request_reason": "Abandoned/Junk Vehicles",
    "date_created": "2022-10-05T16:32:06.000",
    "date_modified": "2022-10-05T16:32:06.000",
    "request_status": "Pending",
    "responsible_agency": "Department of Public Works",
    "final_address": "2200 Valence St",
    "address_councildis": "B",
    "status": "Pending",
    "rowid": "926381",
    "final_x": "3669489.03706",
    "final_y": "522916.553467",
    "longitude": "-90.10628764822575",
    "latitude": "29.932198215880657",
    "geocoded_column": {
      "latitude": "29.932198215880657",
      "longitude": "-90.10628764822575"
    }
  },
  {
    "service_request": "2022-926380",
    "request_type": "Trash/Recycling",
    "request_reason": "Missed Trash Pick-Up",
    "date_created": "2022-10-05T16:31:27.000",
    "date_modified": "2022-10-05T16:31:27.000",
    "request_status": "Pending",
    "responsible_agency": "Department of Sanitation",
    "final_address": "1808 Moss St",
    "address_councildis": "A",
    "status": "Assigned to Contractor",
    "contractor": "Metro Disposal",
    "rowid": "926380",
    "final_x": "3675363.60782",
    "final_y": "543021.905293",
    "longitude": "-90.08705183514938",
    "latitude": "29.98730689770418",
    "geocoded_column": {
      "latitude": "29.98730689770418",
      "longitude": "-90.08705183514938"
    }
  },
  {
    "service_request": "2022-926379",
    "request_type": "Property Maintenance",
    "request_reason": "Property Maintenance",
    "date_created": "2022-10-05T16:28:49.000",
    "date_modified": "2022-10-05T16:28:49.000",
    "request_status": "Pending",
    "responsible_agency": "Department of Code Enforcement",
    "final_address": "2000 Robert St",
    "address_councildis": "B",
    "status": "Pending",
    "rowid": "926379",
    "final_x": "3668694.51521",
    "final_y": "522901.042875",
    "longitude": "-90.10879640772397",
    "latitude": "29.93217893783565",
    "geocoded_column": {
      "latitude": "29.93217893783565",
      "longitude": "-90.10879640772397"
    }
  },
  {
    "service_request": "2022-926378",
    "request_type": "Trash/Recycling",
    "request_reason": "MIssed Recycling Pick-Up",
    "date_created": "2022-10-05T16:26:40.000",
    "date_modified": "2022-10-05T16:26:40.000",
    "request_status": "Pending",
    "responsible_agency": "Department of Sanitation",
    "final_address": "3811 General Pershing St",
    "address_councildis": "B",
    "status": "Assigned to Contractor",
    "contractor": "Richards Disposal",
    "rowid": "926378",
    "final_x": "3670523.12622",
    "final_y": "528657.647616",
    "longitude": "-90.10282848818947",
    "latitude": "29.94795387372545",
    "geocoded_column": {
      "latitude": "29.94795387372545",
      "longitude": "-90.10282848818947"
    }
  },
  {
    "service_request": "2022-926377",
    "request_type": "Trash/Recycling",
    "request_reason": "Illegal Dumping",
    "date_created": "2022-10-05T16:23:06.000",
    "date_modified": "2022-10-05T16:23:07.000",
    "request_status": "Pending",
    "responsible_agency": "Department of Sanitation",
    "final_address": "6426 Praro St",
    "address_councildis": "E",
    "status": "Pending",
    "rowid": "926377",
    "final_x": "3701709.68132",
    "final_y": "535560.741638",
    "longitude": "-90.00410785772583",
    "latitude": "29.965977186687148",
    "geocoded_column": {
      "latitude": "29.965977186687148",
      "longitude": "-90.00410785772583"
    }
  },
  {
    "service_request": "2022-926376",
    "request_type": "Trash/Recycling",
    "request_reason": "Missed Trash Pick-Up",
    "date_created": "2022-10-05T16:18:45.000",
    "date_modified": "2022-10-05T16:18:45.000",
    "request_status": "Pending",
    "responsible_agency": "Department of Sanitation",
    "final_address": "2116 Short St",
    "address_councildis": "A",
    "status": "Assigned to Contractor",
    "contractor": "Richards Disposal",
    "rowid": "926376",
    "final_x": "3664504.69869",
    "final_y": "530548.51533",
    "longitude": "-90.12176803508385",
    "latitude": "29.953329490703766",
    "geocoded_column": {
      "latitude": "29.953329490703766",
      "longitude": "-90.12176803508385"
    }
  },
  {
    "service_request": "2022-926375",
    "request_type": "Trash/Recycling",
    "request_reason": "Request a Large Item Pick Up",
    "date_created": "2022-10-05T16:17:56.000",
    "date_modified": "2022-10-05T16:17:57.000",
    "request_status": "Pending",
    "responsible_agency": "Department of Sanitation",
    "final_address": "606 N Alexander St",
    "address_councildis": "A",
    "status": "Assigned to Contractor",
    "contractor": "Richards Disposal",
    "rowid": "926375",
    "final_x": "3671156.44839",
    "final_y": "540644.384651",
    "longitude": "-90.1004216019945",
    "latitude": "29.980894680524397",
    "geocoded_column": {
      "latitude": "29.980894680524397",
      "longitude": "-90.1004216019945"
    }
  },
  {
    "service_request": "2022-926374",
    "request_type": "Roads/Drainage",
    "request_reason": "Man hole cover issue",
    "date_created": "2022-10-05T16:17:00.000",
    "date_modified": "2022-10-05T16:17:01.000",
    "request_status": "Pending",
    "responsible_agency": "Department of Public Works",
    "final_address": "6005 Bullard Ave",
    "address_councildis": "E",
    "status": "Pending",
    "rowid": "926374",
    "final_x": "3715841.25407",
    "final_y": "563990.499361",
    "longitude": "-89.95840397576464",
    "latitude": "30.043689633892903",
    "geocoded_column": {
      "latitude": "30.043689633892903",
      "longitude": "-89.95840397576464"
    }
  },
  {
    "service_request": "2022-926372",
    "request_type": "Trash/Recycling",
    "request_reason": "Missed Trash Pick-Up",
    "date_created": "2022-10-05T16:13:26.000",
    "date_modified": "2022-10-05T16:13:27.000",
    "request_status": "Pending",
    "responsible_agency": "Department of Sanitation",
    "final_address": "3915 Baronne St",
    "address_councildis": "B",
    "status": "Assigned to Contractor",
    "contractor": "Richards Disposal",
    "rowid": "926372",
    "final_x": "3672334.76091",
    "final_y": "521790.844218",
    "longitude": "-90.09734228929463",
    "latitude": "29.92901877788667",
    "geocoded_column": {
      "latitude": "29.92901877788667",
      "longitude": "-90.09734228929463"
    }
  },
  {
    "service_request": "2022-926371",
    "request_type": "Trash/Recycling",
    "request_reason": "Missed Trash Pick-Up",
    "date_created": "2022-10-05T16:12:13.000",
    "date_modified": "2022-10-05T16:12:14.000",
    "request_status": "Pending",
    "responsible_agency": "Department of Sanitation",
    "final_address": "2000 BLK Short St",
    "address_councildis": "A",
    "status": "Assigned to Contractor",
    "contractor": "Richards Disposal",
    "rowid": "926371",
    "final_x": "3664307.3577",
    "final_y": "530275.722373",
    "longitude": "-90.12240025906581",
    "latitude": "29.952585134457898",
    "geocoded_column": {
      "latitude": "29.952585134457898",
      "longitude": "-90.12240025906581"
    }
  },
  {
    "service_request": "2022-926370",
    "request_type": "Trash/Recycling",
    "request_reason": "Missed Trash Pick-Up",
    "date_created": "2022-10-05T16:11:34.000",
    "date_modified": "2022-10-05T16:11:35.000",
    "request_status": "Pending",
    "responsible_agency": "Department of Sanitation",
    "final_address": "46 Neron Pl",
    "address_councildis": "A",
    "status": "Assigned to Contractor",
    "contractor": "Richards Disposal",
    "rowid": "926370",
    "final_x": "3665444.3929",
    "final_y": "530365.291394",
    "longitude": "-90.1188070036492",
    "latitude": "29.952798330421736",
    "geocoded_column": {
      "latitude": "29.952798330421736",
      "longitude": "-90.1188070036492"
    }
  },
  {
    "service_request": "2022-926368",
    "request_type": "Trash/Recycling",
    "request_reason": "Missed Trash Pick-Up",
    "date_created": "2022-10-05T16:08:46.000",
    "date_modified": "2022-10-05T16:08:47.000",
    "request_status": "Pending",
    "responsible_agency": "Department of Sanitation",
    "final_address": "1449 Verna St",
    "address_councildis": "A",
    "status": "Assigned to Contractor",
    "contractor": "Metro Disposal",
    "rowid": "926368",
    "final_x": "3675785.46152",
    "final_y": "541294.034956",
    "longitude": "-90.0857787690107",
    "latitude": "29.982543229043316",
    "geocoded_column": {
      "latitude": "29.982543229043316",
      "longitude": "-90.0857787690107"
    }
  },
  {
    "service_request": "2022-926367",
    "request_type": "Trash/Recycling",
    "request_reason": "Request a Large Item Pick Up",
    "date_created": "2022-10-05T16:06:17.000",
    "date_modified": "2022-10-05T16:08:55.000",
    "request_status": "Pending",
    "responsible_agency": "Department of Sanitation",
    "final_address": "5590 Maple Ridge Dr",
    "address_councildis": "E",
    "status": "Assigned to Contractor",
    "contractor": "Metro Disposal",
    "rowid": "926367",
    "final_x": "3724357.46816",
    "final_y": "564137.814113",
    "longitude": "-89.93148374523186",
    "latitude": "30.043810958920496",
    "geocoded_column": {
      "latitude": "30.043810958920496",
      "longitude": "-89.93148374523186"
    }
  },
  {
    "service_request": "2022-926366",
    "request_type": "Abandoned Vehicles",
    "request_reason": "Abandoned/Junk Vehicles",
    "date_created": "2022-10-05T15:59:21.000",
    "date_modified": "2022-10-05T15:59:22.000",
    "request_status": "Pending",
    "responsible_agency": "Department of Public Works",
    "final_address": "4000 BLK Danneel St",
    "address_councildis": "B",
    "status": "Pending",
    "rowid": "926366",
    "final_x": "3671989.62744",
    "final_y": "522420.228897",
    "longitude": "-90.09841039670219",
    "latitude": "29.930759615467554",
    "geocoded_column": {
      "latitude": "29.930759615467554",
      "longitude": "-90.09841039670219"
    }
  },
  {
    "service_request": "2022-926364",
    "request_type": "Roads/Drainage",
    "request_reason": "Street Subsidence (Sinking)",
    "date_created": "2022-10-05T15:55:27.000",
    "date_modified": "2022-10-05T15:59:18.000",
    "request_status": "Pending",
    "responsible_agency": "Department of Public Works",
    "final_address": "PRENTISS AVE & ST ROCH AVE",
    "address_councildis": "D",
    "status": "Pending",
    "rowid": "926364",
    "final_x": "3685110.5",
    "final_y": "553969.08",
    "longitude": "-90.0558794022784",
    "latitude": "30.017112578765136",
    "geocoded_column": {
      "latitude": "30.017112578765136",
      "longitude": "-90.0558794022784"
    }
  },
  {
    "service_request": "2022-926362",
    "request_type": "Trash/Recycling",
    "request_reason": "Order Recycling Cart",
    "date_created": "2022-10-05T15:51:14.000",
    "date_modified": "2022-10-05T15:51:14.000",
    "request_status": "Pending",
    "responsible_agency": "Department of Sanitation",
    "final_address": "4033 Vincennes Pl",
    "address_councildis": "B",
    "status": "Pending",
    "rowid": "926362",
    "final_x": "3668577.30042",
    "final_y": "530307.064002",
    "longitude": "-90.10891661047782",
    "latitude": "29.952546543951296",
    "geocoded_column": {
      "latitude": "29.952546543951296",
      "longitude": "-90.10891661047782"
    }
  },
  {
    "service_request": "2022-926361",
    "request_type": "Property Maintenance",
    "request_reason": "Property Maintenance",
    "date_created": "2022-10-05T15:43:43.000",
    "date_modified": "2022-10-05T15:43:44.000",
    "request_status": "Pending",
    "responsible_agency": "Department of Code Enforcement",
    "final_address": "8915 Edinburgh St",
    "address_councildis": "A",
    "status": "Pending",
    "rowid": "926361",
    "final_x": "3665309.62778",
    "final_y": "536463.980807",
    "longitude": "-90.11902845779525",
    "latitude": "29.969571652905156",
    "geocoded_column": {
      "latitude": "29.969571652905156",
      "longitude": "-90.11902845779525"
    }
  },
  {
    "service_request": "2022-926360",
    "request_type": "Trash/Recycling",
    "request_reason": "Request a Large Item Pick Up",
    "date_created": "2022-10-05T15:26:37.000",
    "date_modified": "2022-10-05T15:26:38.000",
    "request_status": "Pending",
    "responsible_agency": "Department of Sanitation",
    "final_address": "3660 Plymouth Pl",
    "address_councildis": "C",
    "status": "Assigned to Contractor",
    "contractor": "Richards Disposal",
    "rowid": "926360",
    "final_x": "3702809.51876",
    "final_y": "517148.968181",
    "longitude": "-90.00131053985704",
    "latitude": "29.915316160627984",
    "geocoded_column": {
      "latitude": "29.915316160627984",
      "longitude": "-90.00131053985704"
    }
  },
  {
    "service_request": "2022-926359",
    "request_type": "Property Maintenance",
    "request_reason": "Property Maintenance",
    "date_created": "2022-10-05T15:24:17.000",
    "date_modified": "2022-10-05T15:24:18.000",
    "request_status": "Pending",
    "responsible_agency": "Department of Code Enforcement",
    "final_address": "136 S Scott St",
    "address_councildis": "A",
    "status": "Pending",
    "rowid": "926359",
    "final_x": "3671582.19681",
    "final_y": "537494.501576",
    "longitude": "-90.09918405122492",
    "latitude": "29.972220967264597",
    "geocoded_column": {
      "latitude": "29.972220967264597",
      "longitude": "-90.09918405122492"
    }
  },
  {
    "service_request": "2022-926358",
    "request_type": "Trash/Recycling",
    "request_reason": "Order Trash Cart",
    "date_created": "2022-10-05T15:22:23.000",
    "date_modified": "2022-10-05T15:22:23.000",
    "request_status": "Pending",
    "responsible_agency": "Department of Sanitation",
    "final_address": "8636 Oleander St",
    "address_councildis": "A",
    "status": "Assigned to Contractor",
    "contractor": "Richards Disposal",
    "rowid": "926358",
    "final_x": "3665222.25056",
    "final_y": "535024.675974",
    "longitude": "-90.11935256126934",
    "latitude": "29.965616586051677",
    "geocoded_column": {
      "latitude": "29.965616586051677",
      "longitude": "-90.11935256126934"
    }
  },
  {
    "service_request": "2022-926357",
    "request_type": "Abandoned Vehicles",
    "request_reason": "Abandoned/Junk Vehicles",
    "date_created": "2022-10-05T15:22:20.000",
    "date_modified": "2022-10-05T15:22:20.000",
    "request_status": "Pending",
    "responsible_agency": "Department of Public Works",
    "final_address": "2715 First St",
    "address_councildis": "B",
    "status": "Pending",
    "rowid": "926357",
    "final_x": "3674728.64193",
    "final_y": "526641.669438",
    "longitude": "-90.08961905900301",
    "latitude": "29.94228574600177",
    "geocoded_column": {
      "latitude": "29.94228574600177",
      "longitude": "-90.08961905900301"
    }
  },
  {
    "service_request": "2022-926356",
    "request_type": "Trash/Recycling",
    "request_reason": "Start Trash Service",
    "date_created": "2022-10-05T15:12:34.000",
    "date_modified": "2022-10-05T15:12:34.000",
    "request_status": "Pending",
    "responsible_agency": "Department of Sanitation",
    "final_address": "3361 Belfort St",
    "address_councildis": "A",
    "status": "Assigned to Contractor",
    "contractor": "Metro Disposal",
    "rowid": "926356",
    "final_x": "3677058.45058",
    "final_y": "542609.488269",
    "longitude": "-90.0817126514568",
    "latitude": "29.98612209815992",
    "geocoded_column": {
      "latitude": "29.98612209815992",
      "longitude": "-90.0817126514568"
    }
  },
  {
    "service_request": "2022-926355",
    "request_type": "Property Maintenance",
    "request_reason": "Property Maintenance",
    "date_created": "2022-10-05T15:09:04.000",
    "date_modified": "2022-10-05T16:19:36.000",
    "case_close_date": "2022-10-05T11:19:36.000",
    "request_status": "Closed",
    "responsible_agency": "Department of Code Enforcement",
    "final_address": "2432 Spain St",
    "address_councildis": "D",
    "status": "Duplicate Request",
    "rowid": "926355",
    "final_x": "3685691.69929",
    "final_y": "541509.67438",
    "longitude": "-90.05448241712281",
    "latitude": "29.982835875989203",
    "geocoded_column": {
      "latitude": "29.982835875989203",
      "longitude": "-90.05448241712281"
    }
  },
  {
    "service_request": "2022-926354",
    "request_type": "Roads/Drainage",
    "request_reason": "Pothole",
    "date_created": "2022-10-05T15:07:49.000",
    "date_modified": "2022-10-05T15:07:50.000",
    "request_status": "Pending",
    "responsible_agency": "Department of Public Works",
    "final_address": "5426 Royal St",
    "address_councildis": "E",
    "status": "Pending",
    "rowid": "926354",
    "final_x": "3696958.97149",
    "final_y": "532391.210947",
    "longitude": "-90.0192251735729",
    "latitude": "29.957412780620217",
    "geocoded_column": {
      "latitude": "29.957412780620217",
      "longitude": "-90.0192251735729"
    }
  },
  {
    "service_request": "2022-926353",
    "request_type": "Property Maintenance",
    "request_reason": "Property Maintenance",
    "date_created": "2022-10-05T15:06:52.000",
    "date_modified": "2022-10-05T15:06:52.000",
    "request_status": "Pending",
    "responsible_agency": "Department of Code Enforcement",
    "final_address": "8534 Jeannette St",
    "address_councildis": "A",
    "status": "Pending",
    "rowid": "926353",
    "final_x": "3661403.96013",
    "final_y": "530254.290177",
    "longitude": "-90.13156863375164",
    "latitude": "29.952610252425647",
    "geocoded_column": {
      "latitude": "29.952610252425647",
      "longitude": "-90.13156863375164"
    }
  },
  {
    "service_request": "2022-926352",
    "request_type": "Trash/Recycling",
    "request_reason": "Order Recycling Cart",
    "date_created": "2022-10-05T15:04:03.000",
    "date_modified": "2022-10-05T15:04:04.000",
    "request_status": "Pending",
    "responsible_agency": "Department of Sanitation",
    "final_address": "3429 Clara St",
    "address_councildis": "B",
    "status": "Pending",
    "rowid": "926352",
    "final_x": "3672185.92756",
    "final_y": "525469.763965",
    "longitude": "-90.0976868891885",
    "latitude": "29.9391390311065",
    "geocoded_column": {
      "latitude": "29.9391390311065",
      "longitude": "-90.0976868891885"
    }
  },
  {
    "service_request": "2022-926351",
    "request_type": "Trash/Recycling",
    "request_reason": "Missed Trash Pick-Up",
    "date_created": "2022-10-05T14:54:33.000",
    "date_modified": "2022-10-05T14:58:28.000",
    "request_status": "Pending",
    "responsible_agency": "Department of Sanitation",
    "final_address": "2116 Short St",
    "address_councildis": "A",
    "status": "Assigned to Contractor",
    "contractor": "Richards Disposal",
    "rowid": "926351",
    "final_x": "3664504.69869",
    "final_y": "530548.51533",
    "longitude": "-90.12176803508385",
    "latitude": "29.953329490703766",
    "geocoded_column": {
      "latitude": "29.953329490703766",
      "longitude": "-90.12176803508385"
    }
  },
  {
    "service_request": "2022-926350",
    "request_type": "Trash/Recycling",
    "request_reason": "Missed Trash Pick-Up",
    "date_created": "2022-10-05T14:50:44.000",
    "date_modified": "2022-10-05T14:50:45.000",
    "request_status": "Pending",
    "responsible_agency": "Department of Sanitation",
    "final_address": "714 Bordeaux St",
    "address_councildis": "B",
    "status": "Assigned to Contractor",
    "contractor": "Richards Disposal",
    "rowid": "926350",
    "final_x": "3669548.88436",
    "final_y": "518030.964854",
    "longitude": "-90.10626388265267",
    "latitude": "29.918762639023445",
    "geocoded_column": {
      "latitude": "29.918762639023445",
      "longitude": "-90.10626388265267"
    }
  },
  {
    "service_request": "2022-926349",
    "request_type": "Roads/Drainage",
    "request_reason": "Street Subsidence (Sinking)",
    "date_created": "2022-10-05T14:45:26.000",
    "date_modified": "2022-10-05T15:52:57.000",
    "request_status": "Pending",
    "responsible_agency": "Department of Public Works",
    "final_address": "2710 Laharpe St",
    "address_councildis": "D",
    "status": "Pending",
    "rowid": "926349",
    "final_x": "3678475.49973",
    "final_y": "540131.244043",
    "longitude": "-90.0773225502122",
    "latitude": "29.979265150169763",
    "geocoded_column": {
      "latitude": "29.979265150169763",
      "longitude": "-90.0773225502122"
    }
  },
  {
    "service_request": "2022-926348",
    "request_type": "Traffic Signals/Signs/Striping/Streetlights",
    "request_reason": "Street Name Sign Damaged or Missing",
    "date_created": "2022-10-05T14:42:57.000",
    "date_modified": "2022-10-05T15:54:50.000",
    "request_status": "Pending",
    "responsible_agency": "Department of Public Works",
    "final_address": "GRAND ROUTE ST JOHN & GENTILLY BLVD & LAHARPE ST",
    "address_councildis": "A",
    "status": "Pending",
    "rowid": "926348",
    "final_x": "3678366.66",
    "final_y": "540251.23",
    "longitude": "-90.07766215598117",
    "latitude": "29.979598350060886",
    "geocoded_column": {
      "latitude": "29.979598350060886",
      "longitude": "-90.07766215598117"
    }
  },
  {
    "service_request": "2022-926347",
    "request_type": "Roads/Drainage",
    "request_reason": "Debris in Roadway",
    "date_created": "2022-10-05T14:37:47.000",
    "date_modified": "2022-10-05T14:37:47.000",
    "request_status": "Pending",
    "responsible_agency": "Department of Public Works",
    "final_address": "1400 N Broad St",
    "address_councildis": "D",
    "status": "Pending",
    "rowid": "926347",
    "final_x": "3678375.92955",
    "final_y": "539011.057866",
    "longitude": "-90.07767580264411",
    "latitude": "29.976188025573716",
    "geocoded_column": {
      "latitude": "29.976188025573716",
      "longitude": "-90.07767580264411"
    }
  },
  {
    "service_request": "2022-926346",
    "request_type": "Abandoned Vehicles",
    "request_reason": "Abandoned/Junk Vehicles",
    "date_created": "2022-10-05T14:37:31.000",
    "date_modified": "2022-10-05T14:37:31.000",
    "request_status": "Pending",
    "responsible_agency": "Department of Public Works",
    "final_address": "535 S Pierce St",
    "address_councildis": "A",
    "status": "Pending",
    "rowid": "926346",
    "final_x": "3670285.35598",
    "final_y": "536540.197063",
    "longitude": "-90.10331205768703",
    "latitude": "29.969635293503035",
    "geocoded_column": {
      "latitude": "29.969635293503035",
      "longitude": "-90.10331205768703"
    }
  },
  {
    "service_request": "2022-926345",
    "request_type": "Trash/Recycling",
    "request_reason": "Missed Trash Pick-Up",
    "date_created": "2022-10-05T14:36:40.000",
    "date_modified": "2022-10-05T14:36:41.000",
    "request_status": "Pending",
    "responsible_agency": "Department of Sanitation",
    "final_address": "5510 Cucullu St",
    "address_councildis": "A",
    "status": "Assigned to Contractor",
    "contractor": "Richards Disposal",
    "rowid": "926345",
    "final_x": "3667772.25735",
    "final_y": "525700.181437",
    "longitude": "-90.11161367768551",
    "latitude": "29.93990274027741",
    "geocoded_column": {
      "latitude": "29.93990274027741",
      "longitude": "-90.11161367768551"
    }
  },
  {
    "service_request": "2022-926344",
    "request_type": "Trash/Recycling",
    "request_reason": "Order Trash Cart",
    "date_created": "2022-10-05T14:36:35.000",
    "date_modified": "2022-10-05T14:36:36.000",
    "request_status": "Pending",
    "responsible_agency": "Department of Sanitation",
    "final_address": "2717 N Johnson St",
    "address_councildis": "D",
    "status": "Assigned to Contractor",
    "contractor": "Metro Disposal",
    "rowid": "926344",
    "final_x": "3688447.40854",
    "final_y": "539775.82113",
    "longitude": "-90.04584005354916",
    "latitude": "29.977983538736787",
    "geocoded_column": {
      "latitude": "29.977983538736787",
      "longitude": "-90.04584005354916"
    }
  },
  {
    "service_request": "2022-926343",
    "request_type": "Trash/Recycling",
    "request_reason": "Return Trash Cart",
    "date_created": "2022-10-05T14:35:10.000",
    "date_modified": "2022-10-05T14:35:11.000",
    "request_status": "Pending",
    "responsible_agency": "Department of Sanitation",
    "final_address": "BARRACKS ST & CHARTRES ST",
    "address_councildis": "C",
    "status": "Assigned to Contractor",
    "contractor": "Empire Services",
    "rowid": "926343",
    "final_x": "3684159.8",
    "final_y": "533976.18",
    "longitude": "-90.05958542885114",
    "latitude": "29.962168310437804",
    "geocoded_column": {
      "latitude": "29.962168310437804",
      "longitude": "-90.05958542885114"
    }
  },
  {
    "service_request": "2022-926342",
    "request_type": "Trash/Recycling",
    "request_reason": "Order Trash Cart",
    "date_created": "2022-10-05T14:34:07.000",
    "date_modified": "2022-10-05T14:34:08.000",
    "request_status": "Pending",
    "responsible_agency": "Department of Sanitation",
    "final_address": "2715 N Johnson St",
    "address_councildis": "D",
    "status": "Assigned to Contractor",
    "contractor": "Metro Disposal",
    "rowid": "926342",
    "final_x": "3688434.76604",
    "final_y": "539778.974154",
    "longitude": "-90.04587987100555",
    "latitude": "29.977992599030546",
    "geocoded_column": {
      "latitude": "29.977992599030546",
      "longitude": "-90.04587987100555"
    }
  },
  {
    "service_request": "2022-926341",
    "request_type": "Trash/Recycling",
    "request_reason": "Missed Trash Pick-Up",
    "date_created": "2022-10-05T14:30:31.000",
    "date_modified": "2022-10-05T14:30:32.000",
    "request_status": "Pending",
    "responsible_agency": "Department of Sanitation",
    "final_address": "541 Valmont St",
    "address_councildis": "B",
    "status": "Assigned to Contractor",
    "contractor": "Richards Disposal",
    "rowid": "926341",
    "final_x": "3667372.21799",
    "final_y": "517511.76031",
    "longitude": "-90.11315195838947",
    "latitude": "29.91739890420502",
    "geocoded_column": {
      "latitude": "29.91739890420502",
      "longitude": "-90.11315195838947"
    }
  },
  {
    "service_request": "2022-926340",
    "request_type": "Property Maintenance",
    "request_reason": "Property Maintenance",
    "date_created": "2022-10-05T14:27:16.000",
    "date_modified": "2022-10-05T14:27:17.000",
    "request_status": "Pending",
    "responsible_agency": "Department of Code Enforcement",
    "final_address": "14800 BLK N Little Woods Dr",
    "address_councildis": "E",
    "status": "Pending",
    "rowid": "926340",
    "final_x": "3720091.75696",
    "final_y": "575095.578927",
    "longitude": "-89.94454534090526",
    "latitude": "30.074083046591525",
    "geocoded_column": {
      "latitude": "30.074083046591525",
      "longitude": "-89.94454534090526"
    }
  },
  {
    "service_request": "2022-926339",
    "request_type": "Roads/Drainage",
    "request_reason": "Pothole",
    "date_created": "2022-10-05T14:24:41.000",
    "date_modified": "2022-10-05T14:24:42.000",
    "request_status": "Pending",
    "responsible_agency": "Department of Public Works",
    "final_address": "735 Leontine St",
    "address_councildis": "B",
    "status": "Pending",
    "rowid": "926339",
    "final_x": "3667136.12999",
    "final_y": "518164.685878",
    "longitude": "-90.11387522418946",
    "latitude": "29.91920115547582",
    "geocoded_column": {
      "latitude": "29.91920115547582",
      "longitude": "-90.11387522418946"
    }
  },
  {
    "service_request": "2022-926338",
    "request_type": "Trash/Recycling",
    "request_reason": "Request a Large Item Pick Up",
    "date_created": "2022-10-05T14:22:11.000",
    "date_modified": "2022-10-05T14:22:12.000",
    "request_status": "Pending",
    "responsible_agency": "Department of Sanitation",
    "final_address": "1214 Gallier St",
    "address_councildis": "C",
    "status": "Assigned to Contractor",
    "contractor": "Metro Disposal",
    "rowid": "926338",
    "final_x": "3690544.90473",
    "final_y": "536127.814279",
    "longitude": "-90.03934555935403",
    "latitude": "29.967887839225874",
    "geocoded_column": {
      "latitude": "29.967887839225874",
      "longitude": "-90.03934555935403"
    }
  },
  {
    "service_request": "2022-926337",
    "request_type": "Trash/Recycling",
    "request_reason": "Illegal Dumping",
    "date_created": "2022-10-05T14:15:03.000",
    "date_modified": "2022-10-05T14:15:03.000",
    "request_status": "Pending",
    "responsible_agency": "Department of Sanitation",
    "final_address": "213 Royal St",
    "address_councildis": "C",
    "status": "Pending",
    "rowid": "926337",
    "final_x": "3681494.25205",
    "final_y": "531131.439746",
    "longitude": "-90.0681020192216",
    "latitude": "29.954427448292662",
    "geocoded_column": {
      "latitude": "29.954427448292662",
      "longitude": "-90.0681020192216"
    }
  },
  {
    "service_request": "2022-926336",
    "request_type": "Trash/Recycling",
    "request_reason": "Dead Animal Pick Up",
    "date_created": "2022-10-05T14:12:15.000",
    "date_modified": "2022-10-05T14:12:57.000",
    "case_close_date": "2022-10-05T09:12:57.000",
    "request_status": "Closed",
    "responsible_agency": "Department of Sanitation",
    "final_address": "921 Dumaine St",
    "address_councildis": "C",
    "status": "Assigned to Contractor",
    "contractor": "Empire Services",
    "contractor_action": "Completed",
    "rowid": "926336",
    "final_x": "3682306.63036",
    "final_y": "533614.351493",
    "longitude": "-90.06545010000892",
    "latitude": "29.961229919654695",
    "geocoded_column": {
      "latitude": "29.961229919654695",
      "longitude": "-90.06545010000892"
    }
  },
  {
    "service_request": "2022-926335",
    "request_type": "Trash/Recycling",
    "request_reason": "Missed Trash Pick-Up",
    "date_created": "2022-10-05T14:11:04.000",
    "date_modified": "2022-10-05T14:11:05.000",
    "request_status": "Pending",
    "responsible_agency": "Department of Sanitation",
    "final_address": "908 Fern St",
    "address_councildis": "A",
    "status": "Assigned to Contractor",
    "contractor": "Richards Disposal",
    "rowid": "926335",
    "final_x": "3661854.66298",
    "final_y": "527171.849215",
    "longitude": "-90.13024770251916",
    "latitude": "29.944121521820318",
    "geocoded_column": {
      "latitude": "29.944121521820318",
      "longitude": "-90.13024770251916"
    }
  },
  {
    "service_request": "2022-926334",
    "request_type": "Trash/Recycling",
    "request_reason": "Dead Animal Pick Up",
    "date_created": "2022-10-05T14:09:43.000",
    "date_modified": "2022-10-05T14:10:27.000",
    "case_close_date": "2022-10-05T09:10:27.000",
    "request_status": "Closed",
    "responsible_agency": "Department of Sanitation",
    "final_address": "920 St Louis St",
    "address_councildis": "C",
    "status": "Assigned to Contractor",
    "contractor": "Empire Services",
    "contractor_action": "Completed",
    "rowid": "926334",
    "final_x": "3681373.24354",
    "final_y": "532377.667651",
    "longitude": "-90.06844067667576",
    "latitude": "29.9578578257421",
    "geocoded_column": {
      "latitude": "29.9578578257421",
      "longitude": "-90.06844067667576"
    }
  },
  {
    "service_request": "2022-926333",
    "request_type": "Trash/Recycling",
    "request_reason": "Illegal Dumping",
    "date_created": "2022-10-05T14:06:05.000",
    "date_modified": "2022-10-05T14:06:05.000",
    "request_status": "Pending",
    "responsible_agency": "Department of Sanitation",
    "final_address": "631 Philip St",
    "address_councildis": "B",
    "status": "Pending",
    "rowid": "926333",
    "final_x": "3679522.61807",
    "final_y": "520623.95116",
    "longitude": "-90.07469210956873",
    "latitude": "29.925595054129282",
    "geocoded_column": {
      "latitude": "29.925595054129282",
      "longitude": "-90.07469210956873"
    }
  },
  {
    "service_request": "2022-926332",
    "request_type": "Trash/Recycling",
    "request_reason": "Illegal Dumping",
    "date_created": "2022-10-05T14:05:14.000",
    "date_modified": "2022-10-05T14:05:14.000",
    "request_status": "Pending",
    "responsible_agency": "Department of Sanitation",
    "final_address": "631 Philip St",
    "address_councildis": "B",
    "status": "Pending",
    "rowid": "926332",
    "final_x": "3679522.61807",
    "final_y": "520623.95116",
    "longitude": "-90.07469210956873",
    "latitude": "29.925595054129282",
    "geocoded_column": {
      "latitude": "29.925595054129282",
      "longitude": "-90.07469210956873"
    }
  },
  {
    "service_request": "2022-926331",
    "request_type": "Trash/Recycling",
    "request_reason": "Dead Animal Pick Up",
    "date_created": "2022-10-05T14:03:17.000",
    "date_modified": "2022-10-05T14:03:54.000",
    "case_close_date": "2022-10-05T09:03:54.000",
    "request_status": "Closed",
    "responsible_agency": "Department of Sanitation",
    "final_address": "508 Madison St",
    "address_councildis": "C",
    "status": "Assigned to Contractor",
    "contractor": "Empire Services",
    "contractor_action": "Completed",
    "rowid": "926331",
    "final_x": "3683411.37756",
    "final_y": "532495.068548",
    "longitude": "-90.06200072607417",
    "latitude": "29.958118616229463",
    "geocoded_column": {
      "latitude": "29.958118616229463",
      "longitude": "-90.06200072607417"
    }
  },
  {
    "service_request": "2022-926330",
    "request_type": "Trash/Recycling",
    "request_reason": "Illegal Dumping",
    "date_created": "2022-10-05T13:59:29.000",
    "date_modified": "2022-10-05T13:59:29.000",
    "request_status": "Pending",
    "responsible_agency": "Department of Sanitation",
    "final_address": "222 Bourbon St",
    "address_councildis": "C",
    "status": "Pending",
    "rowid": "926330",
    "final_x": "3681299.27234",
    "final_y": "531367.952515",
    "longitude": "-90.06870944562807",
    "latitude": "29.955083696779717",
    "geocoded_column": {
      "latitude": "29.955083696779717",
      "longitude": "-90.06870944562807"
    }
  },
  {
    "service_request": "2022-926329",
    "request_type": "Trash/Recycling",
    "request_reason": "Replace Trash Cart",
    "date_created": "2022-10-05T13:57:45.000",
    "date_modified": "2022-10-05T13:57:46.000",
    "request_status": "Pending",
    "responsible_agency": "Department of Sanitation",
    "final_address": "3224 Dante St",
    "address_councildis": "A",
    "status": "Assigned to Contractor",
    "contractor": "Richards Disposal",
    "rowid": "926329",
    "final_x": "3666331.62087",
    "final_y": "534307.058501",
    "longitude": "-90.11587327915336",
    "latitude": "29.963611010355564",
    "geocoded_column": {
      "latitude": "29.963611010355564",
      "longitude": "-90.11587327915336"
    }
  },
  {
    "service_request": "2022-926328",
    "request_type": "Roads/Drainage",
    "request_reason": "Catch Basin - Clogged",
    "date_created": "2022-10-05T13:57:25.000",
    "date_modified": "2022-10-05T13:58:00.000",
    "case_close_date": "2022-10-05T08:58:00.000",
    "request_status": "Closed",
    "responsible_agency": "Department of Public Works",
    "final_address": "1100 BLK N Galvez St",
    "address_councildis": "D",
    "status": "Resolved",
    "rowid": "926328",
    "final_x": "3679371.67272",
    "final_y": "537018.53205",
    "longitude": "-90.07460008227612",
    "latitude": "29.97067922450774",
    "geocoded_column": {
      "latitude": "29.97067922450774",
      "longitude": "-90.07460008227612"
    }
  },
  {
    "service_request": "2022-926327",
    "request_type": "Trash/Recycling",
    "request_reason": "MIssed Recycling Pick-Up",
    "date_created": "2022-10-05T13:56:53.000",
    "date_modified": "2022-10-05T13:56:54.000",
    "request_status": "Pending",
    "responsible_agency": "Department of Sanitation",
    "final_address": "2659 Iberville St",
    "address_councildis": "B",
    "status": "Assigned to Contractor",
    "contractor": "Richards Disposal",
    "rowid": "926327",
    "final_x": "3675732.35176",
    "final_y": "535453.225798",
    "longitude": "-90.08614731470516",
    "latitude": "29.966484589744436",
    "geocoded_column": {
      "latitude": "29.966484589744436",
      "longitude": "-90.08614731470516"
    }
  },
  {
    "service_request": "2022-926326",
    "request_type": "Roads/Drainage",
    "request_reason": "Catch Basin - Clogged",
    "date_created": "2022-10-05T13:55:19.000",
    "date_modified": "2022-10-05T13:56:17.000",
    "case_close_date": "2022-10-05T08:56:17.000",
    "request_status": "Closed",
    "responsible_agency": "Department of Public Works",
    "final_address": "3019 Martin Luther King, Jr. Blvd",
    "address_councildis": "B",
    "status": "Resolved",
    "rowid": "926326",
    "final_x": "3674941.87841",
    "final_y": "528308.661248",
    "longitude": "-90.08888866350759",
    "latitude": "29.946863058356012",
    "geocoded_column": {
      "latitude": "29.946863058356012",
      "longitude": "-90.08888866350759"
    }
  },
  {
    "service_request": "2022-926325",
    "request_type": "Property Maintenance",
    "request_reason": "Property Maintenance",
    "date_created": "2022-10-05T13:50:00.000",
    "date_modified": "2022-10-05T13:50:00.000",
    "request_status": "Pending",
    "responsible_agency": "Department of Code Enforcement",
    "final_address": "1403 Elysian Fields Ave",
    "address_councildis": "C",
    "status": "Pending",
    "rowid": "926325",
    "final_x": "3685021.74306",
    "final_y": "537458.664264",
    "longitude": "-90.05674102545808",
    "latitude": "29.97171756127339",
    "geocoded_column": {
      "latitude": "29.97171756127339",
      "longitude": "-90.05674102545808"
    }
  },
  {
    "service_request": "2022-926324",
    "request_type": "Trash/Recycling",
    "request_reason": "Missed Trash Pick-Up",
    "date_created": "2022-10-05T13:48:50.000",
    "date_modified": "2022-10-05T13:48:50.000",
    "request_status": "Pending",
    "responsible_agency": "Department of Sanitation",
    "final_address": "4030 Constance St",
    "address_councildis": "B",
    "status": "Assigned to Contractor",
    "contractor": "Richards Disposal",
    "rowid": "926324",
    "final_x": "3672303.54574",
    "final_y": "518497.635639",
    "longitude": "-90.09755294987349",
    "latitude": "29.919964433943438",
    "geocoded_column": {
      "latitude": "29.919964433943438",
      "longitude": "-90.09755294987349"
    }
  },
  {
    "service_request": "2022-926323",
    "request_type": "Trash/Recycling",
    "request_reason": "MIssed Recycling Pick-Up",
    "date_created": "2022-10-05T13:36:59.000",
    "date_modified": "2022-10-05T13:37:00.000",
    "request_status": "Pending",
    "responsible_agency": "Department of Sanitation",
    "final_address": "324 Delaronde St, New Orleans, Louisiana, 70114",
    "address_councildis": "C",
    "status": "Assigned to Contractor",
    "contractor": "Richards Disposal",
    "rowid": "926323",
    "final_x": "3686419.06268",
    "final_y": "530937.203842",
    "longitude": "-90.05255829676403",
    "latitude": "29.95374292195084",
    "geocoded_column": {
      "latitude": "29.95374292195084",
      "longitude": "-90.05255829676403"
    }
  },
  {
    "service_request": "2022-926322",
    "request_type": "Trash/Recycling",
    "request_reason": "Missed Trash Pick-Up",
    "date_created": "2022-10-05T13:36:24.000",
    "date_modified": "2022-10-05T13:36:25.000",
    "request_status": "Pending",
    "responsible_agency": "Department of Sanitation",
    "final_address": "1531 Leda St",
    "address_councildis": "A",
    "status": "Assigned to Contractor",
    "contractor": "Metro Disposal",
    "rowid": "926322",
    "final_x": "3675670.49941",
    "final_y": "541760.790284",
    "longitude": "-90.08612583010763",
    "latitude": "29.98383008624422",
    "geocoded_column": {
      "latitude": "29.98383008624422",
      "longitude": "-90.08612583010763"
    }
  },
  {
    "service_request": "2022-926321",
    "request_type": "Traffic Signals/Signs/Striping/Streetlights",
    "request_reason": "Street Light Outage/Malfunction",
    "date_created": "2022-10-05T13:33:02.000",
    "date_modified": "2022-10-05T13:33:03.000",
    "request_status": "Pending",
    "responsible_agency": "Department of Public Works",
    "final_address": "2700 BLK S Derbigny St",
    "address_councildis": "B",
    "status": "Pending",
    "contractor": "Legacy Professional Services",
    "rowid": "926321",
    "final_x": "3673067.3474",
    "final_y": "527130.062982",
    "longitude": "-90.09484747784998",
    "latitude": "29.943678145751193",
    "geocoded_column": {
      "latitude": "29.943678145751193",
      "longitude": "-90.09484747784998"
    }
  },
  {
    "service_request": "2022-926320",
    "request_type": "Parks & Parkways",
    "request_reason": "Request Tree Service (Right of Way/Public Property)",
    "date_created": "2022-10-05T13:30:28.000",
    "date_modified": "2022-10-05T13:30:28.000",
    "request_status": "Pending",
    "responsible_agency": "Department of Parks & Parkway",
    "final_address": "7340 Fieldston Rd",
    "address_councildis": "E",
    "status": "Pending",
    "rowid": "926320",
    "final_x": "3700659.04605",
    "final_y": "559858.048221",
    "longitude": "-90.00653723623822",
    "latitude": "30.032819179822038",
    "geocoded_column": {
      "latitude": "30.032819179822038",
      "longitude": "-90.00653723623822"
    }
  },
  {
    "service_request": "2022-926319",
    "request_type": "Roads/Drainage",
    "request_reason": "Street Flooding / Drainage",
    "date_created": "2022-10-05T13:30:21.000",
    "date_modified": "2022-10-05T13:30:21.000",
    "request_status": "Pending",
    "responsible_agency": "Department of Public Works",
    "final_address": "2405 S Tonti St",
    "address_councildis": "B",
    "status": "Pending",
    "rowid": "926319",
    "final_x": "3672814.35278",
    "final_y": "529348.788801",
    "longitude": "-90.09557057989228",
    "latitude": "29.949786429296335",
    "geocoded_column": {
      "latitude": "29.949786429296335",
      "longitude": "-90.09557057989228"
    }
  },
  {
    "service_request": "2022-926318",
    "request_type": "Trash/Recycling",
    "request_reason": "MIssed Recycling Pick-Up",
    "date_created": "2022-10-05T13:29:14.000",
    "date_modified": "2022-10-05T13:29:15.000",
    "request_status": "Pending",
    "responsible_agency": "Department of Sanitation",
    "final_address": "2352 Annunciation St",
    "address_councildis": "B",
    "status": "Assigned to Contractor",
    "contractor": "Richards Disposal",
    "rowid": "926318",
    "final_x": "3678835.92315",
    "final_y": "520647.370553",
    "longitude": "-90.07685898495332",
    "latitude": "29.92568017264135",
    "geocoded_column": {
      "latitude": "29.92568017264135",
      "longitude": "-90.07685898495332"
    }
  },
  {
    "service_request": "2022-926317",
    "request_type": "Trash/Recycling",
    "request_reason": "Missed Trash Pick-Up",
    "date_created": "2022-10-05T13:28:45.000",
    "date_modified": "2022-10-05T13:28:46.000",
    "case_close_date": "2022-09-17T19:00:00.000",
    "request_status": "Pending",
    "responsible_agency": "Department of Sanitation",
    "final_address": "3651 Tchoupitoulas St",
    "address_councildis": "B",
    "status": "Assigned to Contractor",
    "contractor": "Richards Disposal",
    "rowid": "926317",
    "final_x": "3674182.82171",
    "final_y": "517817.968438",
    "longitude": "-90.0916442245426",
    "latitude": "29.918039702540565",
    "geocoded_column": {
      "latitude": "29.918039702540565",
      "longitude": "-90.0916442245426"
    }
  },
  {
    "service_request": "2022-926316",
    "request_type": "Roads/Drainage",
    "request_reason": "Leaking Hydrant",
    "date_created": "2022-10-05T13:23:24.000",
    "date_modified": "2022-10-05T13:23:24.000",
    "request_status": "Pending",
    "responsible_agency": "Department of Public Works",
    "final_address": "S Dupre St & S Broad Ave, New Orleans, Louisiana, 70125",
    "status": "Pending",
    "rowid": "926316",
    "longitude": "0.0",
    "latitude": "0.0",
    "geocoded_column": {
      "latitude": "0.0",
      "longitude": "0.0"
    }
  },
  {
    "service_request": "2022-926315",
    "request_type": "Trash/Recycling",
    "request_reason": "Order Trash Cart",
    "date_created": "2022-10-05T13:19:42.000",
    "date_modified": "2022-10-05T13:19:42.000",
    "request_status": "Pending",
    "responsible_agency": "Department of Sanitation",
    "final_address": "912 Independence St",
    "address_councildis": "C",
    "status": "Assigned to Contractor",
    "contractor": "Metro Disposal",
    "rowid": "926315",
    "final_x": "3690757.98204",
    "final_y": "534853.516038",
    "longitude": "-90.03871812453353",
    "latitude": "29.96437734828112",
    "geocoded_column": {
      "latitude": "29.96437734828112",
      "longitude": "-90.03871812453353"
    }
  },
  {
    "service_request": "2022-926314",
    "request_type": "Trash/Recycling",
    "request_reason": "Missed Trash Pick-Up",
    "date_created": "2022-10-05T13:19:04.000",
    "date_modified": "2022-10-05T13:19:04.000",
    "request_status": "Pending",
    "responsible_agency": "Department of Sanitation",
    "final_address": "1239 Baronne St",
    "address_councildis": "B",
    "status": "Assigned to Contractor",
    "contractor": "Richards Disposal",
    "rowid": "926314",
    "final_x": "3678750.10453",
    "final_y": "526614.716158",
    "longitude": "-90.07692334020624",
    "latitude": "29.94209099879861",
    "geocoded_column": {
      "latitude": "29.94209099879861",
      "longitude": "-90.07692334020624"
    }
  },
  {
    "service_request": "2022-926313",
    "request_type": "Roads/Drainage",
    "request_reason": "Debris in Roadway",
    "date_created": "2022-10-05T13:17:21.000",
    "date_modified": "2022-10-05T13:17:21.000",
    "request_status": "Pending",
    "responsible_agency": "Department of Public Works",
    "final_address": "1410 Euterpe St",
    "address_councildis": "B",
    "status": "Pending",
    "rowid": "926313",
    "final_x": "3679625.98485",
    "final_y": "524509.712572",
    "longitude": "-90.07423102610045",
    "latitude": "29.936276499618707",
    "geocoded_column": {
      "latitude": "29.936276499618707",
      "longitude": "-90.07423102610045"
    }
  },
  {
    "service_request": "2022-926312",
    "request_type": "Traffic Signals/Signs/Striping/Streetlights",
    "request_reason": "Street Light Outage/Malfunction",
    "date_created": "2022-10-05T13:17:17.000",
    "date_modified": "2022-10-05T13:29:34.000",
    "request_status": "Pending",
    "responsible_agency": "Department of Public Works",
    "final_address": "2712 S Derbigny St",
    "address_councildis": "B",
    "status": "Pending",
    "contractor": "Legacy Professional Services",
    "rowid": "926312",
    "final_x": "3673110.87892",
    "final_y": "527117.174527",
    "longitude": "-90.0947104768823",
    "latitude": "29.94364141289886",
    "geocoded_column": {
      "latitude": "29.94364141289886",
      "longitude": "-90.0947104768823"
    }
  },
  {
    "service_request": "2022-926311",
    "request_type": "Trash/Recycling",
    "request_reason": "Request a Large Item Pick Up",
    "date_created": "2022-10-05T13:13:42.000",
    "date_modified": "2022-10-05T13:13:43.000",
    "case_close_date": "2021-09-27T19:00:00.000",
    "request_status": "Pending",
    "responsible_agency": "Department of Sanitation",
    "final_address": "4670 Baccich St",
    "address_councildis": "D",
    "status": "Assigned to Contractor",
    "contractor": "Metro Disposal",
    "rowid": "926311",
    "final_x": "3687701.30639",
    "final_y": "550322.771348",
    "longitude": "-90.0478227870191",
    "latitude": "30.00700689465503",
    "geocoded_column": {
      "latitude": "30.00700689465503",
      "longitude": "-90.0478227870191"
    }
  },
  {
    "service_request": "2022-926310",
    "request_type": "Abandoned Vehicles",
    "request_reason": "Abandoned/Junk Vehicles",
    "date_created": "2022-10-05T13:13:23.000",
    "date_modified": "2022-10-05T13:13:23.000",
    "request_status": "Pending",
    "responsible_agency": "Department of Public Works",
    "final_address": "624 S Scott St",
    "address_councildis": "B",
    "status": "Pending",
    "rowid": "926310",
    "final_x": "3670467.19457",
    "final_y": "536047.910855",
    "longitude": "-90.10275449061004",
    "latitude": "29.968276302925755",
    "geocoded_column": {
      "latitude": "29.968276302925755",
      "longitude": "-90.10275449061004"
    }
  },
  {
    "service_request": "2022-926309",
    "request_type": "Trash/Recycling",
    "request_reason": "Illegal Dumping",
    "date_created": "2022-10-05T13:12:29.000",
    "date_modified": "2022-10-05T13:36:41.000",
    "request_status": "Pending",
    "responsible_agency": "Department of Sanitation",
    "final_address": "2700 S Derbigny St",
    "address_councildis": "B",
    "status": "Pending",
    "rowid": "926309",
    "final_x": "3673189.81953",
    "final_y": "527165.230143",
    "longitude": "-90.09445959958566",
    "latitude": "29.943771203490638",
    "geocoded_column": {
      "latitude": "29.943771203490638",
      "longitude": "-90.09445959958566"
    }
  },
  {
    "service_request": "2022-926308",
    "request_type": "Parks & Parkways",
    "request_reason": "Request Tree Service (Right of Way/Public Property)",
    "date_created": "2022-10-05T13:12:24.000",
    "date_modified": "2022-10-05T13:12:24.000",
    "request_status": "Pending",
    "responsible_agency": "Department of Parks & Parkway",
    "final_address": "1403 Adams St",
    "address_councildis": "A",
    "status": "Pending",
    "rowid": "926308",
    "final_x": "3663599.4864",
    "final_y": "527900.262335",
    "longitude": "-90.12471452275781",
    "latitude": "29.946073935321923",
    "geocoded_column": {
      "latitude": "29.946073935321923",
      "longitude": "-90.12471452275781"
    }
  },
  {
    "service_request": "2022-926307",
    "request_type": "Abandoned Vehicles",
    "request_reason": "Abandoned/Junk Vehicles",
    "date_created": "2022-10-05T13:08:52.000",
    "date_modified": "2022-10-05T13:08:53.000",
    "request_status": "Pending",
    "responsible_agency": "Department of Public Works",
    "final_address": "LE BOEUF ST & PELICAN AVE",
    "address_councildis": "C",
    "status": "Pending",
    "rowid": "926307",
    "final_x": "3689881.4",
    "final_y": "530681.58",
    "longitude": "-90.04163480904984",
    "latitude": "29.952933176866093",
    "geocoded_column": {
      "latitude": "29.952933176866093",
      "longitude": "-90.04163480904984"
    }
  },
  {
    "service_request": "2022-926306",
    "request_type": "Traffic Signals/Signs/Striping/Streetlights",
    "request_reason": "Street Light Outage/Malfunction",
    "date_created": "2022-10-05T13:08:45.000",
    "date_modified": "2022-10-05T13:08:46.000",
    "request_status": "Pending",
    "responsible_agency": "Department of Public Works",
    "final_address": "541 Madison St",
    "address_councildis": "C",
    "status": "Pending",
    "contractor": "Legacy Professional Services",
    "rowid": "926306",
    "final_x": "3683238.42108",
    "final_y": "532679.320964",
    "longitude": "-90.06254042139756",
    "latitude": "29.958630522851877",
    "geocoded_column": {
      "latitude": "29.958630522851877",
      "longitude": "-90.06254042139756"
    }
  },
  {
    "service_request": "2022-926305",
    "request_type": "Property Maintenance",
    "request_reason": "Property Maintenance",
    "date_created": "2022-10-05T13:07:52.000",
    "date_modified": "2022-10-05T13:07:53.000",
    "request_status": "Pending",
    "responsible_agency": "Department of Code Enforcement",
    "final_address": "3222 N Roman St",
    "address_councildis": "D",
    "status": "Pending",
    "rowid": "926305",
    "final_x": "3690356.77059",
    "final_y": "538417.437449",
    "longitude": "-90.03985806768375",
    "latitude": "29.974189336064104",
    "geocoded_column": {
      "latitude": "29.974189336064104",
      "longitude": "-90.03985806768375"
    }
  },
  {
    "service_request": "2022-926304",
    "request_type": "Trash/Recycling",
    "request_reason": "Replace Trash Cart",
    "date_created": "2022-10-05T13:06:57.000",
    "date_modified": "2022-10-05T13:06:58.000",
    "request_status": "Pending",
    "responsible_agency": "Department of Sanitation",
    "final_address": "6465 Louis Xiv St",
    "address_councildis": "A",
    "status": "Assigned to Contractor",
    "contractor": "Metro Disposal",
    "rowid": "926304",
    "final_x": "3668469.0137",
    "final_y": "550581.825812",
    "longitude": "-90.10857425404971",
    "latitude": "30.008298461780324",
    "geocoded_column": {
      "latitude": "30.008298461780324",
      "longitude": "-90.10857425404971"
    }
  },
  {
    "service_request": "2022-926303",
    "request_type": "Property Maintenance",
    "request_reason": "Property Maintenance",
    "date_created": "2022-10-05T13:06:41.000",
    "date_modified": "2022-10-05T13:06:41.000",
    "request_status": "Pending",
    "responsible_agency": "Department of Code Enforcement",
    "final_address": "4917 Tulip St",
    "address_councildis": "E",
    "status": "Pending",
    "rowid": "926303",
    "final_x": "3702033.09975",
    "final_y": "555211.064281",
    "longitude": "-90.00236570984612",
    "latitude": "30.01999794832584",
    "geocoded_column": {
      "latitude": "30.01999794832584",
      "longitude": "-90.00236570984612"
    }
  },
  {
    "service_request": "2022-926302",
    "request_type": "Parks & Parkways",
    "request_reason": "Request Tree Service (Right of Way/Public Property)",
    "date_created": "2022-10-05T13:04:38.000",
    "date_modified": "2022-10-05T13:04:38.000",
    "request_status": "Pending",
    "responsible_agency": "Department of Parks & Parkway",
    "final_address": "900 Napoleon Ave",
    "address_councildis": "B",
    "status": "Pending",
    "rowid": "926302",
    "final_x": "3670816.23329",
    "final_y": "518803.454263",
    "longitude": "-90.10223731581735",
    "latitude": "29.920849360685466",
    "geocoded_column": {
      "latitude": "29.920849360685466",
      "longitude": "-90.10223731581735"
    }
  },
  {
    "service_request": "2022-926301",
    "request_type": "Abandoned Vehicles",
    "request_reason": "Abandoned/Junk Vehicles",
    "date_created": "2022-10-05T13:02:19.000",
    "date_modified": "2022-10-05T13:02:19.000",
    "request_status": "Pending",
    "responsible_agency": "Department of Public Works",
    "final_address": "4725 Crowder Blvd",
    "address_councildis": "E",
    "status": "Pending",
    "rowid": "926301",
    "final_x": "3706558.65041",
    "final_y": "555623.069017",
    "longitude": "-89.98805124686034",
    "latitude": "30.02098548502369",
    "geocoded_column": {
      "latitude": "30.02098548502369",
      "longitude": "-89.98805124686034"
    }
  },
  {
    "service_request": "2022-926300",
    "request_type": "Trash/Recycling",
    "request_reason": "Order Recycling Cart",
    "date_created": "2022-10-05T13:01:29.000",
    "date_modified": "2022-10-05T13:01:29.000",
    "request_status": "Pending",
    "responsible_agency": "Department of Sanitation",
    "final_address": "330 N Lopez St",
    "address_councildis": "B",
    "status": "Pending",
    "rowid": "926300",
    "final_x": "3674555.19329",
    "final_y": "537053.366152",
    "longitude": "-90.08980993165234",
    "latitude": "29.970919612301483",
    "geocoded_column": {
      "latitude": "29.970919612301483",
      "longitude": "-90.08980993165234"
    }
  },
  {
    "service_request": "2022-926299",
    "request_type": "Property Maintenance",
    "request_reason": "Property Maintenance",
    "date_created": "2022-10-05T12:59:18.000",
    "date_modified": "2022-10-05T12:59:19.000",
    "request_status": "Pending",
    "responsible_agency": "Department of Code Enforcement",
    "final_address": "5617 Arts St",
    "address_councildis": "D",
    "status": "Pending",
    "rowid": "926299",
    "final_x": "3685861.23234",
    "final_y": "553721.155607",
    "longitude": "-90.05351614945394",
    "latitude": "30.016407843073594",
    "geocoded_column": {
      "latitude": "30.016407843073594",
      "longitude": "-90.05351614945394"
    }
  },
  {
    "service_request": "2022-926298",
    "request_type": "Trash/Recycling",
    "request_reason": "Request a Large Item Pick Up",
    "date_created": "2022-10-05T12:58:34.000",
    "date_modified": "2022-10-05T12:58:35.000",
    "request_status": "Pending",
    "responsible_agency": "Department of Sanitation",
    "final_address": "211 S Dupre St",
    "address_councildis": "B",
    "status": "Assigned to Contractor",
    "contractor": "Richards Disposal",
    "rowid": "926298",
    "final_x": "3674255.35752",
    "final_y": "535256.85479",
    "longitude": "-90.09081837579402",
    "latitude": "29.96598875737042",
    "geocoded_column": {
      "latitude": "29.96598875737042",
      "longitude": "-90.09081837579402"
    }
  },
  {
    "service_request": "2022-926297",
    "request_type": "Trash/Recycling",
    "request_reason": "Replace Trash Cart",
    "date_created": "2022-10-05T12:58:05.000",
    "date_modified": "2022-10-05T12:58:06.000",
    "request_status": "Pending",
    "responsible_agency": "Department of Sanitation",
    "final_address": "211 S Dupre St",
    "address_councildis": "B",
    "status": "Assigned to Contractor",
    "contractor": "Richards Disposal",
    "rowid": "926297",
    "final_x": "3674255.35752",
    "final_y": "535256.85479",
    "longitude": "-90.09081837579402",
    "latitude": "29.96598875737042",
    "geocoded_column": {
      "latitude": "29.96598875737042",
      "longitude": "-90.09081837579402"
    }
  },
  {
    "service_request": "2022-926296",
    "request_type": "Parks & Parkways",
    "request_reason": "Request Grass Cutting Service (City Owned Property)",
    "date_created": "2022-10-05T12:48:34.000",
    "date_modified": "2022-10-05T12:48:34.000",
    "request_status": "Pending",
    "responsible_agency": "Department of Parks & Parkway",
    "final_address": "ROBERT E LEE BLVD & LEON C SIMON DR",
    "address_councildis": "D",
    "status": "Pending",
    "rowid": "926296",
    "final_x": "3679080.4",
    "final_y": "555434.88",
    "longitude": "-90.0748811862291",
    "latitude": "30.02132646849725",
    "geocoded_column": {
      "latitude": "30.02132646849725",
      "longitude": "-90.0748811862291"
    }
  },
  {
    "service_request": "2022-926295",
    "request_type": "Trash/Recycling",
    "request_reason": "Replace Trash Cart",
    "date_created": "2022-10-05T12:48:22.000",
    "date_modified": "2022-10-05T12:48:23.000",
    "request_status": "Pending",
    "responsible_agency": "Department of Sanitation",
    "final_address": "935 Joseph St",
    "address_councildis": "A",
    "status": "Assigned to Contractor",
    "contractor": "Richards Disposal",
    "rowid": "926295",
    "final_x": "3666320.08705",
    "final_y": "519603.266104",
    "longitude": "-90.11640284103431",
    "latitude": "29.923180654381532",
    "geocoded_column": {
      "latitude": "29.923180654381532",
      "longitude": "-90.11640284103431"
    }
  },
  {
    "service_request": "2022-926294",
    "request_type": "Trash/Recycling",
    "request_reason": "Missed Trash Pick-Up",
    "date_created": "2022-10-05T12:47:56.000",
    "date_modified": "2022-10-05T12:47:56.000",
    "request_status": "Pending",
    "responsible_agency": "Department of Sanitation",
    "final_address": "3339 Belfort St",
    "address_councildis": "A",
    "status": "Assigned to Contractor",
    "contractor": "Metro Disposal",
    "rowid": "926294",
    "final_x": "3677374.97806",
    "final_y": "542672.620109",
    "longitude": "-90.08071068435657",
    "latitude": "29.98628617809371",
    "geocoded_column": {
      "latitude": "29.98628617809371",
      "longitude": "-90.08071068435657"
    }
  },