[
  {
    "service_request": "2025-1170570",
    "request_type": "Property Maintenance",
    "request_reason": "Property Maintenance",
    "date_created": "2025-02-20T23:30:10.000",
    "date_modified": "2025-02-20T23:30:13.000",
    "request_status": "Pending",
    "responsible_agency": "Department of Code Enforcement",
    "final_address": "107 W Brooks St",
    "address_councildis": "A",
    "status": "Pending",
    "rowid": "1170570",
    "final_x": "3665910.80506",
    "final_y": "546637.385745",
    "longitude": "-90.11678877104501",
    "latitude": "29.997527552355287",
    "geocoded_column": {
      "latitude": "29.997527552355287",
      "longitude": "-90.11678877104501"
    }
  },
  {
    "service_request": "2025-1170569",
    "request_type": "Trash/Recycling",
    "request_reason": "Request a Large Item Pick Up",
    "date_created": "2025-02-20T23:06:18.000",
    "date_modified": "2025-02-20T23:06:21.000",
    "request_status": "Pending",
    "responsible_agency": "Department of Sanitation",
    "final_address": "7831 Keats St",
    "address_councildis": "E",
    "status": "Assigned to Contractor",
    "contractor": "Waste Pro",
    "rowid": "1170569",
    "final_x": "3696140.5889",
    "final_y": "559669.186589",
    "longitude": "-90.02082272182857",
    "latitude": "30.03244296991038",
    "geocoded_column": {
      "latitude": "30.03244296991038",
      "longitude": "-90.02082272182857"
    }
  },
  {
    "service_request": "2025-1170568",
    "request_type": "Streetlights",
    "request_reason": "Streetlight Knocked Down/Leaning",
    "date_created": "2025-02-20T21:13:53.000",
    "date_modified": "2025-02-20T21:13:54.000",
    "request_status": "Pending",
    "responsible_agency": "Department of Public Works",
    "final_address": "1500 Gallier St",
    "address_councildis": "D",
    "status": "Pending",
    "contractor": "Legacy Professional Services",
    "rowid": "1170568",
    "final_x": "3690792.30652",
    "final_y": "537183.931016",
    "longitude": "-90.03852657086316",
    "latitude": "29.97078410360367",
    "geocoded_column": {
      "latitude": "29.97078410360367",
      "longitude": "-90.03852657086316"
    }
  },
  {
    "service_request": "2025-1170567",
    "request_type": "Trash/Recycling",
    "request_reason": "Request a Large Item Pick Up",
    "date_created": "2025-02-20T20:51:53.000",
    "date_modified": "2025-02-20T20:51:55.000",
    "request_status": "Pending",
    "responsible_agency": "Department of Sanitation",
    "final_address": "7739 Cohn St",
    "address_councildis": "A",
    "status": "Assigned to Contractor",
    "contractor": "IV Waste",
    "rowid": "1170567",
    "final_x": "3664514.04007",
    "final_y": "529434.569473",
    "longitude": "-90.12177572987618",
    "latitude": "29.950266228653692",
    "geocoded_column": {
      "latitude": "29.950266228653692",
      "longitude": "-90.12177572987618"
    }
  },
  {
    "service_request": "2025-1170566",
    "request_type": "Streetlights",
    "request_reason": "Streetlight Outage/Malfunction",
    "date_created": "2025-02-20T20:38:41.000",
    "date_modified": "2025-02-20T20:38:42.000",
    "request_status": "Pending",
    "responsible_agency": "Department of Public Works",
    "final_address": "400 Amethyst St",
    "address_councildis": "D",
    "status": "Pending",
    "contractor": "Legacy Professional Services",
    "rowid": "1170566",
    "final_x": "3667776.21857",
    "final_y": "556463.971994",
    "longitude": "-90.11056470516088",
    "latitude": "30.0244926323995",
    "geocoded_column": {
      "latitude": "30.0244926323995",
      "longitude": "-90.11056470516088"
    }
  },
  {
    "service_request": "2025-1170565",
    "request_type": "Streetlights",
    "request_reason": "Streetlight Outage/Malfunction",
    "date_created": "2025-02-20T20:36:31.000",
    "date_modified": "2025-02-20T20:36:32.000",
    "request_status": "Pending",
    "responsible_agency": "Department of Public Works",
    "final_address": "418 Topaz St",
    "address_councildis": "D",
    "status": "Pending",
    "contractor": "Legacy Professional Services",
    "rowid": "1170565",
    "final_x": "3667889.05914",
    "final_y": "556342.454042",
    "longitude": "-90.11021224627991",
    "latitude": "30.02415518982556",
    "geocoded_column": {
      "latitude": "30.02415518982556",
      "longitude": "-90.11021224627991"
    }
  },
  {
    "service_request": "2025-1170564",
    "request_type": "Abandoned Vehicles",
    "request_reason": "Abandoned/Junk Vehicles",
    "date_created": "2025-02-20T20:34:12.000",
    "date_modified": "2025-02-20T20:34:13.000",
    "request_status": "Pending",
    "responsible_agency": "Department of Public Works",
    "status": "Pending",
    "rowid": "1170564",
    "longitude": "0.0",
    "latitude": "0.0",
    "geocoded_column": {
      "latitude": "0.0",
      "longitude": "0.0"
    }
  },
  {
    "service_request": "2025-1170563",
    "request_type": "Streetlights",
    "request_reason": "Streetlight Outage/Malfunction",
    "date_created": "2025-02-20T20:33:55.000",
    "date_modified": "2025-02-20T20:33:56.000",
    "request_status": "Pending",
    "responsible_agency": "Department of Public Works",
    "final_address": "455 Amethyst St",
    "address_councildis": "D",
    "status": "Pending",
    "contractor": "Legacy Professional Services",
    "rowid": "1170563",
    "final_x": "3667900.3657",
    "final_y": "556806.116186",
    "longitude": "-90.11016087987852",
    "latitude": "30.025429763583645",
    "geocoded_column": {
      "latitude": "30.025429763583645",
      "longitude": "-90.11016087987852"
    }
  },
  {
    "service_request": "2025-1170562",
    "request_type": "Abandoned Vehicles",
    "request_reason": "Abandoned/Junk Vehicles",
    "date_created": "2025-02-20T20:33:52.000",
    "date_modified": "2025-02-20T20:33:54.000",
    "request_status": "Pending",
    "responsible_agency": "Department of Public Works",
    "status": "Pending",
    "rowid": "1170562",
    "longitude": "0.0",
    "latitude": "0.0",
    "geocoded_column": {
      "latitude": "0.0",
      "longitude": "0.0"
    }
  },
  {
    "service_request": "2025-1170561",
    "request_type": "Streetlights",
    "request_reason": "Streetlight Outage/Malfunction",
    "date_created": "2025-02-20T20:31:40.000",
    "date_modified": "2025-02-20T20:31:41.000",
    "request_status": "Pending",
    "responsible_agency": "Department of Public Works",
    "final_address": "576 Lakeshore Prkwy",
    "address_councildis": "D",
    "status": "Pending",
    "contractor": "Legacy Professional Services",
    "rowid": "1170561",
    "final_x": "3668880.31822",
    "final_y": "556988.385754",
    "longitude": "-90.10705819942028",
    "latitude": "30.025902139655276",
    "geocoded_column": {
      "latitude": "30.025902139655276",
      "longitude": "-90.10705819942028"
    }
  },
  {
    "service_request": "2025-1170560",
    "request_type": "Streetlights",
    "request_reason": "Streetlight Outage/Malfunction",
    "date_created": "2025-02-20T20:29:04.000",
    "date_modified": "2025-02-20T20:29:04.000",
    "request_status": "Pending",
    "responsible_agency": "Department of Public Works",
    "final_address": "7263 Canal Blvd",
    "address_councildis": "D",
    "status": "Pending",
    "contractor": "Legacy Professional Services",
    "rowid": "1170560",
    "final_x": "3669371.82766",
    "final_y": "555282.053849",
    "longitude": "-90.10556286244523",
    "latitude": "30.021195863670865",
    "geocoded_column": {
      "latitude": "30.021195863670865",
      "longitude": "-90.10556286244523"
    }
  },
  {
    "service_request": "2025-1170559",
    "request_type": "Streetlights",
    "request_reason": "Streetlight Outage/Malfunction",
    "date_created": "2025-02-20T20:26:55.000",
    "date_modified": "2025-02-20T20:26:56.000",
    "request_status": "Pending",
    "responsible_agency": "Department of Public Works",
    "final_address": "14000 Chef Menteur Hwy",
    "address_councildis": "E",
    "status": "Pending",
    "contractor": "Legacy Professional Services",
    "rowid": "1170559",
    "final_x": "3728264.63225",
    "final_y": "560334.139677",
    "longitude": "-89.91928394517917",
    "latitude": "30.033220420062104",
    "geocoded_column": {
      "latitude": "30.033220420062104",
      "longitude": "-89.91928394517917"
    }
  },
  {
    "service_request": "2025-1170558",
    "request_type": "Mosquito, Termite & Rodent Control",
    "request_reason": "Non-Rodent Complaint (Possums & Snakes)",
    "date_created": "2025-02-20T20:10:49.000",
    "date_modified": "2025-02-20T21:09:00.000",
    "case_close_date": "2025-02-20T15:08:59.000",
    "request_status": "Closed",
    "responsible_agency": "Mosquito, Termite & Rodent Control Board",
    "final_address": "2815 DAbadie St",
    "address_councildis": "D",
    "status": "Resolved",
    "rowid": "1170558",
    "final_x": "3678864.80853",
    "final_y": "541319.096972",
    "longitude": "-90.07605179436885",
    "latitude": "29.982519594058523",
    "geocoded_column": {
      "latitude": "29.982519594058523",
      "longitude": "-90.07605179436885"
    }
  },
  {
    "service_request": "2025-1170557",
    "request_type": "Healthy Homes",
    "request_reason": "Healthy Homes",
    "date_created": "2025-02-20T19:54:25.000",
    "date_modified": "2025-02-20T19:54:27.000",
    "request_status": "Pending",
    "responsible_agency": "Department of Code Enforcement",
    "final_address": "3308 Prytania St Unit 7",
    "address_councildis": "B",
    "status": "Pending",
    "rowid": "1170557",
    "final_x": "3674692.26984",
    "final_y": "521102.501753",
    "longitude": "-90.0899236693187",
    "latitude": "29.927055924160435",
    "geocoded_column": {
      "latitude": "29.927055924160435",
      "longitude": "-90.0899236693187"
    }
  },
  {
    "service_request": "2025-1170556",
    "request_type": "Trash/Recycling",
    "request_reason": "Request a Large Item Pick Up",
    "date_created": "2025-02-20T19:28:09.000",
    "date_modified": "2025-02-20T19:28:12.000",
    "request_status": "Pending",
    "responsible_agency": "Department of Sanitation",
    "final_address": "8 Annandale Ct",
    "address_councildis": "C",
    "status": "Assigned to Contractor",
    "contractor": "Richards Disposal",
    "rowid": "1170556",
    "final_x": "3723057.16767",
    "final_y": "512217.588209",
    "longitude": "-89.93759197451591",
    "latitude": "29.901093901151842",
    "geocoded_column": {
      "latitude": "29.901093901151842",
      "longitude": "-89.93759197451591"
    }
  },
  {
    "service_request": "2025-1170555",
    "request_type": "Abandoned Vehicles",
    "request_reason": "Abandoned/Junk Vehicles",
    "date_created": "2025-02-20T18:53:03.000",
    "date_modified": "2025-02-20T18:53:05.000",
    "request_status": "Pending",
    "responsible_agency": "Department of Public Works",
    "final_address": "629 S Gayoso St",
    "address_councildis": "B",
    "status": "Pending",
    "rowid": "1170555",
    "final_x": "3672826.78004",
    "final_y": "534054.018501",
    "longitude": "-90.09537083121475",
    "latitude": "29.962723878770436",
    "geocoded_column": {
      "latitude": "29.962723878770436",
      "longitude": "-90.09537083121475"
    }
  },
  {
    "service_request": "2025-1170554",
    "request_type": "Trash/Recycling",
    "request_reason": "Request a Large Item Pick Up",
    "date_created": "2025-02-20T18:49:45.000",
    "date_modified": "2025-02-20T18:49:47.000",
    "request_status": "Pending",
    "responsible_agency": "Department of Sanitation",
    "final_address": "4653 Press Dr",
    "address_councildis": "D",
    "status": "Assigned to Contractor",
    "contractor": "IV Waste",
    "rowid": "1170554",
    "final_x": "3689778.6815",
    "final_y": "550493.85762",
    "longitude": "-90.0412537232611",
    "latitude": "30.00741307262872",
    "geocoded_column": {
      "latitude": "30.00741307262872",
      "longitude": "-90.0412537232611"
    }
  },
  {
    "service_request": "2025-1170553",
    "request_type": "Drainage",
    "request_reason": "Ditch and Culvert Maintenance",
    "date_created": "2025-02-20T18:31:51.000",
    "date_modified": "2025-02-20T18:31:53.000",
    "request_status": "Pending",
    "responsible_agency": "Department of Public Works",
    "final_address": "7641 Poitevent Ave",
    "address_councildis": "E",
    "status": "Pending",
    "rowid": "1170553",
    "final_x": "3706950.86257",
    "final_y": "564268.220705",
    "longitude": "-89.98649090079088",
    "latitude": "30.04474358493448",
    "geocoded_column": {
      "latitude": "30.04474358493448",
      "longitude": "-89.98649090079088"
    }
  },
  {
    "service_request": "2025-1170552",
    "request_type": "Trash/Recycling",
    "request_reason": "Request a Large Item Pick Up",
    "date_created": "2025-02-20T18:31:38.000",
    "date_modified": "2025-02-20T18:31:40.000",
    "request_status": "Pending",
    "responsible_agency": "Department of Sanitation",
    "final_address": "1624 Southlawn Blvd",
    "address_councildis": "C",
    "status": "Assigned to Contractor",
    "contractor": "Richards Disposal",
    "rowid": "1170552",
    "final_x": "3695207.94045",
    "final_y": "525264.939901",
    "longitude": "-90.02501131298227",
    "latitude": "29.937873115332746",
    "geocoded_column": {
      "latitude": "29.937873115332746",
      "longitude": "-90.02501131298227"
    }
  },
  {
    "service_request": "2025-1170551",
    "request_type": "Trash/Recycling",
    "request_reason": "Replace Trash Cart",
    "date_created": "2025-02-20T18:27:07.000",
    "date_modified": "2025-02-20T18:27:09.000",
    "request_status": "Pending",
    "responsible_agency": "Department of Sanitation",
    "final_address": "7741 Poitevent Ave",
    "address_councildis": "E",
    "status": "Assigned to Contractor",
    "contractor": "Waste Pro",
    "rowid": "1170551",
    "final_x": "3706929.75812",
    "final_y": "564427.086881",
    "longitude": "-89.98655169872356",
    "latitude": "30.045181085642405",
    "geocoded_column": {
      "latitude": "30.045181085642405",
      "longitude": "-89.98655169872356"
    }
  },
  {
    "service_request": "2025-1170550",
    "request_type": "Alley Ways",
    "request_reason": "Alley Way Regrading",
    "date_created": "2025-02-20T18:15:58.000",
    "date_modified": "2025-02-20T18:16:02.000",
    "request_status": "Pending",
    "responsible_agency": "Department of Public Works",
    "final_address": "6052 Canal Blvd",
    "address_councildis": "A",
    "status": "Pending",
    "rowid": "1170550",
    "final_x": "3668390.52782",
    "final_y": "547782.911186",
    "longitude": "-90.10891670659126",
    "latitude": "30.00060472721618",
    "geocoded_column": {
      "latitude": "30.00060472721618",
      "longitude": "-90.10891670659126"
    }
  },
  {
    "service_request": "2025-1170549",
    "request_type": "Trash/Recycling",
    "request_reason": "Illegal Dumping",
    "date_created": "2025-02-20T17:43:28.000",
    "date_modified": "2025-02-20T17:43:31.000",
    "request_status": "Pending",
    "responsible_agency": "Department of Sanitation",
    "final_address": "2102 Dublin St",
    "address_councildis": "A",
    "status": "Pending",
    "rowid": "1170549",
    "final_x": "3663838.35571",
    "final_y": "531015.046082",
    "longitude": "-90.12385652100544",
    "latitude": "29.95463165544035",
    "geocoded_column": {
      "latitude": "29.95463165544035",
      "longitude": "-90.12385652100544"
    }
  },
  {
    "service_request": "2025-1170548",
    "request_type": "Trash/Recycling",
    "request_reason": "Illegal Dumping",
    "date_created": "2025-02-20T17:41:13.000",
    "date_modified": "2025-02-20T17:41:16.000",
    "request_status": "Pending",
    "responsible_agency": "Department of Sanitation",
    "final_address": "126 Huntlee Dr",
    "address_councildis": "C",
    "status": "Pending",
    "rowid": "1170548",
    "final_x": "3702488.56874",
    "final_y": "523997.981308",
    "longitude": "-90.00207240732516",
    "latitude": "29.934158834015353",
    "geocoded_column": {
      "latitude": "29.934158834015353",
      "longitude": "-90.00207240732516"
    }
  },
  {
    "service_request": "2025-1170547",
    "request_type": "Roads and Streets",
    "request_reason": "Pothole",
    "date_created": "2025-02-20T17:33:33.000",
    "date_modified": "2025-02-20T17:33:35.000",
    "request_status": "Pending",
    "responsible_agency": "Department of Public Works",
    "final_address": "6000 Mandeville St, New Orleans, Louisiana, 70122",
    "address_councildis": "D",
    "status": "Pending",
    "rowid": "1170547",
    "final_x": "3684226.22825",
    "final_y": "555055.322841",
    "longitude": "-90.0586351544003",
    "latitude": "30.02012642505343",
    "geocoded_column": {
      "latitude": "30.02012642505343",
      "longitude": "-90.0586351544003"
    }
  },
  {
    "service_request": "2025-1170546",
    "request_type": "Trash/Recycling",
    "request_reason": "Order Recycling Cart",
    "date_created": "2025-02-20T17:27:26.000",
    "date_modified": "2025-02-20T17:27:28.000",
    "request_status": "Pending",
    "responsible_agency": "Department of Sanitation",
    "final_address": "6122 Argonne Blvd",
    "address_councildis": "A",
    "status": "Pending",
    "rowid": "1170546",
    "final_x": "3670171.64769",
    "final_y": "548013.923602",
    "longitude": "-90.1032821786694",
    "latitude": "30.001187477773907",
    "geocoded_column": {
      "latitude": "30.001187477773907",
      "longitude": "-90.1032821786694"
    }
  },
  {
    "service_request": "2025-1170545",
    "request_type": "Trash/Recycling",
    "request_reason": "Repair Trash Cart",
    "date_created": "2025-02-20T17:26:32.000",
    "date_modified": "2025-02-20T17:26:34.000",
    "request_status": "Pending",
    "responsible_agency": "Department of Sanitation",
    "final_address": "6122 Argonne Blvd",
    "address_councildis": "A",
    "status": "Assigned to Contractor",
    "contractor": "IV Waste",
    "rowid": "1170545",
    "final_x": "3670171.64769",
    "final_y": "548013.923602",
    "longitude": "-90.1032821786694",
    "latitude": "30.001187477773907",
    "geocoded_column": {
      "latitude": "30.001187477773907",
      "longitude": "-90.1032821786694"
    }
  },
  {
    "service_request": "2025-1170544",
    "request_type": "Trash/Recycling",
    "request_reason": "Replace Recycling Cart",
    "date_created": "2025-02-20T17:25:42.000",
    "date_modified": "2025-02-20T17:25:43.000",
    "request_status": "Pending",
    "responsible_agency": "Department of Sanitation",
    "final_address": "2672 Lepage St",
    "address_councildis": "A",
    "status": "Pending",
    "rowid": "1170544",
    "final_x": "3677984.47797",
    "final_y": "539623.023242",
    "longitude": "-90.07889096303887",
    "latitude": "29.97788250881116",
    "geocoded_column": {
      "latitude": "29.97788250881116",
      "longitude": "-90.07889096303887"
    }
  },
  {
    "service_request": "2025-1170543",
    "request_type": "Trash/Recycling",
    "request_reason": "Replace Recycling Cart",
    "date_created": "2025-02-20T17:23:57.000",
    "date_modified": "2025-02-20T17:24:00.000",
    "request_status": "Pending",
    "responsible_agency": "Department of Sanitation",
    "final_address": "2674 Lepage St",
    "address_councildis": "A",
    "status": "Pending",
    "rowid": "1170543",
    "final_x": "3677968.85294",
    "final_y": "539628.926026",
    "longitude": "-90.07894010825365",
    "latitude": "29.977899209776595",
    "geocoded_column": {
      "latitude": "29.977899209776595",
      "longitude": "-90.07894010825365"
    }
  },
  {
    "service_request": "2025-1170542",
    "request_type": "Trash/Recycling",
    "request_reason": "Damaged Caused By Contractor",
    "date_created": "2025-02-20T17:17:20.000",
    "date_modified": "2025-02-20T17:17:22.000",
    "request_status": "Pending",
    "responsible_agency": "Department of Sanitation",
    "final_address": "3826 Coliseum St",
    "address_councildis": "B",
    "status": "Assigned to Contractor",
    "contractor": "IV Waste",
    "rowid": "1170542",
    "final_x": "3672919.04372",
    "final_y": "519964.093368",
    "longitude": "-90.09556011411537",
    "latitude": "29.92397845702871",
    "geocoded_column": {
      "latitude": "29.92397845702871",
      "longitude": "-90.09556011411537"
    }
  },
  {
    "service_request": "2025-1170541",
    "request_type": "Street and Traffic Signs",
    "request_reason": "Stop Sign Missing or Damaged",
    "date_created": "2025-02-20T16:48:32.000",
    "date_modified": "2025-02-20T16:48:39.000",
    "request_status": "Pending",
    "responsible_agency": "Department of Public Works",
    "final_address": "1540 Canal St",
    "address_councildis": "B",
    "status": "Pending",
    "rowid": "1170541",
    "final_x": "3678861.602",
    "final_y": "532330.713987",
    "longitude": "-90.07637335122413",
    "latitude": "29.957804717129143",
    "geocoded_column": {
      "latitude": "29.957804717129143",
      "longitude": "-90.07637335122413"
    }
  },
  {
    "service_request": "2025-1170540",
    "request_type": "Trash/Recycling",
    "request_reason": "Repair Recycling Cart",
    "date_created": "2025-02-20T16:42:49.000",
    "date_modified": "2025-02-20T16:42:51.000",
    "request_status": "Pending",
    "responsible_agency": "Department of Sanitation",
    "final_address": "2917 Maurepas St",
    "address_councildis": "A",
    "status": "Pending",
    "rowid": "1170540",
    "final_x": "3677589.78165",
    "final_y": "540744.534155",
    "longitude": "-90.0800988110478",
    "latitude": "29.980978152131545",
    "geocoded_column": {
      "latitude": "29.980978152131545",
      "longitude": "-90.0800988110478"
    }
  },
  {
    "service_request": "2025-1170539",
    "request_type": "Trash/Recycling",
    "request_reason": "Repair Trash Cart",
    "date_created": "2025-02-20T16:41:46.000",
    "date_modified": "2025-02-20T16:41:48.000",
    "request_status": "Pending",
    "responsible_agency": "Department of Sanitation",
    "final_address": "2917 Maurepas St",
    "address_councildis": "A",
    "status": "Assigned to Contractor",
    "contractor": "IV Waste",
    "rowid": "1170539",
    "final_x": "3677589.78165",
    "final_y": "540744.534155",
    "longitude": "-90.0800988110478",
    "latitude": "29.980978152131545",
    "geocoded_column": {
      "latitude": "29.980978152131545",
      "longitude": "-90.0800988110478"
    }
  },
  {
    "service_request": "2025-1170538",
    "request_type": "Drainage",
    "request_reason": "Catch Basin Clogged",
    "date_created": "2025-02-20T16:33:08.000",
    "date_modified": "2025-02-20T16:33:10.000",
    "request_status": "Pending",
    "responsible_agency": "Sewerage & Water Board ",
    "final_address": "1221 Mandeville St",
    "address_councildis": "C",
    "status": "Pending",
    "rowid": "1170538",
    "final_x": "3685781.83106",
    "final_y": "536909.194312",
    "longitude": "-90.05435992518647",
    "latitude": "29.970183403943796",
    "geocoded_column": {
      "latitude": "29.970183403943796",
      "longitude": "-90.05435992518647"
    }
  },
  {
    "service_request": "2025-1170537",
    "request_type": "Trash/Recycling",
    "request_reason": "Repair Trash Cart",
    "date_created": "2025-02-20T16:31:48.000",
    "date_modified": "2025-02-20T16:31:50.000",
    "request_status": "Pending",
    "responsible_agency": "Department of Sanitation",
    "final_address": "2401 S Johnson St Apt A",
    "address_councildis": "B",
    "status": "Assigned to Contractor",
    "contractor": "IV Waste",
    "rowid": "1170537",
    "final_x": "3673356.26184",
    "final_y": "528593.164992",
    "longitude": "-90.09388532871105",
    "latitude": "29.947692605808776",
    "geocoded_column": {
      "latitude": "29.947692605808776",
      "longitude": "-90.09388532871105"
    }
  },
  {
    "service_request": "2025-1170536",
    "request_type": "Drainage",
    "request_reason": "Catch Basin Clogged",
    "date_created": "2025-02-20T16:29:44.000",
    "date_modified": "2025-02-20T16:29:47.000",
    "request_status": "Pending",
    "responsible_agency": "Sewerage & Water Board ",
    "final_address": "1331 Prytania St",
    "address_councildis": "B",
    "status": "Pending",
    "rowid": "1170536",
    "final_x": "3679823.01039",
    "final_y": "525614.153469",
    "longitude": "-90.07357067614024",
    "latitude": "29.939307391958764",
    "geocoded_column": {
      "latitude": "29.939307391958764",
      "longitude": "-90.07357067614024"
    }
  },
  {
    "service_request": "2025-1170535",
    "request_type": "Property Maintenance",
    "request_reason": "Property Maintenance",
    "date_created": "2025-02-20T16:24:48.000",
    "date_modified": "2025-02-20T16:24:50.000",
    "request_status": "Pending",
    "responsible_agency": "Department of Code Enforcement",
    "final_address": "3801 Toulouse St",
    "address_councildis": "A",
    "status": "Pending",
    "rowid": "1170535",
    "final_x": "3673148.7554",
    "final_y": "539129.170698",
    "longitude": "-90.09418075535412",
    "latitude": "29.976669264518517",
    "geocoded_column": {
      "latitude": "29.976669264518517",
      "longitude": "-90.09418075535412"
    }
  },
  {
    "service_request": "2025-1170534",
    "request_type": "Trash/Recycling",
    "request_reason": "Request a Large Item Pick Up",
    "date_created": "2025-02-20T16:23:30.000",
    "date_modified": "2025-02-20T16:23:32.000",
    "request_status": "Pending",
    "responsible_agency": "Department of Sanitation",
    "final_address": "522 Montegut St",
    "address_councildis": "C",
    "status": "Assigned to Contractor",
    "contractor": "IV Waste",
    "rowid": "1170534",
    "final_x": "3687837.23107",
    "final_y": "534109.455429",
    "longitude": "-90.04796795884512",
    "latitude": "29.962421855004674",
    "geocoded_column": {
      "latitude": "29.962421855004674",
      "longitude": "-90.04796795884512"
    }
  },
  {
    "service_request": "2025-1170533",
    "request_type": "Trash/Recycling",
    "request_reason": "Request a Large Item Pick Up",
    "date_created": "2025-02-20T16:22:50.000",
    "date_modified": "2025-02-20T16:22:53.000",
    "request_status": "Pending",
    "responsible_agency": "Department of Sanitation",
    "final_address": "1219 Casa Calvo St",
    "address_councildis": "C",
    "status": "Assigned to Contractor",
    "contractor": "Richards Disposal",
    "rowid": "1170533",
    "final_x": "3692044.87939",
    "final_y": "526832.823486",
    "longitude": "-90.03494122853364",
    "latitude": "29.94228318618194",
    "geocoded_column": {
      "latitude": "29.94228318618194",
      "longitude": "-90.03494122853364"
    }
  },
  {
    "service_request": "2025-1170532",
    "request_type": "Abandoned Vehicles",
    "request_reason": "Abandoned/Junk Vehicles",
    "date_created": "2025-02-20T16:20:53.000",
    "date_modified": "2025-02-20T16:20:55.000",
    "request_status": "Pending",
    "responsible_agency": "Department of Public Works",
    "final_address": "315 Bermuda St",
    "address_councildis": "C",
    "status": "Pending",
    "rowid": "1170532",
    "final_x": "3686336.46281",
    "final_y": "530659.154498",
    "longitude": "-90.05282892371683",
    "latitude": "29.952980919859105",
    "geocoded_column": {
      "latitude": "29.952980919859105",
      "longitude": "-90.05282892371683"
    }
  },
  {
    "service_request": "2025-1170531",
    "request_type": "Trash/Recycling",
    "request_reason": "Missed Trash Pick-Up",
    "date_created": "2025-02-20T16:20:12.000",
    "date_modified": "2025-02-20T16:49:39.000",
    "case_close_date": "2025-02-20T10:49:39.000",
    "request_status": "Closed",
    "responsible_agency": "Department of Sanitation",
    "final_address": "738 Amelia St",
    "address_councildis": "B",
    "status": "Invalid Request",
    "contractor": "IV Waste",
    "contractor_action": "Invalid Request",
    "rowid": "1170531",
    "final_x": "3673890.2155",
    "final_y": "518038.490678",
    "longitude": "-90.09256028702887",
    "latitude": "29.918654783831077",
    "geocoded_column": {
      "latitude": "29.918654783831077",
      "longitude": "-90.09256028702887"
    }
  },
  {
    "service_request": "2025-1170530",
    "request_type": "Drainage",
    "request_reason": "Catch Basin Clogged",
    "date_created": "2025-02-20T16:20:07.000",
    "date_modified": "2025-02-20T16:20:09.000",
    "request_status": "Pending",
    "responsible_agency": "Sewerage & Water Board ",
    "final_address": "2169 Allen Toussaint Blvd",
    "address_councildis": "D",
    "status": "Pending",
    "rowid": "1170530",
    "final_x": "3683245.40597",
    "final_y": "555791.583641",
    "longitude": "-90.06170842395541",
    "latitude": "30.022180837073606",
    "geocoded_column": {
      "latitude": "30.022180837073606",
      "longitude": "-90.06170842395541"
    }
  },
  {
    "service_request": "2025-1170529",
    "request_type": "Trash/Recycling",
    "request_reason": "Request a Large Item Pick Up",
    "date_created": "2025-02-20T16:15:21.000",
    "date_modified": "2025-02-20T16:15:25.000",
    "request_status": "Pending",
    "responsible_agency": "Department of Sanitation",
    "final_address": "1907 Feliciana St",
    "address_councildis": "D",
    "status": "Assigned to Contractor",
    "contractor": "IV Waste",
    "rowid": "1170529",
    "final_x": "3689543.87279",
    "final_y": "539126.67553",
    "longitude": "-90.04240014328924",
    "latitude": "29.976164696735875",
    "geocoded_column": {
      "latitude": "29.976164696735875",
      "longitude": "-90.04240014328924"
    }
  },
  {
    "service_request": "2025-1170528",
    "request_type": "Trash/Recycling",
    "request_reason": "Damaged Caused By Contractor",
    "date_created": "2025-02-20T16:09:30.000",
    "date_modified": "2025-02-20T16:09:33.000",
    "request_status": "Pending",
    "responsible_agency": "Department of Sanitation",
    "final_address": "4610 San Marco Rd",
    "address_councildis": "E",
    "status": "Assigned to Contractor",
    "contractor": "Waste Pro",
    "rowid": "1170528",
    "final_x": "3763018.29635",
    "final_y": "573033.260649",
    "longitude": "-89.80892804051123",
    "latitude": "30.0669121742041",
    "geocoded_column": {
      "latitude": "30.0669121742041",
      "longitude": "-89.80892804051123"
    }
  },
  {
    "service_request": "2025-1170527",
    "request_type": "Trash/Recycling",
    "request_reason": "Request a Large Item Pick Up",
    "date_created": "2025-02-20T16:02:49.000",
    "date_modified": "2025-02-20T16:02:51.000",
    "request_status": "Pending",
    "responsible_agency": "Department of Sanitation",
    "final_address": "2521 Magnolia St",
    "address_councildis": "B",
    "status": "Assigned to Contractor",
    "contractor": "IV Waste",
    "rowid": "1170527",
    "final_x": "3674344.81185",
    "final_y": "526290.325374",
    "longitude": "-90.09084292591183",
    "latitude": "29.941331115028962",
    "geocoded_column": {
      "latitude": "29.941331115028962",
      "longitude": "-90.09084292591183"
    }
  },
  {
    "service_request": "2025-1170526",
    "request_type": "Trash/Recycling",
    "request_reason": "Repair Recycling Cart",
    "date_created": "2025-02-20T16:01:06.000",
    "date_modified": "2025-02-20T16:01:08.000",
    "request_status": "Pending",
    "responsible_agency": "Department of Sanitation",
    "final_address": "1112 Jena St",
    "address_councildis": "B",
    "status": "Pending",
    "rowid": "1170526",
    "final_x": "3670530.669",
    "final_y": "519608.829496",
    "longitude": "-90.10311142024668",
    "latitude": "29.923072319983156",
    "geocoded_column": {
      "latitude": "29.923072319983156",
      "longitude": "-90.10311142024668"
    }
  },
  {
    "service_request": "2025-1170525",
    "request_type": "Trash/Recycling",
    "request_reason": "Request a Large Item Pick Up",
    "date_created": "2025-02-20T15:33:22.000",
    "date_modified": "2025-02-20T15:33:24.000",
    "request_status": "Pending",
    "responsible_agency": "Department of Sanitation",
    "final_address": "1131 Lamanche St",
    "address_councildis": "E",
    "status": "Assigned to Contractor",
    "contractor": "Waste Pro",
    "rowid": "1170525",
    "final_x": "3698521.46954",
    "final_y": "533950.197701",
    "longitude": "-90.01423463054492",
    "latitude": "29.961650075447622",
    "geocoded_column": {
      "latitude": "29.961650075447622",
      "longitude": "-90.01423463054492"
    }
  },
  {
    "service_request": "2025-1170524",
    "request_type": "Abandoned Vehicles",
    "request_reason": "Abandoned/Junk Vehicles",
    "date_created": "2025-02-20T15:29:04.000",
    "date_modified": "2025-02-20T15:29:07.000",
    "request_status": "Pending",
    "responsible_agency": "Department of Public Works",
    "final_address": "3638 Gibson St",
    "address_councildis": "D",
    "status": "Pending",
    "rowid": "1170524",
    "final_x": "3678832.78395",
    "final_y": "545676.696592",
    "longitude": "-90.07600191735364",
    "latitude": "29.99450243414179",
    "geocoded_column": {
      "latitude": "29.99450243414179",
      "longitude": "-90.07600191735364"
    }
  },
  {
    "service_request": "2025-1170523",
    "request_type": "Drainage",
    "request_reason": "Drainage Manhole Cover Missing or Damaged",
    "date_created": "2025-02-20T15:25:32.000",
    "date_modified": "2025-02-20T15:25:34.000",
    "request_status": "Pending",
    "responsible_agency": "Sewerage & Water Board ",
    "final_address": "1901 Poydras St",
    "address_councildis": "B",
    "status": "Pending",
    "rowid": "1170523",
    "final_x": "3676746.55534",
    "final_y": "530971.736258",
    "longitude": "-90.08309888873029",
    "latitude": "29.954131611045042",
    "geocoded_column": {
      "latitude": "29.954131611045042",
      "longitude": "-90.08309888873029"
    }
  },
  {
    "service_request": "2025-1170522",
    "request_type": "Abandoned Vehicles",
    "request_reason": "Abandoned/Junk Vehicles",
    "date_created": "2025-02-20T15:23:56.000",
    "date_modified": "2025-02-20T15:23:58.000",
    "request_status": "Pending",
    "responsible_agency": "Department of Public Works",
    "final_address": "2530 Music St",
    "address_councildis": "D",
    "status": "Pending",
    "rowid": "1170522",
    "final_x": "3686351.04687",
    "final_y": "541893.420044",
    "longitude": "-90.05238631913609",
    "latitude": "29.98387078990624",
    "geocoded_column": {
      "latitude": "29.98387078990624",
      "longitude": "-90.05238631913609"
    }
  },
  {
    "service_request": "2025-1170521",
    "request_type": "Trash/Recycling",
    "request_reason": "Request a Large Item Pick Up",
    "date_created": "2025-02-20T15:21:29.000",
    "date_modified": "2025-02-20T15:59:18.000",
    "request_status": "Pending",
    "responsible_agency": "Department of Sanitation",
    "final_address": "1518 Gallier St",
    "address_councildis": "D",
    "status": "Assigned to Contractor",
    "contractor": "IV Waste",
    "rowid": "1170521",
    "final_x": "3690822.08444",
    "final_y": "537297.685256",
    "longitude": "-90.0384284689938",
    "latitude": "29.97109596233816",
    "geocoded_column": {
      "latitude": "29.97109596233816",
      "longitude": "-90.0384284689938"
    }
  },
  {
    "service_request": "2025-1170520",
    "request_type": "Trash/Recycling",
    "request_reason": "Request a Large Item Pick Up",
    "date_created": "2025-02-20T15:18:30.000",
    "date_modified": "2025-02-20T15:18:33.000",
    "request_status": "Pending",
    "responsible_agency": "Department of Sanitation",
    "final_address": "11511 Curran Rd",
    "address_councildis": "E",
    "status": "Assigned to Contractor",
    "contractor": "Waste Pro",
    "rowid": "1170520",
    "final_x": "3711862.33381",
    "final_y": "567076.805732",
    "longitude": "-89.97086297566489",
    "latitude": "30.052306405878277",
    "geocoded_column": {
      "latitude": "30.052306405878277",
      "longitude": "-89.97086297566489"
    }
  },
  {
    "service_request": "2025-1170519",
    "request_type": "Trash/Recycling",
    "request_reason": "Order Recycling Cart",
    "date_created": "2025-02-20T15:16:33.000",
    "date_modified": "2025-02-20T15:16:35.000",
    "request_status": "Pending",
    "responsible_agency": "Department of Sanitation",
    "final_address": "421 S Telemachus St",
    "address_councildis": "B",
    "status": "Pending",
    "rowid": "1170519",
    "final_x": "3671407.1611",
    "final_y": "536277.771399",
    "longitude": "-90.09977821289688",
    "latitude": "29.96888055148437",
    "geocoded_column": {
      "latitude": "29.96888055148437",
      "longitude": "-90.09977821289688"
    }
  },
  {
    "service_request": "2025-1170518",
    "request_type": "Trash/Recycling",
    "request_reason": "Request a Large Item Pick Up",
    "date_created": "2025-02-20T15:16:08.000",
    "date_modified": "2025-02-20T15:58:01.000",
    "request_status": "Pending",
    "responsible_agency": "Department of Sanitation",
    "final_address": "1306 Feliciana St",
    "address_councildis": "C",
    "status": "Assigned to Contractor",
    "contractor": "IV Waste",
    "rowid": "1170518",
    "final_x": "3688902.90787",
    "final_y": "536890.93332",
    "longitude": "-90.04450391576084",
    "latitude": "29.97003703355111",
    "geocoded_column": {
      "latitude": "29.97003703355111",
      "longitude": "-90.04450391576084"
    }
  },
  {
    "service_request": "2025-1170517",
    "request_type": "Trash/Recycling",
    "request_reason": "Request a Large Item Pick Up",
    "date_created": "2025-02-20T15:14:36.000",
    "date_modified": "2025-02-20T15:56:20.000",
    "request_status": "Pending",
    "responsible_agency": "Department of Sanitation",
    "final_address": "1624 Eighth St",
    "address_councildis": "B",
    "status": "Assigned to Contractor",
    "contractor": "IV Waste",
    "rowid": "1170517",
    "final_x": "3674819.13262",
    "final_y": "522101.789626",
    "longitude": "-90.08948895296312",
    "latitude": "29.929799856610945",
    "geocoded_column": {
      "latitude": "29.929799856610945",
      "longitude": "-90.08948895296312"
    }
  },
  {
    "service_request": "2025-1170516",
    "request_type": "Abandoned Vehicles",
    "request_reason": "Abandoned/Junk Vehicles",
    "date_created": "2025-02-20T15:13:19.000",
    "date_modified": "2025-02-20T15:14:01.000",
    "request_status": "Pending",
    "responsible_agency": "Department of Public Works",
    "final_address": "9900 BLK Chef Menteur Hwy",
    "address_councildis": "E",
    "status": "Inspected",
    "rowid": "1170516",
    "final_x": "3712606.81884",
    "final_y": "554740.034336",
    "longitude": "-89.96897419132375",
    "latitude": "30.018360851253917",
    "geocoded_column": {
      "latitude": "30.018360851253917",
      "longitude": "-89.96897419132375"
    }
  },
  {
    "service_request": "2025-1170515",
    "request_type": "Abandoned Vehicles",
    "request_reason": "Abandoned/Junk Vehicles",
    "date_created": "2025-02-20T15:13:18.000",
    "date_modified": "2025-02-20T15:13:18.000",
    "request_status": "Pending",
    "responsible_agency": "Department of Public Works",
    "final_address": "9900 BLK Chef Menteur Hwy",
    "address_councildis": "E",
    "status": "Pending",
    "rowid": "1170515",
    "final_x": "3712606.81884",
    "final_y": "554740.034336",
    "longitude": "-89.96897419132375",
    "latitude": "30.018360851253917",
    "geocoded_column": {
      "latitude": "30.018360851253917",
      "longitude": "-89.96897419132375"
    }
  },
  {
    "service_request": "2025-1170514",
    "request_type": "Trash/Recycling",
    "request_reason": "Order Trash Cart",
    "date_created": "2025-02-20T15:11:10.000",
    "date_modified": "2025-02-20T15:11:11.000",
    "request_status": "Pending",
    "responsible_agency": "Department of Sanitation",
    "final_address": "1809 Louisiana Ave",
    "address_councildis": "B",
    "status": "Assigned to Contractor",
    "contractor": "IV Waste",
    "rowid": "1170514",
    "final_x": "3673937.22843",
    "final_y": "522349.259322",
    "longitude": "-90.09226451493589",
    "latitude": "29.93050661233896",
    "geocoded_column": {
      "latitude": "29.93050661233896",
      "longitude": "-90.09226451493589"
    }
  },
  {
    "service_request": "2025-1170513",
    "request_type": "Property Maintenance",
    "request_reason": "Property Maintenance",
    "date_created": "2025-02-20T15:10:03.000",
    "date_modified": "2025-02-20T15:10:05.000",
    "request_status": "Pending",
    "responsible_agency": "Department of Code Enforcement",
    "final_address": "7289 Canal Blvd",
    "address_councildis": "D",
    "status": "Pending",
    "rowid": "1170513",
    "final_x": "3669382.17786",
    "final_y": "555493.860761",
    "longitude": "-90.10552298733997",
    "latitude": "30.02177795228603",
    "geocoded_column": {
      "latitude": "30.02177795228603",
      "longitude": "-90.10552298733997"
    }
  },
  {
    "service_request": "2025-1170512",
    "request_type": "Trash/Recycling",
    "request_reason": "Order Trash Cart",
    "date_created": "2025-02-20T15:09:50.000",
    "date_modified": "2025-02-20T15:09:52.000",
    "request_status": "Pending",
    "responsible_agency": "Department of Sanitation",
    "final_address": "1809 Louisiana Ave",
    "address_councildis": "B",
    "status": "Assigned to Contractor",
    "contractor": "IV Waste",
    "rowid": "1170512",
    "final_x": "3673937.22843",
    "final_y": "522349.259322",
    "longitude": "-90.09226451493589",
    "latitude": "29.93050661233896",
    "geocoded_column": {
      "latitude": "29.93050661233896",
      "longitude": "-90.09226451493589"
    }
  },
  {
    "service_request": "2025-1170511",
    "request_type": "Trash/Recycling",
    "request_reason": "Order Trash Cart",
    "date_created": "2025-02-20T15:08:33.000",
    "date_modified": "2025-02-20T15:08:35.000",
    "request_status": "Pending",
    "responsible_agency": "Department of Sanitation",
    "final_address": "1809 Louisiana Ave",
    "address_councildis": "B",
    "status": "Assigned to Contractor",
    "contractor": "IV Waste",
    "rowid": "1170511",
    "final_x": "3673937.22843",
    "final_y": "522349.259322",
    "longitude": "-90.09226451493589",
    "latitude": "29.93050661233896",
    "geocoded_column": {
      "latitude": "29.93050661233896",
      "longitude": "-90.09226451493589"
    }
  },
  {
    "service_request": "2025-1170510",
    "request_type": "Trash/Recycling",
    "request_reason": "Order Trash Cart",
    "date_created": "2025-02-20T15:03:57.000",
    "date_modified": "2025-02-20T15:03:59.000",
    "request_status": "Pending",
    "responsible_agency": "Department of Sanitation",
    "final_address": "1809 Louisiana Ave",
    "address_councildis": "B",
    "status": "Assigned to Contractor",
    "contractor": "IV Waste",
    "rowid": "1170510",
    "final_x": "3673937.22843",
    "final_y": "522349.259322",
    "longitude": "-90.09226451493589",
    "latitude": "29.93050661233896",
    "geocoded_column": {
      "latitude": "29.93050661233896",
      "longitude": "-90.09226451493589"
    }
  },
  {
    "service_request": "2025-1170509",
    "request_type": "Trash/Recycling",
    "request_reason": "Missed Trash Pick-Up",
    "date_created": "2025-02-20T15:03:48.000",
    "date_modified": "2025-02-20T15:03:50.000",
    "request_status": "Pending",
    "responsible_agency": "Department of Sanitation",
    "final_address": "7008 Lake Willow Dr",
    "address_councildis": "E",
    "status": "Assigned to Contractor",
    "contractor": "Waste Pro",
    "rowid": "1170509",
    "final_x": "3702447.37213",
    "final_y": "558718.563932",
    "longitude": "-90.00092788017828",
    "latitude": "30.029628981753348",
    "geocoded_column": {
      "latitude": "30.029628981753348",
      "longitude": "-90.00092788017828"
    }
  },
  {
    "service_request": "2025-1170508",
    "request_type": "Trash/Recycling",
    "request_reason": "Order Trash Cart",
    "date_created": "2025-02-20T15:01:59.000",
    "date_modified": "2025-02-20T15:02:01.000",
    "request_status": "Pending",
    "responsible_agency": "Department of Sanitation",
    "final_address": "1809 Louisiana Ave",
    "address_councildis": "B",
    "status": "Assigned to Contractor",
    "contractor": "IV Waste",
    "rowid": "1170508",
    "final_x": "3673937.22843",
    "final_y": "522349.259322",
    "longitude": "-90.09226451493589",
    "latitude": "29.93050661233896",
    "geocoded_column": {
      "latitude": "29.93050661233896",
      "longitude": "-90.09226451493589"
    }
  },
  {
    "service_request": "2025-1170507",
    "request_type": "General Services",
    "request_reason": "General Service Request",
    "date_created": "2025-02-20T15:00:11.000",
    "date_modified": "2025-02-20T15:00:13.000",
    "request_status": "Pending",
    "responsible_agency": "Orleans Parish Communication District",
    "final_address": "6356 Bellaire Dr",
    "address_councildis": "A",
    "status": "Pending",
    "rowid": "1170507",
    "final_x": "3664320.65869",
    "final_y": "550190.654484",
    "longitude": "-90.12169332590744",
    "latitude": "30.00734414488351",
    "geocoded_column": {
      "latitude": "30.00734414488351",
      "longitude": "-90.12169332590744"
    }
  },
  {
    "service_request": "2025-1170506",
    "request_type": "Trash/Recycling",
    "request_reason": "Request a Large Item Pick Up",
    "date_created": "2025-02-20T14:58:29.000",
    "date_modified": "2025-02-20T14:58:32.000",
    "request_status": "Pending",
    "responsible_agency": "Department of Sanitation",
    "final_address": "847 Behrman Ave",
    "address_councildis": "C",
    "status": "Assigned to Contractor",
    "contractor": "Richards Disposal",
    "rowid": "1170506",
    "final_x": "3691399.20937",
    "final_y": "528158.693951",
    "longitude": "-90.036932383419",
    "latitude": "29.945948976585704",
    "geocoded_column": {
      "latitude": "29.945948976585704",
      "longitude": "-90.036932383419"
    }
  },
  {
    "service_request": "2025-1170505",
    "request_type": "Streetlights",
    "request_reason": "Streetlight Outage/Malfunction",
    "date_created": "2025-02-20T14:54:16.000",
    "date_modified": "2025-02-20T14:54:17.000",
    "request_status": "Pending",
    "responsible_agency": "Department of Public Works",
    "final_address": "2100 Martin Luther King, Jr. Blvd",
    "address_councildis": "B",
    "status": "Pending",
    "contractor": "Legacy Professional Services",
    "rowid": "1170505",
    "final_x": "3677451.4715",
    "final_y": "526559.541566",
    "longitude": "-90.08102531096411",
    "latitude": "29.941978376830928",
    "geocoded_column": {
      "latitude": "29.941978376830928",
      "longitude": "-90.08102531096411"
    }
  },
  {
    "service_request": "2025-1170504",
    "request_type": "Trash/Recycling",
    "request_reason": "Replace Recycling Cart",
    "date_created": "2025-02-20T14:53:15.000",
    "date_modified": "2025-02-20T14:53:17.000",
    "request_status": "Pending",
    "responsible_agency": "Department of Sanitation",
    "final_address": "1481 Pressburg St",
    "address_councildis": "D",
    "status": "Pending",
    "rowid": "1170504",
    "final_x": "3678126.04571",
    "final_y": "554094.14204",
    "longitude": "-90.0779430974829",
    "latitude": "30.017668710856164",
    "geocoded_column": {
      "latitude": "30.017668710856164",
      "longitude": "-90.0779430974829"
    }
  },
  {
    "service_request": "2025-1170503",
    "request_type": "Trash/Recycling",
    "request_reason": "Request a Large Item Pick Up",
    "date_created": "2025-02-20T14:49:10.000",
    "date_modified": "2025-02-20T14:49:13.000",
    "request_status": "Pending",
    "responsible_agency": "Department of Sanitation",
    "final_address": "11308 King Richard Dr",
    "address_councildis": "E",
    "status": "Assigned to Contractor",
    "contractor": "Waste Pro",
    "rowid": "1170503",
    "final_x": "3717314.2334",
    "final_y": "556428.16009",
    "longitude": "-89.95403647609145",
    "latitude": "30.02284756597243",
    "geocoded_column": {
      "latitude": "30.02284756597243",
      "longitude": "-89.95403647609145"
    }
  },
  {
    "service_request": "2025-1170502",
    "request_type": "Abandoned Vehicles",
    "request_reason": "Abandoned/Junk Vehicles",
    "date_created": "2025-02-20T14:48:42.000",
    "date_modified": "2025-02-20T14:48:46.000",
    "request_status": "Pending",
    "responsible_agency": "Department of Public Works",
    "final_address": "861 Jewel St",
    "address_councildis": "D",
    "status": "Pending",
    "rowid": "1170502",
    "final_x": "3670821.21947",
    "final_y": "556183.498458",
    "longitude": "-90.10095254414054",
    "latitude": "30.023631731579112",
    "geocoded_column": {
      "latitude": "30.023631731579112",
      "longitude": "-90.10095254414054"
    }
  },
  {
    "service_request": "2025-1170501",
    "request_type": "Drainage",
    "request_reason": "Catch Basin Clogged",
    "date_created": "2025-02-20T14:43:11.000",
    "date_modified": "2025-02-20T14:44:43.000",
    "request_status": "Pending",
    "responsible_agency": "Sewerage & Water Board ",
    "final_address": "4300 BLK Duplessis St",
    "address_councildis": "D",
    "status": "Pending",
    "rowid": "1170501",
    "final_x": "3678310.92943",
    "final_y": "548238.488284",
    "longitude": "-90.07756170320495",
    "latitude": "30.001562190748256",
    "geocoded_column": {
      "latitude": "30.001562190748256",
      "longitude": "-90.07756170320495"
    }
  },
  {
    "service_request": "2025-1170500",
    "request_type": "Streetlights",
    "request_reason": "Streetlight Outage/Malfunction",
    "date_created": "2025-02-20T14:41:41.000",
    "date_modified": "2025-02-20T14:41:42.000",
    "request_status": "Pending",
    "responsible_agency": "Department of Public Works",
    "final_address": "14664 Beekman Rd",
    "address_councildis": "E",
    "status": "Pending",
    "contractor": "Legacy Professional Services",
    "rowid": "1170500",
    "final_x": "3721302.41234",
    "final_y": "573487.564394",
    "longitude": "-89.94077981146421",
    "latitude": "30.069621287359503",
    "geocoded_column": {
      "latitude": "30.069621287359503",
      "longitude": "-89.94077981146421"
    }
  },
  {
    "service_request": "2025-1170499",
    "request_type": "Property Maintenance",
    "request_reason": "Property Maintenance",
    "date_created": "2025-02-20T14:39:32.000",
    "date_modified": "2025-02-20T14:41:36.000",
    "request_status": "Pending",
    "responsible_agency": "Department of Code Enforcement",
    "final_address": "1235 Marais St",
    "address_councildis": "C",
    "status": "Pending",
    "rowid": "1170499",
    "final_x": "3681817.84226",
    "final_y": "535835.578951",
    "longitude": "-90.06691608081253",
    "latitude": "29.967352396272503",
    "geocoded_column": {
      "latitude": "29.967352396272503",
      "longitude": "-90.06691608081253"
    }
  },
  {
    "service_request": "2025-1170498",
    "request_type": "Trash/Recycling",
    "request_reason": "Repair Trash Cart",
    "date_created": "2025-02-20T14:39:18.000",
    "date_modified": "2025-02-20T14:39:20.000",
    "request_status": "Pending",
    "responsible_agency": "Department of Sanitation",
    "final_address": "6598 Coveview Ct",
    "address_councildis": "E",
    "status": "Assigned to Contractor",
    "contractor": "Waste Pro",
    "rowid": "1170498",
    "final_x": "3699061.36964",
    "final_y": "555677.852313",
    "longitude": "-90.01173836328218",
    "latitude": "30.021376016101822",
    "geocoded_column": {
      "latitude": "30.021376016101822",
      "longitude": "-90.01173836328218"
    }
  },
  {
    "service_request": "2025-1170497",
    "request_type": "Streetlights",
    "request_reason": "Streetlight Outage/Malfunction",
    "date_created": "2025-02-20T14:38:47.000",
    "date_modified": "2025-02-20T14:38:48.000",
    "request_status": "Pending",
    "responsible_agency": "Department of Public Works",
    "final_address": "97 S Wren St",
    "address_councildis": "D",
    "status": "Pending",
    "contractor": "Legacy Professional Services",
    "rowid": "1170497",
    "final_x": "3673113.24449",
    "final_y": "555849.319961",
    "longitude": "-90.09372161993406",
    "latitude": "30.022644879665663",
    "geocoded_column": {
      "latitude": "30.022644879665663",
      "longitude": "-90.09372161993406"
    }
  },
  {
    "service_request": "2025-1170496",
    "request_type": "Road Striping",
    "request_reason": "Lane Striping or other Pavement Markings",
    "date_created": "2025-02-20T14:37:34.000",
    "date_modified": "2025-02-20T14:37:44.000",
    "request_status": "Pending",
    "responsible_agency": "Department of Public Works",
    "final_address": "BULLARD AVE & HAYNE BLVD",
    "address_councildis": "E",
    "status": "Pending",
    "rowid": "1170496",
    "final_x": "3712142.2",
    "final_y": "568794.68",
    "longitude": "-89.96991380312626",
    "latitude": "30.057020706348293",
    "geocoded_column": {
      "latitude": "30.057020706348293",
      "longitude": "-89.96991380312626"
    }
  },
  {
    "service_request": "2025-1170495",
    "request_type": "Trash/Recycling",
    "request_reason": "Repair Recycling Cart",
    "date_created": "2025-02-20T14:37:07.000",
    "date_modified": "2025-02-20T14:37:18.000",
    "request_status": "Pending",
    "responsible_agency": "Department of Sanitation",
    "final_address": "97 S Wren St",
    "address_councildis": "D",
    "status": "Pending",
    "rowid": "1170495",
    "final_x": "3673113.24449",
    "final_y": "555849.319961",
    "longitude": "-90.09372161993406",
    "latitude": "30.022644879665663",
    "geocoded_column": {
      "latitude": "30.022644879665663",
      "longitude": "-90.09372161993406"
    }
  },
  {
    "service_request": "2025-1170494",
    "request_type": "Trash/Recycling",
    "request_reason": "Request a Large Item Pick Up",
    "date_created": "2025-02-20T14:34:12.000",
    "date_modified": "2025-02-20T14:34:19.000",
    "request_status": "Pending",
    "responsible_agency": "Department of Sanitation",
    "final_address": "2120 Valentine Ct",
    "address_councildis": "C",
    "status": "Assigned to Contractor",
    "contractor": "Richards Disposal",
    "rowid": "1170494",
    "final_x": "3699779.61744",
    "final_y": "523396.424507",
    "longitude": "-90.01064633890735",
    "latitude": "29.93259102386836",
    "geocoded_column": {
      "latitude": "29.93259102386836",
      "longitude": "-90.01064633890735"
    }
  },
  {
    "service_request": "2025-1170493",
    "request_type": "Trash/Recycling",
    "request_reason": "Repair Trash Cart",
    "date_created": "2025-02-20T14:32:19.000",
    "date_modified": "2025-02-20T14:32:23.000",
    "request_status": "Pending",
    "responsible_agency": "Department of Sanitation",
    "final_address": "2120 Valentine Ct",
    "address_councildis": "C",
    "status": "Assigned to Contractor",
    "contractor": "Richards Disposal",
    "rowid": "1170493",
    "final_x": "3699779.61744",
    "final_y": "523396.424507",
    "longitude": "-90.01064633890735",
    "latitude": "29.93259102386836",
    "geocoded_column": {
      "latitude": "29.93259102386836",
      "longitude": "-90.01064633890735"
    }
  },
  {
    "service_request": "2025-1170492",
    "request_type": "Trash/Recycling",
    "request_reason": "Illegal Dumping",
    "date_created": "2025-02-20T14:31:24.000",
    "date_modified": "2025-02-20T14:31:35.000",
    "request_status": "Pending",
    "responsible_agency": "Department of Sanitation",
    "final_address": "0 Woodland Hwy",
    "address_councildis": "C",
    "status": "Pending",
    "rowid": "1170492",
    "final_x": "3710318.00286",
    "final_y": "515197.930035",
    "longitude": "-89.97768408167424",
    "latitude": "29.909709345201403",
    "geocoded_column": {
      "latitude": "29.909709345201403",
      "longitude": "-89.97768408167424"
    }
  },
  {
    "service_request": "2025-1170491",
    "request_type": "Trash/Recycling",
    "request_reason": "Replace Trash Cart",
    "date_created": "2025-02-20T14:30:58.000",
    "date_modified": "2025-02-20T14:31:10.000",
    "request_status": "Pending",
    "responsible_agency": "Department of Sanitation",
    "final_address": "6401 Caldwell Dr",
    "address_councildis": "D",
    "status": "Assigned to Contractor",
    "contractor": "IV Waste",
    "rowid": "1170491",
    "final_x": "3678575.55061",
    "final_y": "557270.163803",
    "longitude": "-90.07641275980748",
    "latitude": "30.026388065541468",
    "geocoded_column": {
      "latitude": "30.026388065541468",
      "longitude": "-90.07641275980748"
    }
  },
  {
    "service_request": "2025-1170490",
    "request_type": "Trash/Recycling",
    "request_reason": "Order Recycling Cart",
    "date_created": "2025-02-20T14:27:56.000",
    "date_modified": "2025-02-20T14:28:07.000",
    "request_status": "Pending",
    "responsible_agency": "Department of Sanitation",
    "final_address": "6401 Caldwell Dr",
    "address_councildis": "D",
    "status": "Pending",
    "rowid": "1170490",
    "final_x": "3678575.55061",
    "final_y": "557270.163803",
    "longitude": "-90.07641275980748",
    "latitude": "30.026388065541468",
    "geocoded_column": {
      "latitude": "30.026388065541468",
      "longitude": "-90.07641275980748"
    }
  },
  {
    "service_request": "2025-1170489",
    "request_type": "Abandoned Vehicles",
    "request_reason": "Abandoned/Junk Vehicles",
    "date_created": "2025-02-20T14:24:51.000",
    "date_modified": "2025-02-20T14:26:25.000",
    "request_status": "Pending",
    "responsible_agency": "Department of Public Works",
    "final_address": "700 BLK N Rocheblave St",
    "address_councildis": "D",
    "status": "Pending",
    "rowid": "1170489",
    "final_x": "3677665.76701",
    "final_y": "536514.700708",
    "longitude": "-90.08000494463752",
    "latitude": "29.96934527810864",
    "geocoded_column": {
      "latitude": "29.96934527810864",
      "longitude": "-90.08000494463752"
    }
  },
  {
    "service_request": "2025-1170488",
    "request_type": "Trash/Recycling",
    "request_reason": "Request a Large Item Pick Up",
    "date_created": "2025-02-20T14:21:01.000",
    "date_modified": "2025-02-20T14:57:27.000",
    "request_status": "Pending",
    "responsible_agency": "Department of Sanitation",
    "final_address": "919 Fourth St",
    "address_councildis": "B",
    "status": "Assigned to Contractor",
    "contractor": "IV Waste",
    "rowid": "1170488",
    "final_x": "3677664.15278",
    "final_y": "520534.55564",
    "longitude": "-90.08056180400247",
    "latitude": "29.925405247045102",
    "geocoded_column": {
      "latitude": "29.925405247045102",
      "longitude": "-90.08056180400247"
    }
  },
  {
    "service_request": "2025-1170487",
    "request_type": "Trash/Recycling",
    "request_reason": "Request a Large Item Pick Up",
    "date_created": "2025-02-20T14:07:03.000",
    "date_modified": "2025-02-20T14:07:14.000",
    "request_status": "Pending",
    "responsible_agency": "Department of Sanitation",
    "final_address": "4109 Danneel St",
    "address_councildis": "B",
    "status": "Assigned to Contractor",
    "contractor": "IV Waste",
    "rowid": "1170487",
    "final_x": "3671700.13908",
    "final_y": "522437.43897",
    "longitude": "-90.09932368713096",
    "latitude": "29.930815513285342",
    "geocoded_column": {
      "latitude": "29.930815513285342",
      "longitude": "-90.09932368713096"
    }
  },
  {
    "service_request": "2025-1170486",
    "request_type": "Mosquito, Termite & Rodent Control",
    "request_reason": "Rodent Complaint (Mice)",
    "date_created": "2025-02-20T14:00:01.000",
    "date_modified": "2025-02-20T14:00:03.000",
    "request_status": "Pending",
    "responsible_agency": "Mosquito, Termite & Rodent Control Board",
    "final_address": "2100 N Claiborne Ave",
    "address_councildis": "C",
    "status": "Pending",
    "rowid": "1170486",
    "final_x": "3684485.66882",
    "final_y": "537956.479177",
    "longitude": "-90.05841653457297",
    "latitude": "29.973102790252774",
    "geocoded_column": {
      "latitude": "29.973102790252774",
      "longitude": "-90.05841653457297"
    }
  },
  {
    "service_request": "2025-1170485",
    "request_type": "Trash/Recycling",
    "request_reason": "Replace Trash Cart",
    "date_created": "2025-02-20T13:57:19.000",
    "date_modified": "2025-02-20T13:57:23.000",
    "request_status": "Pending",
    "responsible_agency": "Department of Sanitation",
    "final_address": "7811 Pearl St",
    "address_councildis": "A",
    "status": "Assigned to Contractor",
    "contractor": "IV Waste",
    "rowid": "1170485",
    "final_x": "3661096.70272",
    "final_y": "525895.398781",
    "longitude": "-90.13268303709114",
    "latitude": "29.94063354927106",
    "geocoded_column": {
      "latitude": "29.94063354927106",
      "longitude": "-90.13268303709114"
    }
  },
  {
    "service_request": "2025-1170484",
    "request_type": "Street and Traffic Signs",
    "request_reason": "Additional Signage Request",
    "date_created": "2025-02-20T13:52:19.000",
    "date_modified": "2025-02-20T13:52:21.000",
    "request_status": "Pending",
    "responsible_agency": "Department of Public Works",
    "final_address": "2701 Valence St",
    "address_councildis": "B",
    "status": "Pending",
    "rowid": "1170484",
    "final_x": "3669399.17998",
    "final_y": "524671.177148",
    "longitude": "-90.10651201256601",
    "latitude": "29.937025512827383",
    "geocoded_column": {
      "latitude": "29.937025512827383",
      "longitude": "-90.10651201256601"
    }
  },
  {
    "service_request": "2025-1170483",
    "request_type": "Drainage",
    "request_reason": "Catch Basin Clogged",
    "date_created": "2025-02-20T13:49:42.000",
    "date_modified": "2025-02-20T13:49:44.000",
    "request_status": "Pending",
    "responsible_agency": "Sewerage & Water Board ",
    "final_address": "5200 BLK Saint Charles Ave",
    "address_councildis": "B",
    "status": "Pending",
    "rowid": "1170483",
    "final_x": "3667987.59411",
    "final_y": "521274.487751",
    "longitude": "-90.11108286904269",
    "latitude": "29.927727183344373",
    "geocoded_column": {
      "latitude": "29.927727183344373",
      "longitude": "-90.11108286904269"
    }
  },
  {
    "service_request": "2025-1170482",
    "request_type": "Streetlights",
    "request_reason": "Streetlight Outage/Malfunction",
    "date_created": "2025-02-20T13:48:46.000",
    "date_modified": "2025-02-20T13:48:47.000",
    "request_status": "Pending",
    "responsible_agency": "Department of Public Works",
    "final_address": "3209 Grand-Route St John St",
    "address_councildis": "A",
    "status": "Pending",
    "contractor": "Legacy Professional Services",
    "rowid": "1170482",
    "final_x": "3675934.43099",
    "final_y": "540371.169803",
    "longitude": "-90.08533999638045",
    "latitude": "29.980001207311005",
    "geocoded_column": {
      "latitude": "29.980001207311005",
      "longitude": "-90.08533999638045"
    }
  },
  {
    "service_request": "2025-1170481",
    "request_type": "Drainage",
    "request_reason": "Catch Basin Damaged",
    "date_created": "2025-02-20T13:47:49.000",
    "date_modified": "2025-02-20T13:47:52.000",
    "request_status": "Pending",
    "responsible_agency": "Sewerage & Water Board ",
    "final_address": "6200 BLK Saint Charles Ave",
    "address_councildis": "A",
    "status": "Pending",
    "rowid": "1170481",
    "final_x": "3665205.48812",
    "final_y": "522949.553626",
    "longitude": "-90.11980934932397",
    "latitude": "29.932414391771488",
    "geocoded_column": {
      "latitude": "29.932414391771488",
      "longitude": "-90.11980934932397"
    }
  },
  {
    "service_request": "2025-1170480",
    "request_type": "Trash/Recycling",
    "request_reason": "Repair Recycling Cart",
    "date_created": "2025-02-20T13:46:08.000",
    "date_modified": "2025-02-20T13:46:10.000",
    "request_status": "Pending",
    "responsible_agency": "Department of Sanitation",
    "final_address": "2363 Marais St",
    "address_councildis": "C",
    "status": "Pending",
    "rowid": "1170480",
    "final_x": "3686286.58505",
    "final_y": "536811.707336",
    "longitude": "-90.05276930340649",
    "latitude": "29.969899847539086",
    "geocoded_column": {
      "latitude": "29.969899847539086",
      "longitude": "-90.05276930340649"
    }
  },
  {
    "service_request": "2025-1170479",
    "request_type": "Abandoned Vehicles",
    "request_reason": "Abandoned/Junk Vehicles",
    "date_created": "2025-02-20T13:45:36.000",
    "date_modified": "2025-02-20T13:45:38.000",
    "request_status": "Pending",
    "responsible_agency": "Department of Public Works",
    "final_address": "2217 Lapeyrouse St",
    "address_councildis": "D",
    "status": "Pending",
    "rowid": "1170479",
    "final_x": "3680409.9741",
    "final_y": "539176.524106",
    "longitude": "-90.07124593664615",
    "latitude": "29.976581554199818",
    "geocoded_column": {
      "latitude": "29.976581554199818",
      "longitude": "-90.07124593664615"
    }
  },
  {
    "service_request": "2025-1170478",
    "request_type": "Trash/Recycling",
    "request_reason": "Request a Large Item Pick Up",
    "date_created": "2025-02-20T13:44:21.000",
    "date_modified": "2025-02-20T13:44:23.000",
    "request_status": "Pending",
    "responsible_agency": "Department of Sanitation",
    "final_address": "6323 Dauphine St",
    "address_councildis": "E",
    "status": "Assigned to Contractor",
    "contractor": "Waste Pro",
    "rowid": "1170478",
    "final_x": "3699874.26749",
    "final_y": "531919.388099",
    "longitude": "-90.01003680687974",
    "latitude": "29.956023181116528",
    "geocoded_column": {
      "latitude": "29.956023181116528",
      "longitude": "-90.01003680687974"
    }
  },
  {
    "service_request": "2025-1170477",
    "request_type": "Abandoned Vehicles",
    "request_reason": "Abandoned/Junk Vehicles",
    "date_created": "2025-02-20T13:44:04.000",
    "date_modified": "2025-02-20T13:46:10.000",
    "request_status": "Pending",
    "responsible_agency": "Department of Public Works",
    "final_address": "3501 Caesar Dr",
    "address_councildis": "C",
    "status": "Pending",
    "rowid": "1170477",
    "final_x": "3696968.88535",
    "final_y": "524048.947452",
    "longitude": "-90.01949591365629",
    "latitude": "29.93447415206307",
    "geocoded_column": {
      "latitude": "29.93447415206307",
      "longitude": "-90.01949591365629"
    }
  },
  {
    "service_request": "2025-1170476",
    "request_type": "Trash/Recycling",
    "request_reason": "Request a Large Item Pick Up",
    "date_created": "2025-02-20T13:40:44.000",
    "date_modified": "2025-02-20T13:40:46.000",
    "request_status": "Pending",
    "responsible_agency": "Department of Sanitation",
    "final_address": "4634 Gabriel Dr",
    "address_councildis": "E",
    "status": "Assigned to Contractor",
    "contractor": "Waste Pro",
    "rowid": "1170476",
    "final_x": "3708884.86008",
    "final_y": "555027.255321",
    "longitude": "-89.98072338256253",
    "latitude": "30.019271929011495",
    "geocoded_column": {
      "latitude": "30.019271929011495",
      "longitude": "-89.98072338256253"
    }
  },
  {
    "service_request": "2025-1170475",
    "request_type": "Trash/Recycling",
    "request_reason": "Request a Large Item Pick Up",
    "date_created": "2025-02-20T13:34:27.000",
    "date_modified": "2025-02-20T13:34:30.000",
    "request_status": "Pending",
    "responsible_agency": "Department of Sanitation",
    "final_address": "4949 Rosalia Dr",
    "address_councildis": "E",
    "status": "Assigned to Contractor",
    "contractor": "Waste Pro",
    "rowid": "1170475",
    "final_x": "3711120.29483",
    "final_y": "557220.660955",
    "longitude": "-89.97357799964672",
    "latitude": "30.02523018683168",
    "geocoded_column": {
      "latitude": "30.02523018683168",
      "longitude": "-89.97357799964672"
    }
  },
  {
    "service_request": "2025-1170474",
    "request_type": "Alley Ways",
    "request_reason": "Alley Way Regrading",
    "date_created": "2025-02-20T13:32:57.000",
    "date_modified": "2025-02-20T13:32:59.000",
    "request_status": "Pending",
    "responsible_agency": "Department of Public Works",
    "final_address": "6436 Catina St",
    "address_councildis": "A",
    "status": "Pending",
    "rowid": "1170474",
    "final_x": "3666873.28237",
    "final_y": "550709.454293",
    "longitude": "-90.11361139280629",
    "latitude": "30.008696198015013",
    "geocoded_column": {
      "latitude": "30.008696198015013",
      "longitude": "-90.11361139280629"
    }
  },
  {
    "service_request": "2025-1170473",
    "request_type": "Trash/Recycling",
    "request_reason": "Return Trash Cart",
    "date_created": "2025-02-20T13:32:04.000",
    "date_modified": "2025-02-20T13:32:07.000",
    "request_status": "Pending",
    "responsible_agency": "Department of Sanitation",
    "final_address": "104 Constitution St, New Orleans, Louisiana, 70114",
    "address_councildis": "C",
    "status": "Assigned to Contractor",
    "contractor": "Richards Disposal",
    "rowid": "1170473",
    "final_x": "3693206.05846",
    "final_y": "528247.77728",
    "longitude": "-90.03122437871811",
    "latitude": "29.946137590915686",
    "geocoded_column": {
      "latitude": "29.946137590915686",
      "longitude": "-90.03122437871811"
    }
  },
  {
    "service_request": "2025-1170472",
    "request_type": "Trash/Recycling",
    "request_reason": "Request a Large Item Pick Up",
    "date_created": "2025-02-20T13:30:16.000",
    "date_modified": "2025-02-20T13:30:28.000",
    "request_status": "Pending",
    "responsible_agency": "Department of Sanitation",
    "final_address": "5705 Canal Blvd",
    "address_councildis": "A",
    "status": "Assigned to Contractor",
    "contractor": "IV Waste",
    "rowid": "1170472",
    "final_x": "3668476.18023",
    "final_y": "545466.306192",
    "longitude": "-90.10872433798559",
    "latitude": "29.994232346157062",
    "geocoded_column": {
      "latitude": "29.994232346157062",
      "longitude": "-90.10872433798559"
    }
  },
  {
    "service_request": "2025-1170471",
    "request_type": "Trash/Recycling",
    "request_reason": "Request a Large Item Pick Up",
    "date_created": "2025-02-20T13:29:25.000",
    "date_modified": "2025-02-20T13:29:28.000",
    "request_status": "Pending",
    "responsible_agency": "Department of Sanitation",
    "final_address": "7731 Windward Ct",
    "address_councildis": "E",
    "status": "Assigned to Contractor",
    "contractor": "Waste Pro",
    "rowid": "1170471",
    "final_x": "3715487.25784",
    "final_y": "569942.993126",
    "longitude": "-89.9592971552295",
    "latitude": "30.06006822815759",
    "geocoded_column": {
      "latitude": "30.06006822815759",
      "longitude": "-89.9592971552295"
    }
  },
  {
    "service_request": "2025-1170470",
    "request_type": "Property Maintenance",
    "request_reason": "Property Maintenance",
    "date_created": "2025-02-20T13:21:31.000",
    "date_modified": "2025-02-20T13:52:33.000",
    "case_close_date": "2025-02-20T07:52:32.000",
    "request_status": "Closed",
    "responsible_agency": "Department of Code Enforcement",
    "final_address": "3001 Castiglione St",
    "address_councildis": "D",
    "status": "Referred to Code Enforcement",
    "rowid": "1170470",
    "final_x": "3679065.30914",
    "final_y": "542570.611597",
    "longitude": "-90.07537511727843",
    "latitude": "29.985954772458097",
    "geocoded_column": {
      "latitude": "29.985954772458097",
      "longitude": "-90.07537511727843"
    }
  },
  {
    "service_request": "2025-1170469",
    "request_type": "Abandoned Vehicles",
    "request_reason": "Abandoned/Junk Vehicles",
    "date_created": "2025-02-20T13:21:21.000",
    "date_modified": "2025-02-20T13:21:23.000",
    "request_status": "Pending",
    "responsible_agency": "Department of Public Works",
    "final_address": "1127 Mazant St",
    "address_councildis": "C",
    "status": "Pending",
    "rowid": "1170469",
    "final_x": "3692217.59363",
    "final_y": "535525.528262",
    "longitude": "-90.03408474218028",
    "latitude": "29.966179719365222",
    "geocoded_column": {
      "latitude": "29.966179719365222",
      "longitude": "-90.03408474218028"
    }
  },
  {
    "service_request": "2025-1170468",
    "request_type": "Trash/Recycling",
    "request_reason": "Request a Large Item Pick Up",
    "date_created": "2025-02-20T13:16:08.000",
    "date_modified": "2025-02-20T13:16:11.000",
    "request_status": "Pending",
    "responsible_agency": "Department of Sanitation",
    "final_address": "11140 N Forest Park Ct",
    "address_councildis": "E",
    "status": "Assigned to Contractor",
    "contractor": "Waste Pro",
    "rowid": "1170468",
    "final_x": "3716782.31109",
    "final_y": "558649.33014",
    "longitude": "-89.95563282423697",
    "latitude": "30.028972492354416",
    "geocoded_column": {
      "latitude": "30.028972492354416",
      "longitude": "-89.95563282423697"
    }
  },
  {
    "service_request": "2025-1170467",
    "request_type": "Trash/Recycling",
    "request_reason": "Request a Large Item Pick Up",
    "date_created": "2025-02-20T13:14:26.000",
    "date_modified": "2025-02-20T13:14:27.000",
    "request_status": "Pending",
    "responsible_agency": "Department of Sanitation",
    "final_address": "7965 Edgelake Ct",
    "address_councildis": "E",
    "status": "Assigned to Contractor",
    "contractor": "Waste Pro",
    "rowid": "1170467",
    "final_x": "3702715.00586",
    "final_y": "562288.538207",
    "longitude": "-89.9999508928236",
    "latitude": "30.039436457999617",
    "geocoded_column": {
      "latitude": "30.039436457999617",
      "longitude": "-89.9999508928236"
    }
  },
  {
    "service_request": "2025-1170466",
    "request_type": "Trash/Recycling",
    "request_reason": "Replace Trash Cart",
    "date_created": "2025-02-20T13:08:59.000",
    "date_modified": "2025-02-20T13:09:00.000",
    "request_status": "Pending",
    "responsible_agency": "Department of Sanitation",
    "final_address": "1252 Southlawn Blvd",
    "address_councildis": "C",
    "status": "Assigned to Contractor",
    "contractor": "Richards Disposal",
    "rowid": "1170466",
    "final_x": "3695235.22038",
    "final_y": "526793.782782",
    "longitude": "-90.02487007144022",
    "latitude": "29.942076049423783",
    "geocoded_column": {
      "latitude": "29.942076049423783",
      "longitude": "-90.02487007144022"
    }
  },
  {
    "service_request": "2025-1170465",
    "request_type": "Abandoned Vehicles",
    "request_reason": "Abandoned/Junk Vehicles",
    "date_created": "2025-02-20T13:04:56.000",
    "date_modified": "2025-02-20T13:04:59.000",
    "request_status": "Pending",
    "responsible_agency": "Department of Public Works",
    "final_address": "5916 St Claude Ave",
    "address_councildis": "E",
    "status": "Pending",
    "rowid": "1170465",
    "final_x": "3699025.32804",
    "final_y": "533436.165764",
    "longitude": "-90.01266224743185",
    "latitude": "29.960220711843643",
    "geocoded_column": {
      "latitude": "29.960220711843643",
      "longitude": "-90.01266224743185"
    }
  },
  {
    "service_request": "2025-1170464",
    "request_type": "General Services",
    "request_reason": "General Service Request",
    "date_created": "2025-02-20T13:04:22.000",
    "date_modified": "2025-02-20T13:04:25.000",
    "request_status": "Pending",
    "responsible_agency": "Orleans Parish Communication District",
    "final_address": "HAYNE BLVD & CONGRESS DR",
    "address_councildis": "D",
    "status": "Pending",
    "rowid": "1170464",
    "final_x": "3690423.8",
    "final_y": "558659.28",
    "longitude": "-90.03892420159148",
    "latitude": "30.029844924240702",
    "geocoded_column": {
      "latitude": "30.029844924240702",
      "longitude": "-90.03892420159148"
    }
  },
  {
    "service_request": "2025-1170463",
    "request_type": "Trash/Recycling",
    "request_reason": "Request a Large Item Pick Up",
    "date_created": "2025-02-20T13:03:51.000",
    "date_modified": "2025-02-20T13:03:53.000",
    "request_status": "Pending",
    "responsible_agency": "Department of Sanitation",
    "final_address": "119 N Lopez St",
    "address_councildis": "B",
    "status": "Assigned to Contractor",
    "contractor": "IV Waste",
    "rowid": "1170463",
    "final_x": "3673993.06388",
    "final_y": "536448.551495",
    "longitude": "-90.091605910311",
    "latitude": "29.969273339094578",
    "geocoded_column": {
      "latitude": "29.969273339094578",
      "longitude": "-90.091605910311"
    }
  },
  {
    "service_request": "2025-1170462",
    "request_type": "Trash/Recycling",
    "request_reason": "Request a Large Item Pick Up",
    "date_created": "2025-02-20T12:59:31.000",
    "date_modified": "2025-02-20T12:59:34.000",
    "request_status": "Pending",
    "responsible_agency": "Department of Sanitation",
    "final_address": "7145 Downman Rd",
    "address_councildis": "D",
    "status": "Assigned to Contractor",
    "contractor": "Waste Pro",
    "rowid": "1170462",
    "final_x": "3695294.48867",
    "final_y": "556839.897242",
    "longitude": "-90.02359864589498",
    "latitude": "30.024690123887616",
    "geocoded_column": {
      "latitude": "30.024690123887616",
      "longitude": "-90.02359864589498"
    }
  },
  {
    "service_request": "2025-1170461",
    "request_type": "Drainage",
    "request_reason": "Catch Basin Clogged",
    "date_created": "2025-02-20T12:50:38.000",
    "date_modified": "2025-02-20T12:50:39.000",
    "request_status": "Pending",
    "responsible_agency": "Sewerage & Water Board ",
    "final_address": "1916 Burdette St",
    "address_councildis": "A",
    "status": "Pending",
    "rowid": "1170461",
    "final_x": "3664523.79604",
    "final_y": "529575.722369",
    "longitude": "-90.12174021289066",
    "latitude": "29.95065406984298",
    "geocoded_column": {
      "latitude": "29.95065406984298",
      "longitude": "-90.12174021289066"
    }
  },
  {
    "service_request": "2025-1170460",
    "request_type": "Trash/Recycling",
    "request_reason": "Repair Trash Cart",
    "date_created": "2025-02-20T12:48:59.000",
    "date_modified": "2025-02-20T12:49:02.000",
    "request_status": "Pending",
    "responsible_agency": "Department of Sanitation",
    "final_address": "3856 Pauger St",
    "address_councildis": "D",
    "status": "Assigned to Contractor",
    "contractor": "IV Waste",
    "rowid": "1170460",
    "final_x": "3683133.64072",
    "final_y": "544807.652751",
    "longitude": "-90.06244651414276",
    "latitude": "29.991982406458913",
    "geocoded_column": {
      "latitude": "29.991982406458913",
      "longitude": "-90.06244651414276"
    }
  },
  {
    "service_request": "2025-1170458",
    "request_type": "Trash/Recycling",
    "request_reason": "MIssed Recycling Pick-Up",
    "date_created": "2025-02-20T12:41:07.000",
    "date_modified": "2025-02-20T14:49:34.000",
    "case_close_date": "2025-02-20T08:49:31.000",
    "request_status": "Closed",
    "responsible_agency": "Department of Sanitation",
    "final_address": "3501 S Carrollton Ave",
    "address_councildis": "B",
    "status": "Invalid Request",
    "contractor": "IV Waste",
    "contractor_action": "Invalid Request",
    "rowid": "1170458",
    "final_x": "3667635.90426",
    "final_y": "534354.767109",
    "longitude": "-90.1117528665523",
    "latitude": "29.96370402378397",
    "geocoded_column": {
      "latitude": "29.96370402378397",
      "longitude": "-90.1117528665523"
    }
  },
  {
    "service_request": "2025-1170457",
    "request_type": "Property Maintenance",
    "request_reason": "Property Maintenance",
    "date_created": "2025-02-20T12:40:32.000",
    "date_modified": "2025-02-20T12:58:03.000",
    "case_close_date": "2025-02-20T06:58:01.000",
    "request_status": "Closed",
    "responsible_agency": "Department of Code Enforcement",
    "final_address": "1306 Felicity St",
    "address_councildis": "B",
    "status": "Referred to Code Enforcement",
    "rowid": "1170457",
    "final_x": "3679413.50703",
    "final_y": "523591.990075",
    "longitude": "-90.0749336441885",
    "latitude": "29.93375948352876",
    "geocoded_column": {
      "latitude": "29.93375948352876",
      "longitude": "-90.0749336441885"
    }
  },
  {
    "service_request": "2025-1170455",
    "request_type": "Parks & Parkways",
    "request_reason": "Request Tree Service (Right of Way/Public Property)",
    "date_created": "2025-02-20T12:37:44.000",
    "date_modified": "2025-02-20T12:37:46.000",
    "request_status": "Pending",
    "responsible_agency": "Department of Parks & Parkway",
    "final_address": "5625 Woodlawn Pl",
    "address_councildis": "A",
    "status": "Pending",
    "rowid": "1170455",
    "final_x": "3667586.63879",
    "final_y": "544967.193807",
    "longitude": "-90.11155110122753",
    "latitude": "29.992886068905957",
    "geocoded_column": {
      "latitude": "29.992886068905957",
      "longitude": "-90.11155110122753"
    }
  },
  {
    "service_request": "2025-1170454",
    "request_type": "Trash/Recycling",
    "request_reason": "Request a Large Item Pick Up",
    "date_created": "2025-02-20T12:36:32.000",
    "date_modified": "2025-02-20T12:36:35.000",
    "request_status": "Pending",
    "responsible_agency": "Department of Sanitation",
    "final_address": "2341 Odin St",
    "address_councildis": "D",
    "status": "Assigned to Contractor",
    "contractor": "IV Waste",
    "rowid": "1170454",
    "final_x": "3684833.60489",
    "final_y": "553167.163095",
    "longitude": "-90.05678250360289",
    "latitude": "30.014916086492324",
    "geocoded_column": {
      "latitude": "30.014916086492324",
      "longitude": "-90.05678250360289"
    }
  },
  {
    "service_request": "2025-1170453",
    "request_type": "Trash/Recycling",
    "request_reason": "Order Trash Cart",
    "date_created": "2025-02-20T12:35:42.000",
    "date_modified": "2025-02-20T12:35:44.000",
    "request_status": "Pending",
    "responsible_agency": "Department of Sanitation",
    "final_address": "1441 Marigny St",
    "address_councildis": "C",
    "status": "Assigned to Contractor",
    "contractor": "IV Waste",
    "rowid": "1170453",
    "final_x": "3685336.73698",
    "final_y": "537779.775048",
    "longitude": "-90.05573492096602",
    "latitude": "29.972590850583554",
    "geocoded_column": {
      "latitude": "29.972590850583554",
      "longitude": "-90.05573492096602"
    }
  },
  {
    "service_request": "2025-1170452",
    "request_type": "Trash/Recycling",
    "request_reason": "Order Trash Cart",
    "date_created": "2025-02-20T12:35:26.000",
    "date_modified": "2025-02-20T12:35:28.000",
    "request_status": "Pending",
    "responsible_agency": "Department of Sanitation",
    "final_address": "1017 Orleans ave",
    "address_councildis": "C",
    "status": "Assigned to Contractor",
    "contractor": "IV Waste",
    "rowid": "1170452",
    "final_x": "3681691.77596",
    "final_y": "533365.816068",
    "longitude": "-90.0674003697587",
    "latitude": "29.96056522483962",
    "geocoded_column": {
      "latitude": "29.96056522483962",
      "longitude": "-90.0674003697587"
    }
  },
  {
    "service_request": "2025-1170451",
    "request_type": "Trash/Recycling",
    "request_reason": "Replace Trash Cart",
    "date_created": "2025-02-20T12:31:05.000",
    "date_modified": "2025-02-20T12:31:08.000",
    "request_status": "Pending",
    "responsible_agency": "Department of Sanitation",
    "final_address": "1017 Opelousas Ave",
    "address_councildis": "C",
    "status": "Assigned to Contractor",
    "contractor": "Richards Disposal",
    "rowid": "1170451",
    "final_x": "3688622.61347",
    "final_y": "528942.106496",
    "longitude": "-90.04567121307053",
    "latitude": "29.948189180013525",
    "geocoded_column": {
      "latitude": "29.948189180013525",
      "longitude": "-90.04567121307053"
    }
  },
  {
    "service_request": "2025-1170450",
    "request_type": "Trash/Recycling",
    "request_reason": "Return Recycling Cart",
    "date_created": "2025-02-20T12:29:21.000",
    "date_modified": "2025-02-20T12:29:23.000",
    "request_status": "Pending",
    "responsible_agency": "Department of Sanitation",
    "final_address": "3322 State Street Dr",
    "address_councildis": "A",
    "status": "Pending",
    "rowid": "1170450",
    "final_x": "3667677.31495",
    "final_y": "528543.112512",
    "longitude": "-90.11181774242625",
    "latitude": "29.947722664755794",
    "geocoded_column": {
      "latitude": "29.947722664755794",
      "longitude": "-90.11181774242625"
    }
  },
  {
    "service_request": "2025-1170449",
    "request_type": "Trash/Recycling",
    "request_reason": "Return Trash Cart",
    "date_created": "2025-02-20T12:29:10.000",
    "date_modified": "2025-02-20T12:29:13.000",
    "request_status": "Pending",
    "responsible_agency": "Department of Sanitation",
    "final_address": "1512 Audubon St",
    "address_councildis": "A",
    "status": "Assigned to Contractor",
    "contractor": "IV Waste",
    "rowid": "1170449",
    "final_x": "3665060.85274",
    "final_y": "527354.346751",
    "longitude": "-90.12011872023237",
    "latitude": "29.9445303779126",
    "geocoded_column": {
      "latitude": "29.9445303779126",
      "longitude": "-90.12011872023237"
    }
  },
  {
    "service_request": "2025-1170448",
    "request_type": "Safety & Permits",
    "request_reason": "Zoning Enforcement",
    "date_created": "2025-02-20T12:28:02.000",
    "date_modified": "2025-02-20T13:31:05.000",
    "case_close_date": "2025-02-20T07:31:04.000",
    "request_status": "Closed",
    "responsible_agency": "Safety and Permits",
    "final_address": "5224 Magazine St",
    "address_councildis": "B",
    "status": "Resolved",
    "rowid": "1170448",
    "final_x": "3667802.96065",
    "final_y": "518577.084663",
    "longitude": "-90.11175649369399",
    "latitude": "29.920315591795575",
    "geocoded_column": {
      "latitude": "29.920315591795575",
      "longitude": "-90.11175649369399"
    }
  },
  {
    "service_request": "2025-1170447",
    "request_type": "Abandoned Vehicles",
    "request_reason": "Abandoned/Junk Vehicles",
    "date_created": "2025-02-20T12:27:59.000",
    "date_modified": "2025-02-20T12:28:00.000",
    "request_status": "Pending",
    "responsible_agency": "Department of Public Works",
    "final_address": "1317 S Derbigny St",
    "address_councildis": "B",
    "status": "Pending",
    "rowid": "1170447",
    "final_x": "3674970.81211",
    "final_y": "528724.13696",
    "longitude": "-90.0887830609163",
    "latitude": "29.948004615132295",
    "geocoded_column": {
      "latitude": "29.948004615132295",
      "longitude": "-90.0887830609163"
    }
  },
  {
    "service_request": "2025-1170446",
    "request_type": "Abandoned Vehicles",
    "request_reason": "Abandoned/Junk Vehicles",
    "date_created": "2025-02-20T12:27:48.000",
    "date_modified": "2025-02-20T12:29:20.000",
    "request_status": "Pending",
    "responsible_agency": "Department of Public Works",
    "final_address": "3231 Annunciation St",
    "address_councildis": "B",
    "status": "Pending",
    "rowid": "1170446",
    "final_x": "3676074.22977",
    "final_y": "518928.896951",
    "longitude": "-90.08563589104244",
    "latitude": "29.92103790546944",
    "geocoded_column": {
      "latitude": "29.92103790546944",
      "longitude": "-90.08563589104244"
    }
  },
  {
    "service_request": "2025-1170445",
    "request_type": "Trash/Recycling",
    "request_reason": "Replace Recycling Cart",
    "date_created": "2025-02-20T12:26:41.000",
    "date_modified": "2025-02-20T12:26:42.000",
    "request_status": "Pending",
    "responsible_agency": "Department of Sanitation",
    "final_address": "11021 Lake Forest Blvd",
    "address_councildis": "E",
    "status": "Pending",
    "rowid": "1170445",
    "final_x": "3714405.61515",
    "final_y": "560590.509406",
    "longitude": "-89.96306966566267",
    "latitude": "30.034388319484936",
    "geocoded_column": {
      "latitude": "30.034388319484936",
      "longitude": "-89.96306966566267"
    }
  },
  {
    "service_request": "2025-1170444",
    "request_type": "Trash/Recycling",
    "request_reason": "Request a Large Item Pick Up",
    "date_created": "2025-02-20T12:25:59.000",
    "date_modified": "2025-02-20T12:26:02.000",
    "request_status": "Pending",
    "responsible_agency": "Department of Sanitation",
    "final_address": "4054 Fairmont Dr",
    "address_councildis": "D",
    "status": "Assigned to Contractor",
    "contractor": "IV Waste",
    "rowid": "1170444",
    "final_x": "3684584.4029",
    "final_y": "547300.264721",
    "longitude": "-90.05777621171484",
    "latitude": "29.998791874033913",
    "geocoded_column": {
      "latitude": "29.998791874033913",
      "longitude": "-90.05777621171484"
    }
  },
  {
    "service_request": "2025-1170443",
    "request_type": "Trash/Recycling",
    "request_reason": "Request a Large Item Pick Up",
    "date_created": "2025-02-20T12:18:45.000",
    "date_modified": "2025-02-20T13:16:07.000",
    "case_close_date": "2025-02-20T07:16:05.000",
    "request_status": "Closed",
    "responsible_agency": "Department of Sanitation",
    "final_address": "7800 Henley St",
    "address_councildis": "E",
    "status": "Duplicate Request",
    "contractor": "Waste Pro",
    "contractor_action": "Duplicate",
    "rowid": "1170443",
    "final_x": "3696638.17981",
    "final_y": "559688.304413",
    "longitude": "-90.0192496121383",
    "latitude": "30.032479855185617",
    "geocoded_column": {
      "latitude": "30.032479855185617",
      "longitude": "-90.0192496121383"
    }
  },
  {
    "service_request": "2025-1170442",
    "request_type": "Trash/Recycling",
    "request_reason": "Request a Large Item Pick Up",
    "date_created": "2025-02-20T12:17:57.000",
    "date_modified": "2025-02-20T12:18:00.000",
    "request_status": "Pending",
    "responsible_agency": "Department of Sanitation",
    "final_address": "7800 Henley St",
    "address_councildis": "E",
    "status": "Assigned to Contractor",
    "contractor": "Waste Pro",
    "rowid": "1170442",
    "final_x": "3696638.17981",
    "final_y": "559688.304413",
    "longitude": "-90.0192496121383",
    "latitude": "30.032479855185617",
    "geocoded_column": {
      "latitude": "30.032479855185617",
      "longitude": "-90.0192496121383"
    }
  },
  {
    "service_request": "2025-1170441",
    "request_type": "Trash/Recycling",
    "request_reason": "Request a Large Item Pick Up",
    "date_created": "2025-02-20T12:14:26.000",
    "date_modified": "2025-02-20T12:14:29.000",
    "request_status": "Pending",
    "responsible_agency": "Department of Sanitation",
    "final_address": "528 S Rendon St",
    "address_councildis": "B",
    "status": "Assigned to Contractor",
    "contractor": "IV Waste",
    "rowid": "1170441",
    "final_x": "3672510.48807",
    "final_y": "534976.08999",
    "longitude": "-90.09633820748077",
    "latitude": "29.9652686589113",
    "geocoded_column": {
      "latitude": "29.9652686589113",
      "longitude": "-90.09633820748077"
    }
  },
  {
    "service_request": "2025-1170440",
    "request_type": "Abandoned Vehicles",
    "request_reason": "Abandoned/Junk Vehicles",
    "date_created": "2025-02-20T12:10:10.000",
    "date_modified": "2025-02-20T14:05:25.000",
    "request_status": "Pending",
    "responsible_agency": "Department of Public Works",
    "final_address": "1400 Lowerline St",
    "address_councildis": "A",
    "status": "Inspected",
    "rowid": "1170440",
    "final_x": "3664040.65677",
    "final_y": "527493.283583",
    "longitude": "-90.1233351600401",
    "latitude": "29.944942071672077",
    "geocoded_column": {
      "latitude": "29.944942071672077",
      "longitude": "-90.1233351600401"
    }
  },
  {
    "service_request": "2025-1170439",
    "request_type": "Trash/Recycling",
    "request_reason": "Repair Trash Cart",
    "date_created": "2025-02-20T12:07:05.000",
    "date_modified": "2025-02-20T12:07:07.000",
    "request_status": "Pending",
    "responsible_agency": "Department of Sanitation",
    "final_address": "5880 Louis Xiv St",
    "address_councildis": "A",
    "status": "Assigned to Contractor",
    "contractor": "IV Waste",
    "rowid": "1170439",
    "final_x": "3667918.00961",
    "final_y": "546612.118353",
    "longitude": "-90.11044890177165",
    "latitude": "29.997399326376968",
    "geocoded_column": {
      "latitude": "29.997399326376968",
      "longitude": "-90.11044890177165"
    }
  },
  {
    "service_request": "2025-1170437",
    "request_type": "Streetlights",
    "request_reason": "Streetlight Outage/Malfunction",
    "date_created": "2025-02-20T12:01:40.000",
    "date_modified": "2025-02-20T12:01:41.000",
    "request_status": "Pending",
    "responsible_agency": "Department of Public Works",
    "final_address": "2318 Constance St",
    "address_councildis": "B",
    "status": "Pending",
    "contractor": "Legacy Professional Services",
    "rowid": "1170437",
    "final_x": "3678653.95682",
    "final_y": "521422.388153",
    "longitude": "-90.07740658215732",
    "latitude": "29.927816703679287",
    "geocoded_column": {
      "latitude": "29.927816703679287",
      "longitude": "-90.07740658215732"
    }
  },
  {
    "service_request": "2025-1170436",
    "request_type": "Streetlights",
    "request_reason": "Streetlight Outage/Malfunction",
    "date_created": "2025-02-20T12:00:37.000",
    "date_modified": "2025-02-20T12:00:47.000",
    "request_status": "Pending",
    "responsible_agency": "Department of Public Works",
    "final_address": "2318 Constance St",
    "address_councildis": "B",
    "status": "Pending",
    "contractor": "Legacy Professional Services",
    "rowid": "1170436",
    "final_x": "3678653.95682",
    "final_y": "521422.388153",
    "longitude": "-90.07740658215732",
    "latitude": "29.927816703679287",
    "geocoded_column": {
      "latitude": "29.927816703679287",
      "longitude": "-90.07740658215732"
    }
  },
  {
    "service_request": "2025-1170435",
    "request_type": "Trash/Recycling",
    "request_reason": "Illegal Dumping",
    "date_created": "2025-02-20T11:59:11.000",
    "date_modified": "2025-02-20T11:59:13.000",
    "request_status": "Pending",
    "responsible_agency": "Department of Sanitation",
    "final_address": "7736 Dorsett Dr",
    "address_councildis": "E",
    "status": "Pending",
    "rowid": "1170435",
    "final_x": "3712495.98565",
    "final_y": "567820.773476",
    "longitude": "-89.96883220766074",
    "latitude": "30.054331281801",
    "geocoded_column": {
      "latitude": "30.054331281801",
      "longitude": "-89.96883220766074"
    }
  },
  {
    "service_request": "2025-1170434",
    "request_type": "Trash/Recycling",
    "request_reason": "Replace Trash Cart",
    "date_created": "2025-02-20T11:58:36.000",
    "date_modified": "2025-02-20T11:58:38.000",
    "request_status": "Pending",
    "responsible_agency": "Department of Sanitation",
    "final_address": "7809 Star St",
    "address_councildis": "E",
    "status": "Assigned to Contractor",
    "contractor": "Waste Pro",
    "rowid": "1170434",
    "final_x": "3720772.85465",
    "final_y": "574477.933227",
    "longitude": "-89.94241585199434",
    "latitude": "30.072362067400828",
    "geocoded_column": {
      "latitude": "30.072362067400828",
      "longitude": "-89.94241585199434"
    }
  },
  {
    "service_request": "2025-1170433",
    "request_type": "Trash/Recycling",
    "request_reason": "Missed Trash Pick-Up",
    "date_created": "2025-02-20T11:54:45.000",
    "date_modified": "2025-02-20T12:37:28.000",
    "case_close_date": "2025-02-20T06:37:27.000",
    "request_status": "Closed",
    "responsible_agency": "Department of Sanitation",
    "final_address": "4743 Galahad Dr",
    "address_councildis": "E",
    "status": "Duplicate Request",
    "contractor": "Waste Pro",
    "contractor_action": "Duplicate",
    "rowid": "1170433",
    "final_x": "3707283.28888",
    "final_y": "555476.095833",
    "longitude": "-89.98576707859092",
    "latitude": "30.02055795298721",
    "geocoded_column": {
      "latitude": "30.02055795298721",
      "longitude": "-89.98576707859092"
    }
  },
  {
    "service_request": "2025-1170432",
    "request_type": "Trash/Recycling",
    "request_reason": "Replace Recycling Cart",
    "date_created": "2025-02-20T11:53:48.000",
    "date_modified": "2025-02-20T11:53:50.000",
    "request_status": "Pending",
    "responsible_agency": "Department of Sanitation",
    "final_address": "1002 N Dupre St",
    "address_councildis": "A",
    "status": "Pending",
    "rowid": "1170432",
    "final_x": "3676758.83016",
    "final_y": "538405.259785",
    "longitude": "-90.08280396392445",
    "latitude": "29.974570915643255",
    "geocoded_column": {
      "latitude": "29.974570915643255",
      "longitude": "-90.08280396392445"
    }
  },
  {
    "service_request": "2025-1170431",
    "request_type": "Trash/Recycling",
    "request_reason": "Request a Large Item Pick Up",
    "date_created": "2025-02-20T11:53:43.000",
    "date_modified": "2025-02-20T14:52:53.000",
    "request_status": "Pending",
    "responsible_agency": "Department of Sanitation",
    "final_address": "633 Washington Ave",
    "address_councildis": "B",
    "status": "Assigned to Contractor",
    "contractor": "IV Waste",
    "rowid": "1170431",
    "final_x": "3677946.53448",
    "final_y": "519559.770488",
    "longitude": "-90.07970407825005",
    "latitude": "29.92271641198951",
    "geocoded_column": {
      "latitude": "29.92271641198951",
      "longitude": "-90.07970407825005"
    }
  },
  {
    "service_request": "2025-1170430",
    "request_type": "Trash/Recycling",
    "request_reason": "Repair Trash Cart",
    "date_created": "2025-02-20T11:51:36.000",
    "date_modified": "2025-02-20T11:51:44.000",
    "request_status": "Pending",
    "responsible_agency": "Department of Sanitation",
    "final_address": "4824 Dixon St",
    "address_councildis": "B",
    "status": "Assigned to Contractor",
    "contractor": "IV Waste",
    "rowid": "1170430",
    "final_x": "3670021.54746",
    "final_y": "534142.899077",
    "longitude": "-90.10422640081383",
    "latitude": "29.963051308425126",
    "geocoded_column": {
      "latitude": "29.963051308425126",
      "longitude": "-90.10422640081383"
    }
  },