[
  {
    "service_request": "2022-875415",
    "request_type": "Property Maintenance",
    "request_reason": "Property Maintenance",
    "date_created": "2022-04-18T00:35:00.000",
    "date_modified": "2022-04-18T00:35:00.000",
    "request_status": "Pending",
    "responsible_agency": "Department of Code Enforcement",
    "final_address": "6568 Catina St",
    "address_councildis": "A",
    "status": "Pending",
    "rowid": "875415",
    "final_x": "3666910.84506",
    "final_y": "551436.760085",
    "longitude": "-90.11346825723848",
    "latitude": "30.010694935557922",
    "geocoded_column": {
      "latitude": "30.010694935557922",
      "longitude": "-90.11346825723848"
    }
  },
  {
    "service_request": "2022-875414",
    "request_type": "Traffic Signals/Signs/Striping/Streetlights",
    "request_reason": "Additional signage",
    "date_created": "2022-04-17T21:18:11.000",
    "date_modified": "2022-04-17T21:18:11.000",
    "request_status": "Pending",
    "responsible_agency": "Department of Public Works",
    "final_address": "1306 Calhoun St",
    "address_councildis": "A",
    "status": "Pending",
    "rowid": "875414",
    "final_x": "3664103.11738",
    "final_y": "521391.034809",
    "longitude": "-90.12334140557269",
    "latitude": "29.928161012734737",
    "geocoded_column": {
      "latitude": "29.928161012734737",
      "longitude": "-90.12334140557269"
    }
  },
  {
    "service_request": "2022-875413",
    "request_type": "Roads/Drainage",
    "request_reason": "Pothole",
    "date_created": "2022-04-17T21:18:03.000",
    "date_modified": "2022-04-17T21:18:03.000",
    "request_status": "Pending",
    "responsible_agency": "Department of Public Works",
    "final_address": "1738 S Carrollton Ave",
    "address_councildis": "A",
    "status": "Pending",
    "rowid": "875413",
    "final_x": "3663333.21933",
    "final_y": "529902.978561",
    "longitude": "-90.12548856848827",
    "latitude": "29.951588480592996",
    "geocoded_column": {
      "latitude": "29.951588480592996",
      "longitude": "-90.12548856848827"
    }
  },
  {
    "service_request": "2022-875412",
    "request_type": "Roads/Drainage",
    "request_reason": "Pothole",
    "date_created": "2022-04-17T21:15:51.000",
    "date_modified": "2022-04-17T21:15:51.000",
    "request_status": "Pending",
    "responsible_agency": "Department of Public Works",
    "final_address": "1703 S Carrollton Ave",
    "address_councildis": "A",
    "status": "Pending",
    "rowid": "875412",
    "final_x": "3663293.84384",
    "final_y": "529598.738113",
    "longitude": "-90.1256230229845",
    "latitude": "29.95075305871633",
    "geocoded_column": {
      "latitude": "29.95075305871633",
      "longitude": "-90.1256230229845"
    }
  },
  {
    "service_request": "2022-875409",
    "request_type": "Traffic Signals/Signs/Striping/Streetlights",
    "request_reason": "Traffic Signal Malfunctioning/Damaged",
    "date_created": "2022-04-17T21:12:48.000",
    "date_modified": "2022-04-17T21:12:48.000",
    "request_status": "Pending",
    "responsible_agency": "Department of Public Works",
    "final_address": "S CLAIBORNE AVE & BROADWAY ST",
    "address_councildis": "A",
    "status": "Pending",
    "rowid": "875409",
    "final_x": "3666300.7",
    "final_y": "529691.68",
    "longitude": "-90.11612575129924",
    "latitude": "29.95092113336769",
    "geocoded_column": {
      "latitude": "29.95092113336769",
      "longitude": "-90.11612575129924"
    }
  },
  {
    "service_request": "2022-875408",
    "request_type": "Traffic Signals/Signs/Striping/Streetlights",
    "request_reason": "Street Light Outage/Malfunction",
    "date_created": "2022-04-17T21:02:51.000",
    "date_modified": "2022-04-17T21:02:55.000",
    "request_status": "Pending",
    "responsible_agency": "Department of Public Works",
    "final_address": "1917 Odeon St",
    "address_councildis": "C",
    "status": "Pending",
    "contractor": "Royal Engineering",
    "rowid": "875408",
    "final_x": "3695848.5279",
    "final_y": "524187.151292",
    "longitude": "-90.02302784653325",
    "latitude": "29.934889440310826",
    "geocoded_column": {
      "latitude": "29.934889440310826",
      "longitude": "-90.02302784653325"
    }
  },
  {
    "service_request": "2022-875407",
    "request_type": "Trash/Recycling",
    "request_reason": "Replace Trash Cart",
    "date_created": "2022-04-17T20:56:36.000",
    "date_modified": "2022-04-17T20:56:37.000",
    "request_status": "Pending",
    "responsible_agency": "Department of Sanitation",
    "final_address": "3357 State Street Dr",
    "address_councildis": "A",
    "status": "Assigned to Contractor",
    "contractor": "Richards Disposal",
    "rowid": "875407",
    "final_x": "3667819.837",
    "final_y": "528667.28448",
    "longitude": "-90.1113635615505",
    "latitude": "29.948059918849136",
    "geocoded_column": {
      "latitude": "29.948059918849136",
      "longitude": "-90.1113635615505"
    }
  },
  {
    "service_request": "2022-875406",
    "request_type": "Trash/Recycling",
    "request_reason": "Request a Large Item Pick Up",
    "date_created": "2022-04-17T20:34:38.000",
    "date_modified": "2022-04-17T20:34:39.000",
    "request_status": "Pending",
    "responsible_agency": "Department of Sanitation",
    "final_address": "3121 Orleans Ave",
    "address_councildis": "A",
    "status": "Assigned to Contractor",
    "contractor": "Richards Disposal",
    "rowid": "875406",
    "final_x": "3675182.12865",
    "final_y": "538290.144969",
    "longitude": "-90.08778752934143",
    "latitude": "29.974301609846606",
    "geocoded_column": {
      "latitude": "29.974301609846606",
      "longitude": "-90.08778752934143"
    }
  },
  {
    "service_request": "2022-875405",
    "request_type": "Trash/Recycling",
    "request_reason": "Repair Trash Cart",
    "date_created": "2022-04-17T20:33:06.000",
    "date_modified": "2022-04-17T20:33:07.000",
    "request_status": "Pending",
    "responsible_agency": "Department of Sanitation",
    "final_address": "3121 Orleans Ave",
    "address_councildis": "A",
    "status": "Assigned to Contractor",
    "contractor": "Richards Disposal",
    "rowid": "875405",
    "final_x": "3675182.12865",
    "final_y": "538290.144969",
    "longitude": "-90.08778752934143",
    "latitude": "29.974301609846606",
    "geocoded_column": {
      "latitude": "29.974301609846606",
      "longitude": "-90.08778752934143"
    }
  },
  {
    "service_request": "2022-875404",
    "request_type": "Roads/Drainage",
    "request_reason": "Damaged Sidewalk",
    "date_created": "2022-04-17T19:44:53.000",
    "date_modified": "2022-04-17T19:44:53.000",
    "request_status": "Pending",
    "responsible_agency": "Department of Public Works",
    "final_address": "1200 Poydras St",
    "address_councildis": "B",
    "status": "Pending",
    "rowid": "875404",
    "final_x": "3678906.30728",
    "final_y": "529701.251393",
    "longitude": "-90.0763232713192",
    "latitude": "29.950573231070752",
    "geocoded_column": {
      "latitude": "29.950573231070752",
      "longitude": "-90.0763232713192"
    }
  },
  {
    "service_request": "2022-875403",
    "request_type": "Traffic Signals/Signs/Striping/Streetlights",
    "request_reason": "Street Name Sign Damaged or Missing",
    "date_created": "2022-04-17T19:43:02.000",
    "date_modified": "2022-04-17T19:43:02.000",
    "request_status": "Pending",
    "responsible_agency": "Department of Public Works",
    "final_address": "600 Loyola Ave",
    "address_councildis": "B",
    "status": "Pending",
    "rowid": "875403",
    "final_x": "3679077.6276",
    "final_y": "529249.623553",
    "longitude": "-90.0757979802308",
    "latitude": "29.949326236899775",
    "geocoded_column": {
      "latitude": "29.949326236899775",
      "longitude": "-90.0757979802308"
    }
  },
  {
    "service_request": "2022-875402",
    "request_type": "Traffic Signals/Signs/Striping/Streetlights",
    "request_reason": "Traffic Sign Missing/Damaged",
    "date_created": "2022-04-17T19:39:19.000",
    "date_modified": "2022-04-17T19:39:19.000",
    "request_status": "Pending",
    "responsible_agency": "Department of Public Works",
    "final_address": "600 Loyola Ave",
    "address_councildis": "B",
    "status": "Pending",
    "rowid": "875402",
    "final_x": "3679077.6276",
    "final_y": "529249.623553",
    "longitude": "-90.0757979802308",
    "latitude": "29.949326236899775",
    "geocoded_column": {
      "latitude": "29.949326236899775",
      "longitude": "-90.0757979802308"
    }
  },
  {
    "service_request": "2022-875401",
    "request_type": "Traffic Signals/Signs/Striping/Streetlights",
    "request_reason": "Street Light Outage/Malfunction",
    "date_created": "2022-04-17T19:35:35.000",
    "date_modified": "2022-04-17T19:35:36.000",
    "request_status": "Pending",
    "responsible_agency": "Department of Public Works",
    "final_address": "1200 Poydras St",
    "address_councildis": "B",
    "status": "Pending",
    "contractor": "Royal Engineering",
    "rowid": "875401",
    "final_x": "3678906.30728",
    "final_y": "529701.251393",
    "longitude": "-90.0763232713192",
    "latitude": "29.950573231070752",
    "geocoded_column": {
      "latitude": "29.950573231070752",
      "longitude": "-90.0763232713192"
    }
  },
  {
    "service_request": "2022-875400",
    "request_type": "Traffic Signals/Signs/Striping/Streetlights",
    "request_reason": "Traffic Signal Malfunctioning/Damaged",
    "date_created": "2022-04-17T19:33:43.000",
    "date_modified": "2022-04-17T19:33:43.000",
    "request_status": "Pending",
    "responsible_agency": "Department of Public Works",
    "final_address": "1200 Poydras St",
    "address_councildis": "B",
    "status": "Pending",
    "rowid": "875400",
    "final_x": "3678906.30728",
    "final_y": "529701.251393",
    "longitude": "-90.0763232713192",
    "latitude": "29.950573231070752",
    "geocoded_column": {
      "latitude": "29.950573231070752",
      "longitude": "-90.0763232713192"
    }
  },
  {
    "service_request": "2022-875399",
    "request_type": "Property Maintenance",
    "request_reason": "Property Maintenance",
    "date_created": "2022-04-17T19:20:14.000",
    "date_modified": "2022-04-17T19:20:14.000",
    "request_status": "Pending",
    "responsible_agency": "Department of Code Enforcement",
    "final_address": "2218 Felicity St",
    "address_councildis": "B",
    "status": "Pending",
    "rowid": "875399",
    "final_x": "3676528.37544",
    "final_y": "526471.37203",
    "longitude": "-90.08394275877643",
    "latitude": "29.941763647904185",
    "geocoded_column": {
      "latitude": "29.941763647904185",
      "longitude": "-90.08394275877643"
    }
  },
  {
    "service_request": "2022-875398",
    "request_type": "Trash/Recycling",
    "request_reason": "Replace Trash Cart",
    "date_created": "2022-04-17T19:16:05.000",
    "date_modified": "2022-04-17T19:16:05.000",
    "request_status": "Pending",
    "responsible_agency": "Department of Sanitation",
    "final_address": "9502 Stroelitz St",
    "address_councildis": "A",
    "status": "Assigned to Contractor",
    "contractor": "Richards Disposal",
    "rowid": "875398",
    "final_x": "3664222.61389",
    "final_y": "538249.368521",
    "longitude": "-90.12240176855201",
    "latitude": "29.974512507768722",
    "geocoded_column": {
      "latitude": "29.974512507768722",
      "longitude": "-90.12240176855201"
    }
  },
  {
    "service_request": "2022-875397",
    "request_type": "Roads/Drainage",
    "request_reason": "Street Flooding / Drainage",
    "date_created": "2022-04-17T18:44:56.000",
    "date_modified": "2022-04-17T18:44:56.000",
    "request_status": "Pending",
    "responsible_agency": "Department of Public Works",
    "final_address": "725 Alix St, New Orleans, Louisiana, 70114",
    "address_councildis": "C",
    "status": "Pending",
    "rowid": "875397",
    "final_x": "3687757.83171",
    "final_y": "530302.873985",
    "longitude": "-90.0483534932111",
    "latitude": "29.951957518169362",
    "geocoded_column": {
      "latitude": "29.951957518169362",
      "longitude": "-90.0483534932111"
    }
  },
  {
    "service_request": "2022-875396",
    "request_type": "Roads/Drainage",
    "request_reason": "Street Flooding / Drainage",
    "date_created": "2022-04-17T18:39:49.000",
    "date_modified": "2022-04-17T18:39:49.000",
    "request_status": "Pending",
    "responsible_agency": "Department of Public Works",
    "final_address": "725 Alix St",
    "address_councildis": "C",
    "status": "Pending",
    "rowid": "875396",
    "final_x": "3687757.83171",
    "final_y": "530302.873985",
    "longitude": "-90.0483534932111",
    "latitude": "29.951957518169362",
    "geocoded_column": {
      "latitude": "29.951957518169362",
      "longitude": "-90.0483534932111"
    }
  },
  {
    "service_request": "2022-875395",
    "request_type": "Abandoned Vehicles",
    "request_reason": "Abandoned/Junk Vehicles",
    "date_created": "2022-04-17T18:36:19.000",
    "date_modified": "2022-04-17T18:36:19.000",
    "request_status": "Pending",
    "responsible_agency": "Department of Public Works",
    "final_address": "1212 N Gayoso St",
    "address_councildis": "A",
    "status": "Pending",
    "rowid": "875395",
    "final_x": "3676763.55048",
    "final_y": "539421.960906",
    "longitude": "-90.08275401098841",
    "latitude": "29.977366353180507",
    "geocoded_column": {
      "latitude": "29.977366353180507",
      "longitude": "-90.08275401098841"
    }
  },
  {
    "service_request": "2022-875394",
    "request_type": "Roads/Drainage",
    "request_reason": "Street Subsidence (Sinking)",
    "date_created": "2022-04-17T18:26:14.000",
    "date_modified": "2022-04-17T18:26:14.000",
    "request_status": "Pending",
    "responsible_agency": "Department of Public Works",
    "final_address": "5021 Laurel St",
    "address_councildis": "B",
    "status": "Pending",
    "rowid": "875394",
    "final_x": "3668445.67098",
    "final_y": "517890.746998",
    "longitude": "-90.10975088889502",
    "latitude": "29.918409523234416",
    "geocoded_column": {
      "latitude": "29.918409523234416",
      "longitude": "-90.10975088889502"
    }
  },
  {
    "service_request": "2022-875393",
    "request_type": "Trash/Recycling",
    "request_reason": "Illegal Dumping",
    "date_created": "2022-04-17T17:53:37.000",
    "date_modified": "2022-04-17T17:53:37.000",
    "request_status": "Pending",
    "responsible_agency": "Department of Sanitation",
    "final_address": "1827 N Roman St",
    "address_councildis": "D",
    "status": "Pending",
    "rowid": "875393",
    "final_x": "3683157.57557",
    "final_y": "538788.317129",
    "longitude": "-90.06258177483085",
    "latitude": "29.97543062009753",
    "geocoded_column": {
      "latitude": "29.97543062009753",
      "longitude": "-90.06258177483085"
    }
  },
  {
    "service_request": "2022-875392",
    "request_type": "Traffic Signals/Signs/Striping/Streetlights",
    "request_reason": "Street Light Outage/Malfunction",
    "date_created": "2022-04-17T17:43:10.000",
    "date_modified": "2022-04-17T17:43:11.000",
    "request_status": "Pending",
    "responsible_agency": "Department of Public Works",
    "final_address": "DUBLIN ST & PRITCHARD PL",
    "address_councildis": "A",
    "status": "Pending",
    "contractor": "Royal Engineering",
    "rowid": "875392",
    "final_x": "3665806.3",
    "final_y": "533116.28",
    "longitude": "-90.11757209304425",
    "latitude": "29.96035209784138",
    "geocoded_column": {
      "latitude": "29.96035209784138",
      "longitude": "-90.11757209304425"
    }
  },
  {
    "service_request": "2022-875391",
    "request_type": "Traffic Signals/Signs/Striping/Streetlights",
    "request_reason": "Street Light Outage/Malfunction",
    "date_created": "2022-04-17T17:42:26.000",
    "date_modified": "2022-04-17T17:42:26.000",
    "request_status": "Pending",
    "responsible_agency": "Department of Public Works",
    "final_address": "DUBLIN ST & FIG ST",
    "address_councildis": "A",
    "status": "Pending",
    "contractor": "Royal Engineering",
    "rowid": "875391",
    "final_x": "3666043.9",
    "final_y": "533378.58",
    "longitude": "-90.11681300452871",
    "latitude": "29.961066402693778",
    "geocoded_column": {
      "latitude": "29.961066402693778",
      "longitude": "-90.11681300452871"
    }
  },
  {
    "service_request": "2022-875390",
    "request_type": "Abandoned Vehicles",
    "request_reason": "Abandoned/Junk Vehicles",
    "date_created": "2022-04-17T17:40:34.000",
    "date_modified": "2022-04-17T17:40:34.000",
    "request_status": "Pending",
    "responsible_agency": "Department of Public Works",
    "final_address": "2700 Jefferson Ave",
    "address_councildis": "A",
    "status": "Pending",
    "rowid": "875390",
    "final_x": "3668118.67604",
    "final_y": "525364.217917",
    "longitude": "-90.11053129877212",
    "latitude": "29.93896878807976",
    "geocoded_column": {
      "latitude": "29.93896878807976",
      "longitude": "-90.11053129877212"
    }
  },
  {
    "service_request": "2022-875389",
    "request_type": "Roads/Drainage",
    "request_reason": "Catch Basin - Broken/Damage",
    "date_created": "2022-04-17T17:15:58.000",
    "date_modified": "2022-04-17T17:15:58.000",
    "request_status": "Pending",
    "responsible_agency": "Department of Public Works",
    "final_address": "2301 New York St",
    "address_councildis": "D",
    "status": "Pending",
    "rowid": "875389",
    "final_x": "3684190.08418",
    "final_y": "556724.079322",
    "longitude": "-90.05869070369093",
    "latitude": "30.024715995353056",
    "geocoded_column": {
      "latitude": "30.024715995353056",
      "longitude": "-90.05869070369093"
    }
  },
  {
    "service_request": "2022-875388",
    "request_type": "Roads/Drainage",
    "request_reason": "Catch Basin - Broken/Damage",
    "date_created": "2022-04-17T17:14:48.000",
    "date_modified": "2022-04-17T17:18:18.000",
    "request_status": "Pending",
    "responsible_agency": "Department of Public Works",
    "final_address": "2301 New York St",
    "address_councildis": "D",
    "status": "Pending",
    "rowid": "875388",
    "final_x": "3684190.08418",
    "final_y": "556724.079322",
    "longitude": "-90.05869070369093",
    "latitude": "30.024715995353056",
    "geocoded_column": {
      "latitude": "30.024715995353056",
      "longitude": "-90.05869070369093"
    }
  },
  {
    "service_request": "2022-875387",
    "request_type": "Trash/Recycling",
    "request_reason": "Request a Large Item Pick Up",
    "date_created": "2022-04-17T17:07:25.000",
    "date_modified": "2022-04-17T17:07:28.000",
    "request_status": "Pending",
    "responsible_agency": "Department of Sanitation",
    "final_address": "717 Valence St",
    "address_councildis": "B",
    "status": "Assigned to Contractor",
    "contractor": "Richards Disposal",
    "rowid": "875387",
    "final_x": "3670048.5442",
    "final_y": "518103.400886",
    "longitude": "-90.10468426134845",
    "latitude": "29.91894709274877",
    "geocoded_column": {
      "latitude": "29.91894709274877",
      "longitude": "-90.10468426134845"
    }
  },
  {
    "service_request": "2022-875386",
    "request_type": "Roads/Drainage",
    "request_reason": "Street Flooding / Drainage",
    "date_created": "2022-04-17T16:54:36.000",
    "date_modified": "2022-04-17T16:54:36.000",
    "request_status": "Pending",
    "responsible_agency": "Department of Public Works",
    "final_address": "532 S Hennessey St",
    "address_councildis": "A",
    "status": "Pending",
    "rowid": "875386",
    "final_x": "3669206.83354",
    "final_y": "537457.6914",
    "longitude": "-90.1066871172714",
    "latitude": "29.97218988592311",
    "geocoded_column": {
      "latitude": "29.97218988592311",
      "longitude": "-90.1066871172714"
    }
  },
  {
    "service_request": "2022-875385",
    "request_type": "Trash/Recycling",
    "request_reason": "Request a Large Item Pick Up",
    "date_created": "2022-04-17T16:54:23.000",
    "date_modified": "2022-04-17T16:54:24.000",
    "request_status": "Pending",
    "responsible_agency": "Department of Sanitation",
    "final_address": "724 N Salcedo St",
    "address_councildis": "A",
    "status": "Assigned to Contractor",
    "contractor": "Richards Disposal",
    "rowid": "875385",
    "final_x": "3675608.28725",
    "final_y": "538044.193801",
    "longitude": "-90.08645007154601",
    "latitude": "29.97361258368972",
    "geocoded_column": {
      "latitude": "29.97361258368972",
      "longitude": "-90.08645007154601"
    }
  },
  {
    "service_request": "2022-875384",
    "request_type": "Roads/Drainage",
    "request_reason": "Damaged Sidewalk",
    "date_created": "2022-04-17T16:24:17.000",
    "date_modified": "2022-04-17T16:24:17.000",
    "request_status": "Pending",
    "responsible_agency": "Department of Public Works",
    "final_address": "801 St Joseph St",
    "address_councildis": "B",
    "status": "Pending",
    "rowid": "875384",
    "final_x": "3679818.38511",
    "final_y": "527618.872447",
    "longitude": "-90.07351569157058",
    "latitude": "29.94481984218871",
    "geocoded_column": {
      "latitude": "29.94481984218871",
      "longitude": "-90.07351569157058"
    }
  },
  {
    "service_request": "2022-875383",
    "request_type": "Roads/Drainage",
    "request_reason": "Damaged Sidewalk",
    "date_created": "2022-04-17T16:21:32.000",
    "date_modified": "2022-04-17T16:21:32.000",
    "request_status": "Pending",
    "responsible_agency": "Department of Public Works",
    "final_address": "444 St Charles Ave",
    "address_councildis": "B",
    "status": "Pending",
    "rowid": "875383",
    "final_x": "3680823.64776",
    "final_y": "529600.982337",
    "longitude": "-90.0702727919551",
    "latitude": "29.950239550267344",
    "geocoded_column": {
      "latitude": "29.950239550267344",
      "longitude": "-90.0702727919551"
    }
  },
  {
    "service_request": "2022-875382",
    "request_type": "Trash/Recycling",
    "request_reason": "MIssed Recycling Pick-Up",
    "date_created": "2022-04-17T15:43:06.000",
    "date_modified": "2022-04-17T15:43:07.000",
    "request_status": "Pending",
    "responsible_agency": "Department of Sanitation",
    "final_address": "8834 Palm St",
    "address_councildis": "A",
    "status": "Assigned to Contractor",
    "contractor": "Richards Disposal",
    "rowid": "875382",
    "final_x": "3665658.17287",
    "final_y": "536523.688711",
    "longitude": "-90.11792571810764",
    "latitude": "29.969725668794226",
    "geocoded_column": {
      "latitude": "29.969725668794226",
      "longitude": "-90.11792571810764"
    }
  },
  {
    "service_request": "2022-875381",
    "request_type": "Roads/Drainage",
    "request_reason": "Man hole cover issue",
    "date_created": "2022-04-17T15:33:07.000",
    "date_modified": "2022-04-17T15:33:07.000",
    "request_status": "Pending",
    "responsible_agency": "Department of Public Works",
    "final_address": "8716 Hickory St",
    "address_councildis": "A",
    "status": "Pending",
    "rowid": "875381",
    "final_x": "3661676.34528",
    "final_y": "531438.147587",
    "longitude": "-90.13066932524208",
    "latitude": "29.955857620559524",
    "geocoded_column": {
      "latitude": "29.955857620559524",
      "longitude": "-90.13066932524208"
    }
  },
  {
    "service_request": "2022-875380",
    "request_type": "Property Maintenance",
    "request_reason": "Property Maintenance",
    "date_created": "2022-04-17T15:31:31.000",
    "date_modified": "2022-04-17T15:31:31.000",
    "request_status": "Pending",
    "responsible_agency": "Department of Code Enforcement",
    "final_address": "400 Canal St",
    "address_councildis": "B",
    "status": "Pending",
    "rowid": "875380",
    "final_x": "3682054.79522",
    "final_y": "529897.078337",
    "longitude": "-90.06637514234355",
    "latitude": "29.951016341316624",
    "geocoded_column": {
      "latitude": "29.951016341316624",
      "longitude": "-90.06637514234355"
    }
  },
  {
    "service_request": "2022-875379",
    "request_type": "Property Maintenance",
    "request_reason": "Property Maintenance",
    "date_created": "2022-04-17T15:27:01.000",
    "date_modified": "2022-04-17T15:27:01.000",
    "request_status": "Pending",
    "responsible_agency": "Department of Code Enforcement",
    "final_address": "200 St Charles Ave",
    "address_councildis": "B",
    "status": "Pending",
    "rowid": "875379",
    "final_x": "3680987.65128",
    "final_y": "530260.582785",
    "longitude": "-90.06973198833285",
    "latitude": "29.952048257324865",
    "geocoded_column": {
      "latitude": "29.952048257324865",
      "longitude": "-90.06973198833285"
    }
  },
  {
    "service_request": "2022-875378",
    "request_type": "Roads/Drainage",
    "request_reason": "Catch Basin - Clogged",
    "date_created": "2022-04-17T15:19:57.000",
    "date_modified": "2022-04-17T15:19:57.000",
    "request_status": "Pending",
    "responsible_agency": "Department of Public Works",
    "final_address": "3700 S Carrollton Ave",
    "address_councildis": "A",
    "status": "Pending",
    "rowid": "875378",
    "final_x": "3667976.38733",
    "final_y": "535091.405126",
    "longitude": "-90.1106528293013",
    "latitude": "29.965719548754926",
    "geocoded_column": {
      "latitude": "29.965719548754926",
      "longitude": "-90.1106528293013"
    }
  },
  {
    "service_request": "2022-875377",
    "request_type": "Roads/Drainage",
    "request_reason": "Catch Basin - Clogged",
    "date_created": "2022-04-17T15:17:10.000",
    "date_modified": "2022-04-17T15:17:10.000",
    "request_status": "Pending",
    "responsible_agency": "Department of Public Works",
    "final_address": "3600 S Carrollton Ave",
    "address_councildis": "A",
    "status": "Pending",
    "rowid": "875377",
    "final_x": "3667598.51815",
    "final_y": "534856.493254",
    "longitude": "-90.1118540386273",
    "latitude": "29.965084700454113",
    "geocoded_column": {
      "latitude": "29.965084700454113",
      "longitude": "-90.1118540386273"
    }
  },
  {
    "service_request": "2022-875376",
    "request_type": "Roads/Drainage",
    "request_reason": "Street Flooding / Drainage",
    "date_created": "2022-04-17T15:12:47.000",
    "date_modified": "2022-04-17T15:12:47.000",
    "request_status": "Pending",
    "responsible_agency": "Department of Public Works",
    "final_address": "3333 S Carrollton Ave",
    "address_councildis": "B",
    "status": "Pending",
    "rowid": "875376",
    "final_x": "3667334.01556",
    "final_y": "534014.814533",
    "longitude": "-90.11271764008801",
    "latitude": "29.96277811268953",
    "geocoded_column": {
      "latitude": "29.96277811268953",
      "longitude": "-90.11271764008801"
    }
  },
  {
    "service_request": "2022-875375",
    "request_type": "Trash/Recycling",
    "request_reason": "Replace Recycling Cart",
    "date_created": "2022-04-17T15:12:03.000",
    "date_modified": "2022-04-17T15:12:03.000",
    "request_status": "Pending",
    "responsible_agency": "Department of Sanitation",
    "final_address": "7927 Willow St",
    "address_councildis": "A",
    "status": "Pending",
    "rowid": "875375",
    "final_x": "3662892.21792",
    "final_y": "528546.184576",
    "longitude": "-90.12692614990462",
    "latitude": "29.9478705084713",
    "geocoded_column": {
      "latitude": "29.9478705084713",
      "longitude": "-90.12692614990462"
    }
  },
  {
    "service_request": "2022-875374",
    "request_type": "Trash/Recycling",
    "request_reason": "Missed Trash Pick-Up",
    "date_created": "2022-04-17T15:09:28.000",
    "date_modified": "2022-04-17T15:09:29.000",
    "request_status": "Pending",
    "responsible_agency": "Department of Sanitation",
    "final_address": "7925 Plum St",
    "address_councildis": "A",
    "status": "Assigned to Contractor",
    "contractor": "Richards Disposal",
    "rowid": "875374",
    "final_x": "3662666.18368",
    "final_y": "528267.598784",
    "longitude": "-90.12764908907731",
    "latitude": "29.947111028655904",
    "geocoded_column": {
      "latitude": "29.947111028655904",
      "longitude": "-90.12764908907731"
    }
  },
  {
    "service_request": "2022-875373",
    "request_type": "Roads/Drainage",
    "request_reason": "Street Flooding / Drainage",
    "date_created": "2022-04-17T15:08:58.000",
    "date_modified": "2022-04-17T15:08:58.000",
    "request_status": "Pending",
    "responsible_agency": "Department of Public Works",
    "final_address": "3235 S Carrollton Ave",
    "address_councildis": "B",
    "status": "Pending",
    "rowid": "875373",
    "final_x": "3667067.56634",
    "final_y": "533729.792581",
    "longitude": "-90.11356863653498",
    "latitude": "29.96200219822192",
    "geocoded_column": {
      "latitude": "29.96200219822192",
      "longitude": "-90.11356863653498"
    }
  },
  {
    "service_request": "2022-875372",
    "request_type": "Roads/Drainage",
    "request_reason": "Damaged Sidewalk",
    "date_created": "2022-04-17T15:03:27.000",
    "date_modified": "2022-04-17T15:03:27.000",
    "request_status": "Pending",
    "responsible_agency": "Department of Public Works",
    "final_address": "4400 Washington Ave",
    "address_councildis": "B",
    "status": "Pending",
    "rowid": "875372",
    "final_x": "3670209.97966",
    "final_y": "531428.105475",
    "longitude": "-90.10372335059913",
    "latitude": "29.955580966153367",
    "geocoded_column": {
      "latitude": "29.955580966153367",
      "longitude": "-90.10372335059913"
    }
  },
  {
    "service_request": "2022-875371",
    "request_type": "Roads/Drainage",
    "request_reason": "Catch Basin - Broken/Damage",
    "date_created": "2022-04-17T14:07:31.000",
    "date_modified": "2022-04-17T14:07:31.000",
    "request_status": "Pending",
    "responsible_agency": "Department of Public Works",
    "final_address": "1411 S Rendon St",
    "address_councildis": "B",
    "status": "Pending",
    "rowid": "875371",
    "final_x": "3669984.78983",
    "final_y": "531472.027203",
    "longitude": "-90.10443293413428",
    "latitude": "29.95570837915135",
    "geocoded_column": {
      "latitude": "29.95570837915135",
      "longitude": "-90.10443293413428"
    }
  },
  {
    "service_request": "2022-875370",
    "request_type": "Property Maintenance",
    "request_reason": "Property Maintenance",
    "date_created": "2022-04-17T14:07:17.000",
    "date_modified": "2022-04-17T14:07:17.000",
    "request_status": "Pending",
    "responsible_agency": "Department of Code Enforcement",
    "final_address": "2403 Onzaga St",
    "address_councildis": "D",
    "status": "Pending",
    "rowid": "875370",
    "final_x": "3680147.05762",
    "final_y": "539860.081354",
    "longitude": "-90.07205254357234",
    "latitude": "29.978469059807082",
    "geocoded_column": {
      "latitude": "29.978469059807082",
      "longitude": "-90.07205254357234"
    }
  },
  {
    "service_request": "2022-875369",
    "request_type": "Property Maintenance",
    "request_reason": "Property Maintenance",
    "date_created": "2022-04-17T14:03:35.000",
    "date_modified": "2022-04-17T14:03:35.000",
    "request_status": "Pending",
    "responsible_agency": "Department of Code Enforcement",
    "final_address": "4400 Washington Ave",
    "address_councildis": "B",
    "status": "Pending",
    "rowid": "875369",
    "final_x": "3670209.97966",
    "final_y": "531428.105475",
    "longitude": "-90.10372335059913",
    "latitude": "29.955580966153367",
    "geocoded_column": {
      "latitude": "29.955580966153367",
      "longitude": "-90.10372335059913"
    }
  },
  {
    "service_request": "2022-875368",
    "request_type": "Roads/Drainage",
    "request_reason": "Catch Basin - Clogged",
    "date_created": "2022-04-17T14:00:50.000",
    "date_modified": "2022-04-17T14:00:50.000",
    "request_status": "Pending",
    "responsible_agency": "Department of Public Works",
    "final_address": "4360 Washington Ave",
    "address_councildis": "B",
    "status": "Pending",
    "rowid": "875368",
    "final_x": "3670418.96833",
    "final_y": "531194.343618",
    "longitude": "-90.10307136254022",
    "latitude": "29.954932029896785",
    "geocoded_column": {
      "latitude": "29.954932029896785",
      "longitude": "-90.10307136254022"
    }
  },
  {
    "service_request": "2022-875367",
    "request_type": "Trash/Recycling",
    "request_reason": "Illegal Dumping",
    "date_created": "2022-04-17T13:56:02.000",
    "date_modified": "2022-04-17T13:56:02.000",
    "request_status": "Pending",
    "responsible_agency": "Department of Sanitation",
    "final_address": "4136 Martin Luther King, Jr. Blvd",
    "address_councildis": "B",
    "status": "Pending",
    "rowid": "875367",
    "final_x": "3671072.87822",
    "final_y": "530553.222466",
    "longitude": "-90.10102832902494",
    "latitude": "29.95314983697896",
    "geocoded_column": {
      "latitude": "29.95314983697896",
      "longitude": "-90.10102832902494"
    }
  },
  {
    "service_request": "2022-875365",
    "request_type": "Abandoned Vehicles",
    "request_reason": "Abandoned/Junk Vehicles",
    "date_created": "2022-04-17T13:51:12.000",
    "date_modified": "2022-04-17T13:51:12.000",
    "request_status": "Pending",
    "responsible_agency": "Department of Public Works",
    "final_address": "3401 Martin Luther King, Jr. Blvd",
    "address_councildis": "B",
    "status": "Pending",
    "rowid": "875365",
    "final_x": "3673542.29358",
    "final_y": "529197.912256",
    "longitude": "-90.09327728813045",
    "latitude": "29.949349926869946",
    "geocoded_column": {
      "latitude": "29.949349926869946",
      "longitude": "-90.09327728813045"
    }
  },
  {
    "service_request": "2022-875364",
    "request_type": "Roads/Drainage",
    "request_reason": "Catch Basin - Clogged",
    "date_created": "2022-04-17T13:48:12.000",
    "date_modified": "2022-04-17T13:48:12.000",
    "request_status": "Pending",
    "responsible_agency": "Department of Public Works",
    "final_address": "3351 Martin Luther King, Jr. Blvd",
    "address_councildis": "B",
    "status": "Pending",
    "rowid": "875364",
    "final_x": "3673878.44878",
    "final_y": "528994.787264",
    "longitude": "-90.0922228415374",
    "latitude": "29.948781392800548",
    "geocoded_column": {
      "latitude": "29.948781392800548",
      "longitude": "-90.0922228415374"
    }
  },
  {
    "service_request": "2022-875363",
    "request_type": "Roads/Drainage",
    "request_reason": "Pothole",
    "date_created": "2022-04-17T13:43:41.000",
    "date_modified": "2022-04-17T13:43:41.000",
    "request_status": "Pending",
    "responsible_agency": "Department of Public Works",
    "final_address": "830 Julia St",
    "address_councildis": "B",
    "status": "Pending",
    "rowid": "875363",
    "final_x": "3679742.20469",
    "final_y": "528146.135743",
    "longitude": "-90.07373791615615",
    "latitude": "29.946271943078706",
    "geocoded_column": {
      "latitude": "29.946271943078706",
      "longitude": "-90.07373791615615"
    }
  },
  {
    "service_request": "2022-875362",
    "request_type": "Trash/Recycling",
    "request_reason": "Illegal Dumping",
    "date_created": "2022-04-17T13:42:41.000",
    "date_modified": "2022-04-17T13:42:41.000",
    "request_status": "Pending",
    "responsible_agency": "Department of Sanitation",
    "final_address": "3121 Josephine St",
    "address_councildis": "B",
    "status": "Pending",
    "rowid": "875362",
    "final_x": "3674561.72788",
    "final_y": "528368.8256",
    "longitude": "-90.09008687874534",
    "latitude": "29.947039837376874",
    "geocoded_column": {
      "latitude": "29.947039837376874",
      "longitude": "-90.09008687874534"
    }
  },
  {
    "service_request": "2022-875361",
    "request_type": "Abandoned Vehicles",
    "request_reason": "Abandoned/Junk Vehicles",
    "date_created": "2022-04-17T13:40:15.000",
    "date_modified": "2022-04-17T13:40:15.000",
    "request_status": "Pending",
    "responsible_agency": "Department of Public Works",
    "final_address": "2215 Felicity St",
    "address_councildis": "B",
    "status": "Pending",
    "rowid": "875361",
    "final_x": "3676546.78088",
    "final_y": "526559.270078",
    "longitude": "-90.08388162291433",
    "latitude": "29.942004786708335",
    "geocoded_column": {
      "latitude": "29.942004786708335",
      "longitude": "-90.08388162291433"
    }
  },
  {
    "service_request": "2022-875359",
    "request_type": "Property Maintenance",
    "request_reason": "Property Maintenance",
    "date_created": "2022-04-17T13:34:50.000",
    "date_modified": "2022-04-17T13:34:50.000",
    "request_status": "Pending",
    "responsible_agency": "Department of Code Enforcement",
    "final_address": "2135 S Derbigny St",
    "address_councildis": "B",
    "status": "Pending",
    "rowid": "875359",
    "final_x": "3674459.2146",
    "final_y": "528145.127231",
    "longitude": "-90.0904182131703",
    "latitude": "29.94642779865947",
    "geocoded_column": {
      "latitude": "29.94642779865947",
      "longitude": "-90.0904182131703"
    }
  },
  {
    "service_request": "2022-875358",
    "request_type": "Property Maintenance",
    "request_reason": "Property Maintenance",
    "date_created": "2022-04-17T13:30:08.000",
    "date_modified": "2022-04-17T13:30:08.000",
    "request_status": "Pending",
    "responsible_agency": "Department of Code Enforcement",
    "final_address": "3110 Josephine St",
    "address_councildis": "B",
    "status": "Pending",
    "rowid": "875358",
    "final_x": "3674553.9371",
    "final_y": "528233.87712",
    "longitude": "-90.09011610009847",
    "latitude": "29.946669006024063",
    "geocoded_column": {
      "latitude": "29.946669006024063",
      "longitude": "-90.09011610009847"
    }
  },
  {
    "service_request": "2022-875357",
    "request_type": "Abandoned Vehicles",
    "request_reason": "Abandoned/Junk Vehicles",
    "date_created": "2022-04-17T13:10:05.000",
    "date_modified": "2022-04-17T13:10:05.000",
    "request_status": "Pending",
    "responsible_agency": "Department of Public Works",
    "final_address": "2220 Felicity St",
    "address_councildis": "B",
    "status": "Pending",
    "rowid": "875357",
    "final_x": "3676521.08334",
    "final_y": "526480.48659",
    "longitude": "-90.08396546768778",
    "latitude": "29.941788928565156",
    "geocoded_column": {
      "latitude": "29.941788928565156",
      "longitude": "-90.08396546768778"
    }
  },
  {
    "service_request": "2022-875356",
    "request_type": "Roads/Drainage",
    "request_reason": "Street Flooding / Drainage",
    "date_created": "2022-04-17T13:07:43.000",
    "date_modified": "2022-04-17T13:07:43.000",
    "request_status": "Pending",
    "responsible_agency": "Department of Public Works",
    "final_address": "2100 BLK Felicity St",
    "address_councildis": "B",
    "status": "Pending",
    "rowid": "875356",
    "final_x": "3676799.61913",
    "final_y": "526259.404946",
    "longitude": "-90.08309368807157",
    "latitude": "29.94117267324643",
    "geocoded_column": {
      "latitude": "29.94117267324643",
      "longitude": "-90.08309368807157"
    }
  },
  {
    "service_request": "2022-875355",
    "request_type": "Trash/Recycling",
    "request_reason": "Request a Large Item Pick Up",
    "date_created": "2022-04-17T13:07:24.000",
    "date_modified": "2022-04-17T13:07:29.000",
    "request_status": "Pending",
    "responsible_agency": "Department of Sanitation",
    "final_address": "43 Yosemite Dr",
    "address_councildis": "C",
    "status": "Assigned to Contractor",
    "contractor": "Richards Disposal",
    "rowid": "875355",
    "final_x": "3699901.08375",
    "final_y": "517001.975797",
    "longitude": "-90.01049593159685",
    "latitude": "29.9150046279479",
    "geocoded_column": {
      "latitude": "29.9150046279479",
      "longitude": "-90.01049593159685"
    }
  },
  {
    "service_request": "2022-875354",
    "request_type": "Trash/Recycling",
    "request_reason": "Repair Trash Cart",
    "date_created": "2022-04-17T12:19:55.000",
    "date_modified": "2022-04-17T12:19:56.000",
    "request_status": "Pending",
    "responsible_agency": "Department of Sanitation",
    "final_address": "937 N Rendon St",
    "address_councildis": "A",
    "status": "Assigned to Contractor",
    "contractor": "Richards Disposal",
    "rowid": "875354",
    "final_x": "3675573.13774",
    "final_y": "539123.855434",
    "longitude": "-90.08652397864391",
    "latitude": "29.976582335790052",
    "geocoded_column": {
      "latitude": "29.976582335790052",
      "longitude": "-90.08652397864391"
    }
  },
  {
    "service_request": "2022-875353",
    "request_type": "Abandoned Vehicles",
    "request_reason": "Vehicle Blocking Your Driveway",
    "date_created": "2022-04-17T12:10:49.000",
    "date_modified": "2022-04-17T12:10:49.000",
    "request_status": "Pending",
    "responsible_agency": "Department of Public Works",
    "final_address": "1925 Evergreen Ave",
    "address_councildis": "C",
    "status": "Pending",
    "rowid": "875353",
    "final_x": "3688109.86883",
    "final_y": "524763.91398",
    "longitude": "-90.04743820030653",
    "latitude": "29.936716403885434",
    "geocoded_column": {
      "latitude": "29.936716403885434",
      "longitude": "-90.04743820030653"
    }
  },
  {
    "service_request": "2022-875352",
    "request_type": "Trash/Recycling",
    "request_reason": "Request a Large Item Pick Up",
    "date_created": "2022-04-17T12:01:31.000",
    "date_modified": "2022-04-17T12:01:32.000",
    "request_status": "Pending",
    "responsible_agency": "Department of Sanitation",
    "final_address": "4217 N Claiborne Ave",
    "address_councildis": "D",
    "status": "Assigned to Contractor",
    "contractor": "Metro Disposal",
    "rowid": "875352",
    "final_x": "3693003.25878",
    "final_y": "537031.771592",
    "longitude": "-90.0315495991111",
    "latitude": "29.970296836874766",
    "geocoded_column": {
      "latitude": "29.970296836874766",
      "longitude": "-90.0315495991111"
    }
  },
  {
    "service_request": "2022-875351",
    "request_type": "Abandoned Vehicles",
    "request_reason": "Abandoned/Junk Vehicles",
    "date_created": "2022-04-17T11:37:32.000",
    "date_modified": "2022-04-17T11:37:32.000",
    "request_status": "Pending",
    "responsible_agency": "Department of Public Works",
    "final_address": "821 Dante St",
    "address_councildis": "A",
    "status": "Pending",
    "rowid": "875351",
    "final_x": "3660627.61165",
    "final_y": "527932.099903",
    "longitude": "-90.13409674662248",
    "latitude": "29.946247337782747",
    "geocoded_column": {
      "latitude": "29.946247337782747",
      "longitude": "-90.13409674662248"
    }
  },
  {
    "service_request": "2022-875350",
    "request_type": "Trash/Recycling",
    "request_reason": "Request a Large Item Pick Up",
    "date_created": "2022-04-17T11:35:50.000",
    "date_modified": "2022-04-17T11:35:53.000",
    "request_status": "Pending",
    "responsible_agency": "Department of Sanitation",
    "final_address": "1709 Burdette St",
    "address_councildis": "A",
    "status": "Assigned to Contractor",
    "contractor": "Richards Disposal",
    "rowid": "875350",
    "final_x": "3664073.76039",
    "final_y": "528951.422464",
    "longitude": "-90.12318201943464",
    "latitude": "29.94895052344759",
    "geocoded_column": {
      "latitude": "29.94895052344759",
      "longitude": "-90.12318201943464"
    }
  },
  {
    "service_request": "2022-875349",
    "request_type": "Roads/Drainage",
    "request_reason": "Catch Basin - Clogged",
    "date_created": "2022-04-17T11:35:16.000",
    "date_modified": "2022-04-17T11:35:16.000",
    "request_status": "Pending",
    "responsible_agency": "Department of Public Works",
    "final_address": "1130 Baronne St",
    "address_councildis": "B",
    "status": "Pending",
    "rowid": "875349",
    "final_x": "3679037.1165",
    "final_y": "526912.273726",
    "longitude": "-90.07600687284125",
    "latitude": "29.94290052675274",
    "geocoded_column": {
      "latitude": "29.94290052675274",
      "longitude": "-90.07600687284125"
    }
  },
  {
    "service_request": "2022-875348",
    "request_type": "Trash/Recycling",
    "request_reason": "Dead Animal Pick Up",
    "date_created": "2022-04-17T11:20:51.000",
    "date_modified": "2022-04-17T11:20:51.000",
    "request_status": "Pending",
    "responsible_agency": "Department of Sanitation",
    "final_address": "2405 Amelia St",
    "address_councildis": "B",
    "status": "Assigned to Contractor",
    "contractor": "Richards Disposal",
    "rowid": "875348",
    "final_x": "3672470.41966",
    "final_y": "524017.601404",
    "longitude": "-90.09683818476908",
    "latitude": "29.935137616845275",
    "geocoded_column": {
      "latitude": "29.935137616845275",
      "longitude": "-90.09683818476908"
    }
  },
  {
    "service_request": "2022-875347",
    "request_type": "Trash/Recycling",
    "request_reason": "Order Trash Cart",
    "date_created": "2022-04-17T10:20:48.000",
    "date_modified": "2022-04-17T10:20:49.000",
    "request_status": "Pending",
    "responsible_agency": "Department of Sanitation",
    "final_address": "2332 Iberville St",
    "address_councildis": "B",
    "status": "Assigned to Contractor",
    "contractor": "Richards Disposal",
    "rowid": "875347",
    "final_x": "3676731.4491",
    "final_y": "534558.061829",
    "longitude": "-90.083023021852",
    "latitude": "29.963993252806713",
    "geocoded_column": {
      "latitude": "29.963993252806713",
      "longitude": "-90.083023021852"
    }
  },
  {
    "service_request": "2022-875346",
    "request_type": "Abandoned Vehicles",
    "request_reason": "Vehicle Blocking Your Driveway",
    "date_created": "2022-04-17T09:24:44.000",
    "date_modified": "2022-04-17T09:24:44.000",
    "request_status": "Pending",
    "responsible_agency": "Department of Public Works",
    "final_address": "816 Alabo St",
    "address_councildis": "E",
    "status": "Pending",
    "rowid": "875346",
    "final_x": "3698601.92503",
    "final_y": "532566.541124",
    "longitude": "-90.01403087493652",
    "latitude": "29.957842964523383",
    "geocoded_column": {
      "latitude": "29.957842964523383",
      "longitude": "-90.01403087493652"
    }
  },
  {
    "service_request": "2022-875345",
    "request_type": "Roads/Drainage",
    "request_reason": "WaterMain Break",
    "date_created": "2022-04-17T09:06:38.000",
    "date_modified": "2022-04-17T09:06:38.000",
    "request_status": "Closed",
    "responsible_agency": "Department of Public Works",
    "final_address": "400 Royal St",
    "address_councildis": "C",
    "status": "Invalid Case",
    "rowid": "875345",
    "final_x": "3682132.51036",
    "final_y": "531622.623235",
    "longitude": "-90.06606949950942",
    "latitude": "29.95575864215333",
    "geocoded_column": {
      "latitude": "29.95575864215333",
      "longitude": "-90.06606949950942"
    }
  },
  {
    "service_request": "2022-875344",
    "request_type": "Trash/Recycling",
    "request_reason": "Replace Trash Cart",
    "date_created": "2022-04-17T09:03:11.000",
    "date_modified": "2022-04-17T09:03:12.000",
    "request_status": "Pending",
    "responsible_agency": "Department of Sanitation",
    "final_address": "5214 Coliseum St",
    "address_councildis": "B",
    "status": "Assigned to Contractor",
    "contractor": "Richards Disposal",
    "rowid": "875344",
    "final_x": "3667917.61178",
    "final_y": "519585.271992",
    "longitude": "-90.11136065488955",
    "latitude": "29.92308442751501",
    "geocoded_column": {
      "latitude": "29.92308442751501",
      "longitude": "-90.11136065488955"
    }
  },
  {
    "service_request": "2022-875343",
    "request_type": "Trash/Recycling",
    "request_reason": "Replace Recycling Cart",
    "date_created": "2022-04-17T08:43:29.000",
    "date_modified": "2022-04-17T08:43:29.000",
    "request_status": "Pending",
    "responsible_agency": "Department of Sanitation",
    "final_address": "919 Alix St",
    "address_councildis": "C",
    "status": "Pending",
    "rowid": "875343",
    "final_x": "3688385.41699",
    "final_y": "530287.085377",
    "longitude": "-90.04637244064078",
    "latitude": "29.951894738074664",
    "geocoded_column": {
      "latitude": "29.951894738074664",
      "longitude": "-90.04637244064078"
    }
  },
  {
    "service_request": "2022-875342",
    "request_type": "Trash/Recycling",
    "request_reason": "Request a Large Item Pick Up",
    "date_created": "2022-04-17T08:39:46.000",
    "date_modified": "2022-04-17T08:39:47.000",
    "request_status": "Pending",
    "responsible_agency": "Department of Sanitation",
    "final_address": "401 Pacific Ave",
    "address_councildis": "C",
    "status": "Assigned to Contractor",
    "contractor": "Richards Disposal",
    "rowid": "875342",
    "final_x": "3688473.3327",
    "final_y": "530275.645505",
    "longitude": "-90.04609525108195",
    "latitude": "29.95186056695753",
    "geocoded_column": {
      "latitude": "29.95186056695753",
      "longitude": "-90.04609525108195"
    }
  },
  {
    "service_request": "2022-875341",
    "request_type": "Traffic Signals/Signs/Striping/Streetlights",
    "request_reason": "Street Light Outage/Malfunction",
    "date_created": "2022-04-17T08:31:39.000",
    "date_modified": "2022-04-17T08:31:40.000",
    "request_status": "Pending",
    "responsible_agency": "Department of Public Works",
    "final_address": "COMMERCE ST & GIROD ST",
    "address_councildis": "B",
    "status": "Pending",
    "contractor": "Royal Engineering",
    "rowid": "875341",
    "final_x": "3682002.2",
    "final_y": "528186.58",
    "longitude": "-90.0666009186683",
    "latitude": "29.946314646117408",
    "geocoded_column": {
      "latitude": "29.946314646117408",
      "longitude": "-90.0666009186683"
    }
  },
  {
    "service_request": "2022-875340",
    "request_type": "Property Maintenance",
    "request_reason": "Property Maintenance",
    "date_created": "2022-04-17T01:59:41.000",
    "date_modified": "2022-04-17T01:59:41.000",
    "request_status": "Pending",
    "responsible_agency": "Department of Code Enforcement",
    "final_address": "4850 Citrus Dr",
    "address_councildis": "E",
    "status": "Pending",
    "rowid": "875340",
    "final_x": "3710625.9491",
    "final_y": "556635.092058",
    "longitude": "-89.97516197327019",
    "latitude": "30.023636223351758",
    "geocoded_column": {
      "latitude": "30.023636223351758",
      "longitude": "-89.97516197327019"
    }
  },
  {
    "service_request": "2022-875339",
    "request_type": "Trash/Recycling",
    "request_reason": "Request a Large Item Pick Up",
    "date_created": "2022-04-17T00:26:13.000",
    "date_modified": "2022-04-17T00:26:14.000",
    "request_status": "Pending",
    "responsible_agency": "Department of Sanitation",
    "final_address": "7320 General Haig St",
    "address_councildis": "D",
    "status": "Assigned to Contractor",
    "contractor": "Metro Disposal",
    "rowid": "875339",
    "final_x": "3671193.68219",
    "final_y": "555325.569177",
    "longitude": "-90.09980481803319",
    "latitude": "30.02126171316125",
    "geocoded_column": {
      "latitude": "30.02126171316125",
      "longitude": "-90.09980481803319"
    }
  },
  {
    "service_request": "2022-875337",
    "request_type": "Trash/Recycling",
    "request_reason": "Request a Large Item Pick Up",
    "date_created": "2022-04-16T22:49:55.000",
    "date_modified": "2022-04-16T22:49:56.000",
    "request_status": "Pending",
    "responsible_agency": "Department of Sanitation",
    "final_address": "4318 Dumaine St",
    "address_councildis": "A",
    "status": "Assigned to Contractor",
    "contractor": "Richards Disposal",
    "rowid": "875337",
    "final_x": "3671941.51451",
    "final_y": "541408.295884",
    "longitude": "-90.09791599548352",
    "latitude": "29.98297192515515",
    "geocoded_column": {
      "latitude": "29.98297192515515",
      "longitude": "-90.09791599548352"
    }
  },
  {
    "service_request": "2022-875335",
    "request_type": "Safety & Permits",
    "request_reason": "Short term Rental (Enforcement)",
    "date_created": "2022-04-16T22:14:59.000",
    "date_modified": "2022-04-16T22:14:59.000",
    "request_status": "Pending",
    "responsible_agency": "Safety and Permits",
    "final_address": "507 S Alexander St",
    "address_councildis": "A",
    "status": "Pending",
    "rowid": "875335",
    "final_x": "3668949.26945",
    "final_y": "537858.039753",
    "longitude": "-90.10748702397922",
    "latitude": "29.973298288645598",
    "geocoded_column": {
      "latitude": "29.973298288645598",
      "longitude": "-90.10748702397922"
    }
  },
  {
    "service_request": "2022-875334",
    "request_type": "Trash/Recycling",
    "request_reason": "Start Trash Service",
    "date_created": "2022-04-16T21:55:53.000",
    "date_modified": "2022-04-16T21:55:54.000",
    "request_status": "Pending",
    "responsible_agency": "Department of Sanitation",
    "final_address": "6052 Colbert St",
    "address_councildis": "A",
    "status": "Assigned to Contractor",
    "contractor": "Metro Disposal",
    "rowid": "875334",
    "final_x": "3667359.33005",
    "final_y": "547800.644946",
    "longitude": "-90.11217374478149",
    "latitude": "30.000683747329305",
    "geocoded_column": {
      "latitude": "30.000683747329305",
      "longitude": "-90.11217374478149"
    }
  },
  {
    "service_request": "2022-875333",
    "request_type": "Trash/Recycling",
    "request_reason": "Missed Trash Pick-Up",
    "date_created": "2022-04-16T21:54:01.000",
    "date_modified": "2022-04-16T21:54:02.000",
    "request_status": "Pending",
    "responsible_agency": "Department of Sanitation",
    "final_address": "8639 Jeannette St",
    "address_councildis": "A",
    "status": "Assigned to Contractor",
    "contractor": "Richards Disposal",
    "rowid": "875333",
    "final_x": "3661165.69946",
    "final_y": "530579.23949",
    "longitude": "-90.13231020282554",
    "latitude": "29.953510627519844",
    "geocoded_column": {
      "latitude": "29.953510627519844",
      "longitude": "-90.13231020282554"
    }
  },
  {
    "service_request": "2022-875332",
    "request_type": "Parks & Parkways",
    "request_reason": "Request Tree Service (Right of Way/Public Property)",
    "date_created": "2022-04-16T21:34:50.000",
    "date_modified": "2022-04-16T21:34:50.000",
    "request_status": "Pending",
    "responsible_agency": "Department of Parks & Parkway",
    "final_address": "3713 Baronne St",
    "address_councildis": "B",
    "status": "Pending",
    "rowid": "875332",
    "final_x": "3672830.88596",
    "final_y": "521884.906554",
    "longitude": "-90.09577291051873",
    "latitude": "29.92926269457732",
    "geocoded_column": {
      "latitude": "29.92926269457732",
      "longitude": "-90.09577291051873"
    }
  },
  {
    "service_request": "2022-875331",
    "request_type": "Trash/Recycling",
    "request_reason": "Request a Large Item Pick Up",
    "date_created": "2022-04-16T21:28:23.000",
    "date_modified": "2022-04-16T21:28:24.000",
    "request_status": "Pending",
    "responsible_agency": "Department of Sanitation",
    "final_address": "3713 Baronne St",
    "address_councildis": "B",
    "status": "Assigned to Contractor",
    "contractor": "Richards Disposal",
    "rowid": "875331",
    "final_x": "3672830.88596",
    "final_y": "521884.906554",
    "longitude": "-90.09577291051873",
    "latitude": "29.92926269457732",
    "geocoded_column": {
      "latitude": "29.92926269457732",
      "longitude": "-90.09577291051873"
    }
  },
  {
    "service_request": "2022-875330",
    "request_type": "Safety & Permits",
    "request_reason": "Licenses & Permits",
    "date_created": "2022-04-16T21:12:10.000",
    "date_modified": "2022-04-16T21:12:10.000",
    "request_status": "Pending",
    "responsible_agency": "Safety and Permits",
    "final_address": "2000 Burgundy St",
    "address_councildis": "C",
    "status": "Pending",
    "rowid": "875330",
    "final_x": "3684318.77397",
    "final_y": "535495.166406",
    "longitude": "-90.05903006849091",
    "latitude": "29.966340139100453",
    "geocoded_column": {
      "latitude": "29.966340139100453",
      "longitude": "-90.05903006849091"
    }
  },
  {
    "service_request": "2022-875329",
    "request_type": "Trash/Recycling",
    "request_reason": "MIssed Recycling Pick-Up",
    "date_created": "2022-04-16T21:02:41.000",
    "date_modified": "2022-04-16T21:02:41.000",
    "request_status": "Pending",
    "responsible_agency": "Department of Sanitation",
    "final_address": "2611 Palmyra St",
    "address_councildis": "B",
    "status": "Assigned to Contractor",
    "contractor": "Richards Disposal",
    "rowid": "875329",
    "final_x": "3675256.9691",
    "final_y": "534222.639941",
    "longitude": "-90.08769081566376",
    "latitude": "29.96311511292509",
    "geocoded_column": {
      "latitude": "29.96311511292509",
      "longitude": "-90.08769081566376"
    }
  },
  {
    "service_request": "2022-875328",
    "request_type": "Roads/Drainage",
    "request_reason": "Accessibility Ramps, Curbs and Sidewalk Repair",
    "date_created": "2022-04-16T21:02:40.000",
    "date_modified": "2022-04-16T21:02:40.000",
    "request_status": "Pending",
    "responsible_agency": "Department of Public Works",
    "final_address": "700 Canal St",
    "address_councildis": "B",
    "status": "Pending",
    "rowid": "875328",
    "final_x": "3681088.32981",
    "final_y": "530625.904002",
    "longitude": "-90.06940136900302",
    "latitude": "29.95304971412305",
    "geocoded_column": {
      "latitude": "29.95304971412305",
      "longitude": "-90.06940136900302"
    }
  },
  {
    "service_request": "2022-875327",
    "request_type": "Trash/Recycling",
    "request_reason": "Missed Trash Pick-Up",
    "date_created": "2022-04-16T21:01:07.000",
    "date_modified": "2022-04-16T21:01:08.000",
    "request_status": "Pending",
    "responsible_agency": "Department of Sanitation",
    "final_address": "1832 General Ogden St",
    "address_councildis": "A",
    "status": "Assigned to Contractor",
    "contractor": "Richards Disposal",
    "rowid": "875327",
    "final_x": "3661438.79315",
    "final_y": "532071.973507",
    "longitude": "-90.13139844215588",
    "latitude": "29.957607290672733",
    "geocoded_column": {
      "latitude": "29.957607290672733",
      "longitude": "-90.13139844215588"
    }
  },
  {
    "service_request": "2022-875326",
    "request_type": "Safety & Permits",
    "request_reason": "Licenses & Permits",
    "date_created": "2022-04-16T20:48:25.000",
    "date_modified": "2022-04-16T20:48:25.000",
    "request_status": "Pending",
    "responsible_agency": "Safety and Permits",
    "final_address": "2000 Burgundy St",
    "address_councildis": "C",
    "status": "Pending",
    "rowid": "875326",
    "final_x": "3684318.77397",
    "final_y": "535495.166406",
    "longitude": "-90.05903006849091",
    "latitude": "29.966340139100453",
    "geocoded_column": {
      "latitude": "29.966340139100453",
      "longitude": "-90.05903006849091"
    }
  },
  {
    "service_request": "2022-875325",
    "request_type": "Safety & Permits",
    "request_reason": "Licenses & Permits",
    "date_created": "2022-04-16T20:06:22.000",
    "date_modified": "2022-04-16T20:06:22.000",
    "request_status": "Pending",
    "responsible_agency": "Safety and Permits",
    "final_address": "2000 Burgundy St",
    "address_councildis": "C",
    "status": "Pending",
    "rowid": "875325",
    "final_x": "3684318.77397",
    "final_y": "535495.166406",
    "longitude": "-90.05903006849091",
    "latitude": "29.966340139100453",
    "geocoded_column": {
      "latitude": "29.966340139100453",
      "longitude": "-90.05903006849091"
    }
  },
  {
    "service_request": "2022-875324",
    "request_type": "Trash/Recycling",
    "request_reason": "Order Trash Cart",
    "date_created": "2022-04-16T20:02:54.000",
    "date_modified": "2022-04-16T20:02:55.000",
    "request_status": "Pending",
    "responsible_agency": "Department of Sanitation",
    "final_address": "6579 Canal Blvd",
    "address_councildis": "A",
    "status": "Assigned to Contractor",
    "contractor": "Metro Disposal",
    "rowid": "875324",
    "final_x": "3669005.84372",
    "final_y": "551292.943957",
    "longitude": "-90.10685418806706",
    "latitude": "30.010237998876963",
    "geocoded_column": {
      "latitude": "30.010237998876963",
      "longitude": "-90.10685418806706"
    }
  },
  {
    "service_request": "2022-875322",
    "request_type": "Trash/Recycling",
    "request_reason": "Request a Large Item Pick Up",
    "date_created": "2022-04-16T19:34:53.000",
    "date_modified": "2022-04-16T19:34:53.000",
    "request_status": "Pending",
    "responsible_agency": "Department of Sanitation",
    "final_address": "1918 Dauphine St",
    "address_councildis": "C",
    "status": "Assigned to Contractor",
    "contractor": "Metro Disposal",
    "rowid": "875322",
    "final_x": "3684130.74255",
    "final_y": "535110.920838",
    "longitude": "-90.0596373560306",
    "latitude": "29.965289344990026",
    "geocoded_column": {
      "latitude": "29.965289344990026",
      "longitude": "-90.0596373560306"
    }
  },
  {
    "service_request": "2022-875321",
    "request_type": "Trash/Recycling",
    "request_reason": "Order Trash Cart",
    "date_created": "2022-04-16T19:13:19.000",
    "date_modified": "2022-04-16T19:13:20.000",
    "request_status": "Pending",
    "responsible_agency": "Department of Sanitation",
    "final_address": "5203 N Rampart St",
    "address_councildis": "E",
    "status": "Assigned to Contractor",
    "contractor": "Metro Disposal",
    "rowid": "875321",
    "final_x": "3696459.57488",
    "final_y": "533718.841541",
    "longitude": "-90.02075408716358",
    "latitude": "29.961079034484857",
    "geocoded_column": {
      "latitude": "29.961079034484857",
      "longitude": "-90.02075408716358"
    }
  },
  {
    "service_request": "2022-875320",
    "request_type": "Traffic Signals/Signs/Striping/Streetlights",
    "request_reason": "Traffic Sign Missing/Damaged",
    "date_created": "2022-04-16T19:00:08.000",
    "date_modified": "2022-04-16T19:00:08.000",
    "request_status": "Pending",
    "responsible_agency": "Department of Public Works",
    "final_address": "637 Canal St",
    "address_councildis": "C",
    "status": "Pending",
    "rowid": "875320",
    "final_x": "3681272.61999",
    "final_y": "530728.234434",
    "longitude": "-90.06881589580188",
    "latitude": "29.953325497329327",
    "geocoded_column": {
      "latitude": "29.953325497329327",
      "longitude": "-90.06881589580188"
    }
  },
  {
    "service_request": "2022-875319",
    "request_type": "Abandoned Vehicles",
    "request_reason": "Abandoned/Junk Vehicles",
    "date_created": "2022-04-16T18:45:42.000",
    "date_modified": "2022-04-16T18:45:42.000",
    "request_status": "Pending",
    "responsible_agency": "Department of Public Works",
    "final_address": "600 S Peters St",
    "address_councildis": "B",
    "status": "Pending",
    "rowid": "875319",
    "final_x": "3682267.25583",
    "final_y": "528487.586048",
    "longitude": "-90.06575353203566",
    "latitude": "29.947134251746462",
    "geocoded_column": {
      "latitude": "29.947134251746462",
      "longitude": "-90.06575353203566"
    }
  },
  {
    "service_request": "2022-875318",
    "request_type": "Property Maintenance",
    "request_reason": "Property Maintenance",
    "date_created": "2022-04-16T18:44:44.000",
    "date_modified": "2022-04-16T18:44:44.000",
    "request_status": "Pending",
    "responsible_agency": "Department of Code Enforcement",
    "final_address": "2751 Orleans Ave",
    "address_councildis": "A",
    "status": "Pending",
    "rowid": "875318",
    "final_x": "3676452.18625",
    "final_y": "537336.56756",
    "longitude": "-90.08380922691389",
    "latitude": "29.971641575707185",
    "geocoded_column": {
      "latitude": "29.971641575707185",
      "longitude": "-90.08380922691389"
    }
  },
  {
    "service_request": "2022-875317",
    "request_type": "Traffic Signals/Signs/Striping/Streetlights",
    "request_reason": "Striping/Road Surface Markings",
    "date_created": "2022-04-16T18:43:35.000",
    "date_modified": "2022-04-16T18:43:35.000",
    "request_status": "Pending",
    "responsible_agency": "Department of Public Works",
    "final_address": "930 Poydras St",
    "address_councildis": "B",
    "status": "Pending",
    "rowid": "875317",
    "final_x": "3679659.53346",
    "final_y": "529542.218497",
    "longitude": "-90.0739504909318",
    "latitude": "29.950113201883553",
    "geocoded_column": {
      "latitude": "29.950113201883553",
      "longitude": "-90.0739504909318"
    }
  },
  {
    "service_request": "2022-875315",
    "request_type": "Mosquito, Termite & Rodent Control",
    "request_reason": "Non-Rodent Complaint (Mice, Possums, Snakes)",
    "date_created": "2022-04-16T18:40:58.000",
    "date_modified": "2022-04-16T18:40:58.000",
    "request_status": "Pending",
    "responsible_agency": "Mosquito, Termite & Rodent Control Board",
    "final_address": "2751 Orleans Ave",
    "address_councildis": "A",
    "status": "Pending",
    "rowid": "875315",
    "final_x": "3676452.18625",
    "final_y": "537336.56756",
    "longitude": "-90.08380922691389",
    "latitude": "29.971641575707185",
    "geocoded_column": {
      "latitude": "29.971641575707185",
      "longitude": "-90.08380922691389"
    }
  },
  {
    "service_request": "2022-875314",
    "request_type": "Roads/Drainage",
    "request_reason": "Leaking Hydrant",
    "date_created": "2022-04-16T18:29:35.000",
    "date_modified": "2022-04-16T18:29:35.000",
    "request_status": "Pending",
    "responsible_agency": "Department of Public Works",
    "final_address": "Panola St & S Carrollton Ave, New Orleans, Louisiana, 70118",
    "address_councildis": "A",
    "status": "Pending",
    "rowid": "875314",
    "final_x": "3664113.5",
    "final_y": "530688.58",
    "longitude": "-90.12299860681755",
    "latitude": "29.953725991014394",
    "geocoded_column": {
      "latitude": "29.953725991014394",
      "longitude": "-90.12299860681755"
    }
  },
  {
    "service_request": "2022-875313",
    "request_type": "Trash/Recycling",
    "request_reason": "Order Recycling Cart",
    "date_created": "2022-04-16T18:19:54.000",
    "date_modified": "2022-04-16T18:19:54.000",
    "request_status": "Pending",
    "responsible_agency": "Department of Sanitation",
    "final_address": "1535 Soniat St, New Orleans, Louisiana, 70115",
    "address_councildis": "B",
    "status": "Pending",
    "rowid": "875313",
    "final_x": "3668497.54874",
    "final_y": "520713.685497",
    "longitude": "-90.10949196706392",
    "latitude": "29.926170188350085",
    "geocoded_column": {
      "latitude": "29.926170188350085",
      "longitude": "-90.10949196706392"
    }
  },
  {
    "service_request": "2022-875312",
    "request_type": "Trash/Recycling",
    "request_reason": "Repair Recycling Cart",
    "date_created": "2022-04-16T18:16:42.000",
    "date_modified": "2022-04-16T18:16:42.000",
    "request_status": "Pending",
    "responsible_agency": "Department of Sanitation",
    "final_address": "2625 Banks St",
    "address_councildis": "B",
    "status": "Pending",
    "rowid": "875312",
    "final_x": "3674910.7748",
    "final_y": "534007.480837",
    "longitude": "-90.08879143722206",
    "latitude": "29.96253384152133",
    "geocoded_column": {
      "latitude": "29.96253384152133",
      "longitude": "-90.08879143722206"
    }
  },
  {
    "service_request": "2022-875311",
    "request_type": "Safety & Permits",
    "request_reason": "Licenses & Permits",
    "date_created": "2022-04-16T18:15:18.000",
    "date_modified": "2022-04-16T18:15:18.000",
    "request_status": "Pending",
    "responsible_agency": "Safety and Permits",
    "final_address": "4205 Burgundy St",
    "address_councildis": "C",
    "status": "Pending",
    "rowid": "875311",
    "final_x": "3692277.94409",
    "final_y": "534438.079365",
    "longitude": "-90.03393310112727",
    "latitude": "29.963187735704754",
    "geocoded_column": {
      "latitude": "29.963187735704754",
      "longitude": "-90.03393310112727"
    }
  },
  {
    "service_request": "2022-875310",
    "request_type": "Trash/Recycling",
    "request_reason": "MIssed Recycling Pick-Up",
    "date_created": "2022-04-16T18:07:05.000",
    "date_modified": "2022-04-16T18:07:06.000",
    "request_status": "Pending",
    "responsible_agency": "Department of Sanitation",
    "final_address": "5610 Holley Ln",
    "address_councildis": "E",
    "status": "Assigned to Contractor",
    "contractor": "Metro Disposal",
    "rowid": "875310",
    "final_x": "3703293.48471",
    "final_y": "556549.351194",
    "longitude": "-89.99833405781315",
    "latitude": "30.02363740665339",
    "geocoded_column": {
      "latitude": "30.02363740665339",
      "longitude": "-89.99833405781315"
    }
  },
  {
    "service_request": "2022-875309",
    "request_type": "Trash/Recycling",
    "request_reason": "Repair Trash Cart",
    "date_created": "2022-04-16T17:50:58.000",
    "date_modified": "2022-04-16T17:50:58.000",
    "request_status": "Pending",
    "responsible_agency": "Department of Sanitation",
    "final_address": "11273 Notaway Ln",
    "address_councildis": "E",
    "status": "Assigned to Contractor",
    "contractor": "Metro Disposal",
    "rowid": "875309",
    "final_x": "3718013.21861",
    "final_y": "559662.132829",
    "longitude": "-89.95170465585512",
    "latitude": "30.031716541177786",
    "geocoded_column": {
      "latitude": "30.031716541177786",
      "longitude": "-89.95170465585512"
    }
  },
  {
    "service_request": "2022-875308",
    "request_type": "Property Maintenance",
    "request_reason": "Property Maintenance",
    "date_created": "2022-04-16T17:39:37.000",
    "date_modified": "2022-04-16T17:39:37.000",
    "request_status": "Pending",
    "responsible_agency": "Department of Code Enforcement",
    "final_address": "2440 Touro St",
    "address_councildis": "D",
    "status": "Pending",
    "rowid": "875308",
    "final_x": "3683782.93193",
    "final_y": "541326.687628",
    "longitude": "-90.06051768049412",
    "latitude": "29.982391165590165",
    "geocoded_column": {
      "latitude": "29.982391165590165",
      "longitude": "-90.06051768049412"
    }
  },
  {
    "service_request": "2022-875307",
    "request_type": "Abandoned Vehicles",
    "request_reason": "Abandoned/Junk Vehicles",
    "date_created": "2022-04-16T17:38:04.000",
    "date_modified": "2022-04-16T19:30:57.000",
    "request_status": "Pending",
    "responsible_agency": "Department of Public Works",
    "final_address": "2428 Touro St",
    "address_councildis": "D",
    "status": "Pending",
    "rowid": "875307",
    "final_x": "3683796.23189",
    "final_y": "541257.37742",
    "longitude": "-90.06047810456762",
    "latitude": "29.982200180652264",
    "geocoded_column": {
      "latitude": "29.982200180652264",
      "longitude": "-90.06047810456762"
    }
  },
  {
    "service_request": "2022-875306",
    "request_type": "Property Maintenance",
    "request_reason": "Property Maintenance",
    "date_created": "2022-04-16T17:19:00.000",
    "date_modified": "2022-04-16T17:19:00.000",
    "request_status": "Pending",
    "responsible_agency": "Department of Code Enforcement",
    "final_address": "2440 Touro St",
    "address_councildis": "D",
    "status": "Pending",
    "rowid": "875306",
    "final_x": "3683782.93193",
    "final_y": "541326.687628",
    "longitude": "-90.06051768049412",
    "latitude": "29.982391165590165",
    "geocoded_column": {
      "latitude": "29.982391165590165",
      "longitude": "-90.06051768049412"
    }
  },
  {
    "service_request": "2022-875305",
    "request_type": "Abandoned Vehicles",
    "request_reason": "Abandoned/Junk Vehicles",
    "date_created": "2022-04-16T17:14:59.000",
    "date_modified": "2022-04-16T19:28:37.000",
    "request_status": "Pending",
    "responsible_agency": "Department of Public Works",
    "final_address": "2428 Touro St",
    "address_councildis": "D",
    "status": "Pending",
    "rowid": "875305",
    "final_x": "3683796.23189",
    "final_y": "541257.37742",
    "longitude": "-90.06047810456762",
    "latitude": "29.982200180652264",
    "geocoded_column": {
      "latitude": "29.982200180652264",
      "longitude": "-90.06047810456762"
    }
  },
  {
    "service_request": "2022-875304",
    "request_type": "Abandoned Vehicles",
    "request_reason": "Abandoned/Junk Vehicles",
    "date_created": "2022-04-16T17:11:36.000",
    "date_modified": "2022-04-16T19:26:45.000",
    "request_status": "Pending",
    "responsible_agency": "Department of Public Works",
    "final_address": "2428 Touro St",
    "address_councildis": "D",
    "status": "Pending",
    "rowid": "875304",
    "final_x": "3683796.23189",
    "final_y": "541257.37742",
    "longitude": "-90.06047810456762",
    "latitude": "29.982200180652264",
    "geocoded_column": {
      "latitude": "29.982200180652264",
      "longitude": "-90.06047810456762"
    }
  },
  {
    "service_request": "2022-875303",
    "request_type": "Property Maintenance",
    "request_reason": "Property Maintenance",
    "date_created": "2022-04-16T17:07:20.000",
    "date_modified": "2022-04-16T17:07:20.000",
    "request_status": "Pending",
    "responsible_agency": "Department of Code Enforcement",
    "final_address": "2440 Touro St",
    "address_councildis": "D",
    "status": "Pending",
    "rowid": "875303",
    "final_x": "3683782.93193",
    "final_y": "541326.687628",
    "longitude": "-90.06051768049412",
    "latitude": "29.982391165590165",
    "geocoded_column": {
      "latitude": "29.982391165590165",
      "longitude": "-90.06051768049412"
    }
  },
  {
    "service_request": "2022-875302",
    "request_type": "Abandoned Vehicles",
    "request_reason": "Abandoned/Junk Vehicles",
    "date_created": "2022-04-16T17:04:31.000",
    "date_modified": "2022-04-16T19:24:36.000",
    "request_status": "Pending",
    "responsible_agency": "Department of Public Works",
    "final_address": "2428 Touro St",
    "address_councildis": "D",
    "status": "Pending",
    "rowid": "875302",
    "final_x": "3683796.23189",
    "final_y": "541257.37742",
    "longitude": "-90.06047810456762",
    "latitude": "29.982200180652264",
    "geocoded_column": {
      "latitude": "29.982200180652264",
      "longitude": "-90.06047810456762"
    }
  },
  {
    "service_request": "2022-875301",
    "request_type": "Property Maintenance",
    "request_reason": "Property Maintenance",
    "date_created": "2022-04-16T17:01:59.000",
    "date_modified": "2022-04-16T17:01:59.000",
    "request_status": "Pending",
    "responsible_agency": "Department of Code Enforcement",
    "final_address": "2440 Touro St",
    "address_councildis": "D",
    "status": "Pending",
    "rowid": "875301",
    "final_x": "3683782.93193",
    "final_y": "541326.687628",
    "longitude": "-90.06051768049412",
    "latitude": "29.982391165590165",
    "geocoded_column": {
      "latitude": "29.982391165590165",
      "longitude": "-90.06051768049412"
    }
  },
  {
    "service_request": "2022-875300",
    "request_type": "Roads/Drainage",
    "request_reason": "Catch Basin - Clogged",
    "date_created": "2022-04-16T16:56:00.000",
    "date_modified": "2022-04-16T16:56:00.000",
    "request_status": "Pending",
    "responsible_agency": "Department of Public Works",
    "final_address": "1417 Seventh St",
    "address_councildis": "B",
    "status": "Pending",
    "rowid": "875300",
    "final_x": "3675745.0203",
    "final_y": "521387.580537",
    "longitude": "-90.08659061439701",
    "latitude": "29.927808344422044",
    "geocoded_column": {
      "latitude": "29.927808344422044",
      "longitude": "-90.08659061439701"
    }
  },
  {
    "service_request": "2022-875298",
    "request_type": "Roads/Drainage",
    "request_reason": "Damaged Sidewalk",
    "date_created": "2022-04-16T16:46:43.000",
    "date_modified": "2022-04-16T16:46:43.000",
    "request_status": "Pending",
    "responsible_agency": "Department of Public Works",
    "final_address": "8511 Hickory St",
    "address_councildis": "A",
    "status": "Pending",
    "rowid": "875298",
    "final_x": "3662272.42669",
    "final_y": "530983.628418",
    "longitude": "-90.1288021858109",
    "latitude": "29.954590623248265",
    "geocoded_column": {
      "latitude": "29.954590623248265",
      "longitude": "-90.1288021858109"
    }
  },
  {
    "service_request": "2022-875297",
    "request_type": "Property Maintenance",
    "request_reason": "Property Maintenance",
    "date_created": "2022-04-16T16:39:29.000",
    "date_modified": "2022-04-16T16:39:29.000",
    "request_status": "Pending",
    "responsible_agency": "Department of Code Enforcement",
    "final_address": "8501 Hickory St",
    "address_councildis": "A",
    "status": "Pending",
    "rowid": "875297",
    "final_x": "3662317.9728",
    "final_y": "530942.223106",
    "longitude": "-90.12865974273205",
    "latitude": "29.954475455423783",
    "geocoded_column": {
      "latitude": "29.954475455423783",
      "longitude": "-90.12865974273205"
    }
  },
  {
    "service_request": "2022-875296",
    "request_type": "Traffic Signals/Signs/Striping/Streetlights",
    "request_reason": "Street Light Outage/Malfunction",
    "date_created": "2022-04-16T16:33:45.000",
    "date_modified": "2022-04-16T16:33:46.000",
    "request_status": "Pending",
    "responsible_agency": "Department of Public Works",
    "final_address": "1701 Jefferson Ave",
    "address_councildis": "B",
    "status": "Pending",
    "contractor": "Royal Engineering",
    "rowid": "875296",
    "final_x": "3667543.84218",
    "final_y": "521978.104634",
    "longitude": "-90.11246002691936",
    "latitude": "29.929674914221707",
    "geocoded_column": {
      "latitude": "29.929674914221707",
      "longitude": "-90.11246002691936"
    }
  },
  {
    "service_request": "2022-875295",
    "request_type": "Roads/Drainage",
    "request_reason": "Road Shoulder Repair",
    "date_created": "2022-04-16T16:32:23.000",
    "date_modified": "2022-04-16T16:32:23.000",
    "request_status": "Pending",
    "responsible_agency": "Department of Public Works",
    "final_address": "835 St Peter St Unit C",
    "address_councildis": "C",
    "status": "Pending",
    "rowid": "875295",
    "final_x": "3682066.52482",
    "final_y": "532887.638148",
    "longitude": "-90.06623368657118",
    "latitude": "29.959239009128662",
    "geocoded_column": {
      "latitude": "29.959239009128662",
      "longitude": "-90.06623368657118"
    }
  },
  {
    "service_request": "2022-875294",
    "request_type": "Trash/Recycling",
    "request_reason": "Missed Trash Pick-Up",
    "date_created": "2022-04-16T16:31:09.000",
    "date_modified": "2022-04-16T16:31:10.000",
    "request_status": "Pending",
    "responsible_agency": "Department of Sanitation",
    "final_address": "4739 Laine Ave",
    "address_councildis": "E",
    "status": "Assigned to Contractor",
    "contractor": "Metro Disposal",
    "rowid": "875294",
    "final_x": "3705758.23345",
    "final_y": "555419.798425",
    "longitude": "-89.99058784052347",
    "latitude": "30.020452384460025",
    "geocoded_column": {
      "latitude": "30.020452384460025",
      "longitude": "-89.99058784052347"
    }
  },
  {
    "service_request": "2022-875293",
    "request_type": "Traffic Signals/Signs/Striping/Streetlights",
    "request_reason": "Traffic Sign Missing/Damaged",
    "date_created": "2022-04-16T15:56:06.000",
    "date_modified": "2022-04-16T15:56:06.000",
    "request_status": "Pending",
    "responsible_agency": "Department of Public Works",
    "final_address": "PALMETTO ST & S CARROLLTON AVE",
    "address_councildis": "A",
    "status": "Pending",
    "rowid": "875293",
    "final_x": "3668118.5",
    "final_y": "535074.38",
    "longitude": "-90.11020461511455",
    "latitude": "29.965668564883114",
    "geocoded_column": {
      "latitude": "29.965668564883114",
      "longitude": "-90.11020461511455"
    }
  },
  {
    "service_request": "2022-875292",
    "request_type": "Abandoned Vehicles",
    "request_reason": "Abandoned/Junk Vehicles",
    "date_created": "2022-04-16T15:48:30.000",
    "date_modified": "2022-04-16T15:49:36.000",
    "request_status": "Pending",
    "responsible_agency": "Department of Public Works",
    "final_address": "3RD ST & S PRIEUR ST",
    "address_councildis": "B",
    "status": "Pending",
    "rowid": "875292",
    "final_x": "3673093.2",
    "final_y": "527930.58",
    "longitude": "-90.09473853376178",
    "latitude": "29.945878536568717",
    "geocoded_column": {
      "latitude": "29.945878536568717",
      "longitude": "-90.09473853376178"
    }
  },
  {
    "service_request": "2022-875291",
    "request_type": "Roads/Drainage",
    "request_reason": "Pothole",
    "date_created": "2022-04-16T15:40:20.000",
    "date_modified": "2022-04-16T15:40:20.000",
    "request_status": "Pending",
    "responsible_agency": "Department of Public Works",
    "final_address": "560 Audubon St",
    "address_councildis": "A",
    "status": "Pending",
    "rowid": "875291",
    "final_x": "3662894.87783",
    "final_y": "524209.972348",
    "longitude": "-90.12706188384145",
    "latitude": "29.93594723002522",
    "geocoded_column": {
      "latitude": "29.93594723002522",
      "longitude": "-90.12706188384145"
    }
  },
  {
    "service_request": "2022-875290",
    "request_type": "Roads/Drainage",
    "request_reason": "Debris in Roadway",
    "date_created": "2022-04-16T15:30:43.000",
    "date_modified": "2022-04-16T15:30:43.000",
    "request_status": "Pending",
    "responsible_agency": "Department of Public Works",
    "final_address": "616 Upperline St",
    "address_councildis": "B",
    "status": "Pending",
    "rowid": "875290",
    "final_x": "3668918.33582",
    "final_y": "517673.733814",
    "longitude": "-90.10826625697591",
    "latitude": "29.91779891831212",
    "geocoded_column": {
      "latitude": "29.91779891831212",
      "longitude": "-90.10826625697591"
    }
  },
  {
    "service_request": "2022-875289",
    "request_type": "Trash/Recycling",
    "request_reason": "Missed Trash Pick-Up",
    "date_created": "2022-04-16T15:11:16.000",
    "date_modified": "2022-04-16T15:11:17.000",
    "request_status": "Pending",
    "responsible_agency": "Department of Sanitation",
    "final_address": "1819 Monroe St",
    "address_councildis": "A",
    "status": "Assigned to Contractor",
    "contractor": "Richards Disposal",
    "rowid": "875289",
    "final_x": "3661936.12691",
    "final_y": "531454.263555",
    "longitude": "-90.12984848674539",
    "latitude": "29.95589443433823",
    "geocoded_column": {
      "latitude": "29.95589443433823",
      "longitude": "-90.12984848674539"
    }
  },
  {
    "service_request": "2022-875288",
    "request_type": "Traffic Signals/Signs/Striping/Streetlights",
    "request_reason": "Traffic Signal Malfunctioning/Damaged",
    "date_created": "2022-04-16T14:42:00.000",
    "date_modified": "2022-04-16T14:42:00.000",
    "request_status": "Pending",
    "responsible_agency": "Department of Public Works",
    "final_address": "739 Elysian Fields Ave",
    "address_councildis": "C",
    "status": "Pending",
    "rowid": "875288",
    "final_x": "3685181.88207",
    "final_y": "535195.604102",
    "longitude": "-90.05631493582123",
    "latitude": "29.965490025029638",
    "geocoded_column": {
      "latitude": "29.965490025029638",
      "longitude": "-90.05631493582123"
    }
  },
  {
    "service_request": "2022-875287",
    "request_type": "Trash/Recycling",
    "request_reason": "Start Trash Service",
    "date_created": "2022-04-16T14:24:12.000",
    "date_modified": "2022-04-16T14:24:13.000",
    "request_status": "Pending",
    "responsible_agency": "Department of Sanitation",
    "final_address": "1700 Touro St",
    "address_councildis": "D",
    "status": "Assigned to Contractor",
    "contractor": "Metro Disposal",
    "rowid": "875287",
    "final_x": "3684019.7062",
    "final_y": "538475.856009",
    "longitude": "-90.05986990432764",
    "latitude": "29.97454514302639",
    "geocoded_column": {
      "latitude": "29.97454514302639",
      "longitude": "-90.05986990432764"
    }
  },
  {
    "service_request": "2022-875286",
    "request_type": "Traffic Signals/Signs/Striping/Streetlights",
    "request_reason": "Traffic Sign Missing/Damaged",
    "date_created": "2022-04-16T14:08:21.000",
    "date_modified": "2022-04-16T14:08:21.000",
    "request_status": "Pending",
    "responsible_agency": "Department of Public Works",
    "final_address": "FRANKLIN AVE & LAKESHORE DR",
    "address_councildis": "D",
    "status": "Pending",
    "rowid": "875286",
    "final_x": "3685989.9",
    "final_y": "560178.48",
    "longitude": "-90.05288162428062",
    "latitude": "30.03415913297372",
    "geocoded_column": {
      "latitude": "30.03415913297372",
      "longitude": "-90.05288162428062"
    }
  },
  {
    "service_request": "2022-875285",
    "request_type": "Trash/Recycling",
    "request_reason": "Order Trash Cart",
    "date_created": "2022-04-16T14:07:35.000",
    "date_modified": "2022-04-16T14:07:36.000",
    "request_status": "Pending",
    "responsible_agency": "Department of Sanitation",
    "final_address": "3137 Dumaine St",
    "address_councildis": "A",
    "status": "Assigned to Contractor",
    "contractor": "Richards Disposal",
    "rowid": "875285",
    "final_x": "3675470.44315",
    "final_y": "538849.109897",
    "longitude": "-90.08685775948625",
    "latitude": "29.975829951748686",
    "geocoded_column": {
      "latitude": "29.975829951748686",
      "longitude": "-90.08685775948625"
    }
  },
  {
    "service_request": "2022-875284",
    "request_type": "Trash/Recycling",
    "request_reason": "Missed Trash Pick-Up",
    "date_created": "2022-04-16T13:59:10.000",
    "date_modified": "2022-04-16T13:59:11.000",
    "request_status": "Pending",
    "responsible_agency": "Department of Sanitation",
    "final_address": "222 Bermuda St",
    "address_councildis": "C",
    "status": "Assigned to Contractor",
    "contractor": "Richards Disposal",
    "rowid": "875284",
    "final_x": "3686189.28252",
    "final_y": "530959.197314",
    "longitude": "-90.05328306967309",
    "latitude": "29.953810456675818",
    "geocoded_column": {
      "latitude": "29.953810456675818",
      "longitude": "-90.05328306967309"
    }
  },
  {
    "service_request": "2022-875283",
    "request_type": "Trash/Recycling",
    "request_reason": "Missed Trash Pick-Up",
    "date_created": "2022-04-16T13:56:50.000",
    "date_modified": "2022-04-16T13:56:51.000",
    "request_status": "Pending",
    "responsible_agency": "Department of Sanitation",
    "final_address": "1720 Leonidas St",
    "address_councildis": "A",
    "status": "Assigned to Contractor",
    "contractor": "Richards Disposal",
    "rowid": "875283",
    "final_x": "3661932.77786",
    "final_y": "531036.613826",
    "longitude": "-90.12987291305701",
    "latitude": "29.954746129221363",
    "geocoded_column": {
      "latitude": "29.954746129221363",
      "longitude": "-90.12987291305701"
    }
  },
  {
    "service_request": "2022-875282",
    "request_type": "Trash/Recycling",
    "request_reason": "Order Recycling Cart",
    "date_created": "2022-04-16T13:40:08.000",
    "date_modified": "2022-04-16T13:40:08.000",
    "request_status": "Pending",
    "responsible_agency": "Department of Sanitation",
    "final_address": "1254 N Villere St",
    "address_councildis": "C",
    "status": "Pending",
    "rowid": "875282",
    "final_x": "3681741.05583",
    "final_y": "535987.455047",
    "longitude": "-90.0671532733442",
    "latitude": "29.967772336615024",
    "geocoded_column": {
      "latitude": "29.967772336615024",
      "longitude": "-90.0671532733442"
    }
  },
  {
    "service_request": "2022-875281",
    "request_type": "Trash/Recycling",
    "request_reason": "Request a Large Item Pick Up",
    "date_created": "2022-04-16T13:39:57.000",
    "date_modified": "2022-04-16T13:39:58.000",
    "request_status": "Pending",
    "responsible_agency": "Department of Sanitation",
    "final_address": "2613 Second St",
    "address_councildis": "B",
    "status": "Assigned to Contractor",
    "contractor": "Richards Disposal",
    "rowid": "875281",
    "final_x": "3674661.29665",
    "final_y": "526185.495806",
    "longitude": "-90.08984731304966",
    "latitude": "29.94103342799692",
    "geocoded_column": {
      "latitude": "29.94103342799692",
      "longitude": "-90.08984731304966"
    }
  },
  {
    "service_request": "2022-875280",
    "request_type": "Trash/Recycling",
    "request_reason": "Request a Large Item Pick Up",
    "date_created": "2022-04-16T13:39:23.000",
    "date_modified": "2022-04-16T13:39:24.000",
    "request_status": "Pending",
    "responsible_agency": "Department of Sanitation",
    "final_address": "8305 Freret St",
    "address_councildis": "A",
    "status": "Assigned to Contractor",
    "contractor": "Richards Disposal",
    "rowid": "875280",
    "final_x": "3660938.61536",
    "final_y": "528413.874688",
    "longitude": "-90.13309886117285",
    "latitude": "29.94756311098032",
    "geocoded_column": {
      "latitude": "29.94756311098032",
      "longitude": "-90.13309886117285"
    }
  },
  {
    "service_request": "2022-875279",
    "request_type": "Property Maintenance",
    "request_reason": "Property Maintenance",
    "date_created": "2022-04-16T13:35:23.000",
    "date_modified": "2022-04-16T13:35:23.000",
    "request_status": "Pending",
    "responsible_agency": "Department of Code Enforcement",
    "final_address": "6775 Deanne St",
    "address_councildis": "D",
    "status": "Pending",
    "rowid": "875279",
    "final_x": "3695934.16464",
    "final_y": "555827.742553",
    "longitude": "-90.02161400078145",
    "latitude": "30.021886962387303",
    "geocoded_column": {
      "latitude": "30.021886962387303",
      "longitude": "-90.02161400078145"
    }
  },
  {
    "service_request": "2022-875278",
    "request_type": "Traffic Signals/Signs/Striping/Streetlights",
    "request_reason": "Traffic Signal Malfunctioning/Damaged",
    "date_created": "2022-04-16T13:25:16.000",
    "date_modified": "2022-04-16T13:25:16.000",
    "request_status": "Pending",
    "responsible_agency": "Department of Public Works",
    "final_address": "750 Carondelet St",
    "address_councildis": "B",
    "status": "Pending",
    "rowid": "875278",
    "final_x": "3680057.00392",
    "final_y": "528199.866368",
    "longitude": "-90.0727421193128",
    "latitude": "29.94641016531836",
    "geocoded_column": {
      "latitude": "29.94641016531836",
      "longitude": "-90.0727421193128"
    }
  },
  {
    "service_request": "2022-875277",
    "request_type": "Roads/Drainage",
    "request_reason": "Damaged Sidewalk",
    "date_created": "2022-04-16T13:22:07.000",
    "date_modified": "2022-04-16T13:22:07.000",
    "request_status": "Pending",
    "responsible_agency": "Department of Public Works",
    "final_address": "819 Canal St",
    "address_councildis": "C",
    "status": "Pending",
    "rowid": "875277",
    "final_x": "3680889.74056",
    "final_y": "531019.229186",
    "longitude": "-90.07001473384933",
    "latitude": "29.95413724730612",
    "geocoded_column": {
      "latitude": "29.95413724730612",
      "longitude": "-90.07001473384933"
    }
  },
  {
    "service_request": "2022-875276",
    "request_type": "Trash/Recycling",
    "request_reason": "Order Trash Cart",
    "date_created": "2022-04-16T13:21:08.000",
    "date_modified": "2022-04-16T13:21:08.000",
    "request_status": "Pending",
    "responsible_agency": "Department of Sanitation",
    "final_address": "3549 Red Oak Ct",
    "address_councildis": "C",
    "status": "Assigned to Contractor",
    "contractor": "Richards Disposal",
    "rowid": "875276",
    "final_x": "3703142.61726",
    "final_y": "513537.32517",
    "longitude": "-90.00039177653711",
    "latitude": "29.905374723175758",
    "geocoded_column": {
      "latitude": "29.905374723175758",
      "longitude": "-90.00039177653711"
    }
  },
  {
    "service_request": "2022-875275",
    "request_type": "Trash/Recycling",
    "request_reason": "Request a Large Item Pick Up",
    "date_created": "2022-04-16T13:16:00.000",
    "date_modified": "2022-04-16T13:16:01.000",
    "request_status": "Pending",
    "responsible_agency": "Department of Sanitation",
    "final_address": "631 Philip St",
    "address_councildis": "B",
    "status": "Assigned to Contractor",
    "contractor": "Richards Disposal",
    "rowid": "875275",
    "final_x": "3679522.61807",
    "final_y": "520623.95116",
    "longitude": "-90.07469210956873",
    "latitude": "29.925595054129282",
    "geocoded_column": {
      "latitude": "29.925595054129282",
      "longitude": "-90.07469210956873"
    }
  },
  {
    "service_request": "2022-875274",
    "request_type": "Traffic Signals/Signs/Striping/Streetlights",
    "request_reason": "Traffic Signal Malfunctioning/Damaged",
    "date_created": "2022-04-16T13:03:45.000",
    "date_modified": "2022-04-16T13:03:46.000",
    "request_status": "Pending",
    "responsible_agency": "Department of Public Works",
    "final_address": "JACKSON AVE & TCHOUPITOULAS ST",
    "address_councildis": "B",
    "status": "Pending",
    "rowid": "875274",
    "final_x": "3680628.8",
    "final_y": "519821.48",
    "longitude": "-90.07122813496215",
    "latitude": "29.923355063698093",
    "geocoded_column": {
      "latitude": "29.923355063698093",
      "longitude": "-90.07122813496215"
    }
  },
  {
    "service_request": "2022-875272",
    "request_type": "Trash/Recycling",
    "request_reason": "Missed Trash Pick-Up",
    "date_created": "2022-04-16T12:45:42.000",
    "date_modified": "2022-04-16T12:45:43.000",
    "request_status": "Pending",
    "responsible_agency": "Department of Sanitation",
    "final_address": "5610 Holley Ln",
    "address_councildis": "E",
    "status": "Assigned to Contractor",
    "contractor": "Metro Disposal",
    "rowid": "875272",
    "final_x": "3703293.48471",
    "final_y": "556549.351194",
    "longitude": "-89.99833405781315",
    "latitude": "30.02363740665339",
    "geocoded_column": {
      "latitude": "30.02363740665339",
      "longitude": "-89.99833405781315"
    }
  },
  {
    "service_request": "2022-875271",
    "request_type": "Roads/Drainage",
    "request_reason": "Street Flooding / Drainage",
    "date_created": "2022-04-16T12:33:32.000",
    "date_modified": "2022-04-16T12:48:11.000",
    "request_status": "Pending",
    "responsible_agency": "Department of Public Works",
    "final_address": "926 Orleans Ave",
    "address_councildis": "C",
    "status": "Pending",
    "rowid": "875271",
    "final_x": "3681880.41384",
    "final_y": "533144.729348",
    "longitude": "-90.06681240625264",
    "latitude": "29.95995157992766",
    "geocoded_column": {
      "latitude": "29.95995157992766",
      "longitude": "-90.06681240625264"
    }
  },
  {
    "service_request": "2022-875269",
    "request_type": "Trash/Recycling",
    "request_reason": "Request a Large Item Pick Up",
    "date_created": "2022-04-16T12:30:42.000",
    "date_modified": "2022-04-16T12:30:43.000",
    "request_status": "Pending",
    "responsible_agency": "Department of Sanitation",
    "final_address": "930 Orleans Ave",
    "address_councildis": "C",
    "status": "Assigned to Contractor",
    "contractor": "Empire Services",
    "rowid": "875269",
    "final_x": "3681852.36015",
    "final_y": "533162.207684",
    "longitude": "-90.06690038357354",
    "latitude": "29.960000491983383",
    "geocoded_column": {
      "latitude": "29.960000491983383",
      "longitude": "-90.06690038357354"
    }
  },
  {
    "service_request": "2022-875268",
    "request_type": "Trash/Recycling",
    "request_reason": "Request a Large Item Pick Up",
    "date_created": "2022-04-16T12:22:39.000",
    "date_modified": "2022-04-16T12:22:40.000",
    "request_status": "Pending",
    "responsible_agency": "Department of Sanitation",
    "final_address": "930 Orleans Ave",
    "address_councildis": "C",
    "status": "Assigned to Contractor",
    "contractor": "Empire Services",
    "rowid": "875268",
    "final_x": "3681852.36015",
    "final_y": "533162.207684",
    "longitude": "-90.06690038357354",
    "latitude": "29.960000491983383",
    "geocoded_column": {
      "latitude": "29.960000491983383",
      "longitude": "-90.06690038357354"
    }
  },
  {
    "service_request": "2022-875267",
    "request_type": "Trash/Recycling",
    "request_reason": "Missed Trash Pick-Up",
    "date_created": "2022-04-16T12:14:07.000",
    "date_modified": "2022-04-17T22:52:38.000",
    "request_status": "Pending",
    "responsible_agency": "Department of Sanitation",
    "final_address": "New Orleans,LA",
    "status": "Assigned to Contractor",
    "rowid": "875267",
    "longitude": "0.0",
    "latitude": "0.0",
    "geocoded_column": {
      "latitude": "0.0",
      "longitude": "0.0"
    }
  },
  {
    "service_request": "2022-875266",
    "request_type": "Trash/Recycling",
    "request_reason": "Repair Trash Cart",
    "date_created": "2022-04-16T11:59:58.000",
    "date_modified": "2022-04-16T12:06:57.000",
    "request_status": "Pending",
    "responsible_agency": "Department of Sanitation",
    "final_address": "New Orleans,LA",
    "address_councildis": "A",
    "status": "Assigned to Contractor",
    "contractor": "Richards Disposal",
    "rowid": "875266",
    "final_x": "3666085.63994",
    "final_y": "529259.368897",
    "longitude": "-90.1168192971937",
    "latitude": "29.949738698100408",
    "geocoded_column": {
      "latitude": "29.949738698100408",
      "longitude": "-90.1168192971937"
    }
  },
  {
    "service_request": "2022-875265",
    "request_type": "Trash/Recycling",
    "request_reason": "Request a Large Item Pick Up",
    "date_created": "2022-04-16T11:58:51.000",
    "date_modified": "2022-04-16T11:58:52.000",
    "request_status": "Pending",
    "responsible_agency": "Department of Sanitation",
    "final_address": "2083 Law St",
    "address_councildis": "D",
    "status": "Assigned to Contractor",
    "contractor": "Metro Disposal",
    "rowid": "875265",
    "final_x": "3683244.05858",
    "final_y": "541761.82254",
    "longitude": "-90.062204458645",
    "latitude": "29.983604081767677",
    "geocoded_column": {
      "latitude": "29.983604081767677",
      "longitude": "-90.062204458645"
    }
  },