[
  {
    "service_request": "2025-1216894",
    "request_type": "Trash/Recycling",
    "request_reason": "Order Recycling Cart",
    "date_created": "2025-08-09T21:26:39.000",
    "date_modified": "2025-08-09T21:26:41.000",
    "request_status": "Pending",
    "responsible_agency": "Department of Sanitation",
    "final_address": "2637 Jefferson Ave",
    "address_councildis": "B",
    "status": "Pending",
    "rowid": "1216894",
    "final_x": "3668253.56346",
    "final_y": "525190.444541",
    "longitude": "-90.11011129874024",
    "latitude": "29.938487008461973",
    "geocoded_column": {
      "latitude": "29.938487008461973",
      "longitude": "-90.11011129874024"
    }
  },
  {
    "service_request": "2025-1216893",
    "request_type": "Streetlights",
    "request_reason": "Streetlight Outage/Malfunction",
    "date_created": "2025-08-09T21:05:49.000",
    "date_modified": "2025-08-09T21:05:51.000",
    "request_status": "Pending",
    "responsible_agency": "Department of Public Works",
    "final_address": "PETIT BAYOU LN & WILLOWBROOK DR",
    "address_councildis": "E",
    "status": "Pending",
    "contractor": "Legacy Professional Services",
    "rowid": "1216893",
    "final_x": "3724835.1",
    "final_y": "564210.28",
    "longitude": "-89.92997143712412",
    "latitude": "30.043994134151298",
    "geocoded_column": {
      "latitude": "30.043994134151298",
      "longitude": "-89.92997143712412"
    }
  },
  {
    "service_request": "2025-1216892",
    "request_type": "Streetlights",
    "request_reason": "Streetlight Outage/Malfunction",
    "date_created": "2025-08-09T21:05:48.000",
    "date_modified": "2025-08-09T21:05:51.000",
    "request_status": "Pending",
    "responsible_agency": "Department of Public Works",
    "final_address": "PETIT BAYOU LN & WILLOWBROOK DR",
    "address_councildis": "E",
    "status": "Pending",
    "contractor": "Legacy Professional Services",
    "rowid": "1216892",
    "final_x": "3724835.1",
    "final_y": "564210.28",
    "longitude": "-89.92997143712412",
    "latitude": "30.043994134151298",
    "geocoded_column": {
      "latitude": "30.043994134151298",
      "longitude": "-89.92997143712412"
    }
  },
  {
    "service_request": "2025-1216891",
    "request_type": "Abandoned Vehicles",
    "request_reason": "Abandoned/Junk Vehicles",
    "date_created": "2025-08-09T20:57:59.000",
    "date_modified": "2025-08-09T20:58:01.000",
    "request_status": "Pending",
    "responsible_agency": "Department of Public Works",
    "final_address": "4819 Nighthart St",
    "address_councildis": "E",
    "status": "Pending",
    "rowid": "1216891",
    "final_x": "3716133.85458",
    "final_y": "557219.141339",
    "longitude": "-89.95773615630574",
    "latitude": "30.025061465758444",
    "geocoded_column": {
      "latitude": "30.025061465758444",
      "longitude": "-89.95773615630574"
    }
  },
  {
    "service_request": "2025-1216890",
    "request_type": "Property Maintenance",
    "request_reason": "Property Maintenance",
    "date_created": "2025-08-09T20:13:08.000",
    "date_modified": "2025-08-09T20:13:10.000",
    "request_status": "Pending",
    "responsible_agency": "Department of Code Enforcement",
    "final_address": "633 Huntlee Dr",
    "address_councildis": "C",
    "status": "Pending",
    "rowid": "1216890",
    "final_x": "3701747.00362",
    "final_y": "520366.067256",
    "longitude": "-90.0045464504469",
    "latitude": "29.924195998724926",
    "geocoded_column": {
      "latitude": "29.924195998724926",
      "longitude": "-90.0045464504469"
    }
  },
  {
    "service_request": "2025-1216889",
    "request_type": "Trash/Recycling",
    "request_reason": "Order Recycling Cart",
    "date_created": "2025-08-09T19:29:32.000",
    "date_modified": "2025-08-09T19:29:35.000",
    "request_status": "Pending",
    "responsible_agency": "Department of Sanitation",
    "final_address": "809 Wilson Dr",
    "address_councildis": "A",
    "status": "Pending",
    "rowid": "1216889",
    "final_x": "3673999.82664",
    "final_y": "539361.996106",
    "longitude": "-90.09148483486291",
    "latitude": "29.977284120234728",
    "geocoded_column": {
      "latitude": "29.977284120234728",
      "longitude": "-90.09148483486291"
    }
  },
  {
    "service_request": "2025-1216888",
    "request_type": "Health Related Request",
    "request_reason": "Noise Ordinance Complaint",
    "date_created": "2025-08-09T19:12:58.000",
    "date_modified": "2025-08-09T19:13:00.000",
    "request_status": "Pending",
    "responsible_agency": "Health Department",
    "final_address": "1909 Napoleon Ave",
    "address_councildis": "B",
    "status": "Pending",
    "rowid": "1216888",
    "final_x": "3670848.32609",
    "final_y": "522034.268026",
    "longitude": "-90.10202642440025",
    "latitude": "29.929732119426728",
    "geocoded_column": {
      "latitude": "29.929732119426728",
      "longitude": "-90.10202642440025"
    }
  },
  {
    "service_request": "2025-1216887",
    "request_type": "Safety & Permits",
    "request_reason": "Zoning Enforcement",
    "date_created": "2025-08-09T19:08:31.000",
    "date_modified": "2025-08-09T19:08:34.000",
    "request_status": "Pending",
    "responsible_agency": "Safety and Permits",
    "final_address": "1215 St Anthony St",
    "address_councildis": "C",
    "status": "Pending",
    "rowid": "1216887",
    "final_x": "3683554.72373",
    "final_y": "536318.237191",
    "longitude": "-90.06141407059715",
    "latitude": "29.968626641401414",
    "geocoded_column": {
      "latitude": "29.968626641401414",
      "longitude": "-90.06141407059715"
    }
  },
  {
    "service_request": "2025-1216886",
    "request_type": "General Services",
    "request_reason": "General Service Request",
    "date_created": "2025-08-09T19:06:52.000",
    "date_modified": "2025-08-09T19:06:53.000",
    "request_status": "Pending",
    "responsible_agency": "Orleans Parish Communication District",
    "final_address": "817 Navarre St",
    "address_councildis": "A",
    "status": "Pending",
    "rowid": "1216886",
    "final_x": "3668840.73172",
    "final_y": "543861.875278",
    "longitude": "-90.10762697952644",
    "latitude": "29.989809993793216",
    "geocoded_column": {
      "latitude": "29.989809993793216",
      "longitude": "-90.10762697952644"
    }
  },
  {
    "service_request": "2025-1216885",
    "request_type": "Safety & Permits",
    "request_reason": "Zoning Enforcement",
    "date_created": "2025-08-09T19:06:45.000",
    "date_modified": "2025-08-09T19:06:47.000",
    "request_status": "Pending",
    "responsible_agency": "Safety and Permits",
    "final_address": "1722 Marais St",
    "address_councildis": "C",
    "status": "Pending",
    "rowid": "1216885",
    "final_x": "3683327.41775",
    "final_y": "536511.490567",
    "longitude": "-90.06212514379435",
    "latitude": "29.9691649572422",
    "geocoded_column": {
      "latitude": "29.9691649572422",
      "longitude": "-90.06212514379435"
    }
  },
  {
    "service_request": "2025-1216884",
    "request_type": "Safety & Permits",
    "request_reason": "Zoning Enforcement",
    "date_created": "2025-08-09T19:04:26.000",
    "date_modified": "2025-08-09T19:04:30.000",
    "request_status": "Pending",
    "responsible_agency": "Safety and Permits",
    "final_address": "1718 Marais St",
    "address_councildis": "C",
    "status": "Pending",
    "rowid": "1216884",
    "final_x": "3683289.20674",
    "final_y": "536507.176263",
    "longitude": "-90.0622459679248",
    "latitude": "29.96915425996986",
    "geocoded_column": {
      "latitude": "29.96915425996986",
      "longitude": "-90.0622459679248"
    }
  },
  {
    "service_request": "2025-1216883",
    "request_type": "Abandoned Vehicles",
    "request_reason": "Abandoned/Junk Vehicles",
    "date_created": "2025-08-09T19:00:18.000",
    "date_modified": "2025-08-09T19:00:19.000",
    "request_status": "Pending",
    "responsible_agency": "Department of Public Works",
    "final_address": "3726 Banks St",
    "address_councildis": "B",
    "status": "Pending",
    "rowid": "1216883",
    "final_x": "3671392.32718",
    "final_y": "536513.423623",
    "longitude": "-90.09981704797417",
    "latitude": "29.969528955004463",
    "geocoded_column": {
      "latitude": "29.969528955004463",
      "longitude": "-90.09981704797417"
    }
  },
  {
    "service_request": "2025-1216882",
    "request_type": "Abandoned Vehicles",
    "request_reason": "Abandoned/Junk Vehicles",
    "date_created": "2025-08-09T18:36:46.000",
    "date_modified": "2025-08-09T18:36:47.000",
    "request_status": "Pending",
    "responsible_agency": "Department of Public Works",
    "final_address": "11132 Prentiss Ave",
    "address_councildis": "E",
    "status": "Pending",
    "rowid": "1216882",
    "final_x": "3716500.63103",
    "final_y": "556637.023258",
    "longitude": "-89.95659931459696",
    "latitude": "30.023448760488968",
    "geocoded_column": {
      "latitude": "30.023448760488968",
      "longitude": "-89.95659931459696"
    }
  },
  {
    "service_request": "2025-1216881",
    "request_type": "Trash/Recycling",
    "request_reason": "Repair Trash Cart",
    "date_created": "2025-08-09T18:33:07.000",
    "date_modified": "2025-08-09T18:33:09.000",
    "request_status": "Pending",
    "responsible_agency": "Department of Sanitation",
    "final_address": "1029 Crete St",
    "address_councildis": "A",
    "status": "Assigned to Contractor",
    "contractor": "IV Waste",
    "rowid": "1216881",
    "final_x": "3677514.33128",
    "final_y": "538573.998729",
    "longitude": "-90.0804120789359",
    "latitude": "29.97501219652608",
    "geocoded_column": {
      "latitude": "29.97501219652608",
      "longitude": "-90.0804120789359"
    }
  },
  {
    "service_request": "2025-1216880",
    "request_type": "Trash/Recycling",
    "request_reason": "Replace Trash Cart",
    "date_created": "2025-08-09T18:09:26.000",
    "date_modified": "2025-08-09T18:09:28.000",
    "request_status": "Pending",
    "responsible_agency": "Department of Sanitation",
    "final_address": "540 Lowerline St",
    "address_councildis": "A",
    "status": "Assigned to Contractor",
    "contractor": "IV Waste",
    "rowid": "1216880",
    "final_x": "3662218.18874",
    "final_y": "524729.031804",
    "longitude": "-90.12918099580533",
    "latitude": "29.93739405007376",
    "geocoded_column": {
      "latitude": "29.93739405007376",
      "longitude": "-90.12918099580533"
    }
  },
  {
    "service_request": "2025-1216879",
    "request_type": "Trash/Recycling",
    "request_reason": "Replace Trash Cart",
    "date_created": "2025-08-09T18:09:24.000",
    "date_modified": "2025-08-09T18:09:26.000",
    "request_status": "Pending",
    "responsible_agency": "Department of Sanitation",
    "final_address": "713 Aurora Oaks Dr",
    "address_councildis": "C",
    "status": "Assigned to Contractor",
    "contractor": "Richards Disposal",
    "rowid": "1216879",
    "final_x": "3701209.12618",
    "final_y": "519995.318712",
    "longitude": "-90.00625788385992",
    "latitude": "29.923193708096484",
    "geocoded_column": {
      "latitude": "29.923193708096484",
      "longitude": "-90.00625788385992"
    }
  },
  {
    "service_request": "2025-1216878",
    "request_type": "Abandoned Vehicles",
    "request_reason": "Abandoned/Junk Vehicles",
    "date_created": "2025-08-09T17:42:51.000",
    "date_modified": "2025-08-09T17:42:53.000",
    "request_status": "Pending",
    "responsible_agency": "Department of Public Works",
    "final_address": "3806 Clematis St",
    "address_councildis": "D",
    "status": "Pending",
    "rowid": "1216878",
    "final_x": "3685840.59561",
    "final_y": "546896.429201",
    "longitude": "-90.05382213928259",
    "latitude": "29.997642960796405",
    "geocoded_column": {
      "latitude": "29.997642960796405",
      "longitude": "-90.05382213928259"
    }
  },
  {
    "service_request": "2025-1216877",
    "request_type": "General Services",
    "request_reason": "General Service Request",
    "date_created": "2025-08-09T17:22:25.000",
    "date_modified": "2025-08-09T17:22:27.000",
    "request_status": "Pending",
    "responsible_agency": "Orleans Parish Communication District",
    "final_address": "7535 Garfield St",
    "address_councildis": "A",
    "status": "Pending",
    "rowid": "1216877",
    "final_x": "3660813.56678",
    "final_y": "524378.530492",
    "longitude": "-90.13362709167163",
    "latitude": "29.936470795261613",
    "geocoded_column": {
      "latitude": "29.936470795261613",
      "longitude": "-90.13362709167163"
    }
  },
  {
    "service_request": "2025-1216876",
    "request_type": "Trash/Recycling",
    "request_reason": "Request a Large Item Pick Up",
    "date_created": "2025-08-09T16:48:38.000",
    "date_modified": "2025-08-09T16:48:40.000",
    "request_status": "Pending",
    "responsible_agency": "Department of Sanitation",
    "final_address": "519 S Genois St",
    "address_councildis": "B",
    "status": "Assigned to Contractor",
    "contractor": "IV Waste",
    "rowid": "1216876",
    "final_x": "3671440.17697",
    "final_y": "535805.565959",
    "longitude": "-90.09969000171206",
    "latitude": "29.967581167691446",
    "geocoded_column": {
      "latitude": "29.967581167691446",
      "longitude": "-90.09969000171206"
    }
  },
  {
    "service_request": "2025-1216875",
    "request_type": "Safety & Permits",
    "request_reason": "Zoning Enforcement",
    "date_created": "2025-08-09T16:24:22.000",
    "date_modified": "2025-08-09T16:24:25.000",
    "request_status": "Pending",
    "responsible_agency": "Safety and Permits",
    "final_address": "1031 Sixth St",
    "address_councildis": "B",
    "status": "Pending",
    "rowid": "1216875",
    "final_x": "3676713.55835",
    "final_y": "520468.180728",
    "longitude": "-90.0835648216669",
    "latitude": "29.9252512808144",
    "geocoded_column": {
      "latitude": "29.9252512808144",
      "longitude": "-90.0835648216669"
    }
  },
  {
    "service_request": "2025-1216874",
    "request_type": "Trash/Recycling",
    "request_reason": "Order Recycling Cart",
    "date_created": "2025-08-09T16:22:37.000",
    "date_modified": "2025-08-09T16:22:39.000",
    "request_status": "Pending",
    "responsible_agency": "Department of Sanitation",
    "final_address": "4631 Annette St",
    "address_councildis": "D",
    "status": "Pending",
    "rowid": "1216874",
    "final_x": "3682147.34754",
    "final_y": "549687.167572",
    "longitude": "-90.06539145067543",
    "latitude": "30.0054293726119",
    "geocoded_column": {
      "latitude": "30.0054293726119",
      "longitude": "-90.06539145067543"
    }
  },
  {
    "service_request": "2025-1216873",
    "request_type": "Property Maintenance",
    "request_reason": "Property Maintenance",
    "date_created": "2025-08-09T16:10:48.000",
    "date_modified": "2025-08-09T16:10:50.000",
    "request_status": "Pending",
    "responsible_agency": "Department of Code Enforcement",
    "final_address": "5001 Madrid St",
    "address_councildis": "D",
    "status": "Pending",
    "rowid": "1216873",
    "final_x": "3691133.91337",
    "final_y": "556289.688794",
    "longitude": "-90.03676498438705",
    "latitude": "30.023307364589897",
    "geocoded_column": {
      "latitude": "30.023307364589897",
      "longitude": "-90.03676498438705"
    }
  },
  {
    "service_request": "2025-1216872",
    "request_type": "Property Maintenance",
    "request_reason": "Property Maintenance",
    "date_created": "2025-08-09T16:00:49.000",
    "date_modified": "2025-08-09T16:00:51.000",
    "request_status": "Pending",
    "responsible_agency": "Department of Code Enforcement",
    "final_address": "1040 Vallette St",
    "address_councildis": "C",
    "status": "Pending",
    "rowid": "1216872",
    "final_x": "3687476.49577",
    "final_y": "527635.342015",
    "longitude": "-90.04933620063107",
    "latitude": "29.944631388050354",
    "geocoded_column": {
      "latitude": "29.944631388050354",
      "longitude": "-90.04933620063107"
    }
  },
  {
    "service_request": "2025-1216871",
    "request_type": "Property Maintenance",
    "request_reason": "Property Maintenance",
    "date_created": "2025-08-09T15:58:11.000",
    "date_modified": "2025-08-09T15:58:13.000",
    "request_status": "Pending",
    "responsible_agency": "Department of Code Enforcement",
    "final_address": "6429 Debore Dr",
    "address_councildis": "D",
    "status": "Pending",
    "rowid": "1216871",
    "final_x": "3690925.65385",
    "final_y": "557175.128283",
    "longitude": "-90.0373913947442",
    "latitude": "30.02574846866306",
    "geocoded_column": {
      "latitude": "30.02574846866306",
      "longitude": "-90.0373913947442"
    }
  },
  {
    "service_request": "2025-1216870",
    "request_type": "Health Related Request",
    "request_reason": "Noise Ordinance Complaint",
    "date_created": "2025-08-09T15:38:04.000",
    "date_modified": "2025-08-09T15:38:07.000",
    "request_status": "Pending",
    "responsible_agency": "Health Department",
    "final_address": "4010 Mithra St",
    "address_councildis": "D",
    "status": "Pending",
    "rowid": "1216870",
    "final_x": "3688825.71548",
    "final_y": "552972.090455",
    "longitude": "-90.04417631713933",
    "latitude": "30.014256814386865",
    "geocoded_column": {
      "latitude": "30.014256814386865",
      "longitude": "-90.04417631713933"
    }
  },
  {
    "service_request": "2025-1216869",
    "request_type": "Trash/Recycling",
    "request_reason": "Request a Large Item Pick Up",
    "date_created": "2025-08-09T15:34:07.000",
    "date_modified": "2025-08-09T15:34:09.000",
    "request_status": "Pending",
    "responsible_agency": "Department of Sanitation",
    "final_address": "2018 Shalett St",
    "address_councildis": "C",
    "status": "Assigned to Contractor",
    "contractor": "Richards Disposal",
    "rowid": "1216869",
    "final_x": "3694255.69603",
    "final_y": "523034.714683",
    "longitude": "-90.02809781765497",
    "latitude": "29.931770621170113",
    "geocoded_column": {
      "latitude": "29.931770621170113",
      "longitude": "-90.02809781765497"
    }
  },
  {
    "service_request": "2025-1216868",
    "request_type": "Trash/Recycling",
    "request_reason": "Missed Trash Pick-Up",
    "date_created": "2025-08-09T15:27:24.000",
    "date_modified": "2025-08-09T15:27:26.000",
    "request_status": "Pending",
    "responsible_agency": "Department of Sanitation",
    "final_address": "3433 Calhoun Street",
    "address_councildis": "A",
    "status": "Assigned to Contractor",
    "contractor": "IV Waste",
    "rowid": "1216868",
    "final_x": "3667728.50132",
    "final_y": "529304.157953",
    "longitude": "-90.11163050621042",
    "latitude": "29.949813791720153",
    "geocoded_column": {
      "latitude": "29.949813791720153",
      "longitude": "-90.11163050621042"
    }
  },
  {
    "service_request": "2025-1216867",
    "request_type": "Trash/Recycling",
    "request_reason": "Replace Trash Cart",
    "date_created": "2025-08-09T15:10:35.000",
    "date_modified": "2025-08-09T15:10:37.000",
    "request_status": "Pending",
    "responsible_agency": "Department of Sanitation",
    "final_address": "2120 Cambronne St",
    "address_councildis": "A",
    "status": "Assigned to Contractor",
    "contractor": "IV Waste",
    "rowid": "1216867",
    "final_x": "3663389.7161",
    "final_y": "531599.942851",
    "longitude": "-90.12525368573436",
    "latitude": "29.95625294548032",
    "geocoded_column": {
      "latitude": "29.95625294548032",
      "longitude": "-90.12525368573436"
    }
  },
  {
    "service_request": "2025-1216866",
    "request_type": "Street and Traffic Signs",
    "request_reason": "Stop Sign Missing or Damaged",
    "date_created": "2025-08-09T14:54:33.000",
    "date_modified": "2025-08-09T14:54:35.000",
    "request_status": "Pending",
    "responsible_agency": "Department of Public Works",
    "final_address": "4200 BLK N Prieur St",
    "address_councildis": "D",
    "status": "Pending",
    "rowid": "1216866",
    "final_x": "3693290.96837",
    "final_y": "538124.15451",
    "longitude": "-90.0306017628023",
    "latitude": "29.973291510805915",
    "geocoded_column": {
      "latitude": "29.973291510805915",
      "longitude": "-90.0306017628023"
    }
  },
  {
    "service_request": "2025-1216865",
    "request_type": "Parks & Parkways",
    "request_reason": "Request Tree Service (Right of Way/Public Property)",
    "date_created": "2025-08-09T14:36:09.000",
    "date_modified": "2025-08-09T14:59:47.000",
    "request_status": "Pending",
    "responsible_agency": "Department of Parks & Parkway",
    "final_address": "6035 Laurel St",
    "address_councildis": "A",
    "status": "Pending",
    "rowid": "1216865",
    "final_x": "3664125.28244",
    "final_y": "518362.145334",
    "longitude": "-90.12337240109211",
    "latitude": "29.91983187176312",
    "geocoded_column": {
      "latitude": "29.91983187176312",
      "longitude": "-90.12337240109211"
    }
  },
  {
    "service_request": "2025-1216864",
    "request_type": "Parks & Parkways",
    "request_reason": "Tree Stump (removal, grind)",
    "date_created": "2025-08-09T14:34:23.000",
    "date_modified": "2025-08-09T14:34:25.000",
    "request_status": "Pending",
    "responsible_agency": "Department of Parks & Parkway",
    "final_address": "5321 Wilton Dr",
    "address_councildis": "D",
    "status": "Pending",
    "rowid": "1216864",
    "final_x": "3681941.10767",
    "final_y": "552737.071574",
    "longitude": "-90.0659364325885",
    "latitude": "30.013821779817935",
    "geocoded_column": {
      "latitude": "30.013821779817935",
      "longitude": "-90.0659364325885"
    }
  },
  {
    "service_request": "2025-1216863",
    "request_type": "Parks & Parkways",
    "request_reason": "Request Tree Service (Right of Way/Public Property)",
    "date_created": "2025-08-09T14:29:47.000",
    "date_modified": "2025-08-09T14:29:49.000",
    "request_status": "Pending",
    "responsible_agency": "Department of Parks & Parkway",
    "final_address": "5321 Wilton Dr",
    "address_councildis": "D",
    "status": "Pending",
    "rowid": "1216863",
    "final_x": "3681941.10767",
    "final_y": "552737.071574",
    "longitude": "-90.0659364325885",
    "latitude": "30.013821779817935",
    "geocoded_column": {
      "latitude": "30.013821779817935",
      "longitude": "-90.0659364325885"
    }
  },
  {
    "service_request": "2025-1216862",
    "request_type": "Parks & Parkways",
    "request_reason": "Request Grass Cutting Service (City Owned Property)",
    "date_created": "2025-08-09T14:27:34.000",
    "date_modified": "2025-08-09T14:27:37.000",
    "request_status": "Pending",
    "responsible_agency": "Department of Parks & Parkway",
    "final_address": "5321 Wilton Dr",
    "address_councildis": "D",
    "status": "Pending",
    "rowid": "1216862",
    "final_x": "3681941.10767",
    "final_y": "552737.071574",
    "longitude": "-90.0659364325885",
    "latitude": "30.013821779817935",
    "geocoded_column": {
      "latitude": "30.013821779817935",
      "longitude": "-90.0659364325885"
    }
  },
  {
    "service_request": "2025-1216860",
    "request_type": "Parks & Parkways",
    "request_reason": "Request Tree Service (Right of Way/Public Property)",
    "date_created": "2025-08-09T14:17:38.000",
    "date_modified": "2025-08-09T14:22:57.000",
    "request_status": "Pending",
    "responsible_agency": "Department of Parks & Parkway",
    "final_address": "2700 BLK Gentilly Blvd",
    "address_councildis": "D",
    "status": "Pending",
    "rowid": "1216860",
    "final_x": "3682542.43573",
    "final_y": "545739.094989",
    "longitude": "-90.06428142139032",
    "latitude": "29.994561558756015",
    "geocoded_column": {
      "latitude": "29.994561558756015",
      "longitude": "-90.06428142139032"
    }
  },
  {
    "service_request": "2025-1216859",
    "request_type": "Parks & Parkways",
    "request_reason": "Request Tree Service (Right of Way/Public Property)",
    "date_created": "2025-08-09T14:16:14.000",
    "date_modified": "2025-08-09T14:22:34.000",
    "request_status": "Pending",
    "responsible_agency": "Department of Parks & Parkway",
    "final_address": "2600 BLK Gentilly Blvd",
    "address_councildis": "D",
    "status": "Pending",
    "rowid": "1216859",
    "final_x": "3682257.79654",
    "final_y": "545538.855888",
    "longitude": "-90.06518756105588",
    "latitude": "29.994019637443454",
    "geocoded_column": {
      "latitude": "29.994019637443454",
      "longitude": "-90.06518756105588"
    }
  },
  {
    "service_request": "2025-1216858",
    "request_type": "General Services",
    "request_reason": "General Service Request",
    "date_created": "2025-08-09T14:11:32.000",
    "date_modified": "2025-08-09T14:11:33.000",
    "request_status": "Pending",
    "responsible_agency": "Orleans Parish Communication District",
    "final_address": "1937 Wilton Dr",
    "address_councildis": "D",
    "status": "Pending",
    "rowid": "1216858",
    "final_x": "3681666.89615",
    "final_y": "551044.838741",
    "longitude": "-90.06686189413557",
    "latitude": "30.009177088963554",
    "geocoded_column": {
      "latitude": "30.009177088963554",
      "longitude": "-90.06686189413557"
    }
  },
  {
    "service_request": "2025-1216855",
    "request_type": "Road Striping",
    "request_reason": "Bike Lane",
    "date_created": "2025-08-09T14:03:20.000",
    "date_modified": "2025-08-09T14:03:25.000",
    "request_status": "Pending",
    "responsible_agency": "Department of Public Works",
    "final_address": "2100 BLK Filmore Ave",
    "address_councildis": "D",
    "status": "Pending",
    "rowid": "1216855",
    "final_x": "3683509.69462",
    "final_y": "552273.288614",
    "longitude": "-90.0609967805998",
    "latitude": "30.012498746382253",
    "geocoded_column": {
      "latitude": "30.012498746382253",
      "longitude": "-90.0609967805998"
    }
  },
  {
    "service_request": "2025-1216854",
    "request_type": "Abandoned Vehicles",
    "request_reason": "Abandoned/Junk Vehicles",
    "date_created": "2025-08-09T14:02:49.000",
    "date_modified": "2025-08-09T14:02:58.000",
    "request_status": "Pending",
    "responsible_agency": "Department of Public Works",
    "final_address": "2339 N Miro St",
    "address_councildis": "D",
    "status": "Pending",
    "rowid": "1216854",
    "final_x": "3685763.20521",
    "final_y": "540523.343627",
    "longitude": "-90.05429134054478",
    "latitude": "29.980121619914712",
    "geocoded_column": {
      "latitude": "29.980121619914712",
      "longitude": "-90.05429134054478"
    }
  },
  {
    "service_request": "2025-1216853",
    "request_type": "Road Striping",
    "request_reason": "Bike Lane",
    "date_created": "2025-08-09T14:01:52.000",
    "date_modified": "2025-08-09T14:01:53.000",
    "request_status": "Pending",
    "responsible_agency": "Department of Public Works",
    "final_address": "1800 BLK Filmore Ave",
    "address_councildis": "D",
    "status": "Pending",
    "rowid": "1216853",
    "final_x": "3680330.21706",
    "final_y": "551942.396231",
    "longitude": "-90.07105367706147",
    "latitude": "30.011685604040373",
    "geocoded_column": {
      "latitude": "30.011685604040373",
      "longitude": "-90.07105367706147"
    }
  },
  {
    "service_request": "2025-1216852",
    "request_type": "Road Striping",
    "request_reason": "Bike Lane",
    "date_created": "2025-08-09T13:59:52.000",
    "date_modified": "2025-08-09T13:59:53.000",
    "request_status": "Pending",
    "responsible_agency": "Department of Public Works",
    "final_address": "1900 BLK Filmore Ave",
    "address_councildis": "D",
    "status": "Pending",
    "rowid": "1216852",
    "final_x": "3681796.15802",
    "final_y": "552135.951618",
    "longitude": "-90.06641539784793",
    "latitude": "30.01217332560675",
    "geocoded_column": {
      "latitude": "30.01217332560675",
      "longitude": "-90.06641539784793"
    }
  },
  {
    "service_request": "2025-1216851",
    "request_type": "Road Striping",
    "request_reason": "Bike Lane",
    "date_created": "2025-08-09T13:58:53.000",
    "date_modified": "2025-08-09T13:58:54.000",
    "request_status": "Pending",
    "responsible_agency": "Department of Public Works",
    "final_address": "2200 BLK Filmore Ave",
    "address_councildis": "D",
    "status": "Pending",
    "rowid": "1216851",
    "final_x": "3684049.75063",
    "final_y": "552330.778",
    "longitude": "-90.05928848651617",
    "latitude": "30.01264032126326",
    "geocoded_column": {
      "latitude": "30.01264032126326",
      "longitude": "-90.05928848651617"
    }
  },
  {
    "service_request": "2025-1216850",
    "request_type": "Road Striping",
    "request_reason": "Bike Lane",
    "date_created": "2025-08-09T13:58:04.000",
    "date_modified": "2025-08-09T13:58:05.000",
    "request_status": "Pending",
    "responsible_agency": "Department of Public Works",
    "final_address": "2200 BLK Filmore Ave",
    "address_councildis": "D",
    "status": "Pending",
    "rowid": "1216850",
    "final_x": "3684049.75063",
    "final_y": "552330.778",
    "longitude": "-90.05928848651617",
    "latitude": "30.01264032126326",
    "geocoded_column": {
      "latitude": "30.01264032126326",
      "longitude": "-90.05928848651617"
    }
  },
  {
    "service_request": "2025-1216849",
    "request_type": "Road Striping",
    "request_reason": "Bike Lane",
    "date_created": "2025-08-09T13:57:10.000",
    "date_modified": "2025-08-09T13:57:12.000",
    "request_status": "Pending",
    "responsible_agency": "Department of Public Works",
    "final_address": "2100 BLK Filmore Ave",
    "address_councildis": "D",
    "status": "Pending",
    "rowid": "1216849",
    "final_x": "3683509.69462",
    "final_y": "552273.288614",
    "longitude": "-90.0609967805998",
    "latitude": "30.012498746382253",
    "geocoded_column": {
      "latitude": "30.012498746382253",
      "longitude": "-90.0609967805998"
    }
  },
  {
    "service_request": "2025-1216848",
    "request_type": "Road Striping",
    "request_reason": "Bike Lane",
    "date_created": "2025-08-09T13:55:48.000",
    "date_modified": "2025-08-09T13:55:49.000",
    "request_status": "Pending",
    "responsible_agency": "Department of Public Works",
    "final_address": "2000 BLK Filmore Ave",
    "address_councildis": "D",
    "status": "Pending",
    "rowid": "1216848",
    "final_x": "3682429.57244",
    "final_y": "552118.552047",
    "longitude": "-90.06441477735933",
    "latitude": "30.01210621092138",
    "geocoded_column": {
      "latitude": "30.01210621092138",
      "longitude": "-90.06441477735933"
    }
  },
  {
    "service_request": "2025-1216847",
    "request_type": "Trash/Recycling",
    "request_reason": "Replace Trash Cart",
    "date_created": "2025-08-09T13:53:30.000",
    "date_modified": "2025-08-09T13:53:32.000",
    "request_status": "Pending",
    "responsible_agency": "Department of Sanitation",
    "final_address": "2822 Cherry St",
    "address_councildis": "A",
    "status": "Assigned to Contractor",
    "contractor": "IV Waste",
    "rowid": "1216847",
    "final_x": "3662789.96992",
    "final_y": "535628.54407",
    "longitude": "-90.12701356753027",
    "latitude": "29.967347657729533",
    "geocoded_column": {
      "latitude": "29.967347657729533",
      "longitude": "-90.12701356753027"
    }
  },
  {
    "service_request": "2025-1216846",
    "request_type": "Trash/Recycling",
    "request_reason": "Order Recycling Cart",
    "date_created": "2025-08-09T13:21:13.000",
    "date_modified": "2025-08-09T13:21:14.000",
    "request_status": "Pending",
    "responsible_agency": "Department of Sanitation",
    "final_address": "210 Eliza St",
    "address_councildis": "C",
    "status": "Pending",
    "rowid": "1216846",
    "final_x": "529304.527873",
    "final_y": "529304.527873",
    "longitude": "-100.0055978251002",
    "latitude": "29.669032403292846",
    "geocoded_column": {
      "latitude": "29.669032403292846",
      "longitude": "-100.0055978251002"
    }
  },
  {
    "service_request": "2025-1216845",
    "request_type": "Trash/Recycling",
    "request_reason": "Order Recycling Cart",
    "date_created": "2025-08-09T13:21:12.000",
    "date_modified": "2025-08-09T13:21:14.000",
    "request_status": "Pending",
    "responsible_agency": "Department of Sanitation",
    "final_address": "210 Eliza St",
    "address_councildis": "C",
    "status": "Pending",
    "rowid": "1216845",
    "final_x": "529304.527873",
    "final_y": "529304.527873",
    "longitude": "-100.0055978251002",
    "latitude": "29.669032403292846",
    "geocoded_column": {
      "latitude": "29.669032403292846",
      "longitude": "-100.0055978251002"
    }
  },
  {
    "service_request": "2025-1216844",
    "request_type": "Mosquito, Termite & Rodent Control",
    "request_reason": "Mosquito Complaint",
    "date_created": "2025-08-09T13:17:00.000",
    "date_modified": "2025-08-09T13:17:02.000",
    "request_status": "Pending",
    "responsible_agency": "Mosquito, Termite & Rodent Control Board",
    "final_address": "7431 Fieldston Rd",
    "address_councildis": "E",
    "status": "Pending",
    "rowid": "1216844",
    "final_x": "3700746.96177",
    "final_y": "560141.722205",
    "longitude": "-90.00624903438703",
    "latitude": "30.033596373831262",
    "geocoded_column": {
      "latitude": "30.033596373831262",
      "longitude": "-90.00624903438703"
    }
  },
  {
    "service_request": "2025-1216843",
    "request_type": "Trash/Recycling",
    "request_reason": "Illegal Dumping",
    "date_created": "2025-08-09T13:16:35.000",
    "date_modified": "2025-08-09T13:16:38.000",
    "request_status": "Pending",
    "responsible_agency": "Department of Sanitation",
    "final_address": "8400 BLK Hammond St",
    "address_councildis": "E",
    "status": "Pending",
    "rowid": "1216843",
    "final_x": "3706871.16562",
    "final_y": "555860.704339",
    "longitude": "-89.98705497489303",
    "latitude": "30.02162879756152",
    "geocoded_column": {
      "latitude": "30.02162879756152",
      "longitude": "-89.98705497489303"
    }
  },
  {
    "service_request": "2025-1216842",
    "request_type": "Trash/Recycling",
    "request_reason": "Request a Large Item Pick Up",
    "date_created": "2025-08-09T13:08:30.000",
    "date_modified": "2025-08-09T13:08:32.000",
    "request_status": "Pending",
    "responsible_agency": "Department of Sanitation",
    "final_address": "6037 Boeing St",
    "address_councildis": "D",
    "status": "Assigned to Contractor",
    "contractor": "Waste Pro",
    "rowid": "1216842",
    "final_x": "3696675.48247",
    "final_y": "552973.771799",
    "longitude": "-90.01937504921429",
    "latitude": "30.014016265325555",
    "geocoded_column": {
      "latitude": "30.014016265325555",
      "longitude": "-90.01937504921429"
    }
  },
  {
    "service_request": "2025-1216841",
    "request_type": "General Services",
    "request_reason": "General Service Request",
    "date_created": "2025-08-09T13:03:22.000",
    "date_modified": "2025-08-09T13:03:24.000",
    "request_status": "Pending",
    "responsible_agency": "Orleans Parish Communication District",
    "final_address": "6035 Wales St",
    "address_councildis": "E",
    "status": "Pending",
    "rowid": "1216841",
    "final_x": "3695181.32246",
    "final_y": "559517.436957",
    "longitude": "-90.02385954239634",
    "latitude": "30.032055894442404",
    "geocoded_column": {
      "latitude": "30.032055894442404",
      "longitude": "-90.02385954239634"
    }
  },
  {
    "service_request": "2025-1216839",
    "request_type": "Parks & Parkways",
    "request_reason": "Request Tree Service (Right of Way/Public Property)",
    "date_created": "2025-08-09T12:52:18.000",
    "date_modified": "2025-08-09T12:52:20.000",
    "request_status": "Pending",
    "responsible_agency": "Department of Parks & Parkway",
    "final_address": "5554 Pasteur Blvd",
    "address_councildis": "D",
    "status": "Pending",
    "rowid": "1216839",
    "final_x": "3682736.46543",
    "final_y": "553668.685207",
    "longitude": "-90.06339089108526",
    "latitude": "30.016359164321166",
    "geocoded_column": {
      "latitude": "30.016359164321166",
      "longitude": "-90.06339089108526"
    }
  },
  {
    "service_request": "2025-1216838",
    "request_type": "General Services",
    "request_reason": "General Service Request",
    "date_created": "2025-08-09T12:51:02.000",
    "date_modified": "2025-08-09T12:51:03.000",
    "request_status": "Pending",
    "responsible_agency": "Orleans Parish Communication District",
    "final_address": "4736 Bienville St, New Orleans, Louisiana, 70119",
    "status": "Pending",
    "rowid": "1216838",
    "longitude": "0.0",
    "latitude": "0.0",
    "geocoded_column": {
      "latitude": "0.0",
      "longitude": "0.0"
    }
  },
  {
    "service_request": "2025-1216837",
    "request_type": "Abandoned Vehicles",
    "request_reason": "Abandoned/Junk Vehicles",
    "date_created": "2025-08-09T12:48:18.000",
    "date_modified": "2025-08-09T12:48:20.000",
    "request_status": "Pending",
    "responsible_agency": "Department of Public Works",
    "final_address": "5376 St Bernard Ave",
    "address_councildis": "D",
    "status": "Pending",
    "rowid": "1216837",
    "final_x": "3676778.00174",
    "final_y": "552009.600598",
    "longitude": "-90.08227430300303",
    "latitude": "30.01197751224517",
    "geocoded_column": {
      "latitude": "30.01197751224517",
      "longitude": "-90.08227430300303"
    }
  },
  {
    "service_request": "2025-1216836",
    "request_type": "Trash/Recycling",
    "request_reason": "Request a Large Item Pick Up",
    "date_created": "2025-08-09T12:28:30.000",
    "date_modified": "2025-08-09T12:28:32.000",
    "request_status": "Pending",
    "responsible_agency": "Department of Sanitation",
    "final_address": "7420 Hansbrough Ave",
    "address_councildis": "E",
    "status": "Assigned to Contractor",
    "contractor": "Waste Pro",
    "rowid": "1216836",
    "final_x": "3707890.05547",
    "final_y": "563930.089441",
    "longitude": "-89.9835352286386",
    "latitude": "30.043783471249288",
    "geocoded_column": {
      "latitude": "30.043783471249288",
      "longitude": "-89.9835352286386"
    }
  },
  {
    "service_request": "2025-1216835",
    "request_type": "Roads and Streets",
    "request_reason": "Sidewalk Damaged or Missing",
    "date_created": "2025-08-09T11:48:17.000",
    "date_modified": "2025-08-09T11:48:18.000",
    "request_status": "Pending",
    "responsible_agency": "Department of Public Works",
    "final_address": "2514 State St",
    "address_councildis": "A",
    "status": "Pending",
    "rowid": "1216835",
    "final_x": "3666794.22292",
    "final_y": "525917.112957",
    "longitude": "-90.11469420318856",
    "latitude": "29.940527869645752",
    "geocoded_column": {
      "latitude": "29.940527869645752",
      "longitude": "-90.11469420318856"
    }
  },
  {
    "service_request": "2025-1216834",
    "request_type": "Roads and Streets",
    "request_reason": "Street Subsidence (Sinking)",
    "date_created": "2025-08-09T11:48:06.000",
    "date_modified": "2025-08-09T11:48:09.000",
    "request_status": "Pending",
    "responsible_agency": "Sewerage & Water Board",
    "final_address": "809 Wilson Dr",
    "address_councildis": "A",
    "status": "Pending",
    "rowid": "1216834",
    "final_x": "3673999.82664",
    "final_y": "539361.996106",
    "longitude": "-90.09148483486291",
    "latitude": "29.977284120234728",
    "geocoded_column": {
      "latitude": "29.977284120234728",
      "longitude": "-90.09148483486291"
    }
  },
  {
    "service_request": "2025-1216833",
    "request_type": "Streetlights",
    "request_reason": "Streetlight Outage/Malfunction",
    "date_created": "2025-08-09T11:46:51.000",
    "date_modified": "2025-08-09T11:46:53.000",
    "request_status": "Pending",
    "responsible_agency": "Department of Public Works",
    "final_address": "2480 N Claiborne Ave",
    "address_councildis": "C",
    "status": "Pending",
    "contractor": "Legacy Professional Services",
    "rowid": "1216833",
    "final_x": "3687029.70121",
    "final_y": "538286.220873",
    "longitude": "-90.05037033793906",
    "latitude": "29.973931386966882",
    "geocoded_column": {
      "latitude": "29.973931386966882",
      "longitude": "-90.05037033793906"
    }
  },
  {
    "service_request": "2025-1216832",
    "request_type": "Property Maintenance",
    "request_reason": "Property Maintenance",
    "date_created": "2025-08-09T11:46:15.000",
    "date_modified": "2025-08-09T11:46:24.000",
    "request_status": "Pending",
    "responsible_agency": "Department of Code Enforcement",
    "final_address": "3501 Sullen Pl",
    "address_councildis": "C",
    "status": "Pending",
    "rowid": "1216832",
    "final_x": "3707597.77073",
    "final_y": "518012.61887",
    "longitude": "-89.98616513412298",
    "latitude": "29.91753697768686",
    "geocoded_column": {
      "latitude": "29.91753697768686",
      "longitude": "-89.98616513412298"
    }
  },
  {
    "service_request": "2025-1216831",
    "request_type": "Trash/Recycling",
    "request_reason": "Return Recycling Cart",
    "date_created": "2025-08-09T11:28:49.000",
    "date_modified": "2025-08-09T11:28:50.000",
    "request_status": "Pending",
    "responsible_agency": "Department of Sanitation",
    "final_address": "7334 Cameo St",
    "address_councildis": "D",
    "status": "Pending",
    "rowid": "1216831",
    "final_x": "3667718.67847",
    "final_y": "555553.056793",
    "longitude": "-90.11077723284939",
    "latitude": "30.021989627782137",
    "geocoded_column": {
      "latitude": "30.021989627782137",
      "longitude": "-90.11077723284939"
    }
  },
  {
    "service_request": "2025-1216830",
    "request_type": "Trash/Recycling",
    "request_reason": "Replace Trash Cart",
    "date_created": "2025-08-09T11:12:30.000",
    "date_modified": "2025-08-09T11:12:31.000",
    "request_status": "Pending",
    "responsible_agency": "Department of Sanitation",
    "final_address": "3502 S Tonti St",
    "address_councildis": "B",
    "status": "Assigned to Contractor",
    "contractor": "IV Waste",
    "rowid": "1216830",
    "final_x": "3671184.07508",
    "final_y": "528260.998272",
    "longitude": "-90.10075507424078",
    "latitude": "29.946843684635024",
    "geocoded_column": {
      "latitude": "29.946843684635024",
      "longitude": "-90.10075507424078"
    }
  },
  {
    "service_request": "2025-1216829",
    "request_type": "Streetlights",
    "request_reason": "New Streetlight Request",
    "date_created": "2025-08-09T11:11:19.000",
    "date_modified": "2025-08-09T11:11:21.000",
    "request_status": "Pending",
    "responsible_agency": "Department of Public Works",
    "final_address": "3539 Carondelet St",
    "address_councildis": "B",
    "status": "Pending",
    "contractor": "Legacy Professional Services",
    "rowid": "1216829",
    "final_x": "3673399.29748",
    "final_y": "521705.211513",
    "longitude": "-90.09398467573308",
    "latitude": "29.928751698390034",
    "geocoded_column": {
      "latitude": "29.928751698390034",
      "longitude": "-90.09398467573308"
    }
  },
  {
    "service_request": "2025-1216828",
    "request_type": "Roads and Streets",
    "request_reason": "Debris in Driving Lanes",
    "date_created": "2025-08-09T10:53:04.000",
    "date_modified": "2025-08-09T10:53:07.000",
    "request_status": "Pending",
    "responsible_agency": "Department of Public Works",
    "final_address": "939 Eleonore St",
    "address_councildis": "A",
    "status": "Pending",
    "rowid": "1216828",
    "final_x": "3665403.76704",
    "final_y": "519659.940792",
    "longitude": "-90.11929342941939",
    "latitude": "29.92336321922646",
    "geocoded_column": {
      "latitude": "29.92336321922646",
      "longitude": "-90.11929342941939"
    }
  },
  {
    "service_request": "2025-1216827",
    "request_type": "Abandoned Vehicles",
    "request_reason": "Abandoned/Junk Vehicles",
    "date_created": "2025-08-09T10:46:18.000",
    "date_modified": "2025-08-09T10:46:20.000",
    "request_status": "Pending",
    "responsible_agency": "Department of Public Works",
    "final_address": "2208 Toledano St",
    "address_councildis": "B",
    "status": "Pending",
    "rowid": "1216827",
    "final_x": "3673615.95342",
    "final_y": "523741.922555",
    "longitude": "-90.09323115246667",
    "latitude": "29.934345549375024",
    "geocoded_column": {
      "latitude": "29.934345549375024",
      "longitude": "-90.09323115246667"
    }
  },
  {
    "service_request": "2025-1216826",
    "request_type": "Healthy Homes",
    "request_reason": "Healthy Homes",
    "date_created": "2025-08-09T10:44:49.000",
    "date_modified": "2025-08-09T10:44:51.000",
    "request_status": "Pending",
    "responsible_agency": "Department of Code Enforcement",
    "final_address": "0 BLK Audubon Blvd",
    "address_councildis": "A",
    "status": "Pending",
    "rowid": "1216826",
    "final_x": "3665405.01594",
    "final_y": "526946.754949",
    "longitude": "-90.11904572932777",
    "latitude": "29.94339960723005",
    "geocoded_column": {
      "latitude": "29.94339960723005",
      "longitude": "-90.11904572932777"
    }
  },
  {
    "service_request": "2025-1216825",
    "request_type": "Property Maintenance",
    "request_reason": "Property Maintenance",
    "date_created": "2025-08-09T10:27:52.000",
    "date_modified": "2025-08-09T10:27:54.000",
    "request_status": "Pending",
    "responsible_agency": "Department of Code Enforcement",
    "final_address": "0 BLK Architect St",
    "address_councildis": "C",
    "status": "Pending",
    "rowid": "1216825",
    "final_x": "3687142.46885",
    "final_y": "534686.498656",
    "longitude": "-90.05014150821198",
    "latitude": "29.964029935213947",
    "geocoded_column": {
      "latitude": "29.964029935213947",
      "longitude": "-90.05014150821198"
    }
  },
  {
    "service_request": "2025-1216824",
    "request_type": "Trash/Recycling",
    "request_reason": "Request a Large Item Pick Up",
    "date_created": "2025-08-09T10:15:04.000",
    "date_modified": "2025-08-09T10:15:06.000",
    "request_status": "Pending",
    "responsible_agency": "Department of Sanitation",
    "final_address": "4829 Dreux Ave",
    "address_councildis": "D",
    "status": "Assigned to Contractor",
    "contractor": "IV Waste",
    "rowid": "1216824",
    "final_x": "3691313.13014",
    "final_y": "553273.996823",
    "longitude": "-90.03630656181487",
    "latitude": "30.0150097608185",
    "geocoded_column": {
      "latitude": "30.0150097608185",
      "longitude": "-90.03630656181487"
    }
  },
  {
    "service_request": "2025-1216823",
    "request_type": "Trash/Recycling",
    "request_reason": "Return Recycling Cart",
    "date_created": "2025-08-09T09:59:36.000",
    "date_modified": "2025-08-09T09:59:38.000",
    "request_status": "Pending",
    "responsible_agency": "Department of Sanitation",
    "final_address": "32 Olympic Ct",
    "address_councildis": "C",
    "status": "Pending",
    "rowid": "1216823",
    "final_x": "3699734.25834",
    "final_y": "515853.775156",
    "longitude": "-90.01106431060758",
    "latitude": "29.91185276043689",
    "geocoded_column": {
      "latitude": "29.91185276043689",
      "longitude": "-90.01106431060758"
    }
  },
  {
    "service_request": "2025-1216822",
    "request_type": "Trash/Recycling",
    "request_reason": "Replace Trash Cart",
    "date_created": "2025-08-09T09:46:00.000",
    "date_modified": "2025-08-09T09:46:03.000",
    "request_status": "Pending",
    "responsible_agency": "Department of Sanitation",
    "final_address": "1672 Robert St",
    "address_councildis": "B",
    "status": "Assigned to Contractor",
    "contractor": "IV Waste",
    "rowid": "1216822",
    "final_x": "3668648.4441",
    "final_y": "521529.862905",
    "longitude": "-90.1089881027376",
    "latitude": "29.928409984211733",
    "geocoded_column": {
      "latitude": "29.928409984211733",
      "longitude": "-90.1089881027376"
    }
  },
  {
    "service_request": "2025-1216820",
    "request_type": "Roads and Streets",
    "request_reason": "Curb Damage",
    "date_created": "2025-08-09T09:27:42.000",
    "date_modified": "2025-08-09T09:27:44.000",
    "request_status": "Pending",
    "responsible_agency": "Department of Public Works",
    "final_address": "4912 Louisa Dr",
    "address_councildis": "D",
    "status": "Pending",
    "rowid": "1216820",
    "final_x": "3690701.87683",
    "final_y": "551630.305877",
    "longitude": "-90.0382965193388",
    "latitude": "30.010509229906745",
    "geocoded_column": {
      "latitude": "30.010509229906745",
      "longitude": "-90.0382965193388"
    }
  },
  {
    "service_request": "2025-1216819",
    "request_type": "Trash/Recycling",
    "request_reason": "Order Trash Cart",
    "date_created": "2025-08-09T09:09:21.000",
    "date_modified": "2025-08-09T09:09:23.000",
    "request_status": "Pending",
    "responsible_agency": "Department of Sanitation",
    "final_address": "125 N Roadway St",
    "address_councildis": "A",
    "status": "Assigned to Contractor",
    "contractor": "IV Waste",
    "rowid": "1216819",
    "final_x": "3666284.93876",
    "final_y": "556875.82473",
    "longitude": "-90.11526307168947",
    "latitude": "30.025668754510033",
    "geocoded_column": {
      "latitude": "30.025668754510033",
      "longitude": "-90.11526307168947"
    }
  },
  {
    "service_request": "2025-1216818",
    "request_type": "Trash/Recycling",
    "request_reason": "Request a Large Item Pick Up",
    "date_created": "2025-08-09T08:55:43.000",
    "date_modified": "2025-08-09T08:55:45.000",
    "request_status": "Pending",
    "responsible_agency": "Department of Sanitation",
    "final_address": "2831 St Ann St",
    "address_councildis": "A",
    "status": "Assigned to Contractor",
    "contractor": "IV Waste",
    "rowid": "1216818",
    "final_x": "3676292.35182",
    "final_y": "537746.50708",
    "longitude": "-90.08429989613974",
    "latitude": "29.972773561097814",
    "geocoded_column": {
      "latitude": "29.972773561097814",
      "longitude": "-90.08429989613974"
    }
  },
  {
    "service_request": "2025-1216817",
    "request_type": "Trash/Recycling",
    "request_reason": "Request a Large Item Pick Up",
    "date_created": "2025-08-09T08:44:16.000",
    "date_modified": "2025-08-09T08:44:18.000",
    "request_status": "Pending",
    "responsible_agency": "Department of Sanitation",
    "final_address": "7810 St Charles Ave",
    "address_councildis": "A",
    "status": "Assigned to Contractor",
    "contractor": "IV Waste",
    "rowid": "1216817",
    "final_x": "3661285.4425",
    "final_y": "526091.573758",
    "longitude": "-90.13208065731001",
    "latitude": "29.941167528931338",
    "geocoded_column": {
      "latitude": "29.941167528931338",
      "longitude": "-90.13208065731001"
    }
  },
  {
    "service_request": "2025-1216816",
    "request_type": "Abandoned Vehicles",
    "request_reason": "Abandoned/Junk Vehicles",
    "date_created": "2025-08-09T08:35:55.000",
    "date_modified": "2025-08-09T08:35:57.000",
    "request_status": "Pending",
    "responsible_agency": "Department of Public Works",
    "final_address": "1824 Lamanche St",
    "address_councildis": "E",
    "status": "Pending",
    "rowid": "1216816",
    "final_x": "3699074.49808",
    "final_y": "536495.782919",
    "longitude": "-90.01239559967273",
    "latitude": "29.96863200660468",
    "geocoded_column": {
      "latitude": "29.96863200660468",
      "longitude": "-90.01239559967273"
    }
  },
  {
    "service_request": "2025-1216815",
    "request_type": "Property Maintenance",
    "request_reason": "Property Maintenance",
    "date_created": "2025-08-09T08:31:40.000",
    "date_modified": "2025-08-09T08:31:48.000",
    "request_status": "Pending",
    "responsible_agency": "Department of Code Enforcement",
    "final_address": "1824 Lamanche St",
    "address_councildis": "E",
    "status": "Pending",
    "rowid": "1216815",
    "final_x": "3699074.49808",
    "final_y": "536495.782919",
    "longitude": "-90.01239559967273",
    "latitude": "29.96863200660468",
    "geocoded_column": {
      "latitude": "29.96863200660468",
      "longitude": "-90.01239559967273"
    }
  },
  {
    "service_request": "2025-1216813",
    "request_type": "Trash/Recycling",
    "request_reason": "MIssed Recycling Pick-Up",
    "date_created": "2025-08-09T07:16:34.000",
    "date_modified": "2025-08-09T08:52:52.000",
    "case_close_date": "2025-08-09T03:52:51.000",
    "request_status": "Closed",
    "responsible_agency": "Department of Sanitation",
    "final_address": "1529 Melpomene St",
    "address_councildis": "B",
    "status": "Invalid Request",
    "contractor": "IV Waste",
    "contractor_action": "Invalid",
    "rowid": "1216813",
    "final_x": "3679457.15035",
    "final_y": "525426.201917",
    "longitude": "-90.0747322607594",
    "latitude": "29.93880164249063",
    "geocoded_column": {
      "latitude": "29.93880164249063",
      "longitude": "-90.0747322607594"
    }
  },
  {
    "service_request": "2025-1216812",
    "request_type": "Streetlights",
    "request_reason": "Streetlight Outage/Malfunction",
    "date_created": "2025-08-08T21:39:53.000",
    "date_modified": "2025-08-08T21:39:54.000",
    "request_status": "Pending",
    "responsible_agency": "Department of Public Works",
    "final_address": "5837 W Louis Prima Dr",
    "address_councildis": "E",
    "status": "Pending",
    "contractor": "Legacy Professional Services",
    "rowid": "1216812",
    "final_x": "3715479.65746",
    "final_y": "562791.917856",
    "longitude": "-89.95959217883836",
    "latitude": "30.0404059456709",
    "geocoded_column": {
      "latitude": "30.0404059456709",
      "longitude": "-89.95959217883836"
    }
  },
  {
    "service_request": "2025-1216811",
    "request_type": "Trash/Recycling",
    "request_reason": "MIssed Recycling Pick-Up",
    "date_created": "2025-08-08T21:38:26.000",
    "date_modified": "2025-08-08T21:38:28.000",
    "request_status": "Pending",
    "responsible_agency": "Department of Sanitation",
    "final_address": "2821 Chelsea Dr",
    "address_councildis": "C",
    "status": "Assigned to Contractor",
    "contractor": "Richards Disposal",
    "rowid": "1216811",
    "final_x": "3704143.92676",
    "final_y": "520530.051512",
    "longitude": "-89.99697422512928",
    "latitude": "29.924570250638816",
    "geocoded_column": {
      "latitude": "29.924570250638816",
      "longitude": "-89.99697422512928"
    }
  },
  {
    "service_request": "2025-1216810",
    "request_type": "Streetlights",
    "request_reason": "Streetlight Outage/Malfunction",
    "date_created": "2025-08-08T20:53:32.000",
    "date_modified": "2025-08-08T20:53:34.000",
    "request_status": "Pending",
    "responsible_agency": "Department of Public Works",
    "final_address": "315 16Th St",
    "address_councildis": "A",
    "status": "Pending",
    "contractor": "Legacy Professional Services",
    "rowid": "1216810",
    "final_x": "3665032.23764",
    "final_y": "548489.823826",
    "longitude": "-90.11950216086548",
    "latitude": "30.00264673966763",
    "geocoded_column": {
      "latitude": "30.00264673966763",
      "longitude": "-90.11950216086548"
    }
  },
  {
    "service_request": "2025-1216809",
    "request_type": "Trash/Recycling",
    "request_reason": "Replace Trash Cart",
    "date_created": "2025-08-08T20:05:09.000",
    "date_modified": "2025-08-08T20:05:10.000",
    "request_status": "Pending",
    "responsible_agency": "Department of Sanitation",
    "final_address": "1702 Delachaise St",
    "address_councildis": "B",
    "status": "Assigned to Contractor",
    "contractor": "IV Waste",
    "rowid": "1216809",
    "final_x": "3673610.74811",
    "final_y": "521804.698746",
    "longitude": "-90.09331376980676",
    "latitude": "29.929018965806783",
    "geocoded_column": {
      "latitude": "29.929018965806783",
      "longitude": "-90.09331376980676"
    }
  },
  {
    "service_request": "2025-1216808",
    "request_type": "Abandoned Vehicles",
    "request_reason": "Abandoned/Junk Vehicles",
    "date_created": "2025-08-08T19:46:08.000",
    "date_modified": "2025-08-08T19:46:09.000",
    "request_status": "Pending",
    "responsible_agency": "Department of Public Works",
    "final_address": "1426 N Derbigny St",
    "address_councildis": "D",
    "status": "Pending",
    "rowid": "1216808",
    "final_x": "3681157.33474",
    "final_y": "536988.770568",
    "longitude": "-90.06896178709297",
    "latitude": "29.970543332805725",
    "geocoded_column": {
      "latitude": "29.970543332805725",
      "longitude": "-90.06896178709297"
    }
  },
  {
    "service_request": "2025-1216807",
    "request_type": "Trash/Recycling",
    "request_reason": "Repair Trash Cart",
    "date_created": "2025-08-08T19:37:50.000",
    "date_modified": "2025-08-08T19:37:52.000",
    "request_status": "Pending",
    "responsible_agency": "Department of Sanitation",
    "final_address": "321 S Alexander St",
    "address_councildis": "A",
    "status": "Assigned to Contractor",
    "contractor": "IV Waste",
    "rowid": "1216807",
    "final_x": "3669378.10593",
    "final_y": "538424.371401",
    "longitude": "-90.10611351100955",
    "latitude": "29.974842888365515",
    "geocoded_column": {
      "latitude": "29.974842888365515",
      "longitude": "-90.10611351100955"
    }
  },
  {
    "service_request": "2025-1216806",
    "request_type": "Roads and Streets",
    "request_reason": "Pothole",
    "date_created": "2025-08-08T18:45:19.000",
    "date_modified": "2025-08-08T18:45:21.000",
    "request_status": "Pending",
    "responsible_agency": "Department of Public Works",
    "final_address": "5225 Conti St",
    "address_councildis": "A",
    "status": "Pending",
    "rowid": "1216806",
    "final_x": "3668468.30094",
    "final_y": "541857.402188",
    "longitude": "-90.10887105040258",
    "latitude": "29.984309325121014",
    "geocoded_column": {
      "latitude": "29.984309325121014",
      "longitude": "-90.10887105040258"
    }
  },
  {
    "service_request": "2025-1216805",
    "request_type": "General Services",
    "request_reason": "General Service Request",
    "date_created": "2025-08-08T18:30:59.000",
    "date_modified": "2025-08-08T18:31:01.000",
    "request_status": "Pending",
    "responsible_agency": "Orleans Parish Communication District",
    "final_address": "1926 Valence St",
    "address_councildis": "B",
    "status": "Pending",
    "rowid": "1216805",
    "final_x": "3669554.73466",
    "final_y": "522063.338554",
    "longitude": "-90.10610909495655",
    "latitude": "29.929850213337907",
    "geocoded_column": {
      "latitude": "29.929850213337907",
      "longitude": "-90.10610909495655"
    }
  },
  {
    "service_request": "2025-1216804",
    "request_type": "Property Maintenance",
    "request_reason": "Property Maintenance",
    "date_created": "2025-08-08T18:29:45.000",
    "date_modified": "2025-08-08T18:29:46.000",
    "request_status": "Pending",
    "responsible_agency": "Department of Code Enforcement",
    "final_address": "1486 N Prieur St",
    "address_councildis": "D",
    "status": "Pending",
    "rowid": "1216804",
    "final_x": "3680882.43579",
    "final_y": "537783.322248",
    "longitude": "-90.06980227927146",
    "latitude": "29.97273641374235",
    "geocoded_column": {
      "latitude": "29.97273641374235",
      "longitude": "-90.06980227927146"
    }
  },
  {
    "service_request": "2025-1216803",
    "request_type": "General Services",
    "request_reason": "General Service Request",
    "date_created": "2025-08-08T18:27:34.000",
    "date_modified": "2025-08-08T18:27:40.000",
    "request_status": "Pending",
    "responsible_agency": "Orleans Parish Communication District",
    "final_address": "1926 Valence St",
    "address_councildis": "B",
    "status": "Pending",
    "rowid": "1216803",
    "final_x": "3669554.73466",
    "final_y": "522063.338554",
    "longitude": "-90.10610909495655",
    "latitude": "29.929850213337907",
    "geocoded_column": {
      "latitude": "29.929850213337907",
      "longitude": "-90.10610909495655"
    }
  },
  {
    "service_request": "2025-1216802",
    "request_type": "Street and Traffic Signs",
    "request_reason": "Traffic or Parking Sign Damaged or Missing",
    "date_created": "2025-08-08T18:25:53.000",
    "date_modified": "2025-08-08T18:25:55.000",
    "request_status": "Pending",
    "responsible_agency": "Department of Public Works",
    "final_address": "1000 BLK Bourbon St",
    "address_councildis": "C",
    "status": "Pending",
    "rowid": "1216802",
    "final_x": "3683043.94391",
    "final_y": "533704.036054",
    "longitude": "-90.06311865877531",
    "latitude": "29.96145406792814",
    "geocoded_column": {
      "latitude": "29.96145406792814",
      "longitude": "-90.06311865877531"
    }
  },
  {
    "service_request": "2025-1216801",
    "request_type": "Trash/Recycling",
    "request_reason": "Order Recycling Cart",
    "date_created": "2025-08-08T17:54:03.000",
    "date_modified": "2025-08-08T17:54:05.000",
    "request_status": "Pending",
    "responsible_agency": "Department of Sanitation",
    "final_address": "1416 Josephine St",
    "address_councildis": "B",
    "status": "Pending",
    "rowid": "1216801",
    "final_x": "3678417.38619",
    "final_y": "523210.975035",
    "longitude": "-90.07809152781734",
    "latitude": "29.932741860282125",
    "geocoded_column": {
      "latitude": "29.932741860282125",
      "longitude": "-90.07809152781734"
    }
  },
  {
    "service_request": "2025-1216800",
    "request_type": "Trash/Recycling",
    "request_reason": "Request a Large Item Pick Up",
    "date_created": "2025-08-08T17:44:49.000",
    "date_modified": "2025-08-08T17:44:51.000",
    "request_status": "Pending",
    "responsible_agency": "Department of Sanitation",
    "final_address": "7512 Malvern Dr",
    "address_councildis": "E",
    "status": "Assigned to Contractor",
    "contractor": "Waste Pro",
    "rowid": "1216800",
    "final_x": "3702462.46519",
    "final_y": "561303.790878",
    "longitude": "-90.00078518267915",
    "latitude": "30.0367368665246",
    "geocoded_column": {
      "latitude": "30.0367368665246",
      "longitude": "-90.00078518267915"
    }
  },
  {
    "service_request": "2025-1216799",
    "request_type": "Trash/Recycling",
    "request_reason": "Repair Recycling Cart",
    "date_created": "2025-08-08T17:36:23.000",
    "date_modified": "2025-08-08T17:36:25.000",
    "request_status": "Pending",
    "responsible_agency": "Department of Sanitation",
    "final_address": "222 S Alexander St",
    "address_councildis": "A",
    "status": "Pending",
    "rowid": "1216799",
    "final_x": "3669617.04698",
    "final_y": "538614.473993",
    "longitude": "-90.10535243843131",
    "latitude": "29.97535856759644",
    "geocoded_column": {
      "latitude": "29.97535856759644",
      "longitude": "-90.10535243843131"
    }
  },
  {
    "service_request": "2025-1216798",
    "request_type": "Abandoned Vehicles",
    "request_reason": "Abandoned/Junk Vehicles",
    "date_created": "2025-08-08T17:28:15.000",
    "date_modified": "2025-08-08T17:28:17.000",
    "request_status": "Pending",
    "responsible_agency": "Department of Public Works",
    "final_address": "8501 Hickory St",
    "address_councildis": "A",
    "status": "Pending",
    "rowid": "1216798",
    "final_x": "3662317.9728",
    "final_y": "530942.223106",
    "longitude": "-90.12865974273205",
    "latitude": "29.954475455423783",
    "geocoded_column": {
      "latitude": "29.954475455423783",
      "longitude": "-90.12865974273205"
    }
  },
  {
    "service_request": "2025-1216797",
    "request_type": "Mosquito, Termite & Rodent Control",
    "request_reason": "Mosquito Complaint",
    "date_created": "2025-08-08T17:12:49.000",
    "date_modified": "2025-08-08T17:12:51.000",
    "request_status": "Pending",
    "responsible_agency": "Mosquito, Termite & Rodent Control Board",
    "final_address": "9117 Stroelitz St",
    "address_councildis": "A",
    "status": "Pending",
    "rowid": "1216797",
    "final_x": "3665253.88167",
    "final_y": "537487.436168",
    "longitude": "-90.11917026062896",
    "latitude": "29.972387439870054",
    "geocoded_column": {
      "latitude": "29.972387439870054",
      "longitude": "-90.11917026062896"
    }
  },
  {
    "service_request": "2025-1216796",
    "request_type": "Street and Traffic Signs",
    "request_reason": "One Way Sign Missing or Damaged",
    "date_created": "2025-08-08T17:07:11.000",
    "date_modified": "2025-08-08T17:07:13.000",
    "request_status": "Pending",
    "responsible_agency": "Department of Public Works",
    "final_address": "3940 Thalia St",
    "address_councildis": "B",
    "status": "Pending",
    "rowid": "1216796",
    "final_x": "3672204.48315",
    "final_y": "530220.386049",
    "longitude": "-90.09746653987898",
    "latitude": "29.952201134954695",
    "geocoded_column": {
      "latitude": "29.952201134954695",
      "longitude": "-90.09746653987898"
    }
  },
  {
    "service_request": "2025-1216795",
    "request_type": "Trash/Recycling",
    "request_reason": "Repair Trash Cart",
    "date_created": "2025-08-08T16:57:54.000",
    "date_modified": "2025-08-08T16:57:56.000",
    "request_status": "Pending",
    "responsible_agency": "Department of Sanitation",
    "final_address": "3552 Mimosa Ct",
    "address_councildis": "C",
    "status": "Assigned to Contractor",
    "contractor": "Richards Disposal",
    "rowid": "1216795",
    "final_x": "3703399.66846",
    "final_y": "513083.710961",
    "longitude": "-89.99959717883951",
    "latitude": "29.904119213415232",
    "geocoded_column": {
      "latitude": "29.904119213415232",
      "longitude": "-89.99959717883951"
    }
  },
  {
    "service_request": "2025-1216794",
    "request_type": "Property Maintenance",
    "request_reason": "Property Maintenance",
    "date_created": "2025-08-08T16:53:35.000",
    "date_modified": "2025-08-08T16:53:37.000",
    "request_status": "Pending",
    "responsible_agency": "Department of Code Enforcement",
    "final_address": "917 Flood St",
    "address_councildis": "E",
    "status": "Pending",
    "rowid": "1216794",
    "final_x": "3697589.676",
    "final_y": "533175.111492",
    "longitude": "-90.01720517707827",
    "latitude": "29.95954832564889",
    "geocoded_column": {
      "latitude": "29.95954832564889",
      "longitude": "-90.01720517707827"
    }
  },
  {
    "service_request": "2025-1216793",
    "request_type": "Roads and Streets",
    "request_reason": "Pothole",
    "date_created": "2025-08-08T16:53:20.000",
    "date_modified": "2025-08-08T16:53:22.000",
    "request_status": "Pending",
    "responsible_agency": "Department of Public Works",
    "final_address": "1930 St Claude Ave",
    "address_councildis": "C",
    "status": "Pending",
    "rowid": "1216793",
    "final_x": "3684141.82479",
    "final_y": "536139.367431",
    "longitude": "-90.05956625515046",
    "latitude": "29.968116878910255",
    "geocoded_column": {
      "latitude": "29.968116878910255",
      "longitude": "-90.05956625515046"
    }
  },
  {
    "service_request": "2025-1216792",
    "request_type": "Mosquito, Termite & Rodent Control",
    "request_reason": "Mosquito Complaint",
    "date_created": "2025-08-08T16:52:26.000",
    "date_modified": "2025-08-08T16:52:27.000",
    "request_status": "Pending",
    "responsible_agency": "Mosquito, Termite & Rodent Control Board",
    "final_address": "3633 Inwood Ave",
    "address_councildis": "C",
    "status": "Pending",
    "rowid": "1216792",
    "final_x": "3703971.14986",
    "final_y": "514985.236851",
    "longitude": "-89.99772363755838",
    "latitude": "29.90932945874536",
    "geocoded_column": {
      "latitude": "29.90932945874536",
      "longitude": "-89.99772363755838"
    }
  },
  {
    "service_request": "2025-1216791",
    "request_type": "Trash/Recycling",
    "request_reason": "Request a Large Item Pick Up",
    "date_created": "2025-08-08T16:51:54.000",
    "date_modified": "2025-08-08T16:51:55.000",
    "request_status": "Pending",
    "responsible_agency": "Department of Sanitation",
    "final_address": "6227 Brunswick Ct",
    "address_councildis": "C",
    "status": "Assigned to Contractor",
    "contractor": "Richards Disposal",
    "rowid": "1216791",
    "final_x": "3707128.55166",
    "final_y": "517001.454133",
    "longitude": "-89.98768366497589",
    "latitude": "29.914771785851332",
    "geocoded_column": {
      "latitude": "29.914771785851332",
      "longitude": "-89.98768366497589"
    }
  },
  {
    "service_request": "2025-1216789",
    "request_type": "Trash/Recycling",
    "request_reason": "Missed Trash Pick-Up",
    "date_created": "2025-08-08T16:51:11.000",
    "date_modified": "2025-08-08T16:51:12.000",
    "request_status": "Pending",
    "responsible_agency": "Department of Sanitation",
    "final_address": "6227 Brunswick Ct",
    "address_councildis": "C",
    "status": "Assigned to Contractor",
    "contractor": "Richards Disposal",
    "rowid": "1216789",
    "final_x": "3707128.55166",
    "final_y": "517001.454133",
    "longitude": "-89.98768366497589",
    "latitude": "29.914771785851332",
    "geocoded_column": {
      "latitude": "29.914771785851332",
      "longitude": "-89.98768366497589"
    }
  },
  {
    "service_request": "2025-1216788",
    "request_type": "Trash/Recycling",
    "request_reason": "Request a Large Item Pick Up",
    "date_created": "2025-08-08T16:49:36.000",
    "date_modified": "2025-08-08T16:49:38.000",
    "request_status": "Pending",
    "responsible_agency": "Department of Sanitation",
    "final_address": "7801 Birch St",
    "address_councildis": "A",
    "status": "Assigned to Contractor",
    "contractor": "IV Waste",
    "rowid": "1216788",
    "final_x": "3663741.88359",
    "final_y": "528704.101312",
    "longitude": "-90.12423814304063",
    "latitude": "29.948280103417872",
    "geocoded_column": {
      "latitude": "29.948280103417872",
      "longitude": "-90.12423814304063"
    }
  },
  {
    "service_request": "2025-1216787",
    "request_type": "Mosquito, Termite & Rodent Control",
    "request_reason": "Mosquito Complaint",
    "date_created": "2025-08-08T16:42:02.000",
    "date_modified": "2025-08-08T16:47:26.000",
    "request_status": "Pending",
    "responsible_agency": "Mosquito, Termite & Rodent Control Board",
    "final_address": "2540 Florida Ave",
    "address_councildis": "D",
    "status": "Pending",
    "rowid": "1216787",
    "final_x": "3686325.95753",
    "final_y": "542293.247885",
    "longitude": "-90.05245144755325",
    "latitude": "29.98497094588438",
    "geocoded_column": {
      "latitude": "29.98497094588438",
      "longitude": "-90.05245144755325"
    }
  },
  {
    "service_request": "2025-1216786",
    "request_type": "Trash/Recycling",
    "request_reason": "Order Recycling Cart",
    "date_created": "2025-08-08T16:38:31.000",
    "date_modified": "2025-08-08T16:38:32.000",
    "request_status": "Pending",
    "responsible_agency": "Department of Sanitation",
    "final_address": "321 Cherokee St",
    "address_councildis": "A",
    "status": "Pending",
    "rowid": "1216786",
    "final_x": "3661565.51046",
    "final_y": "524722.450172",
    "longitude": "-90.13124177376598",
    "latitude": "29.93739479635542",
    "geocoded_column": {
      "latitude": "29.93739479635542",
      "longitude": "-90.13124177376598"
    }
  },
  {
    "service_request": "2025-1216785",
    "request_type": "Health Related Request",
    "request_reason": "Smoke-Free Ordinance Complaint",
    "date_created": "2025-08-08T16:36:42.000",
    "date_modified": "2025-08-08T16:36:44.000",
    "request_status": "Pending",
    "responsible_agency": "Health Department",
    "final_address": "857 Olga St",
    "address_councildis": "A",
    "status": "Pending",
    "rowid": "1216785",
    "final_x": "3673315.04244",
    "final_y": "540218.941835",
    "longitude": "-90.09361833026179",
    "latitude": "29.979660817593306",
    "geocoded_column": {
      "latitude": "29.979660817593306",
      "longitude": "-90.09361833026179"
    }
  },
  {
    "service_request": "2025-1216784",
    "request_type": "Trash/Recycling",
    "request_reason": "Repair Trash Cart",
    "date_created": "2025-08-08T16:33:31.000",
    "date_modified": "2025-08-08T16:33:33.000",
    "request_status": "Pending",
    "responsible_agency": "Department of Sanitation",
    "final_address": "3608 Martin Luther King, Jr. Blvd",
    "address_councildis": "B",
    "status": "Assigned to Contractor",
    "contractor": "IV Waste",
    "rowid": "1216784",
    "final_x": "3673176.98318",
    "final_y": "529241.448449",
    "longitude": "-90.09442925160192",
    "latitude": "29.94948050272706",
    "geocoded_column": {
      "latitude": "29.94948050272706",
      "longitude": "-90.09442925160192"
    }
  },
  {
    "service_request": "2025-1216783",
    "request_type": "Property Maintenance",
    "request_reason": "Property Maintenance",
    "date_created": "2025-08-08T16:30:41.000",
    "date_modified": "2025-08-08T16:30:43.000",
    "request_status": "Pending",
    "responsible_agency": "Department of Code Enforcement",
    "final_address": "LAKE FOREST BLVD & PARC BRITTANY BLVD",
    "address_councildis": "E",
    "status": "Pending",
    "rowid": "1216783",
    "final_x": "3703013.1",
    "final_y": "556785.28",
    "longitude": "-89.99921133030972",
    "latitude": "30.024295099116646",
    "geocoded_column": {
      "latitude": "30.024295099116646",
      "longitude": "-89.99921133030972"
    }
  },
  {
    "service_request": "2025-1216782",
    "request_type": "Drainage",
    "request_reason": "Catch Basin Not Draining",
    "date_created": "2025-08-08T16:29:06.000",
    "date_modified": "2025-08-08T16:29:07.000",
    "request_status": "Pending",
    "responsible_agency": "Sewerage & Water Board",
    "final_address": "2735 Soniat St",
    "address_councildis": "B",
    "status": "Pending",
    "rowid": "1216782",
    "final_x": "3668637.40775",
    "final_y": "525623.442301",
    "longitude": "-90.1088848514033",
    "latitude": "29.93966633993043",
    "geocoded_column": {
      "latitude": "29.93966633993043",
      "longitude": "-90.1088848514033"
    }
  },
  {
    "service_request": "2025-1216781",
    "request_type": "General Services",
    "request_reason": "General Service Request",
    "date_created": "2025-08-08T16:28:01.000",
    "date_modified": "2025-08-08T16:28:02.000",
    "request_status": "Pending",
    "responsible_agency": "Orleans Parish Communication District",
    "final_address": "2212 Governor Nicholls St",
    "address_councildis": "D",
    "status": "Pending",
    "rowid": "1216781",
    "final_x": "3679326.51451",
    "final_y": "537183.334728",
    "longitude": "-90.07473698050525",
    "latitude": "29.9711337392553",
    "geocoded_column": {
      "latitude": "29.9711337392553",
      "longitude": "-90.07473698050525"
    }
  },
  {
    "service_request": "2025-1216780",
    "request_type": "Property Maintenance",
    "request_reason": "Property Maintenance",
    "date_created": "2025-08-08T16:27:19.000",
    "date_modified": "2025-08-08T16:27:20.000",
    "request_status": "Pending",
    "responsible_agency": "Department of Code Enforcement",
    "final_address": "6901 Pritchard Pl",
    "address_councildis": "B",
    "status": "Pending",
    "rowid": "1216780",
    "final_x": "3668093.09537",
    "final_y": "531119.838786",
    "longitude": "-90.11041812550769",
    "latitude": "29.954795626696427",
    "geocoded_column": {
      "latitude": "29.954795626696427",
      "longitude": "-90.11041812550769"
    }
  },
  {
    "service_request": "2025-1216779",
    "request_type": "General Services",
    "request_reason": "General Service Request",
    "date_created": "2025-08-08T16:27:09.000",
    "date_modified": "2025-08-08T16:27:11.000",
    "request_status": "Pending",
    "responsible_agency": "Orleans Parish Communication District",
    "final_address": "5601 Burgundy St",
    "address_councildis": "E",
    "status": "Pending",
    "rowid": "1216779",
    "final_x": "3697866.80919",
    "final_y": "532997.011076",
    "longitude": "-90.01633652383119",
    "latitude": "29.959049857057465",
    "geocoded_column": {
      "latitude": "29.959049857057465",
      "longitude": "-90.01633652383119"
    }
  },
  {
    "service_request": "2025-1216778",
    "request_type": "Trash/Recycling",
    "request_reason": "Request a Large Item Pick Up",
    "date_created": "2025-08-08T16:26:35.000",
    "date_modified": "2025-08-08T16:26:36.000",
    "request_status": "Pending",
    "responsible_agency": "Department of Sanitation",
    "final_address": "13190 Wales St",
    "address_councildis": "E",
    "status": "Assigned to Contractor",
    "contractor": "Waste Pro",
    "rowid": "1216778",
    "final_x": "3716399.82744",
    "final_y": "571009.647847",
    "longitude": "-89.95637208337995",
    "latitude": "30.06297096521088",
    "geocoded_column": {
      "latitude": "30.06297096521088",
      "longitude": "-89.95637208337995"
    }
  },
  {
    "service_request": "2025-1216777",
    "request_type": "Property Maintenance",
    "request_reason": "Property Maintenance",
    "date_created": "2025-08-08T16:25:28.000",
    "date_modified": "2025-08-08T16:25:29.000",
    "request_status": "Pending",
    "responsible_agency": "Department of Code Enforcement",
    "final_address": "1900 BLK Saint Roch Ave",
    "address_councildis": "D",
    "status": "Pending",
    "rowid": "1216777",
    "final_x": "3686412.46802",
    "final_y": "539566.206416",
    "longitude": "-90.05227449868352",
    "latitude": "29.977469886105293",
    "geocoded_column": {
      "latitude": "29.977469886105293",
      "longitude": "-90.05227449868352"
    }
  },
  {
    "service_request": "2025-1216776",
    "request_type": "Trash/Recycling",
    "request_reason": "Request a Large Item Pick Up",
    "date_created": "2025-08-08T16:21:27.000",
    "date_modified": "2025-08-08T16:21:29.000",
    "request_status": "Pending",
    "responsible_agency": "Department of Sanitation",
    "final_address": "7939 Vanderkloot Ave",
    "address_councildis": "E",
    "status": "Assigned to Contractor",
    "contractor": "Waste Pro",
    "rowid": "1216776",
    "final_x": "3705453.20401",
    "final_y": "564203.769889",
    "longitude": "-89.99122654721684",
    "latitude": "30.04461468935444",
    "geocoded_column": {
      "latitude": "30.04461468935444",
      "longitude": "-89.99122654721684"
    }
  },
  {
    "service_request": "2025-1216775",
    "request_type": "Streetlights",
    "request_reason": "Streetlight Outage/Malfunction",
    "date_created": "2025-08-08T16:20:00.000",
    "date_modified": "2025-08-08T16:20:03.000",
    "request_status": "Pending",
    "responsible_agency": "Department of Public Works",
    "final_address": "3365 Esplanade Ave",
    "address_councildis": "A",
    "status": "Pending",
    "contractor": "Legacy Professional Services",
    "rowid": "1216775",
    "final_x": "3675653.80981",
    "final_y": "540985.697867",
    "longitude": "-90.08620519053935",
    "latitude": "29.981699348986343",
    "geocoded_column": {
      "latitude": "29.981699348986343",
      "longitude": "-90.08620519053935"
    }
  },
  {
    "service_request": "2025-1216774",
    "request_type": "Trash/Recycling",
    "request_reason": "Order Trash Cart",
    "date_created": "2025-08-08T16:13:16.000",
    "date_modified": "2025-08-08T16:13:18.000",
    "request_status": "Pending",
    "responsible_agency": "Department of Sanitation",
    "final_address": "1354 Moss St",
    "address_councildis": "A",
    "status": "Assigned to Contractor",
    "contractor": "IV Waste",
    "rowid": "1216774",
    "final_x": "3675180.98158",
    "final_y": "540701.083147",
    "longitude": "-90.08770837808056",
    "latitude": "29.980930898331188",
    "geocoded_column": {
      "latitude": "29.980930898331188",
      "longitude": "-90.08770837808056"
    }
  },
  {
    "service_request": "2025-1216773",
    "request_type": "Trash/Recycling",
    "request_reason": "Missed Trash Pick-Up",
    "date_created": "2025-08-08T16:12:34.000",
    "date_modified": "2025-08-08T16:38:00.000",
    "case_close_date": "2025-08-08T11:37:58.000",
    "request_status": "Closed",
    "responsible_agency": "Department of Sanitation",
    "final_address": "933 Third St",
    "address_councildis": "B",
    "status": "Invalid Request",
    "contractor": "IV Waste",
    "contractor_action": "Invalid",
    "rowid": "1216773",
    "final_x": "3677852.12565",
    "final_y": "520803.517945",
    "longitude": "-90.07995914494808",
    "latitude": "29.926139153641447",
    "geocoded_column": {
      "latitude": "29.926139153641447",
      "longitude": "-90.07995914494808"
    }
  },
  {
    "service_request": "2025-1216772",
    "request_type": "Trash/Recycling",
    "request_reason": "Request a Large Item Pick Up",
    "date_created": "2025-08-08T16:10:06.000",
    "date_modified": "2025-08-08T16:10:08.000",
    "request_status": "Pending",
    "responsible_agency": "Department of Sanitation",
    "final_address": "7617 Mackenzie St",
    "address_councildis": "E",
    "status": "Assigned to Contractor",
    "contractor": "Waste Pro",
    "rowid": "1216772",
    "final_x": "3711153.69355",
    "final_y": "565953.526883",
    "longitude": "-89.97314490161696",
    "latitude": "30.04924099378012",
    "geocoded_column": {
      "latitude": "30.04924099378012",
      "longitude": "-89.97314490161696"
    }
  },
  {
    "service_request": "2025-1216771",
    "request_type": "Property Maintenance",
    "request_reason": "Property Maintenance",
    "date_created": "2025-08-08T16:09:58.000",
    "date_modified": "2025-08-08T16:10:00.000",
    "request_status": "Pending",
    "responsible_agency": "Department of Code Enforcement",
    "final_address": "PARC BRITTANY BLVD & S CORONET CT",
    "address_councildis": "E",
    "status": "Pending",
    "rowid": "1216771",
    "final_x": "3702900.8",
    "final_y": "557278.08",
    "longitude": "-89.99954804963379",
    "latitude": "30.025653703559268",
    "geocoded_column": {
      "latitude": "30.025653703559268",
      "longitude": "-89.99954804963379"
    }
  },
  {
    "service_request": "2025-1216770",
    "request_type": "Trash/Recycling",
    "request_reason": "Repair Trash Cart",
    "date_created": "2025-08-08T16:07:22.000",
    "date_modified": "2025-08-08T16:07:24.000",
    "request_status": "Pending",
    "responsible_agency": "Department of Sanitation",
    "final_address": "7214 Warfield St",
    "address_councildis": "E",
    "status": "Assigned to Contractor",
    "contractor": "Waste Pro",
    "rowid": "1216770",
    "final_x": "3702085.93892",
    "final_y": "553067.332631",
    "longitude": "-90.0022774397837",
    "latitude": "30.014101817379792",
    "geocoded_column": {
      "latitude": "30.014101817379792",
      "longitude": "-90.0022774397837"
    }
  },
  {
    "service_request": "2025-1216769",
    "request_type": "Trash/Recycling",
    "request_reason": "Repair Trash Cart",
    "date_created": "2025-08-08T16:05:11.000",
    "date_modified": "2025-08-08T16:05:48.000",
    "request_status": "Pending",
    "responsible_agency": "Department of Sanitation",
    "final_address": "3552 Mimosa Ct",
    "address_councildis": "C",
    "status": "Assigned to Contractor",
    "contractor": "Richards Disposal",
    "rowid": "1216769",
    "final_x": "3703399.66846",
    "final_y": "513083.710961",
    "longitude": "-89.99959717883951",
    "latitude": "29.904119213415232",
    "geocoded_column": {
      "latitude": "29.904119213415232",
      "longitude": "-89.99959717883951"
    }
  },
  {
    "service_request": "2025-1216768",
    "request_type": "Roads and Streets",
    "request_reason": "Sidewalk Damaged or Missing",
    "date_created": "2025-08-08T16:01:16.000",
    "date_modified": "2025-08-08T16:01:21.000",
    "request_status": "Pending",
    "responsible_agency": "Department of Public Works",
    "final_address": "1204 Chartres St",
    "address_councildis": "C",
    "status": "Pending",
    "rowid": "1216768",
    "final_x": "3684005.17481",
    "final_y": "533709.341061",
    "longitude": "-90.0600830747842",
    "latitude": "29.96143932040929",
    "geocoded_column": {
      "latitude": "29.96143932040929",
      "longitude": "-90.0600830747842"
    }
  },
  {
    "service_request": "2025-1216767",
    "request_type": "Abandoned Vehicles",
    "request_reason": "Abandoned/Junk Vehicles",
    "date_created": "2025-08-08T16:00:26.000",
    "date_modified": "2025-08-08T16:00:28.000",
    "request_status": "Pending",
    "responsible_agency": "Department of Public Works",
    "final_address": "5410 Norgate Dr",
    "address_councildis": "E",
    "status": "Pending",
    "rowid": "1216767",
    "final_x": "3707183.85547",
    "final_y": "557723.299355",
    "longitude": "-89.98599776476887",
    "latitude": "30.026740102688457",
    "geocoded_column": {
      "latitude": "30.026740102688457",
      "longitude": "-89.98599776476887"
    }
  },
  {
    "service_request": "2025-1216766",
    "request_type": "Abandoned Vehicles",
    "request_reason": "Abandoned/Junk Vehicles",
    "date_created": "2025-08-08T16:00:24.000",
    "date_modified": "2025-08-08T16:00:26.000",
    "request_status": "Pending",
    "responsible_agency": "Department of Public Works",
    "final_address": "5410 Norgate Dr",
    "address_councildis": "E",
    "status": "Pending",
    "rowid": "1216766",
    "final_x": "3707183.85547",
    "final_y": "557723.299355",
    "longitude": "-89.98599776476887",
    "latitude": "30.026740102688457",
    "geocoded_column": {
      "latitude": "30.026740102688457",
      "longitude": "-89.98599776476887"
    }
  },
  {
    "service_request": "2025-1216765",
    "request_type": "Abandoned Vehicles",
    "request_reason": "Abandoned/Junk Vehicles",
    "date_created": "2025-08-08T16:00:21.000",
    "date_modified": "2025-08-08T16:00:29.000",
    "request_status": "Pending",
    "responsible_agency": "Department of Public Works",
    "final_address": "5410 Norgate Dr",
    "address_councildis": "E",
    "status": "Pending",
    "rowid": "1216765",
    "final_x": "3707183.85547",
    "final_y": "557723.299355",
    "longitude": "-89.98599776476887",
    "latitude": "30.026740102688457",
    "geocoded_column": {
      "latitude": "30.026740102688457",
      "longitude": "-89.98599776476887"
    }
  },
  {
    "service_request": "2025-1216764",
    "request_type": "Trash/Recycling",
    "request_reason": "Request a Large Item Pick Up",
    "date_created": "2025-08-08T15:53:41.000",
    "date_modified": "2025-08-08T15:53:43.000",
    "request_status": "Pending",
    "responsible_agency": "Department of Sanitation",
    "final_address": "3719 State Street Dr",
    "address_councildis": "A",
    "status": "Assigned to Contractor",
    "contractor": "IV Waste",
    "rowid": "1216764",
    "final_x": "3668081.93031",
    "final_y": "529498.198721",
    "longitude": "-90.11050802616158",
    "latitude": "29.950336974317928",
    "geocoded_column": {
      "latitude": "29.950336974317928",
      "longitude": "-90.11050802616158"
    }
  },
  {
    "service_request": "2025-1216763",
    "request_type": "Property Maintenance",
    "request_reason": "Property Maintenance",
    "date_created": "2025-08-08T15:51:39.000",
    "date_modified": "2025-08-08T15:51:41.000",
    "request_status": "Pending",
    "responsible_agency": "Department of Code Enforcement",
    "final_address": "3343 St Anthony Ave",
    "address_councildis": "D",
    "status": "Pending",
    "rowid": "1216763",
    "final_x": "3682884.68533",
    "final_y": "544984.196751",
    "longitude": "-90.0632267308069",
    "latitude": "29.992475429894018",
    "geocoded_column": {
      "latitude": "29.992475429894018",
      "longitude": "-90.0632267308069"
    }
  },
  {
    "service_request": "2025-1216762",
    "request_type": "Roads and Streets",
    "request_reason": "Curb Damage",
    "date_created": "2025-08-08T15:49:56.000",
    "date_modified": "2025-08-08T15:49:58.000",
    "request_status": "Pending",
    "responsible_agency": "Department of Public Works",
    "final_address": "2318 Touro St",
    "address_councildis": "D",
    "status": "Pending",
    "rowid": "1216762",
    "final_x": "3683829.88751",
    "final_y": "540834.154187",
    "longitude": "-90.06038665420785",
    "latitude": "29.981035437419283",
    "geocoded_column": {
      "latitude": "29.981035437419283",
      "longitude": "-90.06038665420785"
    }
  },
  {
    "service_request": "2025-1216761",
    "request_type": "Trash/Recycling",
    "request_reason": "Order Trash Cart",
    "date_created": "2025-08-08T15:48:32.000",
    "date_modified": "2025-08-08T15:48:35.000",
    "request_status": "Pending",
    "responsible_agency": "Department of Sanitation",
    "final_address": "5128 Bayouview Ct",
    "address_councildis": "E",
    "status": "Assigned to Contractor",
    "contractor": "Waste Pro",
    "rowid": "1216761",
    "final_x": "3699081.63844",
    "final_y": "556262.038746",
    "longitude": "-90.01165302852327",
    "latitude": "30.022981663072038",
    "geocoded_column": {
      "latitude": "30.022981663072038",
      "longitude": "-90.01165302852327"
    }
  },
  {
    "service_request": "2025-1216760",
    "request_type": "Parks & Parkways",
    "request_reason": "Request Tree Service (Right of Way/Public Property)",
    "date_created": "2025-08-08T15:48:09.000",
    "date_modified": "2025-08-08T15:48:11.000",
    "request_status": "Pending",
    "responsible_agency": "Department of Parks & Parkway",
    "final_address": "2857 Annunciation St",
    "address_councildis": "B",
    "status": "Pending",
    "rowid": "1216760",
    "final_x": "3677245.7764",
    "final_y": "519679.140728",
    "longitude": "-90.08191197942094",
    "latitude": "29.923065704093972",
    "geocoded_column": {
      "latitude": "29.923065704093972",
      "longitude": "-90.08191197942094"
    }
  },
  {
    "service_request": "2025-1216759",
    "request_type": "Property Maintenance",
    "request_reason": "Property Maintenance",
    "date_created": "2025-08-08T15:47:50.000",
    "date_modified": "2025-08-08T15:47:52.000",
    "request_status": "Pending",
    "responsible_agency": "Department of Code Enforcement",
    "final_address": "4709 Flake Ave",
    "address_councildis": "E",
    "status": "Pending",
    "rowid": "1216759",
    "final_x": "3706170.69175",
    "final_y": "555238.787865",
    "longitude": "-89.98929131713705",
    "latitude": "30.019941379052614",
    "geocoded_column": {
      "latitude": "30.019941379052614",
      "longitude": "-89.98929131713705"
    }
  },
  {
    "service_request": "2025-1216758",
    "request_type": "Trash/Recycling",
    "request_reason": "Repair Recycling Cart",
    "date_created": "2025-08-08T15:45:28.000",
    "date_modified": "2025-08-08T15:45:30.000",
    "request_status": "Pending",
    "responsible_agency": "Department of Sanitation",
    "final_address": "2957 Maurepas St",
    "address_councildis": "A",
    "status": "Pending",
    "rowid": "1216758",
    "final_x": "3677308.50523",
    "final_y": "540749.286155",
    "longitude": "-90.08098704401333",
    "latitude": "29.980999674499365",
    "geocoded_column": {
      "latitude": "29.980999674499365",
      "longitude": "-90.08098704401333"
    }
  },
  {
    "service_request": "2025-1216757",
    "request_type": "Trash/Recycling",
    "request_reason": "Illegal Dumping",
    "date_created": "2025-08-08T15:37:57.000",
    "date_modified": "2025-08-08T15:37:58.000",
    "request_status": "Pending",
    "responsible_agency": "Department of Sanitation",
    "final_address": "DRYADES ST & GENERAL PERSHING ST",
    "address_councildis": "B",
    "status": "Pending",
    "rowid": "1216757",
    "final_x": "3671144.8",
    "final_y": "521988.68",
    "longitude": "-90.10109205356467",
    "latitude": "29.92959800353793",
    "geocoded_column": {
      "latitude": "29.92959800353793",
      "longitude": "-90.10109205356467"
    }
  },
  {
    "service_request": "2025-1216756",
    "request_type": "Roads and Streets",
    "request_reason": "Pothole",
    "date_created": "2025-08-08T15:37:04.000",
    "date_modified": "2025-08-08T15:37:06.000",
    "request_status": "Pending",
    "responsible_agency": "Department of Public Works",
    "final_address": "5877 Louisville St",
    "address_councildis": "A",
    "status": "Pending",
    "rowid": "1216756",
    "final_x": "3667731.7282",
    "final_y": "546629.411921",
    "longitude": "-90.11103677774044",
    "latitude": "29.997452342898953",
    "geocoded_column": {
      "latitude": "29.997452342898953",
      "longitude": "-90.11103677774044"
    }
  },
  {
    "service_request": "2025-1216755",
    "request_type": "Parks & Parkways",
    "request_reason": "Request Tree Service (Right of Way/Public Property)",
    "date_created": "2025-08-08T15:35:49.000",
    "date_modified": "2025-08-08T15:35:51.000",
    "request_status": "Pending",
    "responsible_agency": "Department of Parks & Parkway",
    "final_address": "921 Hagan St",
    "address_councildis": "A",
    "status": "Pending",
    "rowid": "1216755",
    "final_x": "3675210.16449",
    "final_y": "539243.876426",
    "longitude": "-90.0876662401928",
    "latitude": "29.976923207429735",
    "geocoded_column": {
      "latitude": "29.976923207429735",
      "longitude": "-90.0876662401928"
    }
  },
  {
    "service_request": "2025-1216754",
    "request_type": "Trash/Recycling",
    "request_reason": "Missed Trash Pick-Up",
    "date_created": "2025-08-08T15:34:56.000",
    "date_modified": "2025-08-08T15:34:57.000",
    "request_status": "Pending",
    "responsible_agency": "Department of Sanitation",
    "final_address": "7920 UNITY DR NOLA 70128",
    "status": "Assigned to Contractor",
    "rowid": "1216754",
    "longitude": "0.0",
    "latitude": "0.0",
    "geocoded_column": {
      "latitude": "0.0",
      "longitude": "0.0"
    }
  },
  {
    "service_request": "2025-1216753",
    "request_type": "Safety & Permits",
    "request_reason": "Licenses & Permits",
    "date_created": "2025-08-08T15:34:50.000",
    "date_modified": "2025-08-08T15:34:52.000",
    "request_status": "Pending",
    "responsible_agency": "Safety and Permits",
    "final_address": "2328 St Philip St",
    "address_councildis": "D",
    "status": "Pending",
    "rowid": "1216753",
    "final_x": "3678541.89467",
    "final_y": "536927.026952",
    "longitude": "-90.07722378973224",
    "latitude": "29.970452654716492",
    "geocoded_column": {
      "latitude": "29.970452654716492",
      "longitude": "-90.07722378973224"
    }
  },
  {
    "service_request": "2025-1216752",
    "request_type": "Utility Poles",
    "request_reason": "Wires Sagging/Hanging Low",
    "date_created": "2025-08-08T15:33:56.000",
    "date_modified": "2025-08-08T15:33:58.000",
    "request_status": "Pending",
    "responsible_agency": "Utility Company Collective",
    "final_address": "4722 Cerise Ave",
    "address_councildis": "E",
    "status": "Pending",
    "rowid": "1216752",
    "final_x": "3708549.55032",
    "final_y": "555524.219929",
    "longitude": "-89.98176431574876",
    "latitude": "30.02064926761903",
    "geocoded_column": {
      "latitude": "30.02064926761903",
      "longitude": "-89.98176431574876"
    }
  },
  {
    "service_request": "2025-1216751",
    "request_type": "Streetlights",
    "request_reason": "Streetlight Outage/Malfunction",
    "date_created": "2025-08-08T15:32:16.000",
    "date_modified": "2025-08-08T15:32:45.000",
    "request_status": "Pending",
    "responsible_agency": "Department of Public Works",
    "final_address": "13499 Wales St",
    "address_councildis": "E",
    "status": "Pending",
    "contractor": "Legacy Professional Services",
    "rowid": "1216751",
    "final_x": "3716498.66949",
    "final_y": "571228.140712",
    "longitude": "-89.95605134132822",
    "latitude": "30.063568463395036",
    "geocoded_column": {
      "latitude": "30.063568463395036",
      "longitude": "-89.95605134132822"
    }
  },
  {
    "service_request": "2025-1216750",
    "request_type": "Property Maintenance",
    "request_reason": "Property Maintenance",
    "date_created": "2025-08-08T15:27:32.000",
    "date_modified": "2025-08-08T15:27:33.000",
    "request_status": "Pending",
    "responsible_agency": "Department of Code Enforcement",
    "final_address": "LAKE FOREST BLVD & PARC BRITTANY BLVD & RICKERT DR",
    "address_councildis": "E",
    "status": "Pending",
    "rowid": "1216750",
    "final_x": "3703033.4",
    "final_y": "556702.18",
    "longitude": "-89.9991502438828",
    "latitude": "30.02406595627854",
    "geocoded_column": {
      "latitude": "30.02406595627854",
      "longitude": "-89.9991502438828"
    }
  },
  {
    "service_request": "2025-1216749",
    "request_type": "Trash/Recycling",
    "request_reason": "Request a Large Item Pick Up",
    "date_created": "2025-08-08T15:26:26.000",
    "date_modified": "2025-08-08T15:26:28.000",
    "request_status": "Pending",
    "responsible_agency": "Department of Sanitation",
    "final_address": "702 River Oaks Dr",
    "address_councildis": "C",
    "status": "Assigned to Contractor",
    "contractor": "Richards Disposal",
    "rowid": "1216749",
    "final_x": "3701522.6209",
    "final_y": "520052.737016",
    "longitude": "-90.00526620688225",
    "latitude": "29.92334160145821",
    "geocoded_column": {
      "latitude": "29.92334160145821",
      "longitude": "-90.00526620688225"
    }
  },
  {
    "service_request": "2025-1216748",
    "request_type": "Parks & Parkways",
    "request_reason": "Request Tree Service (Right of Way/Public Property)",
    "date_created": "2025-08-08T15:22:37.000",
    "date_modified": "2025-08-08T15:22:39.000",
    "request_status": "Pending",
    "responsible_agency": "Department of Parks & Parkway",
    "final_address": "4439 Banks St",
    "address_councildis": "A",
    "status": "Pending",
    "rowid": "1216748",
    "final_x": "3669052.54266",
    "final_y": "538461.263177",
    "longitude": "-90.1071404781968",
    "latitude": "29.974953911974616",
    "geocoded_column": {
      "latitude": "29.974953911974616",
      "longitude": "-90.1071404781968"
    }
  },