[
  {
    "service_request": "2022-884735",
    "request_type": "Health Related Questions",
    "request_reason": "Noise Ordinance Complaint",
    "date_created": "2022-05-20T01:56:37.000",
    "date_modified": "2022-05-20T01:56:37.000",
    "request_status": "Pending",
    "responsible_agency": "Health Department",
    "final_address": "7849 Read Blvd Apt 12",
    "address_councildis": "E",
    "status": "Pending",
    "rowid": "884735",
    "final_x": "3708429.38795",
    "final_y": "565267.44797",
    "longitude": "-89.98178086429685",
    "latitude": "30.047443191521047",
    "geocoded_column": {
      "latitude": "30.047443191521047",
      "longitude": "-89.98178086429685"
    }
  },
  {
    "service_request": "2022-884734",
    "request_type": "EMS",
    "request_reason": "EMS Complaint",
    "date_created": "2022-05-20T01:25:29.000",
    "date_modified": "2022-05-20T01:25:30.000",
    "request_status": "Pending",
    "responsible_agency": "Emergency Medical Services",
    "final_address": "2725 General Taylor St",
    "address_councildis": "B",
    "status": "Pending",
    "rowid": "884734",
    "final_x": "3671722.16782",
    "final_y": "525080.777277",
    "longitude": "-90.09916426623302",
    "latitude": "29.938083187155744",
    "geocoded_column": {
      "latitude": "29.938083187155744",
      "longitude": "-90.09916426623302"
    }
  },
  {
    "service_request": "2022-884733",
    "request_type": "Trash/Recycling",
    "request_reason": "Request a Large Item Pick Up",
    "date_created": "2022-05-20T00:13:20.000",
    "date_modified": "2022-05-20T00:13:21.000",
    "request_status": "Pending",
    "responsible_agency": "Department of Sanitation",
    "final_address": "4721 Nighthart St",
    "address_councildis": "E",
    "status": "Assigned to Contractor",
    "contractor": "Metro Disposal",
    "rowid": "884733",
    "final_x": "3716212.90399",
    "final_y": "556869.44201",
    "longitude": "-89.95749964338819",
    "latitude": "30.02409732212641",
    "geocoded_column": {
      "latitude": "30.02409732212641",
      "longitude": "-89.95749964338819"
    }
  },
  {
    "service_request": "2022-884732",
    "request_type": "Roads/Drainage",
    "request_reason": "Accessibility Ramps, Curbs and Sidewalk Repair",
    "date_created": "2022-05-20T00:12:01.000",
    "date_modified": "2022-05-20T00:12:01.000",
    "request_status": "Pending",
    "responsible_agency": "Department of Public Works",
    "final_address": "44 Grand Canyon Dr",
    "address_councildis": "C",
    "status": "Pending",
    "rowid": "884732",
    "final_x": "3699475.80042",
    "final_y": "516614.764021",
    "longitude": "-90.01185236531828",
    "latitude": "29.913953420389934",
    "geocoded_column": {
      "latitude": "29.913953420389934",
      "longitude": "-90.01185236531828"
    }
  },
  {
    "service_request": "2022-884731",
    "request_type": "Traffic Signals/Signs/Striping/Streetlights",
    "request_reason": "Street Light Outage/Malfunction",
    "date_created": "2022-05-20T00:08:43.000",
    "date_modified": "2022-05-20T00:08:43.000",
    "request_status": "Pending",
    "responsible_agency": "Department of Public Works",
    "final_address": "44 Grand Canyon Dr",
    "address_councildis": "C",
    "status": "Pending",
    "contractor": "Royal Engineering",
    "rowid": "884731",
    "final_x": "3699475.80042",
    "final_y": "516614.764021",
    "longitude": "-90.01185236531828",
    "latitude": "29.913953420389934",
    "geocoded_column": {
      "latitude": "29.913953420389934",
      "longitude": "-90.01185236531828"
    }
  },
  {
    "service_request": "2022-884730",
    "request_type": "Abandoned Vehicles",
    "request_reason": "Abandoned/Junk Vehicles",
    "date_created": "2022-05-19T22:09:21.000",
    "date_modified": "2022-05-19T22:09:21.000",
    "request_status": "Pending",
    "responsible_agency": "Department of Public Works",
    "final_address": "415 Dearmas St",
    "address_councildis": "C",
    "status": "Pending",
    "rowid": "884730",
    "final_x": "3686766.38274",
    "final_y": "527087.228735",
    "longitude": "-90.05159759057852",
    "latitude": "29.943146123298444",
    "geocoded_column": {
      "latitude": "29.943146123298444",
      "longitude": "-90.05159759057852"
    }
  },
  {
    "service_request": "2022-884729",
    "request_type": "Abandoned Vehicles",
    "request_reason": "Abandoned/Junk Vehicles",
    "date_created": "2022-05-19T22:05:16.000",
    "date_modified": "2022-05-19T22:05:16.000",
    "request_status": "Pending",
    "responsible_agency": "Department of Public Works",
    "final_address": "630 Newton St",
    "address_councildis": "C",
    "status": "Pending",
    "rowid": "884729",
    "final_x": "3687385.03881",
    "final_y": "528025.336319",
    "longitude": "-90.04961116167006",
    "latitude": "29.94570655739133",
    "geocoded_column": {
      "latitude": "29.94570655739133",
      "longitude": "-90.04961116167006"
    }
  },
  {
    "service_request": "2022-884728",
    "request_type": "Traffic Signals/Signs/Striping/Streetlights",
    "request_reason": "Street Light Outage/Malfunction",
    "date_created": "2022-05-19T22:00:58.000",
    "date_modified": "2022-05-19T22:00:58.000",
    "request_status": "Pending",
    "responsible_agency": "Department of Public Works",
    "final_address": "447 Pacific Ave",
    "address_councildis": "C",
    "status": "Pending",
    "contractor": "Royal Engineering",
    "rowid": "884728",
    "final_x": "3688464.55791",
    "final_y": "529927.752897",
    "longitude": "-90.04613529755372",
    "latitude": "29.950904252796267",
    "geocoded_column": {
      "latitude": "29.950904252796267",
      "longitude": "-90.04613529755372"
    }
  },
  {
    "service_request": "2022-884727",
    "request_type": "Abandoned Vehicles",
    "request_reason": "Abandoned/Junk Vehicles",
    "date_created": "2022-05-19T21:58:34.000",
    "date_modified": "2022-05-19T21:58:34.000",
    "request_status": "Pending",
    "responsible_agency": "Department of Public Works",
    "final_address": "8516 Freret St",
    "address_councildis": "A",
    "status": "Pending",
    "rowid": "884727",
    "final_x": "3660284.73914",
    "final_y": "528901.307712",
    "longitude": "-90.1351473209864",
    "latitude": "29.94892221302758",
    "geocoded_column": {
      "latitude": "29.94892221302758",
      "longitude": "-90.1351473209864"
    }
  },
  {
    "service_request": "2022-884726",
    "request_type": "Trash/Recycling",
    "request_reason": "Request a Large Item Pick Up",
    "date_created": "2022-05-19T21:52:56.000",
    "date_modified": "2022-05-19T21:52:56.000",
    "request_status": "Pending",
    "responsible_agency": "Department of Sanitation",
    "final_address": "2300 Octavia St",
    "address_councildis": "A",
    "status": "Assigned to Contractor",
    "contractor": "Richards Disposal",
    "rowid": "884726",
    "final_x": "3667548.00877",
    "final_y": "524108.847612",
    "longitude": "-90.11237520021767",
    "latitude": "29.935533655497565",
    "geocoded_column": {
      "latitude": "29.935533655497565",
      "longitude": "-90.11237520021767"
    }
  },
  {
    "service_request": "2022-884725",
    "request_type": "Roads/Drainage",
    "request_reason": "Catch Basin - Clogged",
    "date_created": "2022-05-19T21:41:20.000",
    "date_modified": "2022-05-19T21:41:20.000",
    "request_status": "Pending",
    "responsible_agency": "Department of Public Works",
    "final_address": "6402 Milne Blvd",
    "address_councildis": "A",
    "status": "Pending",
    "rowid": "884725",
    "final_x": "3667209.84545",
    "final_y": "550382.245332",
    "longitude": "-90.11255909078619",
    "latitude": "30.007786632191962",
    "geocoded_column": {
      "latitude": "30.007786632191962",
      "longitude": "-90.11255909078619"
    }
  },
  {
    "service_request": "2022-884724",
    "request_type": "Traffic Signals/Signs/Striping/Streetlights",
    "request_reason": "Street Light Outage/Malfunction",
    "date_created": "2022-05-19T21:41:06.000",
    "date_modified": "2022-05-19T21:42:10.000",
    "request_status": "Pending",
    "responsible_agency": "Department of Public Works",
    "final_address": "2616 Soniat St",
    "address_councildis": "B",
    "status": "Pending",
    "contractor": "Royal Engineering",
    "rowid": "884724",
    "final_x": "3668516.26055",
    "final_y": "525068.621885",
    "longitude": "-90.10928604320777",
    "latitude": "29.938144321645446",
    "geocoded_column": {
      "latitude": "29.938144321645446",
      "longitude": "-90.10928604320777"
    }
  },
  {
    "service_request": "2022-884723",
    "request_type": "Traffic Signals/Signs/Striping/Streetlights",
    "request_reason": "Street Light Outage/Malfunction",
    "date_created": "2022-05-19T21:38:56.000",
    "date_modified": "2022-05-19T21:40:06.000",
    "request_status": "Pending",
    "responsible_agency": "Department of Public Works",
    "final_address": "6402 Milne Blvd",
    "address_councildis": "A",
    "status": "Pending",
    "contractor": "Royal Engineering",
    "rowid": "884723",
    "final_x": "3667209.84545",
    "final_y": "550382.245332",
    "longitude": "-90.11255909078619",
    "latitude": "30.007786632191962",
    "geocoded_column": {
      "latitude": "30.007786632191962",
      "longitude": "-90.11255909078619"
    }
  },
  {
    "service_request": "2022-884722",
    "request_type": "Traffic Signals/Signs/Striping/Streetlights",
    "request_reason": "Street Light Outage/Malfunction",
    "date_created": "2022-05-19T21:25:37.000",
    "date_modified": "2022-05-19T21:28:19.000",
    "request_status": "Pending",
    "responsible_agency": "Department of Public Works",
    "final_address": "Address 334 33rd Street New Orleans, La 70124",
    "status": "Pending",
    "contractor": "Royal Engineering",
    "rowid": "884722",
    "longitude": "0.0",
    "latitude": "0.0",
    "geocoded_column": {
      "latitude": "0.0",
      "longitude": "0.0"
    }
  },
  {
    "service_request": "2022-884720",
    "request_type": "Trash/Recycling",
    "request_reason": "Replace Recycling Cart",
    "date_created": "2022-05-19T21:01:55.000",
    "date_modified": "2022-05-19T21:01:55.000",
    "request_status": "Pending",
    "responsible_agency": "Department of Sanitation",
    "final_address": "2128 St Andrew St",
    "address_councildis": "B",
    "status": "Pending",
    "rowid": "884720",
    "final_x": "3676851.91688",
    "final_y": "525814.340861",
    "longitude": "-90.08294390778713",
    "latitude": "29.939947324561064",
    "geocoded_column": {
      "latitude": "29.939947324561064",
      "longitude": "-90.08294390778713"
    }
  },
  {
    "service_request": "2022-884719",
    "request_type": "Traffic Signals/Signs/Striping/Streetlights",
    "request_reason": "Street Light Outage/Malfunction",
    "date_created": "2022-05-19T20:51:31.000",
    "date_modified": "2022-05-19T20:51:31.000",
    "request_status": "Pending",
    "responsible_agency": "Department of Public Works",
    "final_address": "616 Clouet St",
    "address_councildis": "C",
    "status": "Pending",
    "contractor": "Royal Engineering",
    "rowid": "884719",
    "final_x": "3688543.03151",
    "final_y": "534304.420741",
    "longitude": "-90.04573222847941",
    "latitude": "29.96293615270086",
    "geocoded_column": {
      "latitude": "29.96293615270086",
      "longitude": "-90.04573222847941"
    }
  },
  {
    "service_request": "2022-884718",
    "request_type": "Property Maintenance",
    "request_reason": "Property Maintenance",
    "date_created": "2022-05-19T20:32:06.000",
    "date_modified": "2022-05-19T20:32:06.000",
    "request_status": "Pending",
    "responsible_agency": "Department of Code Enforcement",
    "final_address": "7849 Read Blvd Apt 12",
    "address_councildis": "E",
    "status": "Pending",
    "rowid": "884718",
    "final_x": "3708429.38795",
    "final_y": "565267.44797",
    "longitude": "-89.98178086429685",
    "latitude": "30.047443191521047",
    "geocoded_column": {
      "latitude": "30.047443191521047",
      "longitude": "-89.98178086429685"
    }
  },
  {
    "service_request": "2022-884717",
    "request_type": "Mayor's Request",
    "request_reason": "Requests to the Mayor",
    "date_created": "2022-05-19T20:31:28.000",
    "date_modified": "2022-05-19T20:31:28.000",
    "request_status": "Pending",
    "responsible_agency": "Executive Office of the Mayor",
    "status": "Pending",
    "rowid": "884717",
    "longitude": "0.0",
    "latitude": "0.0",
    "geocoded_column": {
      "latitude": "0.0",
      "longitude": "0.0"
    }
  },
  {
    "service_request": "2022-884716",
    "request_type": "Abandoned Vehicles",
    "request_reason": "Abandoned/Junk Vehicles",
    "date_created": "2022-05-19T20:25:14.000",
    "date_modified": "2022-05-19T20:25:14.000",
    "request_status": "Pending",
    "responsible_agency": "Department of Public Works",
    "final_address": "SEINE ST & IOWA ST",
    "address_councildis": "C",
    "status": "Pending",
    "rowid": "884716",
    "final_x": "3694154.1",
    "final_y": "520595.68",
    "longitude": "-90.02850622460753",
    "latitude": "29.92506728625695",
    "geocoded_column": {
      "latitude": "29.92506728625695",
      "longitude": "-90.02850622460753"
    }
  },
  {
    "service_request": "2022-884715",
    "request_type": "Property Maintenance",
    "request_reason": "Property Maintenance",
    "date_created": "2022-05-19T20:20:39.000",
    "date_modified": "2022-05-19T20:20:39.000",
    "request_status": "Pending",
    "responsible_agency": "Department of Code Enforcement",
    "final_address": "SEINE ST & IOWA ST",
    "address_councildis": "C",
    "status": "Pending",
    "rowid": "884715",
    "final_x": "3694154.1",
    "final_y": "520595.68",
    "longitude": "-90.02850622460753",
    "latitude": "29.92506728625695",
    "geocoded_column": {
      "latitude": "29.92506728625695",
      "longitude": "-90.02850622460753"
    }
  },
  {
    "service_request": "2022-884714",
    "request_type": "Trash/Recycling",
    "request_reason": "MIssed Recycling Pick-Up",
    "date_created": "2022-05-19T19:29:36.000",
    "date_modified": "2022-05-19T19:29:37.000",
    "request_status": "Pending",
    "responsible_agency": "Department of Sanitation",
    "final_address": "6016 Annunciation St",
    "address_councildis": "A",
    "status": "Assigned to Contractor",
    "contractor": "Richards Disposal",
    "rowid": "884714",
    "final_x": "3664082.12384",
    "final_y": "517863.908982",
    "longitude": "-90.12352523721874",
    "latitude": "29.918463130036713",
    "geocoded_column": {
      "latitude": "29.918463130036713",
      "longitude": "-90.12352523721874"
    }
  },
  {
    "service_request": "2022-884713",
    "request_type": "Trash/Recycling",
    "request_reason": "Missed Trash Pick-Up",
    "date_created": "2022-05-19T19:27:54.000",
    "date_modified": "2022-05-19T19:27:55.000",
    "request_status": "Pending",
    "responsible_agency": "Department of Sanitation",
    "final_address": "1320 St Denis St",
    "address_councildis": "D",
    "status": "Assigned to Contractor",
    "contractor": "Metro Disposal",
    "rowid": "884713",
    "final_x": "3677611.02459",
    "final_y": "545678.958416",
    "longitude": "-90.07986122566909",
    "latitude": "29.994545459587734",
    "geocoded_column": {
      "latitude": "29.994545459587734",
      "longitude": "-90.07986122566909"
    }
  },
  {
    "service_request": "2022-884712",
    "request_type": "Trash/Recycling",
    "request_reason": "Request a Large Item Pick Up",
    "date_created": "2022-05-19T18:48:48.000",
    "date_modified": "2022-05-19T18:48:48.000",
    "request_status": "Pending",
    "responsible_agency": "Department of Sanitation",
    "final_address": "630 Huntlee Dr",
    "address_councildis": "C",
    "status": "Assigned to Contractor",
    "contractor": "Richards Disposal",
    "rowid": "884712",
    "final_x": "3701851.4801",
    "final_y": "520412.26956",
    "longitude": "-90.0042149653838",
    "latitude": "29.924319707284727",
    "geocoded_column": {
      "latitude": "29.924319707284727",
      "longitude": "-90.0042149653838"
    }
  },
  {
    "service_request": "2022-884711",
    "request_type": "Trash/Recycling",
    "request_reason": "Replace Trash Cart",
    "date_created": "2022-05-19T18:46:44.000",
    "date_modified": "2022-05-19T18:46:44.000",
    "request_status": "Pending",
    "responsible_agency": "Department of Sanitation",
    "final_address": "721 Kerlerec St",
    "address_councildis": "C",
    "status": "Assigned to Contractor",
    "contractor": "Metro Disposal",
    "rowid": "884711",
    "final_x": "3684119.74108",
    "final_y": "534809.549702",
    "longitude": "-90.05968267678173",
    "latitude": "29.964461014564904",
    "geocoded_column": {
      "latitude": "29.964461014564904",
      "longitude": "-90.05968267678173"
    }
  },
  {
    "service_request": "2022-884710",
    "request_type": "Trash/Recycling",
    "request_reason": "Missed Trash Pick-Up",
    "date_created": "2022-05-19T18:21:43.000",
    "date_modified": "2022-05-19T18:21:44.000",
    "request_status": "Pending",
    "responsible_agency": "Department of Sanitation",
    "final_address": "4314 Mithra St",
    "address_councildis": "D",
    "status": "Assigned to Contractor",
    "contractor": "Metro Disposal",
    "rowid": "884710",
    "final_x": "3689887.8902",
    "final_y": "553110.646615",
    "longitude": "-90.04081544877117",
    "latitude": "30.014604890874157",
    "geocoded_column": {
      "latitude": "30.014604890874157",
      "longitude": "-90.04081544877117"
    }
  },
  {
    "service_request": "2022-884709",
    "request_type": "Trash/Recycling",
    "request_reason": "Repair Trash Cart",
    "date_created": "2022-05-19T18:18:24.000",
    "date_modified": "2022-05-19T18:18:24.000",
    "request_status": "Pending",
    "responsible_agency": "Department of Sanitation",
    "final_address": "2030 Napoleon Ave",
    "address_councildis": "B",
    "status": "Assigned to Contractor",
    "contractor": "Richards Disposal",
    "rowid": "884709",
    "final_x": "3670582.94811",
    "final_y": "522607.154042",
    "longitude": "-90.10284475734016",
    "latitude": "29.931315210844545",
    "geocoded_column": {
      "latitude": "29.931315210844545",
      "longitude": "-90.10284475734016"
    }
  },
  {
    "service_request": "2022-884708",
    "request_type": "Abandoned Vehicles",
    "request_reason": "Abandoned/Junk Vehicles",
    "date_created": "2022-05-19T18:12:41.000",
    "date_modified": "2022-05-19T18:15:31.000",
    "request_status": "Pending",
    "responsible_agency": "Department of Public Works",
    "final_address": "FIG ST & PINE ST",
    "address_councildis": "B",
    "status": "Pending",
    "rowid": "884708",
    "final_x": "3667497.8",
    "final_y": "532060.28",
    "longitude": "-90.11226620214482",
    "latitude": "29.957398987997593",
    "geocoded_column": {
      "latitude": "29.957398987997593",
      "longitude": "-90.11226620214482"
    }
  },
  {
    "service_request": "2022-884707",
    "request_type": "Trash/Recycling",
    "request_reason": "Request a Large Item Pick Up",
    "date_created": "2022-05-19T18:12:23.000",
    "date_modified": "2022-05-19T18:12:24.000",
    "request_status": "Pending",
    "responsible_agency": "Department of Sanitation",
    "final_address": "6034 St Anthony Ave",
    "address_councildis": "D",
    "status": "Assigned to Contractor",
    "contractor": "Metro Disposal",
    "rowid": "884707",
    "final_x": "3681889.47893",
    "final_y": "555068.077081",
    "longitude": "-90.0660180973004",
    "latitude": "30.020232765215216",
    "geocoded_column": {
      "latitude": "30.020232765215216",
      "longitude": "-90.0660180973004"
    }
  },
  {
    "service_request": "2022-884706",
    "request_type": "Trash/Recycling",
    "request_reason": "Request a Large Item Pick Up",
    "date_created": "2022-05-19T18:11:38.000",
    "date_modified": "2022-05-19T18:11:39.000",
    "request_status": "Pending",
    "responsible_agency": "Department of Sanitation",
    "final_address": "721 Kerlerec St",
    "address_councildis": "C",
    "status": "Assigned to Contractor",
    "contractor": "Metro Disposal",
    "rowid": "884706",
    "final_x": "3684119.74108",
    "final_y": "534809.549702",
    "longitude": "-90.05968267678173",
    "latitude": "29.964461014564904",
    "geocoded_column": {
      "latitude": "29.964461014564904",
      "longitude": "-90.05968267678173"
    }
  },
  {
    "service_request": "2022-884705",
    "request_type": "Abandoned Vehicles",
    "request_reason": "Abandoned/Junk Vehicles",
    "date_created": "2022-05-19T17:58:21.000",
    "date_modified": "2022-05-19T17:58:22.000",
    "request_status": "Pending",
    "responsible_agency": "Department of Public Works",
    "final_address": "4929 Papania Dr",
    "address_councildis": "E",
    "status": "Pending",
    "rowid": "884705",
    "final_x": "3715585.55122",
    "final_y": "557672.046619",
    "longitude": "-89.95945152946472",
    "latitude": "30.02632486297655",
    "geocoded_column": {
      "latitude": "30.02632486297655",
      "longitude": "-89.95945152946472"
    }
  },
  {
    "service_request": "2022-884704",
    "request_type": "Trash/Recycling",
    "request_reason": "Replace Trash Cart",
    "date_created": "2022-05-19T17:57:47.000",
    "date_modified": "2022-05-19T17:57:47.000",
    "request_status": "Pending",
    "responsible_agency": "Department of Sanitation",
    "final_address": "249 Downs St",
    "address_councildis": "A",
    "status": "Assigned to Contractor",
    "contractor": "Metro Disposal",
    "rowid": "884704",
    "final_x": "3667377.71949",
    "final_y": "553227.247831",
    "longitude": "-90.11193291602899",
    "latitude": "30.01560447350676",
    "geocoded_column": {
      "latitude": "30.01560447350676",
      "longitude": "-90.11193291602899"
    }
  },
  {
    "service_request": "2022-884702",
    "request_type": "Trash/Recycling",
    "request_reason": "Missed Trash Pick-Up",
    "date_created": "2022-05-19T17:48:09.000",
    "date_modified": "2022-05-19T17:48:10.000",
    "request_status": "Pending",
    "responsible_agency": "Department of Sanitation",
    "final_address": "4314 Mithra St",
    "address_councildis": "D",
    "status": "Assigned to Contractor",
    "contractor": "Metro Disposal",
    "rowid": "884702",
    "final_x": "3689887.8902",
    "final_y": "553110.646615",
    "longitude": "-90.04081544877117",
    "latitude": "30.014604890874157",
    "geocoded_column": {
      "latitude": "30.014604890874157",
      "longitude": "-90.04081544877117"
    }
  },
  {
    "service_request": "2022-884701",
    "request_type": "Roads/Drainage",
    "request_reason": "Catch Basin - Clogged",
    "date_created": "2022-05-19T17:45:00.000",
    "date_modified": "2022-05-19T17:45:11.000",
    "request_status": "Pending",
    "responsible_agency": "Department of Public Works",
    "final_address": "3425 Cleveland Ave",
    "address_councildis": "B",
    "status": "Pending",
    "rowid": "884701",
    "final_x": "3672680.69486",
    "final_y": "536652.150151",
    "longitude": "-90.09574353475398",
    "latitude": "29.96987220688831",
    "geocoded_column": {
      "latitude": "29.96987220688831",
      "longitude": "-90.09574353475398"
    }
  },
  {
    "service_request": "2022-884700",
    "request_type": "Trash/Recycling",
    "request_reason": "Replace Trash Cart",
    "date_created": "2022-05-19T17:43:56.000",
    "date_modified": "2022-05-19T17:43:57.000",
    "request_status": "Pending",
    "responsible_agency": "Department of Sanitation",
    "final_address": "New Orleans,LA",
    "status": "Assigned to Contractor",
    "rowid": "884700",
    "longitude": "0.0",
    "latitude": "0.0",
    "geocoded_column": {
      "latitude": "0.0",
      "longitude": "0.0"
    }
  },
  {
    "service_request": "2022-884699",
    "request_type": "Trash/Recycling",
    "request_reason": "Missed Trash Pick-Up",
    "date_created": "2022-05-19T17:39:28.000",
    "date_modified": "2022-05-19T17:39:29.000",
    "request_status": "Pending",
    "responsible_agency": "Department of Sanitation",
    "final_address": "4314 Mithra St",
    "address_councildis": "D",
    "status": "Assigned to Contractor",
    "contractor": "Metro Disposal",
    "rowid": "884699",
    "final_x": "3689887.8902",
    "final_y": "553110.646615",
    "longitude": "-90.04081544877117",
    "latitude": "30.014604890874157",
    "geocoded_column": {
      "latitude": "30.014604890874157",
      "longitude": "-90.04081544877117"
    }
  },
  {
    "service_request": "2022-884698",
    "request_type": "Trash/Recycling",
    "request_reason": "Missed Trash Pick-Up",
    "date_created": "2022-05-19T17:37:32.000",
    "date_modified": "2022-05-19T17:37:33.000",
    "request_status": "Pending",
    "responsible_agency": "Department of Sanitation",
    "final_address": "4314 Mithra St",
    "address_councildis": "D",
    "status": "Assigned to Contractor",
    "contractor": "Metro Disposal",
    "rowid": "884698",
    "final_x": "3689887.8902",
    "final_y": "553110.646615",
    "longitude": "-90.04081544877117",
    "latitude": "30.014604890874157",
    "geocoded_column": {
      "latitude": "30.014604890874157",
      "longitude": "-90.04081544877117"
    }
  },
  {
    "service_request": "2022-884696",
    "request_type": "Traffic Signals/Signs/Striping/Streetlights",
    "request_reason": "Road Surface Marking Maintenance-Bike Lane",
    "date_created": "2022-05-19T17:21:55.000",
    "date_modified": "2022-05-19T17:21:55.000",
    "request_status": "Pending",
    "responsible_agency": "Department of Public Works",
    "final_address": "330 Loyola Ave",
    "address_councildis": "B",
    "status": "Pending",
    "rowid": "884696",
    "final_x": "3679294.58299",
    "final_y": "530648.055362",
    "longitude": "-90.0750644684912",
    "latitude": "29.95316490619108",
    "geocoded_column": {
      "latitude": "29.95316490619108",
      "longitude": "-90.0750644684912"
    }
  },
  {
    "service_request": "2022-884695",
    "request_type": "Abandoned Vehicles",
    "request_reason": "Abandoned/Junk Vehicles",
    "date_created": "2022-05-19T17:20:25.000",
    "date_modified": "2022-05-19T17:20:25.000",
    "request_status": "Pending",
    "responsible_agency": "Department of Public Works",
    "final_address": "2910 Robert St",
    "address_councildis": "B",
    "status": "Pending",
    "rowid": "884695",
    "final_x": "3668849.87783",
    "final_y": "526192.444734",
    "longitude": "-90.10819484429626",
    "latitude": "29.941224668103985",
    "geocoded_column": {
      "latitude": "29.941224668103985",
      "longitude": "-90.10819484429626"
    }
  },
  {
    "service_request": "2022-884694",
    "request_type": "Trash/Recycling",
    "request_reason": "Missed Trash Pick-Up",
    "date_created": "2022-05-19T17:19:36.000",
    "date_modified": "2022-05-19T17:19:36.000",
    "request_status": "Pending",
    "responsible_agency": "Department of Sanitation",
    "final_address": "2119 Broadway St",
    "address_councildis": "A",
    "status": "Assigned to Contractor",
    "contractor": "Richards Disposal",
    "rowid": "884694",
    "final_x": "3666063.80512",
    "final_y": "529232.764225",
    "longitude": "-90.11688913177801",
    "latitude": "29.949666181275763",
    "geocoded_column": {
      "latitude": "29.949666181275763",
      "longitude": "-90.11688913177801"
    }
  },
  {
    "service_request": "2022-884693",
    "request_type": "Trash/Recycling",
    "request_reason": "Request a Large Item Pick Up",
    "date_created": "2022-05-19T17:11:01.000",
    "date_modified": "2022-05-19T17:11:02.000",
    "request_status": "Pending",
    "responsible_agency": "Department of Sanitation",
    "final_address": "2848 State St",
    "address_councildis": "A",
    "status": "Assigned to Contractor",
    "contractor": "Richards Disposal",
    "rowid": "884693",
    "final_x": "3667192.97517",
    "final_y": "527111.186623",
    "longitude": "-90.11339513468961",
    "latitude": "29.943799520388225",
    "geocoded_column": {
      "latitude": "29.943799520388225",
      "longitude": "-90.11339513468961"
    }
  },
  {
    "service_request": "2022-884692",
    "request_type": "Trash/Recycling",
    "request_reason": "MIssed Recycling Pick-Up",
    "date_created": "2022-05-19T17:07:50.000",
    "date_modified": "2022-05-19T17:57:43.000",
    "request_status": "Pending",
    "responsible_agency": "Department of Sanitation",
    "final_address": "1437 Saint Mary St, New Orleans, Louisiana, 70130",
    "address_councildis": "B",
    "status": "Assigned to Contractor",
    "rowid": "884692",
    "final_x": "3678886.61461",
    "final_y": "523808.468923",
    "longitude": "-90.07658952298718",
    "latitude": "29.93437062963516",
    "geocoded_column": {
      "latitude": "29.93437062963516",
      "longitude": "-90.07658952298718"
    }
  },
  {
    "service_request": "2022-884691",
    "request_type": "Trash/Recycling",
    "request_reason": "Request a Large Item Pick Up",
    "date_created": "2022-05-19T16:59:44.000",
    "date_modified": "2022-05-19T16:59:45.000",
    "request_status": "Pending",
    "responsible_agency": "Department of Sanitation",
    "final_address": "2319 Wirth Pl",
    "address_councildis": "A",
    "status": "Assigned to Contractor",
    "contractor": "Richards Disposal",
    "rowid": "884691",
    "final_x": "3667251.83514",
    "final_y": "524696.80454",
    "longitude": "-90.11329046228364",
    "latitude": "29.937159023157434",
    "geocoded_column": {
      "latitude": "29.937159023157434",
      "longitude": "-90.11329046228364"
    }
  },
  {
    "service_request": "2022-884690",
    "request_type": "Property Maintenance",
    "request_reason": "Property Maintenance",
    "date_created": "2022-05-19T16:46:50.000",
    "date_modified": "2022-05-19T16:46:50.000",
    "request_status": "Pending",
    "responsible_agency": "Department of Code Enforcement",
    "final_address": "4751 Citrus Dr",
    "address_councildis": "E",
    "status": "Pending",
    "rowid": "884690",
    "final_x": "3710848.8604",
    "final_y": "555854.039257",
    "longitude": "-89.97448689315709",
    "latitude": "30.021481367559613",
    "geocoded_column": {
      "latitude": "30.021481367559613",
      "longitude": "-89.97448689315709"
    }
  },
  {
    "service_request": "2022-884689",
    "request_type": "Trash/Recycling",
    "request_reason": "Repair Trash Cart",
    "date_created": "2022-05-19T16:44:00.000",
    "date_modified": "2022-05-19T16:44:01.000",
    "request_status": "Pending",
    "responsible_agency": "Department of Sanitation",
    "final_address": "2222 Soniat St",
    "address_councildis": "B",
    "status": "Assigned to Contractor",
    "contractor": "Richards Disposal",
    "rowid": "884689",
    "final_x": "3668466.89185",
    "final_y": "523770.297275",
    "longitude": "-90.1094856850128",
    "latitude": "29.934575795998267",
    "geocoded_column": {
      "latitude": "29.934575795998267",
      "longitude": "-90.1094856850128"
    }
  },
  {
    "service_request": "2022-884688",
    "request_type": "Trash/Recycling",
    "request_reason": "Repair Trash Cart",
    "date_created": "2022-05-19T16:43:57.000",
    "date_modified": "2022-05-19T16:43:57.000",
    "request_status": "Pending",
    "responsible_agency": "Department of Sanitation",
    "final_address": "721 Huntlee Dr",
    "address_councildis": "C",
    "status": "Assigned to Contractor",
    "contractor": "Richards Disposal",
    "rowid": "884688",
    "final_x": "3701722.37073",
    "final_y": "519823.221368",
    "longitude": "-90.00464407746409",
    "latitude": "29.922704145023282",
    "geocoded_column": {
      "latitude": "29.922704145023282",
      "longitude": "-90.00464407746409"
    }
  },
  {
    "service_request": "2022-884687",
    "request_type": "Property Maintenance",
    "request_reason": "Property Maintenance",
    "date_created": "2022-05-19T16:42:54.000",
    "date_modified": "2022-05-19T16:42:55.000",
    "request_status": "Pending",
    "responsible_agency": "Department of Code Enforcement",
    "final_address": "4759 Citrus Dr",
    "address_councildis": "E",
    "status": "Pending",
    "rowid": "884687",
    "final_x": "3710843.52088",
    "final_y": "555916.028953",
    "longitude": "-89.97450144163825",
    "latitude": "30.021651989048912",
    "geocoded_column": {
      "latitude": "30.021651989048912",
      "longitude": "-89.97450144163825"
    }
  },
  {
    "service_request": "2022-884686",
    "request_type": "Trash/Recycling",
    "request_reason": "Missed Trash Pick-Up",
    "date_created": "2022-05-19T16:24:54.000",
    "date_modified": "2022-05-19T16:24:55.000",
    "request_status": "Pending",
    "responsible_agency": "Department of Sanitation",
    "final_address": "7823 Zimple St",
    "address_councildis": "A",
    "status": "Assigned to Contractor",
    "contractor": "Richards Disposal",
    "rowid": "884686",
    "final_x": "3662456.6393",
    "final_y": "527505.876223",
    "longitude": "-90.12833599460876",
    "latitude": "29.945022596365536",
    "geocoded_column": {
      "latitude": "29.945022596365536",
      "longitude": "-90.12833599460876"
    }
  },
  {
    "service_request": "2022-884685",
    "request_type": "Abandoned Vehicles",
    "request_reason": "Abandoned/Junk Vehicles",
    "date_created": "2022-05-19T16:21:40.000",
    "date_modified": "2022-05-19T16:22:53.000",
    "request_status": "Pending",
    "responsible_agency": "Department of Public Works",
    "final_address": "8100 BLK Jeannette St",
    "address_councildis": "A",
    "status": "Pending",
    "rowid": "884685",
    "final_x": "3662555.94486",
    "final_y": "529257.893372",
    "longitude": "-90.12796426428537",
    "latitude": "29.949837210005295",
    "geocoded_column": {
      "latitude": "29.949837210005295",
      "longitude": "-90.12796426428537"
    }
  },
  {
    "service_request": "2022-884684",
    "request_type": "Abandoned Vehicles",
    "request_reason": "Abandoned/Junk Vehicles",
    "date_created": "2022-05-19T16:19:07.000",
    "date_modified": "2022-05-19T16:19:07.000",
    "request_status": "Pending",
    "responsible_agency": "Department of Public Works",
    "final_address": "440 Walnut St",
    "address_councildis": "A",
    "status": "Pending",
    "rowid": "884684",
    "final_x": "3662522.29818",
    "final_y": "523094.550587",
    "longitude": "-90.1282751656679",
    "latitude": "29.93289095208711",
    "geocoded_column": {
      "latitude": "29.93289095208711",
      "longitude": "-90.1282751656679"
    }
  },
  {
    "service_request": "2022-884683",
    "request_type": "Trash/Recycling",
    "request_reason": "Request a Large Item Pick Up",
    "date_created": "2022-05-19T16:17:15.000",
    "date_modified": "2022-05-19T16:17:15.000",
    "request_status": "Pending",
    "responsible_agency": "Department of Sanitation",
    "final_address": "2183 N Rocheblave St",
    "address_councildis": "D",
    "status": "Assigned to Contractor",
    "contractor": "Metro Disposal",
    "rowid": "884683",
    "final_x": "3684407.54031",
    "final_y": "541176.119116",
    "longitude": "-90.05855015444288",
    "latitude": "29.981958062673186",
    "geocoded_column": {
      "latitude": "29.981958062673186",
      "longitude": "-90.05855015444288"
    }
  },
  {
    "service_request": "2022-884682",
    "request_type": "Abandoned Vehicles",
    "request_reason": "Abandoned/Junk Vehicles",
    "date_created": "2022-05-19T16:15:49.000",
    "date_modified": "2022-05-19T16:15:49.000",
    "request_status": "Pending",
    "responsible_agency": "Department of Public Works",
    "final_address": "214 Walnut St",
    "address_councildis": "A",
    "status": "Pending",
    "rowid": "884682",
    "final_x": "3661251.28224",
    "final_y": "521167.180921",
    "longitude": "-90.13235146256623",
    "latitude": "29.927627982917933",
    "geocoded_column": {
      "latitude": "29.927627982917933",
      "longitude": "-90.13235146256623"
    }
  },
  {
    "service_request": "2022-884681",
    "request_type": "Abandoned Vehicles",
    "request_reason": "Abandoned/Junk Vehicles",
    "date_created": "2022-05-19T16:14:59.000",
    "date_modified": "2022-05-19T16:14:59.000",
    "request_status": "Pending",
    "responsible_agency": "Department of Public Works",
    "final_address": "8505 Hickory St",
    "address_councildis": "A",
    "status": "Pending",
    "rowid": "884681",
    "final_x": "3662295.88954",
    "final_y": "530963.84461",
    "longitude": "-90.12872875561462",
    "latitude": "29.95453554595095",
    "geocoded_column": {
      "latitude": "29.95453554595095",
      "longitude": "-90.12872875561462"
    }
  },
  {
    "service_request": "2022-884680",
    "request_type": "Trash/Recycling",
    "request_reason": "Illegal Dumping",
    "date_created": "2022-05-19T16:13:46.000",
    "date_modified": "2022-05-19T16:13:46.000",
    "request_status": "Pending",
    "responsible_agency": "Department of Sanitation",
    "final_address": "2217 First St",
    "address_councildis": "B",
    "status": "Pending",
    "rowid": "884680",
    "final_x": "3675709.60942",
    "final_y": "525138.436733",
    "longitude": "-90.08657356406614",
    "latitude": "29.9381230360994",
    "geocoded_column": {
      "latitude": "29.9381230360994",
      "longitude": "-90.08657356406614"
    }
  },
  {
    "service_request": "2022-884679",
    "request_type": "Trash/Recycling",
    "request_reason": "MIssed Recycling Pick-Up",
    "date_created": "2022-05-19T16:07:11.000",
    "date_modified": "2022-05-19T16:07:12.000",
    "request_status": "Pending",
    "responsible_agency": "Department of Sanitation",
    "final_address": "5826 Clara St",
    "address_councildis": "A",
    "status": "Assigned to Contractor",
    "contractor": "Richards Disposal",
    "rowid": "884679",
    "final_x": "3666914.57978",
    "final_y": "525225.735933",
    "longitude": "-90.11433743670578",
    "latitude": "29.938623284611396",
    "geocoded_column": {
      "latitude": "29.938623284611396",
      "longitude": "-90.11433743670578"
    }
  },
  {
    "service_request": "2022-884678",
    "request_type": "Property Maintenance",
    "request_reason": "Property Maintenance",
    "date_created": "2022-05-19T16:04:31.000",
    "date_modified": "2022-05-19T16:04:31.000",
    "request_status": "Pending",
    "responsible_agency": "Department of Code Enforcement",
    "final_address": "1620 Dumaine St",
    "address_councildis": "C",
    "status": "Pending",
    "rowid": "884678",
    "final_x": "3680371.10152",
    "final_y": "535010.807494",
    "longitude": "-90.07151359108283",
    "latitude": "29.96512844429875",
    "geocoded_column": {
      "latitude": "29.96512844429875",
      "longitude": "-90.07151359108283"
    }
  },
  {
    "service_request": "2022-884677",
    "request_type": "Trash/Recycling",
    "request_reason": "Replace Trash Cart",
    "date_created": "2022-05-19T16:04:06.000",
    "date_modified": "2022-05-19T16:04:07.000",
    "request_status": "Pending",
    "responsible_agency": "Department of Sanitation",
    "final_address": "1724 Saint Andrew St, New Orleans, Louisiana, 70113",
    "status": "Assigned to Contractor",
    "rowid": "884677",
    "longitude": "0.0",
    "latitude": "0.0",
    "geocoded_column": {
      "latitude": "0.0",
      "longitude": "0.0"
    }
  },
  {
    "service_request": "2022-884675",
    "request_type": "Trash/Recycling",
    "request_reason": "Repair Trash Cart",
    "date_created": "2022-05-19T16:02:48.000",
    "date_modified": "2022-05-19T16:02:49.000",
    "request_status": "Pending",
    "responsible_agency": "Department of Sanitation",
    "final_address": "1704 Laharpe St",
    "address_councildis": "D",
    "status": "Assigned to Contractor",
    "contractor": "Metro Disposal",
    "rowid": "884675",
    "final_x": "3681587.22069",
    "final_y": "537716.64628",
    "longitude": "-90.06757876554049",
    "latitude": "29.972531689454602",
    "geocoded_column": {
      "latitude": "29.972531689454602",
      "longitude": "-90.06757876554049"
    }
  },
  {
    "service_request": "2022-884674",
    "request_type": "Property Maintenance",
    "request_reason": "Property Maintenance",
    "date_created": "2022-05-19T16:00:19.000",
    "date_modified": "2022-05-19T16:00:19.000",
    "request_status": "Pending",
    "responsible_agency": "Department of Code Enforcement",
    "final_address": "1626 Dumaine St",
    "address_councildis": "C",
    "status": "Pending",
    "rowid": "884674",
    "final_x": "3680303.6861",
    "final_y": "535059.47783",
    "longitude": "-90.07172479291316",
    "latitude": "29.965264312233675",
    "geocoded_column": {
      "latitude": "29.965264312233675",
      "longitude": "-90.07172479291316"
    }
  },
  {
    "service_request": "2022-884673",
    "request_type": "Property Maintenance",
    "request_reason": "Property Maintenance",
    "date_created": "2022-05-19T15:57:58.000",
    "date_modified": "2022-05-19T15:57:58.000",
    "request_status": "Pending",
    "responsible_agency": "Department of Code Enforcement",
    "final_address": "900 N Claiborne Ave",
    "address_councildis": "C",
    "status": "Pending",
    "rowid": "884673",
    "final_x": "3680313.69346",
    "final_y": "535147.908166",
    "longitude": "-90.07169011537779",
    "latitude": "29.96550716244827",
    "geocoded_column": {
      "latitude": "29.96550716244827",
      "longitude": "-90.07169011537779"
    }
  },
  {
    "service_request": "2022-884672",
    "request_type": "Trash/Recycling",
    "request_reason": "MIssed Recycling Pick-Up",
    "date_created": "2022-05-19T15:57:08.000",
    "date_modified": "2022-05-19T15:57:09.000",
    "request_status": "Pending",
    "responsible_agency": "Department of Sanitation",
    "final_address": "5133 Coliseum St",
    "address_councildis": "B",
    "status": "Assigned to Contractor",
    "contractor": "Richards Disposal",
    "rowid": "884672",
    "final_x": "3668116.26452",
    "final_y": "519694.649976",
    "longitude": "-90.11072989870819",
    "latitude": "29.923379355658273",
    "geocoded_column": {
      "latitude": "29.923379355658273",
      "longitude": "-90.11072989870819"
    }
  },
  {
    "service_request": "2022-884671",
    "request_type": "Trash/Recycling",
    "request_reason": "Illegal Dumping",
    "date_created": "2022-05-19T15:56:42.000",
    "date_modified": "2022-05-19T15:56:42.000",
    "request_status": "Pending",
    "responsible_agency": "Department of Sanitation",
    "final_address": "N DORGENOIS ST & FORSTALL ST",
    "address_councildis": "E",
    "status": "Pending",
    "rowid": "884671",
    "final_x": "3697726.0",
    "final_y": "539442.68",
    "longitude": "-90.01654725855039",
    "latitude": "29.976777589862067",
    "geocoded_column": {
      "latitude": "29.976777589862067",
      "longitude": "-90.01654725855039"
    }
  },
  {
    "service_request": "2022-884670",
    "request_type": "Abandoned Vehicles",
    "request_reason": "Abandoned/Junk Vehicles",
    "date_created": "2022-05-19T15:55:20.000",
    "date_modified": "2022-05-19T15:55:20.000",
    "request_status": "Pending",
    "responsible_agency": "Department of Public Works",
    "final_address": "3405 Royal St",
    "address_councildis": "C",
    "status": "Pending",
    "rowid": "884670",
    "final_x": "3689881.11644",
    "final_y": "534240.459077",
    "longitude": "-90.04150901406362",
    "latitude": "29.962718867948315",
    "geocoded_column": {
      "latitude": "29.962718867948315",
      "longitude": "-90.04150901406362"
    }
  },
  {
    "service_request": "2022-884669",
    "request_type": "Trash/Recycling",
    "request_reason": "Illegal Dumping",
    "date_created": "2022-05-19T15:52:28.000",
    "date_modified": "2022-05-19T15:52:28.000",
    "request_status": "Pending",
    "responsible_agency": "Department of Sanitation",
    "final_address": "3405 Royal St",
    "address_councildis": "C",
    "status": "Pending",
    "rowid": "884669",
    "final_x": "3689881.11644",
    "final_y": "534240.459077",
    "longitude": "-90.04150901406362",
    "latitude": "29.962718867948315",
    "geocoded_column": {
      "latitude": "29.962718867948315",
      "longitude": "-90.04150901406362"
    }
  },
  {
    "service_request": "2022-884668",
    "request_type": "Safety & Permits",
    "request_reason": "Licenses & Permits",
    "date_created": "2022-05-19T15:49:43.000",
    "date_modified": "2022-05-19T15:49:43.000",
    "request_status": "Pending",
    "responsible_agency": "Safety and Permits",
    "final_address": "3405 Royal St",
    "address_councildis": "C",
    "status": "Pending",
    "rowid": "884668",
    "final_x": "3689881.11644",
    "final_y": "534240.459077",
    "longitude": "-90.04150901406362",
    "latitude": "29.962718867948315",
    "geocoded_column": {
      "latitude": "29.962718867948315",
      "longitude": "-90.04150901406362"
    }
  },
  {
    "service_request": "2022-884667",
    "request_type": "Traffic Signals/Signs/Striping/Streetlights",
    "request_reason": "Street Light Outage/Malfunction",
    "date_created": "2022-05-19T15:46:35.000",
    "date_modified": "2022-05-19T15:46:36.000",
    "request_status": "Pending",
    "responsible_agency": "Department of Public Works",
    "final_address": "5850 E Filmore Ave",
    "address_councildis": "D",
    "status": "Pending",
    "contractor": "Royal Engineering",
    "rowid": "884667",
    "final_x": "3696131.3073",
    "final_y": "553048.128407",
    "longitude": "-90.02109166720616",
    "latitude": "30.014237865026093",
    "geocoded_column": {
      "latitude": "30.014237865026093",
      "longitude": "-90.02109166720616"
    }
  },
  {
    "service_request": "2022-884666",
    "request_type": "Abandoned Vehicles",
    "request_reason": "Abandoned/Junk Vehicles",
    "date_created": "2022-05-19T15:42:41.000",
    "date_modified": "2022-05-19T15:42:41.000",
    "request_status": "Pending",
    "responsible_agency": "Department of Public Works",
    "final_address": "836 Desire St",
    "address_councildis": "C",
    "status": "Pending",
    "rowid": "884666",
    "final_x": "3689942.48617",
    "final_y": "534860.31975",
    "longitude": "-90.04129314527765",
    "latitude": "29.964421365667665",
    "geocoded_column": {
      "latitude": "29.964421365667665",
      "longitude": "-90.04129314527765"
    }
  },
  {
    "service_request": "2022-884665",
    "request_type": "Trash/Recycling",
    "request_reason": "Order Trash Cart",
    "date_created": "2022-05-19T15:40:44.000",
    "date_modified": "2022-05-19T16:13:41.000",
    "request_status": "Pending",
    "responsible_agency": "Department of Sanitation",
    "final_address": "New Orleans,LA",
    "address_councildis": "A",
    "status": "Assigned to Contractor",
    "contractor": "Metro Disposal",
    "rowid": "884665",
    "final_x": "3669454.28442",
    "final_y": "547618.917074",
    "longitude": "-90.10556176863508",
    "latitude": "30.00012250210243",
    "geocoded_column": {
      "latitude": "30.00012250210243",
      "longitude": "-90.10556176863508"
    }
  },
  {
    "service_request": "2022-884664",
    "request_type": "Trash/Recycling",
    "request_reason": "Replace Trash Cart",
    "date_created": "2022-05-19T15:37:17.000",
    "date_modified": "2022-05-19T15:37:25.000",
    "request_status": "Pending",
    "responsible_agency": "Department of Sanitation",
    "final_address": "2621 Touro St",
    "address_councildis": "D",
    "status": "Assigned to Contractor",
    "contractor": "Metro Disposal",
    "rowid": "884664",
    "final_x": "3683806.78153",
    "final_y": "541997.624908",
    "longitude": "-90.06041881022253",
    "latitude": "29.98423527846513",
    "geocoded_column": {
      "latitude": "29.98423527846513",
      "longitude": "-90.06041881022253"
    }
  },
  {
    "service_request": "2022-884663",
    "request_type": "Safety & Permits",
    "request_reason": "Construction permit",
    "date_created": "2022-05-19T15:36:45.000",
    "date_modified": "2022-05-19T15:36:45.000",
    "request_status": "Pending",
    "responsible_agency": "Department of Code Enforcement",
    "final_address": "918 Jourdan Ave",
    "address_councildis": "E",
    "status": "Pending",
    "rowid": "884663",
    "final_x": "3694786.27894",
    "final_y": "533895.971269",
    "longitude": "-90.02603164181808",
    "latitude": "29.96161867776963",
    "geocoded_column": {
      "latitude": "29.96161867776963",
      "longitude": "-90.02603164181808"
    }
  },
  {
    "service_request": "2022-884662",
    "request_type": "Trash/Recycling",
    "request_reason": "Request a Large Item Pick Up",
    "date_created": "2022-05-19T15:30:53.000",
    "date_modified": "2022-05-19T15:30:54.000",
    "request_status": "Pending",
    "responsible_agency": "Department of Sanitation",
    "final_address": "922 S Telemachus St",
    "address_councildis": "B",
    "status": "Assigned to Contractor",
    "contractor": "Richards Disposal",
    "rowid": "884662",
    "final_x": "3670116.65146",
    "final_y": "534307.913157",
    "longitude": "-90.1039204820615",
    "latitude": "29.963502236832955",
    "geocoded_column": {
      "latitude": "29.963502236832955",
      "longitude": "-90.1039204820615"
    }
  },
  {
    "service_request": "2022-884660",
    "request_type": "Trash/Recycling",
    "request_reason": "Request a Large Item Pick Up",
    "date_created": "2022-05-19T15:25:14.000",
    "date_modified": "2022-05-19T15:25:15.000",
    "request_status": "Pending",
    "responsible_agency": "Department of Sanitation",
    "final_address": "2513 Amelia St",
    "address_councildis": "B",
    "status": "Assigned to Contractor",
    "contractor": "Richards Disposal",
    "rowid": "884660",
    "final_x": "3672363.03271",
    "final_y": "524411.833404",
    "longitude": "-90.09716377858985",
    "latitude": "29.936224813041658",
    "geocoded_column": {
      "latitude": "29.936224813041658",
      "longitude": "-90.09716377858985"
    }
  },
  {
    "service_request": "2022-884659",
    "request_type": "Trash/Recycling",
    "request_reason": "Request a Large Item Pick Up",
    "date_created": "2022-05-19T15:23:31.000",
    "date_modified": "2022-05-19T15:23:32.000",
    "request_status": "Pending",
    "responsible_agency": "Department of Sanitation",
    "final_address": "216 N Pierce St",
    "address_councildis": "A",
    "status": "Assigned to Contractor",
    "contractor": "Richards Disposal",
    "rowid": "884659",
    "final_x": "3671845.79169",
    "final_y": "538491.717129",
    "longitude": "-90.09831762737298",
    "latitude": "29.97495516362457",
    "geocoded_column": {
      "latitude": "29.97495516362457",
      "longitude": "-90.09831762737298"
    }
  },
  {
    "service_request": "2022-884658",
    "request_type": "Abandoned Vehicles",
    "request_reason": "Abandoned/Junk Vehicles",
    "date_created": "2022-05-19T15:23:20.000",
    "date_modified": "2022-05-19T15:23:20.000",
    "request_status": "Pending",
    "responsible_agency": "Department of Public Works",
    "final_address": "8428 Willow St",
    "address_councildis": "A",
    "status": "Pending",
    "rowid": "884658",
    "final_x": "3661423.52947",
    "final_y": "529759.880897",
    "longitude": "-90.13152321607059",
    "latitude": "29.951250221411694",
    "geocoded_column": {
      "latitude": "29.951250221411694",
      "longitude": "-90.13152321607059"
    }
  },
  {
    "service_request": "2022-884655",
    "request_type": "Trash/Recycling",
    "request_reason": "Request a Large Item Pick Up",
    "date_created": "2022-05-19T15:12:28.000",
    "date_modified": "2022-05-19T15:12:28.000",
    "request_status": "Pending",
    "responsible_agency": "Department of Sanitation",
    "final_address": "5606 Bellaire Dr",
    "address_councildis": "A",
    "status": "Assigned to Contractor",
    "contractor": "Metro Disposal",
    "rowid": "884655",
    "final_x": "3664040.51629",
    "final_y": "545074.919823",
    "longitude": "-90.12274913135253",
    "latitude": "29.99328577056706",
    "geocoded_column": {
      "latitude": "29.99328577056706",
      "longitude": "-90.12274913135253"
    }
  },
  {
    "service_request": "2022-884654",
    "request_type": "Trash/Recycling",
    "request_reason": "Request a Large Item Pick Up",
    "date_created": "2022-05-19T15:11:47.000",
    "date_modified": "2022-05-19T15:11:47.000",
    "request_status": "Pending",
    "responsible_agency": "Department of Sanitation",
    "final_address": "2539 Banks St",
    "address_councildis": "B",
    "status": "Assigned to Contractor",
    "contractor": "Richards Disposal",
    "rowid": "884654",
    "final_x": "3675198.63086",
    "final_y": "533781.363589",
    "longitude": "-90.08789018739895",
    "latitude": "29.961903495163675",
    "geocoded_column": {
      "latitude": "29.961903495163675",
      "longitude": "-90.08789018739895"
    }
  },
  {
    "service_request": "2022-884653",
    "request_type": "Trash/Recycling",
    "request_reason": "Request a Large Item Pick Up",
    "date_created": "2022-05-19T15:06:54.000",
    "date_modified": "2022-05-19T15:06:55.000",
    "request_status": "Pending",
    "responsible_agency": "Department of Sanitation",
    "final_address": "129 S Alexander St, New Orleans, Louisiana, 70119",
    "address_councildis": "A",
    "status": "Assigned to Contractor",
    "contractor": "Richards Disposal",
    "rowid": "884653",
    "final_x": "3669784.26081",
    "final_y": "538978.97249",
    "longitude": "-90.1048119882522",
    "latitude": "29.976355887018734",
    "geocoded_column": {
      "latitude": "29.976355887018734",
      "longitude": "-90.1048119882522"
    }
  },
  {
    "service_request": "2022-884652",
    "request_type": "Trash/Recycling",
    "request_reason": "Request a Large Item Pick Up",
    "date_created": "2022-05-19T15:05:32.000",
    "date_modified": "2022-05-19T15:05:33.000",
    "request_status": "Pending",
    "responsible_agency": "Department of Sanitation",
    "final_address": "8217 Plum St",
    "address_councildis": "A",
    "status": "Assigned to Contractor",
    "contractor": "Richards Disposal",
    "rowid": "884652",
    "final_x": "3661856.76883",
    "final_y": "528999.420224",
    "longitude": "-90.13018046598629",
    "latitude": "29.949146697045748",
    "geocoded_column": {
      "latitude": "29.949146697045748",
      "longitude": "-90.13018046598629"
    }
  },
  {
    "service_request": "2022-884651",
    "request_type": "Roads/Drainage",
    "request_reason": "Road Shoulder Repair",
    "date_created": "2022-05-19T15:05:02.000",
    "date_modified": "2022-05-19T15:05:03.000",
    "request_status": "Pending",
    "responsible_agency": "Department of Public Works",
    "final_address": "7451 Seven Oaks Rd",
    "address_councildis": "E",
    "status": "Pending",
    "rowid": "884651",
    "final_x": "3712490.94578",
    "final_y": "565573.926306",
    "longitude": "-89.96893270082326",
    "latitude": "30.04815353072187",
    "geocoded_column": {
      "latitude": "30.04815353072187",
      "longitude": "-89.96893270082326"
    }
  },
  {
    "service_request": "2022-884650",
    "request_type": "Abandoned Vehicles",
    "request_reason": "Abandoned/Junk Vehicles",
    "date_created": "2022-05-19T15:04:45.000",
    "date_modified": "2022-05-19T15:04:45.000",
    "request_status": "Pending",
    "responsible_agency": "Department of Public Works",
    "final_address": "6137 Catina St",
    "address_councildis": "A",
    "status": "Pending",
    "rowid": "884650",
    "final_x": "3666900.32833",
    "final_y": "548430.595666",
    "longitude": "-90.11360258490949",
    "latitude": "30.002429336636297",
    "geocoded_column": {
      "latitude": "30.002429336636297",
      "longitude": "-90.11360258490949"
    }
  },
  {
    "service_request": "2022-884649",
    "request_type": "Abandoned Vehicles",
    "request_reason": "Abandoned/Junk Vehicles",
    "date_created": "2022-05-19T15:04:09.000",
    "date_modified": "2022-05-19T15:04:10.000",
    "request_status": "Pending",
    "responsible_agency": "Department of Public Works",
    "final_address": "5808 Orleans Ave",
    "address_councildis": "A",
    "status": "Pending",
    "rowid": "884649",
    "final_x": "3670724.15515",
    "final_y": "545846.088464",
    "longitude": "-90.10161037228227",
    "latitude": "29.995210363979112",
    "geocoded_column": {
      "latitude": "29.995210363979112",
      "longitude": "-90.10161037228227"
    }
  },
  {
    "service_request": "2022-884648",
    "request_type": "Trash/Recycling",
    "request_reason": "Replace Recycling Cart",
    "date_created": "2022-05-19T15:01:41.000",
    "date_modified": "2022-05-19T15:01:41.000",
    "request_status": "Pending",
    "responsible_agency": "Department of Sanitation",
    "final_address": "2539 Banks St, New Orleans, Louisiana, 70119",
    "address_councildis": "B",
    "status": "Pending",
    "rowid": "884648",
    "final_x": "3675198.63086",
    "final_y": "533781.363589",
    "longitude": "-90.08789018739895",
    "latitude": "29.961903495163675",
    "geocoded_column": {
      "latitude": "29.961903495163675",
      "longitude": "-90.08789018739895"
    }
  },
  {
    "service_request": "2022-884647",
    "request_type": "Traffic Signals/Signs/Striping/Streetlights",
    "request_reason": "Traffic Signal Malfunctioning/Damaged",
    "date_created": "2022-05-19T14:59:12.000",
    "date_modified": "2022-05-19T14:59:13.000",
    "request_status": "Pending",
    "responsible_agency": "Department of Public Works",
    "final_address": "POYDRAS ST & CAMP ST",
    "address_councildis": "B",
    "status": "Pending",
    "rowid": "884647",
    "final_x": "3681111.4",
    "final_y": "529242.58",
    "longitude": "-90.0693767053642",
    "latitude": "29.94924533968395",
    "geocoded_column": {
      "latitude": "29.94924533968395",
      "longitude": "-90.0693767053642"
    }
  },
  {
    "service_request": "2022-884646",
    "request_type": "Trash/Recycling",
    "request_reason": "Request a Large Item Pick Up",
    "date_created": "2022-05-19T14:57:08.000",
    "date_modified": "2022-05-19T14:57:08.000",
    "request_status": "Pending",
    "responsible_agency": "Department of Sanitation",
    "final_address": "636 State St",
    "address_councildis": "A",
    "status": "Assigned to Contractor",
    "contractor": "Richards Disposal",
    "rowid": "884646",
    "final_x": "3664529.68775",
    "final_y": "518875.585079",
    "longitude": "-90.1220787533461",
    "latitude": "29.92123192240745",
    "geocoded_column": {
      "latitude": "29.92123192240745",
      "longitude": "-90.1220787533461"
    }
  },
  {
    "service_request": "2022-884645",
    "request_type": "Trash/Recycling",
    "request_reason": "Missed Trash Pick-Up",
    "date_created": "2022-05-19T14:57:06.000",
    "date_modified": "2022-05-19T14:57:06.000",
    "request_status": "Pending",
    "responsible_agency": "Department of Sanitation",
    "final_address": "1238 Monroe St",
    "address_councildis": "A",
    "status": "Assigned to Contractor",
    "contractor": "Richards Disposal",
    "rowid": "884645",
    "final_x": "3660569.32147",
    "final_y": "530064.605121",
    "longitude": "-90.13421032832385",
    "latitude": "29.95211272288073",
    "geocoded_column": {
      "latitude": "29.95211272288073",
      "longitude": "-90.13421032832385"
    }
  },
  {
    "service_request": "2022-884644",
    "request_type": "Roads/Drainage",
    "request_reason": "Leaking Hydrant",
    "date_created": "2022-05-19T14:53:27.000",
    "date_modified": "2022-05-19T14:53:29.000",
    "request_status": "Pending",
    "responsible_agency": "Department of Public Works",
    "final_address": "4562 Gallier Dr",
    "address_councildis": "D",
    "status": "Pending",
    "rowid": "884644",
    "final_x": "3692070.05283",
    "final_y": "551406.767125",
    "longitude": "-90.03398195503156",
    "latitude": "30.009851991903787",
    "geocoded_column": {
      "latitude": "30.009851991903787",
      "longitude": "-90.03398195503156"
    }
  },
  {
    "service_request": "2022-884643",
    "request_type": "Trash/Recycling",
    "request_reason": "Order Trash Cart",
    "date_created": "2022-05-19T14:44:57.000",
    "date_modified": "2022-05-19T14:44:57.000",
    "request_status": "Pending",
    "responsible_agency": "Department of Sanitation",
    "final_address": "2601 General Collins Ave",
    "address_councildis": "C",
    "status": "Assigned to Contractor",
    "contractor": "Richards Disposal",
    "rowid": "884643",
    "final_x": "3698351.4929",
    "final_y": "521658.910777",
    "longitude": "-90.01521787905371",
    "latitude": "29.92785871096253",
    "geocoded_column": {
      "latitude": "29.92785871096253",
      "longitude": "-90.01521787905371"
    }
  },
  {
    "service_request": "2022-884642",
    "request_type": "Trash/Recycling",
    "request_reason": "Order Trash Cart",
    "date_created": "2022-05-19T14:38:10.000",
    "date_modified": "2022-05-19T14:38:11.000",
    "request_status": "Pending",
    "responsible_agency": "Department of Sanitation",
    "final_address": "New Orleans,LA",
    "status": "Assigned to Contractor",
    "rowid": "884642",
    "longitude": "0.0",
    "latitude": "0.0",
    "geocoded_column": {
      "latitude": "0.0",
      "longitude": "0.0"
    }
  },
  {
    "service_request": "2022-884641",
    "request_type": "Trash/Recycling",
    "request_reason": "Repair Recycling Cart",
    "date_created": "2022-05-19T14:36:32.000",
    "date_modified": "2022-05-19T14:36:32.000",
    "request_status": "Pending",
    "responsible_agency": "Department of Sanitation",
    "final_address": "2583 Valentine Ct",
    "address_councildis": "C",
    "status": "Pending",
    "rowid": "884641",
    "final_x": "3699054.20183",
    "final_y": "521632.081785",
    "longitude": "-90.01300058116621",
    "latitude": "29.927762694545066",
    "geocoded_column": {
      "latitude": "29.927762694545066",
      "longitude": "-90.01300058116621"
    }
  },
  {
    "service_request": "2022-884640",
    "request_type": "Trash/Recycling",
    "request_reason": "Missed Trash Pick-Up",
    "date_created": "2022-05-19T14:35:04.000",
    "date_modified": "2022-05-19T14:35:06.000",
    "request_status": "Pending",
    "responsible_agency": "Department of Sanitation",
    "final_address": "1315 Exposition Blvd",
    "address_councildis": "A",
    "status": "Assigned to Contractor",
    "contractor": "Richards Disposal",
    "rowid": "884640",
    "final_x": "3663926.68647",
    "final_y": "521499.865593",
    "longitude": "-90.12389473459156",
    "latitude": "29.92846538485931",
    "geocoded_column": {
      "latitude": "29.92846538485931",
      "longitude": "-90.12389473459156"
    }
  },
  {
    "service_request": "2022-884639",
    "request_type": "Roads/Drainage",
    "request_reason": "Pothole",
    "date_created": "2022-05-19T14:34:56.000",
    "date_modified": "2022-05-19T14:37:27.000",
    "case_close_date": "2022-05-19T09:37:27.000",
    "request_status": "Closed",
    "responsible_agency": "Department of Public Works",
    "final_address": "2600 BLK Monticello Ave",
    "address_councildis": "A",
    "status": "Resolved",
    "rowid": "884639",
    "final_x": "3662201.83042",
    "final_y": "535209.18101",
    "longitude": "-90.12888485118305",
    "latitude": "29.966211559062085",
    "geocoded_column": {
      "latitude": "29.966211559062085",
      "longitude": "-90.12888485118305"
    }
  },
  {
    "service_request": "2022-884638",
    "request_type": "Traffic Signals/Signs/Striping/Streetlights",
    "request_reason": "Street Light Outage/Malfunction",
    "date_created": "2022-05-19T14:26:54.000",
    "date_modified": "2022-05-19T14:26:55.000",
    "request_status": "Pending",
    "responsible_agency": "Department of Public Works",
    "final_address": "531 Decatur St",
    "address_councildis": "C",
    "status": "Pending",
    "contractor": "Royal Engineering",
    "rowid": "884638",
    "final_x": "3682833.69295",
    "final_y": "531646.421571",
    "longitude": "-90.06385458144078",
    "latitude": "29.955802737606582",
    "geocoded_column": {
      "latitude": "29.955802737606582",
      "longitude": "-90.06385458144078"
    }
  },
  {
    "service_request": "2022-884637",
    "request_type": "Traffic Signals/Signs/Striping/Streetlights",
    "request_reason": "Street Light Outage/Malfunction",
    "date_created": "2022-05-19T14:26:26.000",
    "date_modified": "2022-05-19T14:26:27.000",
    "request_status": "Pending",
    "responsible_agency": "Department of Public Works",
    "final_address": "541 Decatur St",
    "address_councildis": "C",
    "status": "Pending",
    "contractor": "Royal Engineering",
    "rowid": "884637",
    "final_x": "3682884.65788",
    "final_y": "531703.621763",
    "longitude": "-90.06369165090109",
    "latitude": "29.95595846599303",
    "geocoded_column": {
      "latitude": "29.95595846599303",
      "longitude": "-90.06369165090109"
    }
  },
  {
    "service_request": "2022-884636",
    "request_type": "Trash/Recycling",
    "request_reason": "Request a Large Item Pick Up",
    "date_created": "2022-05-19T14:26:16.000",
    "date_modified": "2022-05-19T14:26:16.000",
    "request_status": "Pending",
    "responsible_agency": "Department of Sanitation",
    "final_address": "6802 Louisville St",
    "address_councildis": "A",
    "status": "Assigned to Contractor",
    "contractor": "Metro Disposal",
    "rowid": "884636",
    "final_x": "3668136.48109",
    "final_y": "552809.77615",
    "longitude": "-90.10954965566988",
    "latitude": "30.014434312659635",
    "geocoded_column": {
      "latitude": "30.014434312659635",
      "longitude": "-90.10954965566988"
    }
  },
  {
    "service_request": "2022-884635",
    "request_type": "Abandoned Vehicles",
    "request_reason": "Abandoned/Junk Vehicles",
    "date_created": "2022-05-19T14:26:14.000",
    "date_modified": "2022-05-19T14:29:31.000",
    "request_status": "Pending",
    "responsible_agency": "Department of Public Works",
    "final_address": "LAUREL ST & ELEONORE ST",
    "address_councildis": "A",
    "status": "Pending",
    "rowid": "884635",
    "final_x": "3665010.7",
    "final_y": "518070.38",
    "longitude": "-90.12058730564416",
    "latitude": "29.919003869977004",
    "geocoded_column": {
      "latitude": "29.919003869977004",
      "longitude": "-90.12058730564416"
    }
  },
  {
    "service_request": "2022-884634",
    "request_type": "Traffic Signals/Signs/Striping/Streetlights",
    "request_reason": "Street Light Outage/Malfunction",
    "date_created": "2022-05-19T14:24:42.000",
    "date_modified": "2022-05-19T14:24:43.000",
    "request_status": "Pending",
    "responsible_agency": "Department of Public Works",
    "final_address": "819 St Louis St",
    "address_councildis": "C",
    "status": "Pending",
    "contractor": "Royal Engineering",
    "rowid": "884634",
    "final_x": "3681732.08834",
    "final_y": "532255.725251",
    "longitude": "-90.06731180252456",
    "latitude": "29.957511628543656",
    "geocoded_column": {
      "latitude": "29.957511628543656",
      "longitude": "-90.06731180252456"
    }
  },
  {
    "service_request": "2022-884633",
    "request_type": "Roads/Drainage",
    "request_reason": "Debris in Roadway",
    "date_created": "2022-05-19T14:21:39.000",
    "date_modified": "2022-05-19T14:21:39.000",
    "request_status": "Pending",
    "responsible_agency": "Department of Public Works",
    "final_address": "2501 Pressburg St",
    "address_councildis": "D",
    "status": "Pending",
    "rowid": "884633",
    "final_x": "3685785.23177",
    "final_y": "554816.1142",
    "longitude": "-90.05371764300008",
    "latitude": "30.019420909844662",
    "geocoded_column": {
      "latitude": "30.019420909844662",
      "longitude": "-90.05371764300008"
    }
  },
  {
    "service_request": "2022-884632",
    "request_type": "Trash/Recycling",
    "request_reason": "Illegal Dumping",
    "date_created": "2022-05-19T14:21:21.000",
    "date_modified": "2022-05-19T14:21:21.000",
    "request_status": "Pending",
    "responsible_agency": "Department of Sanitation",
    "final_address": "2341 N Galvez St",
    "address_councildis": "D",
    "status": "Pending",
    "rowid": "884632",
    "final_x": "3685803.41801",
    "final_y": "540104.497675",
    "longitude": "-90.05417909994769",
    "latitude": "29.978968706739195",
    "geocoded_column": {
      "latitude": "29.978968706739195",
      "longitude": "-90.05417909994769"
    }
  },
  {
    "service_request": "2022-884631",
    "request_type": "Trash/Recycling",
    "request_reason": "MIssed Recycling Pick-Up",
    "date_created": "2022-05-19T14:21:01.000",
    "date_modified": "2022-05-19T14:21:02.000",
    "request_status": "Pending",
    "responsible_agency": "Department of Sanitation",
    "final_address": "6203 S Rocheblave St, New Orleans, Louisiana, 70125",
    "address_councildis": "A",
    "status": "Assigned to Contractor",
    "contractor": "Richards Disposal",
    "rowid": "884631",
    "final_x": "3667642.84884",
    "final_y": "528734.782912",
    "longitude": "-90.11192011495264",
    "latitude": "29.948250706343114",
    "geocoded_column": {
      "latitude": "29.948250706343114",
      "longitude": "-90.11192011495264"
    }
  },
  {
    "service_request": "2022-884630",
    "request_type": "Property Maintenance",
    "request_reason": "Property Maintenance",
    "date_created": "2022-05-19T14:17:19.000",
    "date_modified": "2022-05-19T14:17:19.000",
    "request_status": "Pending",
    "responsible_agency": "Department of Code Enforcement",
    "final_address": "1517 Kabel Dr",
    "address_councildis": "C",
    "status": "Pending",
    "rowid": "884630",
    "final_x": "3700658.85623",
    "final_y": "522228.80217",
    "longitude": "-90.00791331266214",
    "latitude": "29.92935253013688",
    "geocoded_column": {
      "latitude": "29.92935253013688",
      "longitude": "-90.00791331266214"
    }
  },
  {
    "service_request": "2022-884629",
    "request_type": "Traffic Signals/Signs/Striping/Streetlights",
    "request_reason": "Street Light Outage/Malfunction",
    "date_created": "2022-05-19T14:14:34.000",
    "date_modified": "2022-05-19T14:14:35.000",
    "request_status": "Pending",
    "responsible_agency": "Department of Public Works",
    "final_address": "701 Canal St",
    "address_councildis": "C",
    "status": "Pending",
    "contractor": "Royal Engineering",
    "rowid": "884629",
    "final_x": "3681221.29013",
    "final_y": "530758.078594",
    "longitude": "-90.06897693357314",
    "latitude": "29.953409116160664",
    "geocoded_column": {
      "latitude": "29.953409116160664",
      "longitude": "-90.06897693357314"
    }
  },
  {
    "service_request": "2022-884628",
    "request_type": "Trash/Recycling",
    "request_reason": "Request a Large Item Pick Up",
    "date_created": "2022-05-19T14:13:45.000",
    "date_modified": "2022-05-19T14:13:46.000",
    "request_status": "Pending",
    "responsible_agency": "Department of Sanitation",
    "final_address": "1541 Shirley Dr",
    "address_councildis": "C",
    "status": "Assigned to Contractor",
    "contractor": "Richards Disposal",
    "rowid": "884628",
    "final_x": "3692963.012",
    "final_y": "525016.811709",
    "longitude": "-90.03210760299493",
    "latitude": "29.937261137904606",
    "geocoded_column": {
      "latitude": "29.937261137904606",
      "longitude": "-90.03210760299493"
    }
  },
  {
    "service_request": "2022-884627",
    "request_type": "Trash/Recycling",
    "request_reason": "MIssed Recycling Pick-Up",
    "date_created": "2022-05-19T14:11:58.000",
    "date_modified": "2022-05-19T14:11:58.000",
    "request_status": "Pending",
    "responsible_agency": "Department of Sanitation",
    "final_address": "954 Felicity St",
    "address_councildis": "B",
    "status": "Assigned to Contractor",
    "contractor": "Richards Disposal",
    "rowid": "884627",
    "final_x": "3680186.53947",
    "final_y": "522794.030715",
    "longitude": "-90.07252093721202",
    "latitude": "29.931541991666755",
    "geocoded_column": {
      "latitude": "29.931541991666755",
      "longitude": "-90.07252093721202"
    }
  },
  {
    "service_request": "2022-884626",
    "request_type": "Trash/Recycling",
    "request_reason": "Repair Trash Cart",
    "date_created": "2022-05-19T13:56:36.000",
    "date_modified": "2022-05-19T13:56:37.000",
    "request_status": "Pending",
    "responsible_agency": "Department of Sanitation",
    "final_address": "1223 Philip St",
    "address_councildis": "B",
    "status": "Assigned to Contractor",
    "contractor": "Richards Disposal",
    "rowid": "884626",
    "final_x": "3678211.73205",
    "final_y": "522329.680826",
    "longitude": "-90.07877122329332",
    "latitude": "29.93032478286037",
    "geocoded_column": {
      "latitude": "29.93032478286037",
      "longitude": "-90.07877122329332"
    }
  },
  {
    "service_request": "2022-884625",
    "request_type": "Property Maintenance",
    "request_reason": "Property Maintenance",
    "date_created": "2022-05-19T13:56:31.000",
    "date_modified": "2022-05-19T13:56:31.000",
    "request_status": "Pending",
    "responsible_agency": "Department of Code Enforcement",
    "final_address": "2416 Dante St",
    "address_councildis": "A",
    "status": "Pending",
    "rowid": "884625",
    "final_x": "3664369.0178",
    "final_y": "532153.571523",
    "longitude": "-90.1221428877437",
    "latitude": "29.957746817549204",
    "geocoded_column": {
      "latitude": "29.957746817549204",
      "longitude": "-90.1221428877437"
    }
  },
  {
    "service_request": "2022-884624",
    "request_type": "Traffic Signals/Signs/Striping/Streetlights",
    "request_reason": "Street Light Outage/Malfunction",
    "date_created": "2022-05-19T13:56:01.000",
    "date_modified": "2022-05-19T13:56:02.000",
    "request_status": "Pending",
    "responsible_agency": "Department of Public Works",
    "final_address": "1218 Conery St",
    "address_councildis": "B",
    "status": "Pending",
    "contractor": "Royal Engineering",
    "rowid": "884624",
    "final_x": "3676498.51489",
    "final_y": "521115.070009",
    "longitude": "-90.08422138563039",
    "latitude": "29.92703646427374",
    "geocoded_column": {
      "latitude": "29.92703646427374",
      "longitude": "-90.08422138563039"
    }
  },
  {
    "service_request": "2022-884623",
    "request_type": "Abandoned Vehicles",
    "request_reason": "Abandoned/Junk Vehicles",
    "date_created": "2022-05-19T13:53:16.000",
    "date_modified": "2022-05-19T13:53:16.000",
    "request_status": "Pending",
    "responsible_agency": "Department of Public Works",
    "final_address": "3600 Loyola Ave",
    "address_councildis": "B",
    "status": "Pending",
    "rowid": "884623",
    "final_x": "3672740.19976",
    "final_y": "523210.975867",
    "longitude": "-90.09601398662733",
    "latitude": "29.932911650087114",
    "geocoded_column": {
      "latitude": "29.932911650087114",
      "longitude": "-90.09601398662733"
    }
  },
  {
    "service_request": "2022-884622",
    "request_type": "Roads/Drainage",
    "request_reason": "Pothole",
    "date_created": "2022-05-19T13:53:04.000",
    "date_modified": "2022-05-19T13:53:04.000",
    "request_status": "Pending",
    "responsible_agency": "Department of Public Works",
    "final_address": "3410 Lancaster St",
    "address_councildis": "C",
    "status": "Pending",
    "rowid": "884622",
    "final_x": "3709958.6547",
    "final_y": "518170.008246",
    "longitude": "-89.978707346038",
    "latitude": "29.917893209818583",
    "geocoded_column": {
      "latitude": "29.917893209818583",
      "longitude": "-89.978707346038"
    }
  },
  {
    "service_request": "2022-884621",
    "request_type": "Property Maintenance",
    "request_reason": "Property Maintenance",
    "date_created": "2022-05-19T13:49:52.000",
    "date_modified": "2022-05-19T13:49:53.000",
    "request_status": "Pending",
    "responsible_agency": "Department of Code Enforcement",
    "final_address": "1822 New Orleans St",
    "address_councildis": "D",
    "status": "Pending",
    "rowid": "884621",
    "final_x": "3682153.58594",
    "final_y": "538869.997833",
    "longitude": "-90.06574978932935",
    "latitude": "29.97568579112409",
    "geocoded_column": {
      "latitude": "29.97568579112409",
      "longitude": "-90.06574978932935"
    }
  },
  {
    "service_request": "2022-884620",
    "request_type": "Property Maintenance",
    "request_reason": "Property Maintenance",
    "date_created": "2022-05-19T13:48:50.000",
    "date_modified": "2022-05-19T13:48:50.000",
    "request_status": "Pending",
    "responsible_agency": "Department of Code Enforcement",
    "final_address": "3410 Lancaster St",
    "address_councildis": "C",
    "status": "Pending",
    "rowid": "884620",
    "final_x": "3709958.6547",
    "final_y": "518170.008246",
    "longitude": "-89.978707346038",
    "latitude": "29.917893209818583",
    "geocoded_column": {
      "latitude": "29.917893209818583",
      "longitude": "-89.978707346038"
    }
  },
  {
    "service_request": "2022-884619",
    "request_type": "Trash/Recycling",
    "request_reason": "Missed Trash Pick-Up",
    "date_created": "2022-05-19T13:46:39.000",
    "date_modified": "2022-05-19T13:46:40.000",
    "request_status": "Pending",
    "responsible_agency": "Department of Sanitation",
    "final_address": "915 Pine St, New Orleans, Louisiana, 70118",
    "address_councildis": "A",
    "status": "Assigned to Contractor",
    "contractor": "Richards Disposal",
    "rowid": "884619",
    "final_x": "3663440.33811",
    "final_y": "525880.584573",
    "longitude": "-90.1252842409199",
    "latitude": "29.940525082025268",
    "geocoded_column": {
      "latitude": "29.940525082025268",
      "longitude": "-90.1252842409199"
    }
  },
  {
    "service_request": "2022-884618",
    "request_type": "Traffic Signals/Signs/Striping/Streetlights",
    "request_reason": "Traffic Signal Malfunctioning/Damaged",
    "date_created": "2022-05-19T13:45:41.000",
    "date_modified": "2022-05-19T13:45:41.000",
    "request_status": "Pending",
    "responsible_agency": "Department of Public Works",
    "final_address": "ESPLANADE AVE & N CLAIBORNE AVE",
    "address_councildis": "D",
    "status": "Pending",
    "rowid": "884618",
    "final_x": "3681231.3",
    "final_y": "536639.18",
    "longitude": "-90.06874038104324",
    "latitude": "29.969579834804723",
    "geocoded_column": {
      "latitude": "29.969579834804723",
      "longitude": "-90.06874038104324"
    }
  },
  {
    "service_request": "2022-884617",
    "request_type": "Trash/Recycling",
    "request_reason": "Illegal Dumping",
    "date_created": "2022-05-19T13:45:16.000",
    "date_modified": "2022-05-19T13:45:16.000",
    "request_status": "Pending",
    "responsible_agency": "Department of Sanitation",
    "final_address": "2202 Foucher St",
    "address_councildis": "B",
    "status": "Pending",
    "rowid": "884617",
    "final_x": "3672738.79112",
    "final_y": "523338.011259",
    "longitude": "-90.09601410301875",
    "latitude": "29.933260998149848",
    "geocoded_column": {
      "latitude": "29.933260998149848",
      "longitude": "-90.09601410301875"
    }
  },
  {
    "service_request": "2022-884616",
    "request_type": "Roads/Drainage",
    "request_reason": "Damaged Sidewalk",
    "date_created": "2022-05-19T13:44:25.000",
    "date_modified": "2022-05-19T13:44:26.000",
    "request_status": "Pending",
    "responsible_agency": "Department of Public Works",
    "final_address": "8414 Apricot St",
    "address_councildis": "A",
    "status": "Pending",
    "rowid": "884616",
    "final_x": "3664903.18708",
    "final_y": "533415.834436",
    "longitude": "-90.1204139362508",
    "latitude": "29.961202091423253",
    "geocoded_column": {
      "latitude": "29.961202091423253",
      "longitude": "-90.1204139362508"
    }
  },
  {
    "service_request": "2022-884615",
    "request_type": "Property Maintenance",
    "request_reason": "Property Maintenance",
    "date_created": "2022-05-19T13:35:17.000",
    "date_modified": "2022-05-19T13:35:18.000",
    "request_status": "Pending",
    "responsible_agency": "Department of Code Enforcement",
    "final_address": "PASTEUR BLVD & FILMORE ST",
    "address_councildis": "D",
    "status": "Pending",
    "rowid": "884615",
    "final_x": "3682984.3",
    "final_y": "552231.08",
    "longitude": "-90.06265821271829",
    "latitude": "30.012398718855874",
    "geocoded_column": {
      "latitude": "30.012398718855874",
      "longitude": "-90.06265821271829"
    }
  },
  {
    "service_request": "2022-884614",
    "request_type": "Trash/Recycling",
    "request_reason": "Request a Large Item Pick Up",
    "date_created": "2022-05-19T13:34:43.000",
    "date_modified": "2022-05-19T13:34:44.000",
    "request_status": "Pending",
    "responsible_agency": "Department of Sanitation",
    "final_address": "3632 Laurel St",
    "address_councildis": "B",
    "status": "Assigned to Contractor",
    "contractor": "Richards Disposal",
    "rowid": "884614",
    "final_x": "3674178.46792",
    "final_y": "518445.82335",
    "longitude": "-90.09163649124709",
    "latitude": "29.919766232643006",
    "geocoded_column": {
      "latitude": "29.919766232643006",
      "longitude": "-90.09163649124709"
    }
  },
  {
    "service_request": "2022-884613",
    "request_type": "Trash/Recycling",
    "request_reason": "Replace Trash Cart",
    "date_created": "2022-05-19T13:33:32.000",
    "date_modified": "2022-05-19T13:33:33.000",
    "request_status": "Pending",
    "responsible_agency": "Department of Sanitation",
    "final_address": "2236 Palmer Ave",
    "address_councildis": "A",
    "status": "Assigned to Contractor",
    "contractor": "Richards Disposal",
    "rowid": "884613",
    "final_x": "3666122.2592",
    "final_y": "525240.534205",
    "longitude": "-90.11683839059667",
    "latitude": "29.938687128490333",
    "geocoded_column": {
      "latitude": "29.938687128490333",
      "longitude": "-90.11683839059667"
    }
  },
  {
    "service_request": "2022-884612",
    "request_type": "Trash/Recycling",
    "request_reason": "Missed Trash Pick-Up",
    "date_created": "2022-05-19T13:24:21.000",
    "date_modified": "2022-05-19T13:24:21.000",
    "request_status": "Pending",
    "responsible_agency": "Department of Sanitation",
    "final_address": "1916 Second St",
    "address_councildis": "B",
    "status": "Assigned to Contractor",
    "contractor": "Richards Disposal",
    "rowid": "884612",
    "final_x": "3675993.68821",
    "final_y": "524052.861884",
    "longitude": "-90.08571401763938",
    "latitude": "29.935129558451177",
    "geocoded_column": {
      "latitude": "29.935129558451177",
      "longitude": "-90.08571401763938"
    }
  },
  {
    "service_request": "2022-884611",
    "request_type": "Traffic Signals/Signs/Striping/Streetlights",
    "request_reason": "Street Light Outage/Malfunction",
    "date_created": "2022-05-19T13:20:09.000",
    "date_modified": "2022-05-19T13:20:10.000",
    "request_status": "Pending",
    "responsible_agency": "Department of Public Works",
    "final_address": "7725 Burke Ave",
    "address_councildis": "E",
    "status": "Pending",
    "contractor": "Royal Engineering",
    "rowid": "884611",
    "final_x": "3705320.50046",
    "final_y": "563280.573792",
    "longitude": "-89.99168011162988",
    "latitude": "30.042080539358484",
    "geocoded_column": {
      "latitude": "30.042080539358484",
      "longitude": "-89.99168011162988"
    }
  },
  {
    "service_request": "2022-884610",
    "request_type": "Roads/Drainage",
    "request_reason": "Pothole",
    "date_created": "2022-05-19T13:18:58.000",
    "date_modified": "2022-05-19T13:18:59.000",
    "request_status": "Pending",
    "responsible_agency": "Department of Public Works",
    "final_address": "7723 Burke Ave",
    "address_councildis": "E",
    "status": "Pending",
    "rowid": "884610",
    "final_x": "3705354.18103",
    "final_y": "563222.58768",
    "longitude": "-89.99157581494993",
    "latitude": "30.04192001612186",
    "geocoded_column": {
      "latitude": "30.04192001612186",
      "longitude": "-89.99157581494993"
    }
  },
  {
    "service_request": "2022-884609",
    "request_type": "Trash/Recycling",
    "request_reason": "Repair Trash Cart",
    "date_created": "2022-05-19T13:16:24.000",
    "date_modified": "2022-05-19T13:16:25.000",
    "request_status": "Pending",
    "responsible_agency": "Department of Sanitation",
    "final_address": "751 S Genois St",
    "address_councildis": "B",
    "status": "Assigned to Contractor",
    "contractor": "Richards Disposal",
    "rowid": "884609",
    "final_x": "3670876.03803",
    "final_y": "534999.29383",
    "longitude": "-90.10149894272753",
    "latitude": "29.96538087757639",
    "geocoded_column": {
      "latitude": "29.96538087757639",
      "longitude": "-90.10149894272753"
    }
  },
  {
    "service_request": "2022-884608",
    "request_type": "Trash/Recycling",
    "request_reason": "Replace Trash Cart",
    "date_created": "2022-05-19T13:09:46.000",
    "date_modified": "2022-05-19T13:09:48.000",
    "request_status": "Pending",
    "responsible_agency": "Department of Sanitation",
    "final_address": "2719 Dauphine St",
    "address_councildis": "C",
    "status": "Assigned to Contractor",
    "contractor": "Metro Disposal",
    "rowid": "884608",
    "final_x": "3687298.73807",
    "final_y": "535238.173766",
    "longitude": "-90.04962850782566",
    "latitude": "29.965542037166408",
    "geocoded_column": {
      "latitude": "29.965542037166408",
      "longitude": "-90.04962850782566"
    }
  },
  {
    "service_request": "2022-884607",
    "request_type": "Trash/Recycling",
    "request_reason": "Request a Large Item Pick Up",
    "date_created": "2022-05-19T13:09:19.000",
    "date_modified": "2022-05-19T13:09:20.000",
    "request_status": "Pending",
    "responsible_agency": "Department of Sanitation",
    "final_address": "4008 Annunciation St",
    "address_councildis": "B",
    "status": "Assigned to Contractor",
    "contractor": "Richards Disposal",
    "rowid": "884607",
    "final_x": "3672519.27323",
    "final_y": "517852.101686",
    "longitude": "-90.09689398873016",
    "latitude": "29.918183021840857",
    "geocoded_column": {
      "latitude": "29.918183021840857",
      "longitude": "-90.09689398873016"
    }
  },
  {
    "service_request": "2022-884606",
    "request_type": "Trash/Recycling",
    "request_reason": "Replace Trash Cart",
    "date_created": "2022-05-19T13:05:35.000",
    "date_modified": "2022-05-19T13:05:36.000",
    "request_status": "Pending",
    "responsible_agency": "Department of Sanitation",
    "final_address": "1316 Bartholomew St",
    "address_councildis": "D",
    "status": "Assigned to Contractor",
    "contractor": "Metro Disposal",
    "rowid": "884606",
    "final_x": "3691994.6344",
    "final_y": "536206.841799",
    "longitude": "-90.03476445623207",
    "latitude": "29.96806004094185",
    "geocoded_column": {
      "latitude": "29.96806004094185",
      "longitude": "-90.03476445623207"
    }
  },
  {
    "service_request": "2022-884605",
    "request_type": "Trash/Recycling",
    "request_reason": "Missed Trash Pick-Up",
    "date_created": "2022-05-19T13:03:34.000",
    "date_modified": "2022-05-19T13:05:12.000",
    "request_status": "Pending",
    "responsible_agency": "Department of Sanitation",
    "final_address": "4441 General Pershing St",
    "address_councildis": "B",
    "status": "Assigned to Contractor",
    "contractor": "Richards Disposal",
    "rowid": "884605",
    "final_x": "3669207.55674",
    "final_y": "530000.048961",
    "longitude": "-90.10693691651748",
    "latitude": "29.951683819782264",
    "geocoded_column": {
      "latitude": "29.951683819782264",
      "longitude": "-90.10693691651748"
    }
  },
  {
    "service_request": "2022-884604",
    "request_type": "Traffic Signals/Signs/Striping/Streetlights",
    "request_reason": "Street Light Outage/Malfunction",
    "date_created": "2022-05-19T13:00:34.000",
    "date_modified": "2022-05-19T13:00:35.000",
    "request_status": "Pending",
    "responsible_agency": "Department of Public Works",
    "final_address": "400 BLK S Derbigny St",
    "address_councildis": "B",
    "status": "Pending",
    "contractor": "Royal Engineering",
    "rowid": "884604",
    "final_x": "3677327.72241",
    "final_y": "531916.864432",
    "longitude": "-90.08123118552898",
    "latitude": "29.956712947521382",
    "geocoded_column": {
      "latitude": "29.956712947521382",
      "longitude": "-90.08123118552898"
    }
  },
  {
    "service_request": "2022-884603",
    "request_type": "Trash/Recycling",
    "request_reason": "Request a Large Item Pick Up",
    "date_created": "2022-05-19T12:56:59.000",
    "date_modified": "2022-05-19T12:57:00.000",
    "request_status": "Pending",
    "responsible_agency": "Department of Sanitation",
    "final_address": "5061 Bancroft Dr",
    "address_councildis": "D",
    "status": "Assigned to Contractor",
    "contractor": "Metro Disposal",
    "rowid": "884603",
    "final_x": "3676390.48859",
    "final_y": "550899.512981",
    "longitude": "-90.08353687833646",
    "latitude": "30.008936795742564",
    "geocoded_column": {
      "latitude": "30.008936795742564",
      "longitude": "-90.08353687833646"
    }
  },
  {
    "service_request": "2022-884602",
    "request_type": "Property Maintenance",
    "request_reason": "Property Maintenance",
    "date_created": "2022-05-19T12:55:19.000",
    "date_modified": "2022-05-19T12:55:19.000",
    "request_status": "Pending",
    "responsible_agency": "Department of Code Enforcement",
    "final_address": "541 S Olympia St",
    "address_councildis": "A",
    "status": "Pending",
    "rowid": "884602",
    "final_x": "3668187.08717",
    "final_y": "538136.237577",
    "longitude": "-90.1098847773385",
    "latitude": "29.974085638103784",
    "geocoded_column": {
      "latitude": "29.974085638103784",
      "longitude": "-90.1098847773385"
    }
  },
  {
    "service_request": "2022-884601",
    "request_type": "Parks & Parkways",
    "request_reason": "Request Tree Service (Right of Way/Public Property)",
    "date_created": "2022-05-19T12:54:30.000",
    "date_modified": "2022-05-19T12:54:31.000",
    "request_status": "Pending",
    "responsible_agency": "Department of Parks & Parkway",
    "final_address": "5900 BLK Prytania St",
    "address_councildis": "A",
    "status": "Pending",
    "rowid": "884601",
    "final_x": "3665407.56843",
    "final_y": "520773.322086",
    "longitude": "-90.11924419118198",
    "latitude": "29.92642455681138",
    "geocoded_column": {
      "latitude": "29.92642455681138",
      "longitude": "-90.11924419118198"
    }
  },
  {
    "service_request": "2022-884600",
    "request_type": "Trash/Recycling",
    "request_reason": "Missed Trash Pick-Up",
    "date_created": "2022-05-19T12:49:09.000",
    "date_modified": "2022-05-19T12:49:09.000",
    "request_status": "Pending",
    "responsible_agency": "Department of Sanitation",
    "final_address": "2938 Serantine St",
    "address_councildis": "D",
    "status": "Assigned to Contractor",
    "contractor": "Metro Disposal",
    "rowid": "884600",
    "final_x": "3679275.45083",
    "final_y": "542714.742221",
    "longitude": "-90.0747063622938",
    "latitude": "29.98634473610404",
    "geocoded_column": {
      "latitude": "29.98634473610404",
      "longitude": "-90.0747063622938"
    }
  },
  {
    "service_request": "2022-884599",
    "request_type": "Abandoned Vehicles",
    "request_reason": "Abandoned/Junk Vehicles",
    "date_created": "2022-05-19T12:48:09.000",
    "date_modified": "2022-05-19T12:48:09.000",
    "request_status": "Pending",
    "responsible_agency": "Department of Public Works",
    "final_address": "Toulouse St & N Carrollton Ave, New Orleans, Louisiana, 70119",
    "address_councildis": "A",
    "status": "Pending",
    "rowid": "884599",
    "final_x": "3672307.9",
    "final_y": "539674.48",
    "longitude": "-90.09681785740261",
    "latitude": "29.978193656327022",
    "geocoded_column": {
      "latitude": "29.978193656327022",
      "longitude": "-90.09681785740261"
    }
  },
  {
    "service_request": "2022-884598",
    "request_type": "Trash/Recycling",
    "request_reason": "Request a Large Item Pick Up",
    "date_created": "2022-05-19T12:47:10.000",
    "date_modified": "2022-05-19T12:47:11.000",
    "request_status": "Pending",
    "responsible_agency": "Department of Sanitation",
    "final_address": "1743 N Dorgenois St",
    "address_councildis": "D",
    "status": "Assigned to Contractor",
    "contractor": "Metro Disposal",
    "rowid": "884598",
    "final_x": "3680205.26824",
    "final_y": "540749.873803",
    "longitude": "-90.07183775366069",
    "latitude": "29.980913917848834",
    "geocoded_column": {
      "latitude": "29.980913917848834",
      "longitude": "-90.07183775366069"
    }
  },
  {
    "service_request": "2022-884597",
    "request_type": "Trash/Recycling",
    "request_reason": "Order Trash Cart",
    "date_created": "2022-05-19T12:44:11.000",
    "date_modified": "2022-05-19T12:44:12.000",
    "request_status": "Pending",
    "responsible_agency": "Department of Sanitation",
    "final_address": "New Orleans,LA",
    "status": "Assigned to Contractor",
    "rowid": "884597",
    "longitude": "0.0",
    "latitude": "0.0",
    "geocoded_column": {
      "latitude": "0.0",
      "longitude": "0.0"
    }
  },
  {
    "service_request": "2022-884596",
    "request_type": "Trash/Recycling",
    "request_reason": "Illegal Dumping",
    "date_created": "2022-05-19T12:41:07.000",
    "date_modified": "2022-05-19T12:41:07.000",
    "request_status": "Pending",
    "responsible_agency": "Department of Sanitation",
    "final_address": "CONTI ST & N WHITE ST",
    "address_councildis": "B",
    "status": "Pending",
    "rowid": "884596",
    "final_x": "3675589.9",
    "final_y": "536388.98",
    "longitude": "-90.08656502216805",
    "latitude": "29.96906185924351",
    "geocoded_column": {
      "latitude": "29.96906185924351",
      "longitude": "-90.08656502216805"
    }
  },
  {
    "service_request": "2022-884595",
    "request_type": "Trash/Recycling",
    "request_reason": "Replace Recycling Cart",
    "date_created": "2022-05-19T12:41:02.000",
    "date_modified": "2022-05-19T12:41:02.000",
    "request_status": "Pending",
    "responsible_agency": "Department of Sanitation",
    "final_address": "4123 N Rampart St",
    "address_councildis": "C",
    "status": "Pending",
    "rowid": "884595",
    "final_x": "3692199.27203",
    "final_y": "534772.880198",
    "longitude": "-90.03416955000782",
    "latitude": "29.964110773256415",
    "geocoded_column": {
      "latitude": "29.964110773256415",
      "longitude": "-90.03416955000782"
    }
  },
  {
    "service_request": "2022-884593",
    "request_type": "Trash/Recycling",
    "request_reason": "Illegal Dumping",
    "date_created": "2022-05-19T12:28:07.000",
    "date_modified": "2022-05-19T12:28:08.000",
    "request_status": "Pending",
    "responsible_agency": "Department of Code Enforcement",
    "final_address": "3500 BLK N Rampart St",
    "address_councildis": "C",
    "status": "Pending",
    "rowid": "884593",
    "final_x": "3690484.20102",
    "final_y": "535169.001628",
    "longitude": "-90.03957145144814",
    "latitude": "29.96525332576988",
    "geocoded_column": {
      "latitude": "29.96525332576988",
      "longitude": "-90.03957145144814"
    }
  },
  {
    "service_request": "2022-884592",
    "request_type": "Traffic Signals/Signs/Striping/Streetlights",
    "request_reason": "Traffic Signal Malfunctioning/Damaged",
    "date_created": "2022-05-19T12:21:53.000",
    "date_modified": "2022-05-19T12:21:54.000",
    "request_status": "Pending",
    "responsible_agency": "Department of Public Works",
    "final_address": "EARHART BLVD & MONROE ST",
    "address_councildis": "A",
    "status": "Pending",
    "rowid": "884592",
    "final_x": "3664688.0",
    "final_y": "534533.98",
    "longitude": "-90.12105610501568",
    "latitude": "29.964282886404717",
    "geocoded_column": {
      "latitude": "29.964282886404717",
      "longitude": "-90.12105610501568"
    }
  },
  {
    "service_request": "2022-884591",
    "request_type": "Trash/Recycling",
    "request_reason": "Missed Trash Pick-Up",
    "date_created": "2022-05-19T12:18:59.000",
    "date_modified": "2022-05-19T12:19:00.000",
    "request_status": "Pending",
    "responsible_agency": "Department of Sanitation",
    "final_address": "6438 General Haig St",
    "address_councildis": "A",
    "status": "Assigned to Contractor",
    "contractor": "Metro Disposal",
    "rowid": "884591",
    "final_x": "3670740.66471",
    "final_y": "550189.61282",
    "longitude": "-90.10141070474316",
    "latitude": "30.007153053889468",
    "geocoded_column": {
      "latitude": "30.007153053889468",
      "longitude": "-90.10141070474316"
    }
  },
  {
    "service_request": "2022-884590",
    "request_type": "Trash/Recycling",
    "request_reason": "Order Recycling Cart",
    "date_created": "2022-05-19T12:18:23.000",
    "date_modified": "2022-05-19T12:18:23.000",
    "request_status": "Pending",
    "responsible_agency": "Department of Sanitation",
    "final_address": "1015 Kerlerec St",
    "address_councildis": "C",
    "status": "Pending",
    "rowid": "884590",
    "final_x": "3683301.63938",
    "final_y": "535466.292486",
    "longitude": "-90.06224316980745",
    "latitude": "29.96629180981633",
    "geocoded_column": {
      "latitude": "29.96629180981633",
      "longitude": "-90.06224316980745"
    }
  },
  {
    "service_request": "2022-884589",
    "request_type": "Trash/Recycling",
    "request_reason": "Order Trash Cart",
    "date_created": "2022-05-19T12:17:59.000",
    "date_modified": "2022-05-19T12:18:02.000",
    "request_status": "Pending",
    "responsible_agency": "Department of Sanitation",
    "final_address": "1015 Kerlerec St",
    "address_councildis": "C",
    "status": "Assigned to Contractor",
    "contractor": "Metro Disposal",
    "rowid": "884589",
    "final_x": "3683301.63938",
    "final_y": "535466.292486",
    "longitude": "-90.06224316980745",
    "latitude": "29.96629180981633",
    "geocoded_column": {
      "latitude": "29.96629180981633",
      "longitude": "-90.06224316980745"
    }
  },