[
  {
    "service_request": "2022-857932",
    "request_type": "Parks & Parkways",
    "request_reason": "Request Tree Service (Right of Way/Public Property)",
    "date_created": "2022-02-01T02:08:53.000",
    "date_modified": "2022-02-01T02:08:53.000",
    "request_status": "Pending",
    "responsible_agency": "Department of Parks & Parkway",
    "final_address": "4234 Alfred St",
    "address_councildis": "D",
    "status": "Pending",
    "rowid": "857932",
    "final_x": "3677557.75355",
    "final_y": "547875.939922",
    "longitude": "-90.07995358911155",
    "latitude": "30.000587986176445",
    "geocoded_column": {
      "latitude": "30.000587986176445",
      "longitude": "-90.07995358911155"
    }
  },
  {
    "service_request": "2022-857931",
    "request_type": "Trash/Recycling",
    "request_reason": "Repair Trash Cart",
    "date_created": "2022-02-01T01:35:19.000",
    "date_modified": "2022-02-01T01:35:20.000",
    "request_status": "Pending",
    "responsible_agency": "Department of Sanitation",
    "final_address": "1331 Crescent St",
    "address_councildis": "D",
    "status": "Assigned to Contractor",
    "contractor": "Metro Disposal",
    "rowid": "857931",
    "final_x": "3677271.39234",
    "final_y": "552461.773206",
    "longitude": "-90.08069985244181",
    "latitude": "30.013206003216034",
    "geocoded_column": {
      "latitude": "30.013206003216034",
      "longitude": "-90.08069985244181"
    }
  },
  {
    "service_request": "2022-857930",
    "request_type": "Trash/Recycling",
    "request_reason": "Request a Large Item Pick Up",
    "date_created": "2022-02-01T01:09:15.000",
    "date_modified": "2022-02-01T01:09:16.000",
    "request_status": "Pending",
    "responsible_agency": "Department of Sanitation",
    "final_address": "1724 Peniston St",
    "address_councildis": "B",
    "status": "Assigned to Contractor",
    "contractor": "Richards Disposal",
    "rowid": "857930",
    "final_x": "3672684.36494",
    "final_y": "521750.271418",
    "longitude": "-90.09624003911178",
    "latitude": "29.928896841831587",
    "geocoded_column": {
      "latitude": "29.928896841831587",
      "longitude": "-90.09624003911178"
    }
  },
  {
    "service_request": "2022-857929",
    "request_type": "Trash/Recycling",
    "request_reason": "Order Trash Cart",
    "date_created": "2022-01-31T23:15:29.000",
    "date_modified": "2022-01-31T23:15:30.000",
    "request_status": "Pending",
    "responsible_agency": "Department of Sanitation",
    "final_address": "2534 Palmer Ave",
    "address_councildis": "A",
    "status": "Assigned to Contractor",
    "contractor": "Richards Disposal",
    "rowid": "857929",
    "final_x": "3666516.12589",
    "final_y": "526206.122814",
    "longitude": "-90.11556250776832",
    "latitude": "29.941330683543946",
    "geocoded_column": {
      "latitude": "29.941330683543946",
      "longitude": "-90.11556250776832"
    }
  },
  {
    "service_request": "2022-857928",
    "request_type": "COVID-19",
    "request_reason": "COVID-19 Business Non-Compliance",
    "date_created": "2022-01-31T22:46:28.000",
    "date_modified": "2022-01-31T22:46:29.000",
    "request_status": "Pending",
    "responsible_agency": "Safety and Permits",
    "final_address": "1245 Magazine St",
    "address_councildis": "B",
    "status": "Pending",
    "rowid": "857928",
    "final_x": "3680511.84309",
    "final_y": "525281.205437",
    "longitude": "-90.07140752067795",
    "latitude": "29.938371053692702",
    "geocoded_column": {
      "latitude": "29.938371053692702",
      "longitude": "-90.07140752067795"
    }
  },
  {
    "service_request": "2022-857927",
    "request_type": "Trash/Recycling",
    "request_reason": "Missed Trash Pick-Up",
    "date_created": "2022-01-31T22:34:21.000",
    "date_modified": "2022-01-31T22:34:22.000",
    "request_status": "Pending",
    "responsible_agency": "Department of Sanitation",
    "final_address": "4739 Laine Ave",
    "address_councildis": "E",
    "status": "Assigned to Contractor",
    "contractor": "Metro Disposal",
    "rowid": "857927",
    "final_x": "3705758.23345",
    "final_y": "555419.798425",
    "longitude": "-89.99058784052347",
    "latitude": "30.020452384460025",
    "geocoded_column": {
      "latitude": "30.020452384460025",
      "longitude": "-89.99058784052347"
    }
  },
  {
    "service_request": "2022-857926",
    "request_type": "Abandoned Vehicles",
    "request_reason": "Abandoned/Junk Vehicles",
    "date_created": "2022-01-31T22:13:36.000",
    "date_modified": "2022-01-31T22:13:36.000",
    "request_status": "Pending",
    "responsible_agency": "Department of Public Works",
    "final_address": "3800 Virgil Blvd",
    "address_councildis": "D",
    "status": "Pending",
    "rowid": "857926",
    "final_x": "3680558.95957",
    "final_y": "546500.607633",
    "longitude": "-90.0705204640828",
    "latitude": "29.996715702641783",
    "geocoded_column": {
      "latitude": "29.996715702641783",
      "longitude": "-90.0705204640828"
    }
  },
  {
    "service_request": "2022-857925",
    "request_type": "Abandoned Vehicles",
    "request_reason": "Abandoned/Junk Vehicles",
    "date_created": "2022-01-31T22:10:28.000",
    "date_modified": "2022-01-31T22:10:28.000",
    "request_status": "Pending",
    "responsible_agency": "Department of Public Works",
    "final_address": "3800 Virgil Blvd",
    "address_councildis": "D",
    "status": "Pending",
    "rowid": "857925",
    "final_x": "3680558.95957",
    "final_y": "546500.607633",
    "longitude": "-90.0705204640828",
    "latitude": "29.996715702641783",
    "geocoded_column": {
      "latitude": "29.996715702641783",
      "longitude": "-90.0705204640828"
    }
  },
  {
    "service_request": "2022-857923",
    "request_type": "Abandoned Vehicles",
    "request_reason": "Abandoned/Junk Vehicles",
    "date_created": "2022-01-31T21:15:30.000",
    "date_modified": "2022-01-31T21:15:30.000",
    "request_status": "Pending",
    "responsible_agency": "Department of Public Works",
    "final_address": "7166 Crowder Blvd",
    "address_councildis": "E",
    "status": "Pending",
    "rowid": "857923",
    "final_x": "3703897.77034",
    "final_y": "560223.428893",
    "longitude": "-89.9962891870611",
    "latitude": "30.033720319897242",
    "geocoded_column": {
      "latitude": "30.033720319897242",
      "longitude": "-89.9962891870611"
    }
  },
  {
    "service_request": "2022-857922",
    "request_type": "Abandoned Vehicles",
    "request_reason": "Abandoned/Junk Vehicles",
    "date_created": "2022-01-31T21:07:27.000",
    "date_modified": "2022-01-31T21:07:27.000",
    "request_status": "Pending",
    "responsible_agency": "Department of Public Works",
    "final_address": "7166 Crowder Blvd",
    "address_councildis": "E",
    "status": "Pending",
    "rowid": "857922",
    "final_x": "3703897.77034",
    "final_y": "560223.428893",
    "longitude": "-89.9962891870611",
    "latitude": "30.033720319897242",
    "geocoded_column": {
      "latitude": "30.033720319897242",
      "longitude": "-89.9962891870611"
    }
  },
  {
    "service_request": "2022-857921",
    "request_type": "Trash/Recycling",
    "request_reason": "Request a Large Item Pick Up",
    "date_created": "2022-01-31T20:58:41.000",
    "date_modified": "2022-01-31T20:58:42.000",
    "request_status": "Pending",
    "responsible_agency": "Department of Sanitation",
    "final_address": "540 S Cortez St",
    "address_councildis": "B",
    "status": "Assigned to Contractor",
    "contractor": "Richards Disposal",
    "rowid": "857921",
    "final_x": "3670922.39252",
    "final_y": "536028.971463",
    "longitude": "-90.10131759482849",
    "latitude": "29.968210776074223",
    "geocoded_column": {
      "latitude": "29.968210776074223",
      "longitude": "-90.10131759482849"
    }
  },
  {
    "service_request": "2022-857920",
    "request_type": "Trash/Recycling",
    "request_reason": "Request a Large Item Pick Up",
    "date_created": "2022-01-31T20:48:59.000",
    "date_modified": "2022-01-31T20:49:00.000",
    "request_status": "Pending",
    "responsible_agency": "Department of Sanitation",
    "final_address": "1309 Leontine St",
    "address_councildis": "B",
    "status": "Assigned to Contractor",
    "contractor": "Richards Disposal",
    "rowid": "857920",
    "final_x": "3667402.1929",
    "final_y": "520074.555768",
    "longitude": "-90.11297119012383",
    "latitude": "29.92444490734079",
    "geocoded_column": {
      "latitude": "29.92444490734079",
      "longitude": "-90.11297119012383"
    }
  },
  {
    "service_request": "2022-857919",
    "request_type": "Trash/Recycling",
    "request_reason": "Replace Trash Cart",
    "date_created": "2022-01-31T20:48:54.000",
    "date_modified": "2022-01-31T20:48:55.000",
    "request_status": "Pending",
    "responsible_agency": "Department of Sanitation",
    "final_address": "1313 Hillary St, New Orleans, Louisiana, 70118",
    "address_councildis": "A",
    "status": "Assigned to Contractor",
    "contractor": "Richards Disposal",
    "rowid": "857919",
    "final_x": "3663685.35731",
    "final_y": "527460.739711",
    "longitude": "-90.12445803836086",
    "latitude": "29.944862898254055",
    "geocoded_column": {
      "latitude": "29.944862898254055",
      "longitude": "-90.12445803836086"
    }
  },
  {
    "service_request": "2022-857918",
    "request_type": "Trash/Recycling",
    "request_reason": "Request a Large Item Pick Up",
    "date_created": "2022-01-31T20:03:42.000",
    "date_modified": "2022-01-31T20:03:43.000",
    "request_status": "Pending",
    "responsible_agency": "Department of Sanitation",
    "final_address": "4953 Little John Dr",
    "address_councildis": "E",
    "status": "Assigned to Contractor",
    "contractor": "Metro Disposal",
    "rowid": "857918",
    "final_x": "3717206.86277",
    "final_y": "558013.104795",
    "longitude": "-89.95431546698579",
    "latitude": "30.02720908484698",
    "geocoded_column": {
      "latitude": "30.02720908484698",
      "longitude": "-89.95431546698579"
    }
  },
  {
    "service_request": "2022-857916",
    "request_type": "Traffic Signals/Signs/Striping/Streetlights",
    "request_reason": "Street Light Outage/Malfunction",
    "date_created": "2022-01-31T19:41:56.000",
    "date_modified": "2022-01-31T19:41:57.000",
    "request_status": "Pending",
    "responsible_agency": "Department of Public Works",
    "final_address": "2724 Octavia St",
    "address_councildis": "A",
    "status": "Pending",
    "contractor": "Royal Engineering",
    "rowid": "857916",
    "final_x": "3667879.03162",
    "final_y": "525583.159933",
    "longitude": "-90.11128051480009",
    "latitude": "29.93957783801998",
    "geocoded_column": {
      "latitude": "29.93957783801998",
      "longitude": "-90.11128051480009"
    }
  },
  {
    "service_request": "2022-857915",
    "request_type": "Traffic Signals/Signs/Striping/Streetlights",
    "request_reason": "Street Light Outage/Malfunction",
    "date_created": "2022-01-31T19:28:55.000",
    "date_modified": "2022-01-31T19:28:56.000",
    "request_status": "Pending",
    "responsible_agency": "Department of Public Works",
    "final_address": "6332 General Haig St",
    "address_councildis": "A",
    "status": "Pending",
    "contractor": "Royal Engineering",
    "rowid": "857915",
    "final_x": "3670671.99892",
    "final_y": "549377.968723",
    "longitude": "-90.10165520243415",
    "latitude": "30.004923346897353",
    "geocoded_column": {
      "latitude": "30.004923346897353",
      "longitude": "-90.10165520243415"
    }
  },
  {
    "service_request": "2022-857914",
    "request_type": "Roads/Drainage",
    "request_reason": "Man hole cover issue",
    "date_created": "2022-01-31T18:59:37.000",
    "date_modified": "2022-01-31T18:59:37.000",
    "request_status": "Pending",
    "responsible_agency": "Department of Public Works",
    "final_address": "1501 N Broad St",
    "address_councildis": "D",
    "status": "Pending",
    "rowid": "857914",
    "final_x": "3678555.72002",
    "final_y": "539580.956234",
    "longitude": "-90.07708823790526",
    "latitude": "29.97774963080583",
    "geocoded_column": {
      "latitude": "29.97774963080583",
      "longitude": "-90.07708823790526"
    }
  },
  {
    "service_request": "2022-857913",
    "request_type": "Traffic Signals/Signs/Striping/Streetlights",
    "request_reason": "Street Light Outage/Malfunction",
    "date_created": "2022-01-31T18:44:42.000",
    "date_modified": "2022-01-31T18:44:42.000",
    "case_close_date": "2022-01-30T18:00:00.000",
    "request_status": "Pending",
    "responsible_agency": "Department of Public Works",
    "final_address": "2053 Mandolin St",
    "address_councildis": "D",
    "status": "Pending",
    "contractor": "Royal Engineering",
    "rowid": "857913",
    "final_x": "3683022.22607",
    "final_y": "548450.54229",
    "longitude": "-90.06267084309587",
    "latitude": "30.0020024495759",
    "geocoded_column": {
      "latitude": "30.0020024495759",
      "longitude": "-90.06267084309587"
    }
  },
  {
    "service_request": "2022-857911",
    "request_type": "Trash/Recycling",
    "request_reason": "Request a Large Item Pick Up",
    "date_created": "2022-01-31T18:18:29.000",
    "date_modified": "2022-01-31T18:18:30.000",
    "request_status": "Pending",
    "responsible_agency": "Department of Sanitation",
    "final_address": "4628 Pauger St",
    "address_councildis": "D",
    "status": "Assigned to Contractor",
    "contractor": "Metro Disposal",
    "rowid": "857911",
    "final_x": "3682740.73596",
    "final_y": "549692.79362",
    "longitude": "-90.06351661076843",
    "latitude": "30.0054267741653",
    "geocoded_column": {
      "latitude": "30.0054267741653",
      "longitude": "-90.06351661076843"
    }
  },
  {
    "service_request": "2022-857910",
    "request_type": "Trash/Recycling",
    "request_reason": "Missed Trash Pick-Up",
    "date_created": "2022-01-31T17:45:08.000",
    "date_modified": "2022-01-31T17:45:09.000",
    "request_status": "Pending",
    "responsible_agency": "Department of Code Enforcement",
    "final_address": "7800 Green St",
    "address_councildis": "A",
    "status": "Assigned to Contractor",
    "contractor": "Richards Disposal",
    "rowid": "857910",
    "final_x": "3663925.04231",
    "final_y": "528906.6272",
    "longitude": "-90.12365308209426",
    "latitude": "29.948831668833186",
    "geocoded_column": {
      "latitude": "29.948831668833186",
      "longitude": "-90.12365308209426"
    }
  },
  {
    "service_request": "2022-857909",
    "request_type": "Trash/Recycling",
    "request_reason": "Illegal Dumping",
    "date_created": "2022-01-31T17:44:08.000",
    "date_modified": "2022-01-31T17:44:08.000",
    "request_status": "Pending",
    "responsible_agency": "Department of Code Enforcement",
    "final_address": "7800 Green St",
    "address_councildis": "A",
    "status": "Pending",
    "rowid": "857909",
    "final_x": "3663925.04231",
    "final_y": "528906.6272",
    "longitude": "-90.12365308209426",
    "latitude": "29.948831668833186",
    "geocoded_column": {
      "latitude": "29.948831668833186",
      "longitude": "-90.12365308209426"
    }
  },
  {
    "service_request": "2022-857907",
    "request_type": "Trash/Recycling",
    "request_reason": "Replace Trash Cart",
    "date_created": "2022-01-31T17:00:23.000",
    "date_modified": "2022-01-31T17:00:23.000",
    "request_status": "Pending",
    "responsible_agency": "Department of Sanitation",
    "final_address": "3115 Nashville Ave",
    "address_councildis": "A",
    "status": "Assigned to Contractor",
    "contractor": "Richards Disposal",
    "rowid": "857907",
    "final_x": "3667854.37741",
    "final_y": "527247.868607",
    "longitude": "-90.11130229989087",
    "latitude": "29.944155972620834",
    "geocoded_column": {
      "latitude": "29.944155972620834",
      "longitude": "-90.11130229989087"
    }
  },
  {
    "service_request": "2022-857906",
    "request_type": "Traffic Signals/Signs/Striping/Streetlights",
    "request_reason": "Street Light Outage/Malfunction",
    "date_created": "2022-01-31T16:47:04.000",
    "date_modified": "2022-01-31T16:47:05.000",
    "request_status": "Pending",
    "responsible_agency": "Department of Public Works",
    "final_address": "1831 Marigny St",
    "address_councildis": "D",
    "status": "Pending",
    "contractor": "Royal Engineering",
    "rowid": "857906",
    "final_x": "3685239.17852",
    "final_y": "539188.79489",
    "longitude": "-90.05599342143832",
    "latitude": "29.976468153069025",
    "geocoded_column": {
      "latitude": "29.976468153069025",
      "longitude": "-90.05599342143832"
    }
  },
  {
    "service_request": "2022-857905",
    "request_type": "Traffic Signals/Signs/Striping/Streetlights",
    "request_reason": "Street Light Outage/Malfunction",
    "date_created": "2022-01-31T16:46:23.000",
    "date_modified": "2022-01-31T16:46:24.000",
    "request_status": "Pending",
    "responsible_agency": "Department of Public Works",
    "final_address": "1815 Marigny St",
    "address_councildis": "D",
    "status": "Pending",
    "contractor": "Royal Engineering",
    "rowid": "857905",
    "final_x": "3685239.89788",
    "final_y": "539059.332426",
    "longitude": "-90.05599570753469",
    "latitude": "29.976112154603914",
    "geocoded_column": {
      "latitude": "29.976112154603914",
      "longitude": "-90.05599570753469"
    }
  },
  {
    "service_request": "2022-857904",
    "request_type": "Traffic Signals/Signs/Striping/Streetlights",
    "request_reason": "Street Light Outage/Malfunction",
    "date_created": "2022-01-31T16:44:02.000",
    "date_modified": "2022-01-31T16:44:03.000",
    "request_status": "Pending",
    "responsible_agency": "Department of Public Works",
    "final_address": "N ROMAN ST & MARIGNY ST",
    "address_councildis": "D",
    "status": "Pending",
    "contractor": "Royal Engineering",
    "rowid": "857904",
    "final_x": "3685209.8",
    "final_y": "538916.98",
    "longitude": "-90.05609577672759",
    "latitude": "29.97572165781193",
    "geocoded_column": {
      "latitude": "29.97572165781193",
      "longitude": "-90.05609577672759"
    }
  },
  {
    "service_request": "2022-857903",
    "request_type": "Abandoned Vehicles",
    "request_reason": "Abandoned/Junk Vehicles",
    "date_created": "2022-01-31T16:43:30.000",
    "date_modified": "2022-01-31T16:43:30.000",
    "request_status": "Pending",
    "responsible_agency": "Department of Public Works",
    "final_address": "2003 Audubon St",
    "address_councildis": "A",
    "status": "Pending",
    "rowid": "857903",
    "final_x": "3666062.82061",
    "final_y": "528704.901504",
    "longitude": "-90.11690993406673",
    "latitude": "29.94821475851725",
    "geocoded_column": {
      "latitude": "29.94821475851725",
      "longitude": "-90.11690993406673"
    }
  },
  {
    "service_request": "2022-857902",
    "request_type": "Property Maintenance",
    "request_reason": "Property Maintenance",
    "date_created": "2022-01-31T16:42:27.000",
    "date_modified": "2022-01-31T16:42:27.000",
    "request_status": "Pending",
    "responsible_agency": "Department of Code Enforcement",
    "final_address": "4792 Perrault Walk",
    "address_councildis": "E",
    "status": "Pending",
    "rowid": "857902",
    "final_x": "3709818.18949",
    "final_y": "556072.484249",
    "longitude": "-89.97773533693663",
    "latitude": "30.022115573416027",
    "geocoded_column": {
      "latitude": "30.022115573416027",
      "longitude": "-89.97773533693663"
    }
  },
  {
    "service_request": "2022-857901",
    "request_type": "Abandoned Vehicles",
    "request_reason": "Abandoned/Junk Vehicles",
    "date_created": "2022-01-31T16:41:56.000",
    "date_modified": "2022-01-31T16:41:57.000",
    "request_status": "Pending",
    "responsible_agency": "Department of Public Works",
    "final_address": "3236 Bloomingdale Ct",
    "address_councildis": "B",
    "status": "Pending",
    "rowid": "857901",
    "final_x": "3668836.21812",
    "final_y": "532274.678851",
    "longitude": "-90.10803262643147",
    "latitude": "29.957949228186454",
    "geocoded_column": {
      "latitude": "29.957949228186454",
      "longitude": "-90.10803262643147"
    }
  },
  {
    "service_request": "2022-857899",
    "request_type": "Property Maintenance",
    "request_reason": "Property Maintenance",
    "date_created": "2022-01-31T16:34:59.000",
    "date_modified": "2022-01-31T16:34:59.000",
    "request_status": "Pending",
    "responsible_agency": "Department of Code Enforcement",
    "final_address": "4720 Perrault Walk",
    "address_councildis": "E",
    "status": "Pending",
    "rowid": "857899",
    "final_x": "3709849.59179",
    "final_y": "555614.827353",
    "longitude": "-89.97765322348747",
    "latitude": "30.02085617425753",
    "geocoded_column": {
      "latitude": "30.02085617425753",
      "longitude": "-89.97765322348747"
    }
  },
  {
    "service_request": "2022-857898",
    "request_type": "Trash/Recycling",
    "request_reason": "Order Recycling Cart",
    "date_created": "2022-01-31T16:34:31.000",
    "date_modified": "2022-01-31T16:34:31.000",
    "request_status": "Pending",
    "responsible_agency": "Department of Public Works",
    "final_address": "931 Euterpe St",
    "address_councildis": "B",
    "status": "Pending",
    "rowid": "857898",
    "final_x": "3680818.63138",
    "final_y": "524109.765052",
    "longitude": "-90.07047972067433",
    "latitude": "29.935140687092865",
    "geocoded_column": {
      "latitude": "29.935140687092865",
      "longitude": "-90.07047972067433"
    }
  },
  {
    "service_request": "2022-857897",
    "request_type": "Health Related Questions",
    "request_reason": "Noise Ordinance Complaint",
    "date_created": "2022-01-31T16:32:37.000",
    "date_modified": "2022-01-31T16:32:37.000",
    "request_status": "Pending",
    "responsible_agency": "Health Department",
    "final_address": "1812 Moss St, New Orleans, Louisiana, 70119",
    "address_councildis": "A",
    "status": "Pending",
    "rowid": "857897",
    "final_x": "3675330.20853",
    "final_y": "543064.897741",
    "longitude": "-90.0871558549385",
    "latitude": "29.987426110857996",
    "geocoded_column": {
      "latitude": "29.987426110857996",
      "longitude": "-90.0871558549385"
    }
  },
  {
    "service_request": "2022-857896",
    "request_type": "Property Maintenance",
    "request_reason": "Property Maintenance",
    "date_created": "2022-01-31T16:32:33.000",
    "date_modified": "2022-01-31T16:32:33.000",
    "request_status": "Pending",
    "responsible_agency": "Department of Code Enforcement",
    "final_address": "4770 Perrault Walk",
    "address_councildis": "E",
    "status": "Pending",
    "rowid": "857896",
    "final_x": "3709834.16171",
    "final_y": "555940.539801",
    "longitude": "-89.97768980167447",
    "latitude": "30.02175225819005",
    "geocoded_column": {
      "latitude": "30.02175225819005",
      "longitude": "-89.97768980167447"
    }
  },
  {
    "service_request": "2022-857895",
    "request_type": "Trash/Recycling",
    "request_reason": "Request a Large Item Pick Up",
    "date_created": "2022-01-31T16:32:13.000",
    "date_modified": "2022-01-31T16:32:14.000",
    "request_status": "Pending",
    "responsible_agency": "Department of Sanitation",
    "final_address": "739 Nashville Ave",
    "address_councildis": "A",
    "status": "Assigned to Contractor",
    "contractor": "Richards Disposal",
    "rowid": "857895",
    "final_x": "3665566.26196",
    "final_y": "518940.889655",
    "longitude": "-90.11880455045511",
    "latitude": "29.921381319205416",
    "geocoded_column": {
      "latitude": "29.921381319205416",
      "longitude": "-90.11880455045511"
    }
  },
  {
    "service_request": "2022-857894",
    "request_type": "Property Maintenance",
    "request_reason": "Property Maintenance",
    "date_created": "2022-01-31T16:29:58.000",
    "date_modified": "2022-01-31T16:29:58.000",
    "request_status": "Pending",
    "responsible_agency": "Department of Code Enforcement",
    "final_address": "4784 Perrault Walk",
    "address_councildis": "E",
    "status": "Pending",
    "rowid": "857894",
    "final_x": "3709822.35614",
    "final_y": "556030.817625",
    "longitude": "-89.97772372907309",
    "latitude": "30.022000870952024",
    "geocoded_column": {
      "latitude": "30.022000870952024",
      "longitude": "-89.97772372907309"
    }
  },
  {
    "service_request": "2022-857893",
    "request_type": "Trash/Recycling",
    "request_reason": "Order Trash Cart",
    "date_created": "2022-01-31T16:27:15.000",
    "date_modified": "2022-01-31T16:27:16.000",
    "request_status": "Pending",
    "responsible_agency": "Department of Sanitation",
    "final_address": "New Orleans,LA",
    "status": "Assigned to Contractor",
    "rowid": "857893",
    "longitude": "0.0",
    "latitude": "0.0",
    "geocoded_column": {
      "latitude": "0.0",
      "longitude": "0.0"
    }
  },
  {
    "service_request": "2022-857892",
    "request_type": "Property Maintenance",
    "request_reason": "Property Maintenance",
    "date_created": "2022-01-31T16:25:59.000",
    "date_modified": "2022-01-31T16:25:59.000",
    "request_status": "Pending",
    "responsible_agency": "Department of Code Enforcement",
    "final_address": "4792 Perrault Walk",
    "address_councildis": "E",
    "status": "Pending",
    "rowid": "857892",
    "final_x": "3709818.18949",
    "final_y": "556072.484249",
    "longitude": "-89.97773533693663",
    "latitude": "30.022115573416027",
    "geocoded_column": {
      "latitude": "30.022115573416027",
      "longitude": "-89.97773533693663"
    }
  },
  {
    "service_request": "2022-857891",
    "request_type": "Trash/Recycling",
    "request_reason": "Replace Trash Cart",
    "date_created": "2022-01-31T16:23:39.000",
    "date_modified": "2022-01-31T16:23:39.000",
    "request_status": "Pending",
    "responsible_agency": "Department of Sanitation",
    "final_address": "3526 Paris Ave",
    "address_councildis": "D",
    "status": "Assigned to Contractor",
    "contractor": "Metro Disposal",
    "rowid": "857891",
    "final_x": "3679619.01378",
    "final_y": "545353.48008",
    "longitude": "-90.07352954169245",
    "latitude": "29.993589957324513",
    "geocoded_column": {
      "latitude": "29.993589957324513",
      "longitude": "-90.07352954169245"
    }
  },
  {
    "service_request": "2022-857890",
    "request_type": "Trash/Recycling",
    "request_reason": "MIssed Recycling Pick-Up",
    "date_created": "2022-01-31T16:22:37.000",
    "date_modified": "2022-01-31T16:22:38.000",
    "request_status": "Pending",
    "responsible_agency": "Department of Sanitation",
    "final_address": "1218 St Mary St",
    "address_councildis": "B",
    "status": "Assigned to Contractor",
    "contractor": "Richards Disposal",
    "rowid": "857890",
    "final_x": "3679346.67362",
    "final_y": "523214.533499",
    "longitude": "-90.07515771841543",
    "latitude": "29.932723620166904",
    "geocoded_column": {
      "latitude": "29.932723620166904",
      "longitude": "-90.07515771841543"
    }
  },
  {
    "service_request": "2022-857889",
    "request_type": "Roads/Drainage",
    "request_reason": "Street Subsidence (Sinking)",
    "date_created": "2022-01-31T16:19:14.000",
    "date_modified": "2022-01-31T16:19:14.000",
    "request_status": "Pending",
    "responsible_agency": "Department of Public Works",
    "final_address": "4314 Annunciation St",
    "address_councildis": "B",
    "status": "Pending",
    "rowid": "857889",
    "final_x": "3671425.02331",
    "final_y": "517743.383094",
    "longitude": "-90.10035164522479",
    "latitude": "29.917916502197677",
    "geocoded_column": {
      "latitude": "29.917916502197677",
      "longitude": "-90.10035164522479"
    }
  },
  {
    "service_request": "2022-857888",
    "request_type": "Trash/Recycling",
    "request_reason": "Repair Trash Cart",
    "date_created": "2022-01-31T16:16:44.000",
    "date_modified": "2022-01-31T16:16:45.000",
    "request_status": "Pending",
    "responsible_agency": "Department of Sanitation",
    "final_address": "2960 Sabine St",
    "address_councildis": "C",
    "status": "Assigned to Contractor",
    "contractor": "Richards Disposal",
    "rowid": "857888",
    "final_x": "3693498.52605",
    "final_y": "519322.683511",
    "longitude": "-90.0306213367665",
    "latitude": "29.92158748637709",
    "geocoded_column": {
      "latitude": "29.92158748637709",
      "longitude": "-90.0306213367665"
    }
  },
  {
    "service_request": "2022-857887",
    "request_type": "Trash/Recycling",
    "request_reason": "MIssed Recycling Pick-Up",
    "date_created": "2022-01-31T16:16:22.000",
    "date_modified": "2022-01-31T16:16:23.000",
    "request_status": "Pending",
    "responsible_agency": "Department of Sanitation",
    "final_address": "1515 State St",
    "address_councildis": "A",
    "status": "Assigned to Contractor",
    "contractor": "Richards Disposal",
    "rowid": "857887",
    "final_x": "3665643.41364",
    "final_y": "521922.537914",
    "longitude": "-90.11846122767942",
    "latitude": "29.92957766399583",
    "geocoded_column": {
      "latitude": "29.92957766399583",
      "longitude": "-90.11846122767942"
    }
  },
  {
    "service_request": "2022-857886",
    "request_type": "Trash/Recycling",
    "request_reason": "Replace Trash Cart",
    "date_created": "2022-01-31T16:16:17.000",
    "date_modified": "2022-01-31T16:16:18.000",
    "request_status": "Pending",
    "responsible_agency": "Department of Sanitation",
    "final_address": "602 S Telemachus St",
    "address_councildis": "B",
    "status": "Assigned to Contractor",
    "contractor": "Richards Disposal",
    "rowid": "857886",
    "final_x": "3671184.98715",
    "final_y": "535738.566023",
    "longitude": "-90.10049817531923",
    "latitude": "29.9674044923965",
    "geocoded_column": {
      "latitude": "29.9674044923965",
      "longitude": "-90.10049817531923"
    }
  },
  {
    "service_request": "2022-857885",
    "request_type": "Trash/Recycling",
    "request_reason": "Illegal Dumping",
    "date_created": "2022-01-31T16:15:46.000",
    "date_modified": "2022-01-31T16:16:20.000",
    "request_status": "Pending",
    "responsible_agency": "Department of Sanitation",
    "final_address": "ORETHA CASTLE HALEY BLVD & CLIO ST",
    "address_councildis": "B",
    "status": "Pending",
    "rowid": "857885",
    "final_x": "3678549.6",
    "final_y": "527103.68",
    "longitude": "-90.07753945738315",
    "latitude": "29.943441530810507",
    "geocoded_column": {
      "latitude": "29.943441530810507",
      "longitude": "-90.07753945738315"
    }
  },
  {
    "service_request": "2022-857884",
    "request_type": "Traffic Signals/Signs/Striping/Streetlights",
    "request_reason": "Disabled Parking Sign ",
    "date_created": "2022-01-31T16:13:05.000",
    "date_modified": "2022-01-31T16:13:43.000",
    "request_status": "Pending",
    "responsible_agency": "Department of Public Works",
    "final_address": "4527 Magazine St",
    "address_councildis": "B",
    "status": "Pending",
    "rowid": "857884",
    "final_x": "3670425.97742",
    "final_y": "518766.249143",
    "longitude": "-90.10347043940386",
    "latitude": "29.920758581833628",
    "geocoded_column": {
      "latitude": "29.920758581833628",
      "longitude": "-90.10347043940386"
    }
  },
  {
    "service_request": "2022-857883",
    "request_type": "Trash/Recycling",
    "request_reason": "Order Recycling Cart",
    "date_created": "2022-01-31T16:12:14.000",
    "date_modified": "2022-01-31T16:12:14.000",
    "request_status": "Pending",
    "responsible_agency": "Department of Sanitation",
    "final_address": "6232 Delord St",
    "address_councildis": "A",
    "status": "Pending",
    "rowid": "857883",
    "final_x": "3666373.76826",
    "final_y": "526284.533822",
    "longitude": "-90.11600932979306",
    "latitude": "29.9415504479423",
    "geocoded_column": {
      "latitude": "29.9415504479423",
      "longitude": "-90.11600932979306"
    }
  },
  {
    "service_request": "2022-857882",
    "request_type": "Trash/Recycling",
    "request_reason": "Request a Large Item Pick Up",
    "date_created": "2022-01-31T16:12:08.000",
    "date_modified": "2022-01-31T16:12:09.000",
    "request_status": "Pending",
    "responsible_agency": "Department of Sanitation",
    "final_address": "1701 Lark St",
    "address_councildis": "D",
    "status": "Assigned to Contractor",
    "contractor": "Metro Disposal",
    "rowid": "857882",
    "final_x": "3678493.71355",
    "final_y": "557646.785819",
    "longitude": "-90.07665830356785",
    "latitude": "30.027426106315843",
    "geocoded_column": {
      "latitude": "30.027426106315843",
      "longitude": "-90.07665830356785"
    }
  },
  {
    "service_request": "2022-857881",
    "request_type": "Trash/Recycling",
    "request_reason": "Request a Large Item Pick Up",
    "date_created": "2022-01-31T16:05:22.000",
    "date_modified": "2022-01-31T16:05:23.000",
    "request_status": "Pending",
    "responsible_agency": "Department of Sanitation",
    "final_address": "717 Soraparu St, New Orleans, Louisiana, 70130",
    "address_councildis": "B",
    "status": "Assigned to Contractor",
    "contractor": "Richards Disposal",
    "rowid": "857881",
    "final_x": "3679070.61775",
    "final_y": "520598.305528",
    "longitude": "-90.07611982460998",
    "latitude": "29.925538181307875",
    "geocoded_column": {
      "latitude": "29.925538181307875",
      "longitude": "-90.07611982460998"
    }
  },
  {
    "service_request": "2022-857880",
    "request_type": "Trash/Recycling",
    "request_reason": "Illegal Dumping",
    "date_created": "2022-01-31T15:59:37.000",
    "date_modified": "2022-01-31T15:59:37.000",
    "request_status": "Pending",
    "responsible_agency": "Department of Sanitation",
    "final_address": "AUBRY ST & N DUPRE ST",
    "address_councildis": "D",
    "status": "Pending",
    "rowid": "857880",
    "final_x": "3679188.5",
    "final_y": "541490.38",
    "longitude": "-90.07502347543073",
    "latitude": "29.982980792808643",
    "geocoded_column": {
      "latitude": "29.982980792808643",
      "longitude": "-90.07502347543073"
    }
  },
  {
    "service_request": "2022-857879",
    "request_type": "Abandoned Vehicles",
    "request_reason": "Abandoned/Junk Vehicles",
    "date_created": "2022-01-31T15:57:52.000",
    "date_modified": "2022-01-31T15:57:53.000",
    "request_status": "Pending",
    "responsible_agency": "Department of Public Works",
    "final_address": "6670 Harbourview Dr",
    "address_councildis": "E",
    "status": "Pending",
    "rowid": "857879",
    "final_x": "3699414.25156",
    "final_y": "555975.247577",
    "longitude": "-90.01061251274774",
    "latitude": "30.022182543615767",
    "geocoded_column": {
      "latitude": "30.022182543615767",
      "longitude": "-90.01061251274774"
    }
  },
  {
    "service_request": "2022-857878",
    "request_type": "Traffic Signals/Signs/Striping/Streetlights",
    "request_reason": "Street Name Sign Damaged or Missing",
    "date_created": "2022-01-31T15:48:15.000",
    "date_modified": "2022-01-31T15:48:15.000",
    "request_status": "Pending",
    "responsible_agency": "Department of Public Works",
    "final_address": "3503 Danneel St",
    "address_councildis": "B",
    "status": "Pending",
    "rowid": "857878",
    "final_x": "3673211.51278",
    "final_y": "522730.341562",
    "longitude": "-90.09454248799527",
    "latitude": "29.931576058634487",
    "geocoded_column": {
      "latitude": "29.931576058634487",
      "longitude": "-90.09454248799527"
    }
  },
  {
    "service_request": "2022-857877",
    "request_type": "Trash/Recycling",
    "request_reason": "Request a Large Item Pick Up",
    "date_created": "2022-01-31T15:46:53.000",
    "date_modified": "2022-01-31T15:46:54.000",
    "request_status": "Pending",
    "responsible_agency": "Department of Sanitation",
    "final_address": "4919 Citrus Dr",
    "address_councildis": "E",
    "status": "Assigned to Contractor",
    "contractor": "Metro Disposal",
    "rowid": "857877",
    "final_x": "3710729.54059",
    "final_y": "556953.348506",
    "longitude": "-89.97482272571641",
    "latitude": "30.02450792698972",
    "geocoded_column": {
      "latitude": "30.02450792698972",
      "longitude": "-89.97482272571641"
    }
  },
  {
    "service_request": "2022-857876",
    "request_type": "Traffic Signals/Signs/Striping/Streetlights",
    "request_reason": "Traffic Signal Malfunctioning/Damaged",
    "date_created": "2022-01-31T15:46:36.000",
    "date_modified": "2022-01-31T15:46:36.000",
    "request_status": "Pending",
    "responsible_agency": "Department of Public Works",
    "final_address": "CARONDELET ST & CALLIOPE ST",
    "address_councildis": "B",
    "status": "Pending",
    "rowid": "857876",
    "final_x": "3679545.5",
    "final_y": "526957.58",
    "longitude": "-90.07440021195022",
    "latitude": "29.943009755195227",
    "geocoded_column": {
      "latitude": "29.943009755195227",
      "longitude": "-90.07440021195022"
    }
  },
  {
    "service_request": "2022-857875",
    "request_type": "Trash/Recycling",
    "request_reason": "Illegal Dumping",
    "date_created": "2022-01-31T15:41:10.000",
    "date_modified": "2022-01-31T15:41:10.000",
    "request_status": "Pending",
    "responsible_agency": "Department of Sanitation",
    "final_address": "1613 Jo Ann Pl",
    "address_councildis": "C",
    "status": "Pending",
    "rowid": "857875",
    "final_x": "3694925.27146",
    "final_y": "525260.581309",
    "longitude": "-90.02590387495877",
    "latitude": "29.937870002269676",
    "geocoded_column": {
      "latitude": "29.937870002269676",
      "longitude": "-90.02590387495877"
    }
  },
  {
    "service_request": "2022-857874",
    "request_type": "Safety & Permits",
    "request_reason": "Licenses & Permits",
    "date_created": "2022-01-31T15:38:07.000",
    "date_modified": "2022-01-31T15:38:07.000",
    "request_status": "Pending",
    "responsible_agency": "Safety and Permits",
    "final_address": "2223 Felicity St",
    "address_councildis": "B",
    "status": "Pending",
    "rowid": "857874",
    "final_x": "3676507.6836",
    "final_y": "526598.909502",
    "longitude": "-90.08400369692541",
    "latitude": "29.942114954246396",
    "geocoded_column": {
      "latitude": "29.942114954246396",
      "longitude": "-90.08400369692541"
    }
  },
  {
    "service_request": "2022-857873",
    "request_type": "Traffic Signals/Signs/Striping/Streetlights",
    "request_reason": "Traffic Signal Malfunctioning/Damaged",
    "date_created": "2022-01-31T15:37:59.000",
    "date_modified": "2022-01-31T15:37:59.000",
    "request_status": "Pending",
    "responsible_agency": "Department of Public Works",
    "final_address": "Paris Ave & Robert E Lee Blvd, New Orleans, Louisiana, 70122",
    "address_councildis": "D",
    "status": "Pending",
    "rowid": "857873",
    "final_x": "3678920.0",
    "final_y": "555408.68",
    "longitude": "-90.07538891488271",
    "latitude": "30.0212592709237",
    "geocoded_column": {
      "latitude": "30.0212592709237",
      "longitude": "-90.07538891488271"
    }
  },
  {
    "service_request": "2022-857872",
    "request_type": "Roads/Drainage",
    "request_reason": "Pothole",
    "date_created": "2022-01-31T15:34:16.000",
    "date_modified": "2022-01-31T15:34:16.000",
    "request_status": "Pending",
    "responsible_agency": "Department of Public Works",
    "final_address": "2111 Dante St, New Orleans, Louisiana, 70118",
    "address_councildis": "A",
    "status": "Pending",
    "rowid": "857872",
    "final_x": "3663684.09171",
    "final_y": "531277.843714",
    "longitude": "-90.12433487366032",
    "latitude": "29.955358740117745",
    "geocoded_column": {
      "latitude": "29.955358740117745",
      "longitude": "-90.12433487366032"
    }
  },
  {
    "service_request": "2022-857871",
    "request_type": "Trash/Recycling",
    "request_reason": "Order Trash Cart",
    "date_created": "2022-01-31T15:30:33.000",
    "date_modified": "2022-01-31T15:30:34.000",
    "request_status": "Pending",
    "responsible_agency": "Department of Sanitation",
    "final_address": "5419 Vicksburg St",
    "address_councildis": "A",
    "status": "Assigned to Contractor",
    "contractor": "Metro Disposal",
    "rowid": "857871",
    "final_x": "3668659.00935",
    "final_y": "543021.937677",
    "longitude": "-90.10822935917776",
    "latitude": "29.987505796133103",
    "geocoded_column": {
      "latitude": "29.987505796133103",
      "longitude": "-90.10822935917776"
    }
  },
  {
    "service_request": "2022-857870",
    "request_type": "Trash/Recycling",
    "request_reason": "Illegal Dumping",
    "date_created": "2022-01-31T15:30:29.000",
    "date_modified": "2022-01-31T15:30:29.000",
    "request_status": "Pending",
    "responsible_agency": "Department of Sanitation",
    "final_address": "13000 BLK Curran Rd",
    "address_councildis": "E",
    "status": "Pending",
    "rowid": "857870",
    "final_x": "3715494.28354",
    "final_y": "569664.598975",
    "longitude": "-89.95928550005252",
    "latitude": "30.059302527648068",
    "geocoded_column": {
      "latitude": "30.059302527648068",
      "longitude": "-89.95928550005252"
    }
  },
  {
    "service_request": "2022-857869",
    "request_type": "Trash/Recycling",
    "request_reason": "Request a Large Item Pick Up",
    "date_created": "2022-01-31T15:24:41.000",
    "date_modified": "2022-01-31T15:24:42.000",
    "request_status": "Pending",
    "responsible_agency": "Department of Sanitation",
    "final_address": "4434 Cessna Ct",
    "address_councildis": "D",
    "status": "Assigned to Contractor",
    "contractor": "Metro Disposal",
    "rowid": "857869",
    "final_x": "3696550.13207",
    "final_y": "552601.868502",
    "longitude": "-90.01978456078953",
    "latitude": "30.01299762271521",
    "geocoded_column": {
      "latitude": "30.01299762271521",
      "longitude": "-90.01978456078953"
    }
  },
  {
    "service_request": "2022-857868",
    "request_type": "Traffic Signals/Signs/Striping/Streetlights",
    "request_reason": "Request for Stop Sign",
    "date_created": "2022-01-31T15:23:31.000",
    "date_modified": "2022-01-31T15:23:31.000",
    "request_status": "Pending",
    "responsible_agency": "Department of Public Works",
    "final_address": "2728 N Rampart St",
    "address_councildis": "C",
    "status": "Pending",
    "rowid": "857868",
    "final_x": "3687497.2511",
    "final_y": "535838.469447",
    "longitude": "-90.04898036498925",
    "latitude": "29.967186524512076",
    "geocoded_column": {
      "latitude": "29.967186524512076",
      "longitude": "-90.04898036498925"
    }
  },
  {
    "service_request": "2022-857867",
    "request_type": "Abandoned Vehicles",
    "request_reason": "Abandoned/Junk Vehicles",
    "date_created": "2022-01-31T15:21:25.000",
    "date_modified": "2022-01-31T15:21:25.000",
    "request_status": "Pending",
    "responsible_agency": "Department of Public Works",
    "final_address": "905 Poland Ave",
    "address_councildis": "C",
    "status": "Pending",
    "rowid": "857867",
    "final_x": "3692919.21475",
    "final_y": "534260.016965",
    "longitude": "-90.03191443823002",
    "latitude": "29.96267811534962",
    "geocoded_column": {
      "latitude": "29.96267811534962",
      "longitude": "-90.03191443823002"
    }
  },
  {
    "service_request": "2022-857866",
    "request_type": "Trash/Recycling",
    "request_reason": "Order Recycling Cart",
    "date_created": "2022-01-31T15:20:50.000",
    "date_modified": "2022-01-31T15:20:50.000",
    "request_status": "Pending",
    "responsible_agency": "Department of Sanitation",
    "final_address": "The Saint",
    "status": "Pending",
    "rowid": "857866",
    "longitude": "0.0",
    "latitude": "0.0",
    "geocoded_column": {
      "latitude": "0.0",
      "longitude": "0.0"
    }
  },
  {
    "service_request": "2022-857865",
    "request_type": "Property Maintenance",
    "request_reason": "Property Maintenance",
    "date_created": "2022-01-31T15:18:03.000",
    "date_modified": "2022-01-31T15:18:03.000",
    "request_status": "Pending",
    "responsible_agency": "Department of Code Enforcement",
    "final_address": "2900 St Charles Ave",
    "address_councildis": "B",
    "status": "Pending",
    "rowid": "857865",
    "final_x": "3675489.98965",
    "final_y": "522160.276666",
    "longitude": "-90.08736916329597",
    "latitude": "29.929940635843415",
    "geocoded_column": {
      "latitude": "29.929940635843415",
      "longitude": "-90.08736916329597"
    }
  },
  {
    "service_request": "2022-857864",
    "request_type": "Trash/Recycling",
    "request_reason": "Request a Large Item Pick Up",
    "date_created": "2022-01-31T15:17:39.000",
    "date_modified": "2022-01-31T15:17:40.000",
    "request_status": "Pending",
    "responsible_agency": "Department of Sanitation",
    "final_address": "3255 Annunciation St",
    "address_councildis": "B",
    "status": "Assigned to Contractor",
    "contractor": "Richards Disposal",
    "rowid": "857864",
    "final_x": "3675853.89077",
    "final_y": "518817.258807",
    "longitude": "-90.08633523782925",
    "latitude": "29.920737531817608",
    "geocoded_column": {
      "latitude": "29.920737531817608",
      "longitude": "-90.08633523782925"
    }
  },
  {
    "service_request": "2022-857863",
    "request_type": "Trash/Recycling",
    "request_reason": "Replace Trash Cart",
    "date_created": "2022-01-31T15:16:17.000",
    "date_modified": "2022-01-31T15:16:18.000",
    "request_status": "Pending",
    "responsible_agency": "Department of Sanitation",
    "final_address": "4434 Mandeville St",
    "address_councildis": "D",
    "status": "Assigned to Contractor",
    "contractor": "Metro Disposal",
    "rowid": "857863",
    "final_x": "3684750.75074",
    "final_y": "549195.041299",
    "longitude": "-90.05718405484322",
    "latitude": "30.003996734125153",
    "geocoded_column": {
      "latitude": "30.003996734125153",
      "longitude": "-90.05718405484322"
    }
  },
  {
    "service_request": "2022-857862",
    "request_type": "Trash/Recycling",
    "request_reason": "Repair Trash Cart",
    "date_created": "2022-01-31T15:13:57.000",
    "date_modified": "2022-01-31T15:13:58.000",
    "request_status": "Pending",
    "responsible_agency": "Department of Sanitation",
    "final_address": "639 St James St",
    "address_councildis": "B",
    "status": "Assigned to Contractor",
    "contractor": "Richards Disposal",
    "rowid": "857862",
    "final_x": "3681399.82197",
    "final_y": "522053.061882",
    "longitude": "-90.0687165661078",
    "latitude": "29.929467807196026",
    "geocoded_column": {
      "latitude": "29.929467807196026",
      "longitude": "-90.0687165661078"
    }
  },
  {
    "service_request": "2022-857861",
    "request_type": "Trash/Recycling",
    "request_reason": "Order Trash Cart",
    "date_created": "2022-01-31T15:05:47.000",
    "date_modified": "2022-01-31T15:05:48.000",
    "request_status": "Pending",
    "responsible_agency": "Department of Sanitation",
    "final_address": "5700 Franklin Ave",
    "address_councildis": "D",
    "status": "Assigned to Contractor",
    "contractor": "Metro Disposal",
    "rowid": "857861",
    "final_x": "3686427.78326",
    "final_y": "554127.227096",
    "longitude": "-90.05171174656263",
    "latitude": "30.01750697836572",
    "geocoded_column": {
      "latitude": "30.01750697836572",
      "longitude": "-90.05171174656263"
    }
  },
  {
    "service_request": "2022-857860",
    "request_type": "Property Maintenance",
    "request_reason": "Property Maintenance",
    "date_created": "2022-01-31T15:03:04.000",
    "date_modified": "2022-01-31T15:03:04.000",
    "request_status": "Pending",
    "responsible_agency": "Department of Code Enforcement",
    "final_address": "5316 Wildair Dr",
    "address_councildis": "D",
    "status": "Pending",
    "rowid": "857860",
    "final_x": "3681588.20124",
    "final_y": "552552.660502",
    "longitude": "-90.06705787371729",
    "latitude": "30.013325444621746",
    "geocoded_column": {
      "latitude": "30.013325444621746",
      "longitude": "-90.06705787371729"
    }
  },
  {
    "service_request": "2022-857859",
    "request_type": "Trash/Recycling",
    "request_reason": "Order Trash Cart",
    "date_created": "2022-01-31T14:55:53.000",
    "date_modified": "2022-01-31T14:55:54.000",
    "request_status": "Pending",
    "responsible_agency": "Department of Sanitation",
    "final_address": "4952 Bullard Ave",
    "address_councildis": "E",
    "status": "Assigned to Contractor",
    "contractor": "Metro Disposal",
    "rowid": "857859",
    "final_x": "3719078.10124",
    "final_y": "558410.729116",
    "longitude": "-89.9483874092708",
    "latitude": "30.02824033675376",
    "geocoded_column": {
      "latitude": "30.02824033675376",
      "longitude": "-89.9483874092708"
    }
  },
  {
    "service_request": "2022-857858",
    "request_type": "Trash/Recycling",
    "request_reason": "Request a Large Item Pick Up",
    "date_created": "2022-01-31T14:51:25.000",
    "date_modified": "2022-01-31T14:51:25.000",
    "request_status": "Pending",
    "responsible_agency": "Department of Sanitation",
    "final_address": "3300 St Anthony Ave",
    "address_councildis": "D",
    "status": "Assigned to Contractor",
    "contractor": "Metro Disposal",
    "rowid": "857858",
    "final_x": "3682746.31125",
    "final_y": "544718.791695",
    "longitude": "-90.06367311739966",
    "latitude": "29.991749876838632",
    "geocoded_column": {
      "latitude": "29.991749876838632",
      "longitude": "-90.06367311739966"
    }
  },
  {
    "service_request": "2022-857857",
    "request_type": "Trash/Recycling",
    "request_reason": "Replace Trash Cart",
    "date_created": "2022-01-31T14:49:52.000",
    "date_modified": "2022-01-31T14:49:53.000",
    "request_status": "Pending",
    "responsible_agency": "Department of Sanitation",
    "final_address": "5727 N Johnson St, New Orleans, Louisiana, 70117",
    "address_councildis": "E",
    "status": "Assigned to Contractor",
    "contractor": "Metro Disposal",
    "rowid": "857857",
    "final_x": "3699480.19991",
    "final_y": "537023.900424",
    "longitude": "-90.01109513304357",
    "latitude": "29.97007127340284",
    "geocoded_column": {
      "latitude": "29.97007127340284",
      "longitude": "-90.01109513304357"
    }
  },
  {
    "service_request": "2022-857856",
    "request_type": "Abandoned Vehicles",
    "request_reason": "Abandoned/Junk Vehicles",
    "date_created": "2022-01-31T14:49:35.000",
    "date_modified": "2022-01-31T14:49:35.000",
    "request_status": "Pending",
    "responsible_agency": "Department of Public Works",
    "final_address": "MURL ST & WALL BLVD",
    "address_councildis": "C",
    "status": "Pending",
    "rowid": "857856",
    "final_x": "3695401.6",
    "final_y": "523857.28",
    "longitude": "-90.02445068130409",
    "latitude": "29.93399645274263",
    "geocoded_column": {
      "latitude": "29.93399645274263",
      "longitude": "-90.02445068130409"
    }
  },
  {
    "service_request": "2022-857855",
    "request_type": "Traffic Signals/Signs/Striping/Streetlights",
    "request_reason": "Additional signage",
    "date_created": "2022-01-31T14:48:26.000",
    "date_modified": "2022-01-31T14:48:26.000",
    "request_status": "Pending",
    "responsible_agency": "Department of Public Works",
    "final_address": "BODENGER BLVD & MARDI GRAS BLVD",
    "address_councildis": "C",
    "status": "Pending",
    "rowid": "857855",
    "final_x": "3688464.3",
    "final_y": "525334.28",
    "longitude": "-90.04629902249847",
    "latitude": "29.93827377590789",
    "geocoded_column": {
      "latitude": "29.93827377590789",
      "longitude": "-90.04629902249847"
    }
  },
  {
    "service_request": "2022-857854",
    "request_type": "Trash/Recycling",
    "request_reason": "Replace Recycling Cart",
    "date_created": "2022-01-31T14:47:16.000",
    "date_modified": "2022-01-31T14:47:16.000",
    "request_status": "Pending",
    "responsible_agency": "Department of Sanitation",
    "final_address": "1622 Dumaine St, New Orleans, Louisiana, 70116",
    "address_councildis": "C",
    "status": "Pending",
    "rowid": "857854",
    "final_x": "3680333.57653",
    "final_y": "535036.454598",
    "longitude": "-90.07163120106993",
    "latitude": "29.965200101260383",
    "geocoded_column": {
      "latitude": "29.965200101260383",
      "longitude": "-90.07163120106993"
    }
  },
  {
    "service_request": "2022-857853",
    "request_type": "Traffic Signals/Signs/Striping/Streetlights",
    "request_reason": "Disabled Parking Sign ",
    "date_created": "2022-01-31T14:45:19.000",
    "date_modified": "2022-01-31T14:45:19.000",
    "request_status": "Pending",
    "responsible_agency": "Department of Public Works",
    "final_address": "8414 Spruce St",
    "address_councildis": "A",
    "status": "Pending",
    "rowid": "857853",
    "final_x": "3662952.24525",
    "final_y": "531229.029058",
    "longitude": "-90.12664741244707",
    "latitude": "29.95524572785786",
    "geocoded_column": {
      "latitude": "29.95524572785786",
      "longitude": "-90.12664741244707"
    }
  },
  {
    "service_request": "2022-857852",
    "request_type": "Trash/Recycling",
    "request_reason": "Replace Trash Cart",
    "date_created": "2022-01-31T14:39:40.000",
    "date_modified": "2022-01-31T14:39:41.000",
    "request_status": "Pending",
    "responsible_agency": "Department of Sanitation",
    "final_address": "3333 Bell St",
    "address_councildis": "A",
    "status": "Assigned to Contractor",
    "contractor": "Richards Disposal",
    "rowid": "857852",
    "final_x": "3675331.70747",
    "final_y": "539820.965578",
    "longitude": "-90.08726254772712",
    "latitude": "29.97850637110876",
    "geocoded_column": {
      "latitude": "29.97850637110876",
      "longitude": "-90.08726254772712"
    }
  },
  {
    "service_request": "2022-857851",
    "request_type": "Roads/Drainage",
    "request_reason": "Ditch Issue",
    "date_created": "2022-01-31T14:37:00.000",
    "date_modified": "2022-01-31T14:37:00.000",
    "request_status": "Pending",
    "responsible_agency": "Department of Public Works",
    "final_address": "4784 Perrault Walk",
    "address_councildis": "E",
    "status": "Pending",
    "rowid": "857851",
    "final_x": "3709822.35614",
    "final_y": "556030.817625",
    "longitude": "-89.97772372907309",
    "latitude": "30.022000870952024",
    "geocoded_column": {
      "latitude": "30.022000870952024",
      "longitude": "-89.97772372907309"
    }
  },
  {
    "service_request": "2022-857850",
    "request_type": "Trash/Recycling",
    "request_reason": "Request a Large Item Pick Up",
    "date_created": "2022-01-31T14:35:35.000",
    "date_modified": "2022-01-31T14:35:36.000",
    "request_status": "Pending",
    "responsible_agency": "Department of Sanitation",
    "final_address": "3917 Piedmont Dr",
    "address_councildis": "D",
    "status": "Assigned to Contractor",
    "contractor": "Metro Disposal",
    "rowid": "857850",
    "final_x": "3685483.5318",
    "final_y": "547079.024401",
    "longitude": "-90.05494365705164",
    "latitude": "29.99815599045587",
    "geocoded_column": {
      "latitude": "29.99815599045587",
      "longitude": "-90.05494365705164"
    }
  },
  {
    "service_request": "2022-857849",
    "request_type": "Trash/Recycling",
    "request_reason": "Order Trash Cart",
    "date_created": "2022-01-31T14:27:06.000",
    "date_modified": "2022-01-31T14:27:08.000",
    "request_status": "Pending",
    "responsible_agency": "Department of Sanitation",
    "final_address": "3135 Broadway St",
    "address_councildis": "B",
    "status": "Assigned to Contractor",
    "contractor": "Richards Disposal",
    "rowid": "857849",
    "final_x": "3668111.09485",
    "final_y": "532353.544515",
    "longitude": "-90.11031971039114",
    "latitude": "29.95818738401511",
    "geocoded_column": {
      "latitude": "29.95818738401511",
      "longitude": "-90.11031971039114"
    }
  },
  {
    "service_request": "2022-857848",
    "request_type": "Trash/Recycling",
    "request_reason": "Order Trash Cart",
    "date_created": "2022-01-31T14:26:30.000",
    "date_modified": "2022-01-31T14:26:35.000",
    "request_status": "Pending",
    "responsible_agency": "Department of Sanitation",
    "final_address": "3133 Broadway St",
    "address_councildis": "B",
    "status": "Assigned to Contractor",
    "contractor": "Richards Disposal",
    "rowid": "857848",
    "final_x": "3668102.6377",
    "final_y": "532343.616259",
    "longitude": "-90.1103467504491",
    "latitude": "29.95816033278087",
    "geocoded_column": {
      "latitude": "29.95816033278087",
      "longitude": "-90.1103467504491"
    }
  },
  {
    "service_request": "2022-857847",
    "request_type": "Trash/Recycling",
    "request_reason": "Illegal Dumping",
    "date_created": "2022-01-31T14:26:04.000",
    "date_modified": "2022-01-31T14:26:04.000",
    "request_status": "Pending",
    "responsible_agency": "Department of Sanitation",
    "final_address": "2626 Upperline St",
    "address_councildis": "B",
    "status": "Pending",
    "rowid": "857847",
    "final_x": "3669145.60762",
    "final_y": "524487.119932",
    "longitude": "-90.10731877438275",
    "latitude": "29.93652687746799",
    "geocoded_column": {
      "latitude": "29.93652687746799",
      "longitude": "-90.10731877438275"
    }
  },
  {
    "service_request": "2022-857846",
    "request_type": "Trash/Recycling",
    "request_reason": "Request a Large Item Pick Up",
    "date_created": "2022-01-31T14:24:41.000",
    "date_modified": "2022-01-31T14:24:44.000",
    "request_status": "Pending",
    "responsible_agency": "Department of Sanitation",
    "final_address": "1300 General Collins Ave",
    "address_councildis": "C",
    "status": "Assigned to Contractor",
    "contractor": "Richards Disposal",
    "rowid": "857846",
    "final_x": "3698666.028",
    "final_y": "526478.383998",
    "longitude": "-90.01404980334961",
    "latitude": "29.941100642618117",
    "geocoded_column": {
      "latitude": "29.941100642618117",
      "longitude": "-90.01404980334961"
    }
  },
  {
    "service_request": "2022-857845",
    "request_type": "Roads/Drainage",
    "request_reason": "Pothole",
    "date_created": "2022-01-31T14:17:50.000",
    "date_modified": "2022-01-31T14:17:51.000",
    "request_status": "Pending",
    "responsible_agency": "Department of Public Works",
    "final_address": "TCHOUPITOULAS ST & STATE ST",
    "address_councildis": "A",
    "status": "Pending",
    "rowid": "857845",
    "final_x": "3664157.6",
    "final_y": "517519.18",
    "longitude": "-90.12329848891568",
    "latitude": "29.9175130411578",
    "geocoded_column": {
      "latitude": "29.9175130411578",
      "longitude": "-90.12329848891568"
    }
  },
  {
    "service_request": "2022-857844",
    "request_type": "Trash/Recycling",
    "request_reason": "Order Trash Cart",
    "date_created": "2022-01-31T14:07:08.000",
    "date_modified": "2022-01-31T14:07:28.000",
    "request_status": "Pending",
    "responsible_agency": "Department of Sanitation",
    "final_address": "2621 Soniat St",
    "address_councildis": "B",
    "status": "Assigned to Contractor",
    "contractor": "Richards Disposal",
    "rowid": "857844",
    "final_x": "3668596.86522",
    "final_y": "525141.281533",
    "longitude": "-90.10902911511016",
    "latitude": "29.93834174439946",
    "geocoded_column": {
      "latitude": "29.93834174439946",
      "longitude": "-90.10902911511016"
    }
  },
  {
    "service_request": "2022-857843",
    "request_type": "Trash/Recycling",
    "request_reason": "Return Trash Cart",
    "date_created": "2022-01-31T14:05:59.000",
    "date_modified": "2022-01-31T14:06:03.000",
    "request_status": "Pending",
    "responsible_agency": "Department of Sanitation",
    "final_address": "DABADIE ST & N DUPRE ST",
    "address_councildis": "D",
    "status": "Assigned to Contractor",
    "contractor": "Metro Disposal",
    "rowid": "857843",
    "final_x": "3678968.3",
    "final_y": "541195.98",
    "longitude": "-90.07572918497063",
    "latitude": "29.98217794235479",
    "geocoded_column": {
      "latitude": "29.98217794235479",
      "longitude": "-90.07572918497063"
    }
  },
  {
    "service_request": "2022-857842",
    "request_type": "Safety & Permits",
    "request_reason": "Licenses & Permits",
    "date_created": "2022-01-31T14:02:46.000",
    "date_modified": "2022-01-31T14:02:46.000",
    "request_status": "Pending",
    "responsible_agency": "Safety and Permits",
    "final_address": "4619 Magazine St",
    "address_councildis": "B",
    "status": "Pending",
    "rowid": "857842",
    "final_x": "3670138.6507",
    "final_y": "518788.855031",
    "longitude": "-90.10437663515664",
    "latitude": "29.92082921762797",
    "geocoded_column": {
      "latitude": "29.92082921762797",
      "longitude": "-90.10437663515664"
    }
  },
  {
    "service_request": "2022-857841",
    "request_type": "Traffic Signals/Signs/Striping/Streetlights",
    "request_reason": "Street Light Outage/Malfunction",
    "date_created": "2022-01-31T14:01:17.000",
    "date_modified": "2022-01-31T14:01:19.000",
    "request_status": "Pending",
    "responsible_agency": "Department of Public Works",
    "final_address": "4617 Prytania St",
    "address_councildis": "B",
    "status": "Pending",
    "contractor": "Royal Engineering",
    "rowid": "857841",
    "final_x": "3670044.1602",
    "final_y": "520318.638264",
    "longitude": "-90.1046231187028",
    "latitude": "29.925038421961155",
    "geocoded_column": {
      "latitude": "29.925038421961155",
      "longitude": "-90.1046231187028"
    }
  },
  {
    "service_request": "2022-857840",
    "request_type": "Traffic Signals/Signs/Striping/Streetlights",
    "request_reason": "Street Light Outage/Malfunction",
    "date_created": "2022-01-31T13:59:34.000",
    "date_modified": "2022-01-31T13:59:35.000",
    "request_status": "Pending",
    "responsible_agency": "Department of Public Works",
    "final_address": "BROADWAY ST & NELSON ST",
    "address_councildis": "A",
    "status": "Pending",
    "contractor": "Royal Engineering",
    "rowid": "857840",
    "final_x": "3666786.4",
    "final_y": "530420.78",
    "longitude": "-90.11456766374783",
    "latitude": "29.95291172507136",
    "geocoded_column": {
      "latitude": "29.95291172507136",
      "longitude": "-90.11456766374783"
    }
  },
  {
    "service_request": "2022-857838",
    "request_type": "Health Related Questions",
    "request_reason": "Request Information on the Health Marketplace",
    "date_created": "2022-01-31T13:56:58.000",
    "date_modified": "2022-01-31T13:56:58.000",
    "request_status": "Pending",
    "responsible_agency": "Health Department",
    "final_address": "7849 Read Blvd Apt 12",
    "address_councildis": "E",
    "status": "Pending",
    "rowid": "857838",
    "final_x": "3708429.38795",
    "final_y": "565267.44797",
    "longitude": "-89.98178086429685",
    "latitude": "30.047443191521047",
    "geocoded_column": {
      "latitude": "30.047443191521047",
      "longitude": "-89.98178086429685"
    }
  },
  {
    "service_request": "2022-857837",
    "request_type": "Trash/Recycling",
    "request_reason": "Request a Large Item Pick Up",
    "date_created": "2022-01-31T13:53:22.000",
    "date_modified": "2022-01-31T13:53:23.000",
    "request_status": "Pending",
    "responsible_agency": "Department of Sanitation",
    "final_address": "2322 Peniston St",
    "address_councildis": "B",
    "status": "Assigned to Contractor",
    "contractor": "Richards Disposal",
    "rowid": "857837",
    "final_x": "3672216.37902",
    "final_y": "523727.631227",
    "longitude": "-90.09765006382968",
    "latitude": "29.93434782819365",
    "geocoded_column": {
      "latitude": "29.93434782819365",
      "longitude": "-90.09765006382968"
    }
  },
  {
    "service_request": "2022-857836",
    "request_type": "Property Maintenance",
    "request_reason": "Property Maintenance",
    "date_created": "2022-01-31T13:48:06.000",
    "date_modified": "2022-01-31T13:48:06.000",
    "request_status": "Pending",
    "responsible_agency": "Department of Code Enforcement",
    "final_address": "3442 S Liberty St",
    "address_councildis": "B",
    "status": "Pending",
    "rowid": "857836",
    "final_x": "3672926.46088",
    "final_y": "523592.880507",
    "longitude": "-90.095412947734",
    "latitude": "29.933956232441236",
    "geocoded_column": {
      "latitude": "29.933956232441236",
      "longitude": "-90.095412947734"
    }
  },
  {
    "service_request": "2022-857835",
    "request_type": "Property Maintenance",
    "request_reason": "Property Maintenance",
    "date_created": "2022-01-31T13:45:13.000",
    "date_modified": "2022-01-31T13:45:13.000",
    "request_status": "Pending",
    "responsible_agency": "Department of Code Enforcement",
    "final_address": "3500 S Robertson St",
    "address_councildis": "B",
    "status": "Pending",
    "rowid": "857835",
    "final_x": "3672357.16763",
    "final_y": "524611.36262",
    "longitude": "-90.09717549914569",
    "latitude": "29.9367736276423",
    "geocoded_column": {
      "latitude": "29.9367736276423",
      "longitude": "-90.09717549914569"
    }
  },
  {
    "service_request": "2022-857834",
    "request_type": "Property Maintenance",
    "request_reason": "Property Maintenance",
    "date_created": "2022-01-31T13:43:56.000",
    "date_modified": "2022-01-31T13:43:56.000",
    "request_status": "Pending",
    "responsible_agency": "Department of Code Enforcement",
    "final_address": "2513 Amelia St",
    "address_councildis": "B",
    "status": "Pending",
    "rowid": "857834",
    "final_x": "3672363.03271",
    "final_y": "524411.833404",
    "longitude": "-90.09716377858985",
    "latitude": "29.936224813041658",
    "geocoded_column": {
      "latitude": "29.936224813041658",
      "longitude": "-90.09716377858985"
    }
  },
  {
    "service_request": "2022-857833",
    "request_type": "Traffic Signals/Signs/Striping/Streetlights",
    "request_reason": "Traffic Signal Malfunctioning/Damaged",
    "date_created": "2022-01-31T13:41:00.000",
    "date_modified": "2022-01-31T13:41:01.000",
    "request_status": "Pending",
    "responsible_agency": "Department of Public Works",
    "final_address": "ROBERT E LEE BLVD & WEST END BLVD",
    "address_councildis": "A",
    "status": "Pending",
    "rowid": "857833",
    "final_x": "3666970.6",
    "final_y": "554841.58",
    "longitude": "-90.1131649180437",
    "latitude": "30.02005524389593",
    "geocoded_column": {
      "latitude": "30.02005524389593",
      "longitude": "-90.1131649180437"
    }
  },
  {
    "service_request": "2022-857832",
    "request_type": "Mosquito, Termite & Rodent Control",
    "request_reason": "Rodent Complaint (Rats)",
    "date_created": "2022-01-31T13:28:30.000",
    "date_modified": "2022-01-31T14:41:43.000",
    "request_status": "Pending",
    "responsible_agency": "Mosquito, Termite & Rodent Control Board",
    "final_address": "918 Verret St",
    "address_councildis": "C",
    "rowid": "857832",
    "final_x": "3687240.19247",
    "final_y": "528181.55232",
    "longitude": "-90.05006296445404",
    "latitude": "29.94614055948706",
    "geocoded_column": {
      "latitude": "29.94614055948706",
      "longitude": "-90.05006296445404"
    }
  },
  {
    "service_request": "2022-857831",
    "request_type": "Trash/Recycling",
    "request_reason": "Missed Trash Pick-Up",
    "date_created": "2022-01-31T13:25:45.000",
    "date_modified": "2022-01-31T13:25:46.000",
    "request_status": "Pending",
    "responsible_agency": "Department of Sanitation",
    "final_address": "2358 N Claiborne Ave",
    "address_councildis": "C",
    "status": "Assigned to Contractor",
    "contractor": "Metro Disposal",
    "rowid": "857831",
    "final_x": "3686122.04598",
    "final_y": "538210.548553",
    "longitude": "-90.05323957972844",
    "latitude": "29.97375122738465",
    "geocoded_column": {
      "latitude": "29.97375122738465",
      "longitude": "-90.05323957972844"
    }
  },
  {
    "service_request": "2022-857830",
    "request_type": "Trash/Recycling",
    "request_reason": "Order Recycling Cart",
    "date_created": "2022-01-31T13:24:19.000",
    "date_modified": "2022-01-31T13:24:20.000",
    "request_status": "Pending",
    "responsible_agency": "Department of Sanitation",
    "final_address": "2131 S Robertson St",
    "address_councildis": "B",
    "status": "Pending",
    "rowid": "857830",
    "final_x": "3675499.54587",
    "final_y": "526663.108862",
    "longitude": "-90.08718440527724",
    "latitude": "29.942321666940828",
    "geocoded_column": {
      "latitude": "29.942321666940828",
      "longitude": "-90.08718440527724"
    }
  },
  {
    "service_request": "2022-857829",
    "request_type": "Traffic Signals/Signs/Striping/Streetlights",
    "request_reason": "Street Light Outage/Malfunction",
    "date_created": "2022-01-31T13:18:57.000",
    "date_modified": "2022-01-31T13:18:57.000",
    "case_close_date": "2020-06-07T19:00:00.000",
    "request_status": "Pending",
    "responsible_agency": "Department of Public Works",
    "final_address": "1209 N Dorgenois St",
    "address_councildis": "D",
    "status": "Pending",
    "contractor": "Royal Engineering",
    "rowid": "857829",
    "final_x": "3678274.93026",
    "final_y": "538208.195209",
    "longitude": "-90.07802256754874",
    "latitude": "29.973983472406978",
    "geocoded_column": {
      "latitude": "29.973983472406978",
      "longitude": "-90.07802256754874"
    }
  },
  {
    "service_request": "2022-857828",
    "request_type": "Abandoned Vehicles",
    "request_reason": "Abandoned/Junk Vehicles",
    "date_created": "2022-01-31T13:18:25.000",
    "date_modified": "2022-01-31T13:18:25.000",
    "request_status": "Pending",
    "responsible_agency": "Department of Public Works",
    "final_address": "4500 Palmyra St",
    "address_councildis": "A",
    "status": "Pending",
    "rowid": "857828",
    "final_x": "3669175.3538",
    "final_y": "538760.147081",
    "longitude": "-90.10674250329562",
    "latitude": "29.975772127812668",
    "geocoded_column": {
      "latitude": "29.975772127812668",
      "longitude": "-90.10674250329562"
    }
  },
  {
    "service_request": "2022-857826",
    "request_type": "Trash/Recycling",
    "request_reason": "Request a Large Item Pick Up",
    "date_created": "2022-01-31T13:16:48.000",
    "date_modified": "2022-01-31T13:16:49.000",
    "request_status": "Pending",
    "responsible_agency": "Department of Sanitation",
    "final_address": "4627 S Claiborne Ave",
    "address_councildis": "B",
    "status": "Assigned to Contractor",
    "contractor": "Richards Disposal",
    "rowid": "857826",
    "final_x": "3669366.70708",
    "final_y": "525879.283709",
    "longitude": "-90.1065736974965",
    "latitude": "29.94034837190073",
    "geocoded_column": {
      "latitude": "29.94034837190073",
      "longitude": "-90.1065736974965"
    }
  },
  {
    "service_request": "2022-857825",
    "request_type": "Traffic Signals/Signs/Striping/Streetlights",
    "request_reason": "Street Light Outage/Malfunction",
    "date_created": "2022-01-31T13:16:20.000",
    "date_modified": "2022-01-31T13:16:21.000",
    "request_status": "Pending",
    "responsible_agency": "Department of Public Works",
    "final_address": "6123 Fleur-De-Lis Dr",
    "address_councildis": "A",
    "status": "Pending",
    "contractor": "Royal Engineering",
    "rowid": "857825",
    "final_x": "3665278.29748",
    "final_y": "548311.097042",
    "longitude": "-90.118730807055",
    "latitude": "30.002148133078464",
    "geocoded_column": {
      "latitude": "30.002148133078464",
      "longitude": "-90.118730807055"
    }
  },
  {
    "service_request": "2022-857823",
    "request_type": "Property Maintenance",
    "request_reason": "Property Maintenance",
    "date_created": "2022-01-31T13:12:51.000",
    "date_modified": "2022-01-31T13:12:51.000",
    "request_status": "Pending",
    "responsible_agency": "Department of Code Enforcement",
    "final_address": "4875 Redwood St",
    "address_councildis": "E",
    "status": "Pending",
    "rowid": "857823",
    "final_x": "3712479.19755",
    "final_y": "556988.499738",
    "longitude": "-89.96929285166978",
    "latitude": "30.024547424820078",
    "geocoded_column": {
      "latitude": "30.024547424820078",
      "longitude": "-89.96929285166978"
    }
  },
  {
    "service_request": "2022-857822",
    "request_type": "Trash/Recycling",
    "request_reason": "Request a Large Item Pick Up",
    "date_created": "2022-01-31T13:11:11.000",
    "date_modified": "2022-01-31T13:11:11.000",
    "request_status": "Pending",
    "responsible_agency": "Department of Sanitation",
    "final_address": "8555 Fordham Ct",
    "address_councildis": "E",
    "status": "Assigned to Contractor",
    "contractor": "Metro Disposal",
    "rowid": "857822",
    "final_x": "3705192.43185",
    "final_y": "560527.454686",
    "longitude": "-89.99218669339425",
    "latitude": "30.034514669502943",
    "geocoded_column": {
      "latitude": "30.034514669502943",
      "longitude": "-89.99218669339425"
    }
  },
  {
    "service_request": "2022-857821",
    "request_type": "Traffic Signals/Signs/Striping/Streetlights",
    "request_reason": "Street Light Outage/Malfunction",
    "date_created": "2022-01-31T13:09:08.000",
    "date_modified": "2022-01-31T13:09:08.000",
    "request_status": "Pending",
    "responsible_agency": "Department of Public Works",
    "final_address": "TREASURE ST & ALLEN ST",
    "address_councildis": "D",
    "status": "Pending",
    "contractor": "Royal Engineering",
    "rowid": "857821",
    "final_x": "3682158.7",
    "final_y": "543861.88",
    "longitude": "-90.06555920320926",
    "latitude": "29.989411562788646",
    "geocoded_column": {
      "latitude": "29.989411562788646",
      "longitude": "-90.06555920320926"
    }
  },
  {
    "service_request": "2022-857820",
    "request_type": "Abandoned Vehicles",
    "request_reason": "Abandoned/Junk Vehicles",
    "date_created": "2022-01-31T13:06:58.000",
    "date_modified": "2022-01-31T13:08:31.000",
    "request_status": "Pending",
    "responsible_agency": "Department of Public Works",
    "final_address": "7200 Florita Ct",
    "address_councildis": "D",
    "status": "Pending",
    "rowid": "857820",
    "final_x": "3694846.13942",
    "final_y": "556905.027162",
    "longitude": "-90.02501299701262",
    "latitude": "30.024883290121775",
    "geocoded_column": {
      "latitude": "30.024883290121775",
      "longitude": "-90.02501299701262"
    }
  },
  {
    "service_request": "2022-857819",
    "request_type": "Safety & Permits",
    "request_reason": "School Bus Complaints",
    "date_created": "2022-01-31T12:56:11.000",
    "date_modified": "2022-01-31T12:56:12.000",
    "request_status": "Pending",
    "responsible_agency": "Safety and Permits",
    "final_address": "17 N Oak Ridge Ct",
    "address_councildis": "E",
    "status": "Pending",
    "rowid": "857819",
    "final_x": "3713447.38642",
    "final_y": "567874.714084",
    "longitude": "-89.96582304616852",
    "latitude": "30.054448410187405",
    "geocoded_column": {
      "latitude": "30.054448410187405",
      "longitude": "-89.96582304616852"
    }
  },
  {
    "service_request": "2022-857818",
    "request_type": "Trash/Recycling",
    "request_reason": "Request a Large Item Pick Up",
    "date_created": "2022-01-31T12:52:26.000",
    "date_modified": "2022-01-31T12:52:26.000",
    "request_status": "Pending",
    "responsible_agency": "Department of Sanitation",
    "final_address": "42 Bluebird St",
    "address_councildis": "D",
    "status": "Assigned to Contractor",
    "contractor": "Metro Disposal",
    "rowid": "857818",
    "final_x": "3672842.74958",
    "final_y": "554929.618904",
    "longitude": "-90.09460773833858",
    "latitude": "30.020124075440705",
    "geocoded_column": {
      "latitude": "30.020124075440705",
      "longitude": "-90.09460773833858"
    }
  },
  {
    "service_request": "2022-857817",
    "request_type": "Trash/Recycling",
    "request_reason": "Replace Trash Cart",
    "date_created": "2022-01-31T12:50:19.000",
    "date_modified": "2022-01-31T12:50:21.000",
    "request_status": "Pending",
    "responsible_agency": "Department of Sanitation",
    "final_address": "2917 Josephine St",
    "address_councildis": "B",
    "status": "Assigned to Contractor",
    "contractor": "Richards Disposal",
    "rowid": "857817",
    "final_x": "3675064.61237",
    "final_y": "527699.005759",
    "longitude": "-90.08852205858231",
    "latitude": "29.94518304127825",
    "geocoded_column": {
      "latitude": "29.94518304127825",
      "longitude": "-90.08852205858231"
    }
  },
  {
    "service_request": "2022-857816",
    "request_type": "Trash/Recycling",
    "request_reason": "Order Trash Cart",
    "date_created": "2022-01-31T12:47:32.000",
    "date_modified": "2022-01-31T12:47:32.000",
    "request_status": "Pending",
    "responsible_agency": "Department of Sanitation",
    "final_address": "New Orleans,LA",
    "status": "Assigned to Contractor",
    "rowid": "857816",
    "longitude": "0.0",
    "latitude": "0.0",
    "geocoded_column": {
      "latitude": "0.0",
      "longitude": "0.0"
    }
  },
  {
    "service_request": "2022-857815",
    "request_type": "Abandoned Vehicles",
    "request_reason": "Abandoned/Junk Vehicles",
    "date_created": "2022-01-31T12:47:16.000",
    "date_modified": "2022-01-31T12:47:16.000",
    "request_status": "Pending",
    "responsible_agency": "Department of Public Works",
    "final_address": "2642 St Nick Dr",
    "address_councildis": "C",
    "status": "Pending",
    "rowid": "857815",
    "final_x": "3699381.25584",
    "final_y": "521120.871353",
    "longitude": "-90.01198676518176",
    "latitude": "29.926346675199014",
    "geocoded_column": {
      "latitude": "29.926346675199014",
      "longitude": "-90.01198676518176"
    }
  },
  {
    "service_request": "2022-857814",
    "request_type": "Roads/Drainage",
    "request_reason": "Pothole",
    "date_created": "2022-01-31T12:44:46.000",
    "date_modified": "2022-01-31T12:44:47.000",
    "request_status": "Pending",
    "responsible_agency": "Department of Public Works",
    "final_address": "5401 Tullis Dr",
    "address_councildis": "C",
    "status": "Pending",
    "rowid": "857814",
    "final_x": "3703936.83601",
    "final_y": "511803.58232",
    "longitude": "-89.99794896701714",
    "latitude": "29.900582090508202",
    "geocoded_column": {
      "latitude": "29.900582090508202",
      "longitude": "-89.99794896701714"
    }
  },
  {
    "service_request": "2022-857813",
    "request_type": "Traffic Signals/Signs/Striping/Streetlights",
    "request_reason": "Request for Traffic Calming due to Speeding",
    "date_created": "2022-01-31T12:43:58.000",
    "date_modified": "2022-01-31T12:43:58.000",
    "request_status": "Pending",
    "responsible_agency": "Department of Public Works",
    "final_address": "9005 Hickory St",
    "address_councildis": "A",
    "status": "Pending",
    "rowid": "857813",
    "final_x": "3661006.47162",
    "final_y": "532144.078467",
    "longitude": "-90.1327612084773",
    "latitude": "29.957818018273002",
    "geocoded_column": {
      "latitude": "29.957818018273002",
      "longitude": "-90.1327612084773"
    }
  },
  {
    "service_request": "2022-857812",
    "request_type": "Property Maintenance",
    "request_reason": "Property Maintenance",
    "date_created": "2022-01-31T12:43:57.000",
    "date_modified": "2022-01-31T12:43:57.000",
    "request_status": "Pending",
    "responsible_agency": "Department of Code Enforcement",
    "final_address": "1504 Cleveland Ave",
    "address_councildis": "B",
    "status": "Pending",
    "rowid": "857812",
    "final_x": "3678799.9268",
    "final_y": "531868.740675",
    "longitude": "-90.07658410360743",
    "latitude": "29.956536306598473",
    "geocoded_column": {
      "latitude": "29.956536306598473",
      "longitude": "-90.07658410360743"
    }
  },
  {
    "service_request": "2022-857811",
    "request_type": "Abandoned Vehicles",
    "request_reason": "Abandoned/Junk Vehicles",
    "date_created": "2022-01-31T12:42:48.000",
    "date_modified": "2022-01-31T12:42:48.000",
    "request_status": "Pending",
    "responsible_agency": "Department of Public Works",
    "final_address": "3772 Red Cypress Dr",
    "address_councildis": "C",
    "status": "Pending",
    "rowid": "857811",
    "final_x": "3703458.59306",
    "final_y": "512276.326193",
    "longitude": "-89.99944087632159",
    "latitude": "29.90189729293975",
    "geocoded_column": {
      "latitude": "29.90189729293975",
      "longitude": "-89.99944087632159"
    }
  },
  {
    "service_request": "2022-857810",
    "request_type": "Property Maintenance",
    "request_reason": "Property Maintenance",
    "date_created": "2022-01-31T12:40:09.000",
    "date_modified": "2022-01-31T12:40:09.000",
    "request_status": "Pending",
    "responsible_agency": "Department of Code Enforcement",
    "final_address": "2136 Louisiana Ave",
    "address_councildis": "B",
    "status": "Pending",
    "rowid": "857810",
    "final_x": "3673306.30184",
    "final_y": "523450.196155",
    "longitude": "-90.09421867462069",
    "latitude": "29.93355260756638",
    "geocoded_column": {
      "latitude": "29.93355260756638",
      "longitude": "-90.09421867462069"
    }
  },
  {
    "service_request": "2022-857809",
    "request_type": "Abandoned Vehicles",
    "request_reason": "Abandoned/Junk Vehicles",
    "date_created": "2022-01-31T12:39:18.000",
    "date_modified": "2022-01-31T12:39:18.000",
    "request_status": "Pending",
    "responsible_agency": "Department of Public Works",
    "final_address": "3772 Silver Maple Ct",
    "address_councildis": "C",
    "status": "Pending",
    "rowid": "857809",
    "final_x": "3703629.24273",
    "final_y": "512674.552113",
    "longitude": "-89.99888768305408",
    "latitude": "29.902986815742096",
    "geocoded_column": {
      "latitude": "29.902986815742096",
      "longitude": "-89.99888768305408"
    }
  },
  {
    "service_request": "2022-857808",
    "request_type": "Parks & Parkways",
    "request_reason": "Request Tree Service (Right of Way/Public Property)",
    "date_created": "2022-01-31T12:36:36.000",
    "date_modified": "2022-01-31T12:36:36.000",
    "request_status": "Pending",
    "responsible_agency": "Department of Parks & Parkway",
    "final_address": "5800 Norland Ave",
    "address_councildis": "C",
    "status": "Pending",
    "rowid": "857808",
    "final_x": "3705088.99332",
    "final_y": "520483.026104",
    "longitude": "-89.99399272893837",
    "latitude": "29.924410606399636",
    "geocoded_column": {
      "latitude": "29.924410606399636",
      "longitude": "-89.99399272893837"
    }
  },
  {
    "service_request": "2022-857807",
    "request_type": "Abandoned Vehicles",
    "request_reason": "Abandoned/Junk Vehicles",
    "date_created": "2022-01-31T12:35:21.000",
    "date_modified": "2022-01-31T12:35:21.000",
    "request_status": "Pending",
    "responsible_agency": "Department of Public Works",
    "final_address": "3840 Red Cypress Dr",
    "address_councildis": "C",
    "status": "Pending",
    "rowid": "857807",
    "final_x": "3703947.85105",
    "final_y": "512347.666673",
    "longitude": "-89.99789419296475",
    "latitude": "29.90207778513373",
    "geocoded_column": {
      "latitude": "29.90207778513373",
      "longitude": "-89.99789419296475"
    }
  },
  {
    "service_request": "2022-857806",
    "request_type": "Trash/Recycling",
    "request_reason": "Request a Large Item Pick Up",
    "date_created": "2022-01-31T12:33:12.000",
    "date_modified": "2022-01-31T12:33:13.000",
    "request_status": "Pending",
    "responsible_agency": "Department of Sanitation",
    "final_address": "4149 Toulouse St",
    "address_councildis": "A",
    "status": "Assigned to Contractor",
    "contractor": "Richards Disposal",
    "rowid": "857806",
    "final_x": "3671905.8859",
    "final_y": "540027.762635",
    "longitude": "-90.09807553606677",
    "latitude": "29.979176985992996",
    "geocoded_column": {
      "latitude": "29.979176985992996",
      "longitude": "-90.09807553606677"
    }
  },
  {
    "service_request": "2022-857805",
    "request_type": "Trash/Recycling",
    "request_reason": "Replace Trash Cart",
    "date_created": "2022-01-31T12:31:07.000",
    "date_modified": "2022-01-31T12:31:10.000",
    "request_status": "Pending",
    "responsible_agency": "Department of Sanitation",
    "final_address": "320 Alix St",
    "address_councildis": "C",
    "status": "Assigned to Contractor",
    "contractor": "Richards Disposal",
    "rowid": "857805",
    "final_x": "3686532.61436",
    "final_y": "530078.590081",
    "longitude": "-90.05223006039935",
    "latitude": "29.95137853746635",
    "geocoded_column": {
      "latitude": "29.95137853746635",
      "longitude": "-90.05223006039935"
    }
  },
  {
    "service_request": "2022-857804",
    "request_type": "Trash/Recycling",
    "request_reason": "Repair Trash Cart",
    "date_created": "2022-01-31T12:31:04.000",
    "date_modified": "2022-01-31T12:38:41.000",
    "request_status": "Pending",
    "responsible_agency": "Department of Sanitation",
    "final_address": "5401 Tullis Dr, New Orleans, Louisiana, 70131",
    "address_councildis": "C",
    "contractor": "Richards Disposal",
    "rowid": "857804",
    "final_x": "3703936.83601",
    "final_y": "511803.58232",
    "longitude": "-89.99794896701714",
    "latitude": "29.900582090508202",
    "geocoded_column": {
      "latitude": "29.900582090508202",
      "longitude": "-89.99794896701714"
    }
  },
  {
    "service_request": "2022-857803",
    "request_type": "Abandoned Vehicles",
    "request_reason": "Abandoned/Junk Vehicles",
    "date_created": "2022-01-31T12:30:17.000",
    "date_modified": "2022-01-31T12:30:17.000",
    "request_status": "Pending",
    "responsible_agency": "Department of Public Works",
    "final_address": "3709 Pin Oak Ave",
    "address_councildis": "C",
    "status": "Pending",
    "rowid": "857803",
    "final_x": "3704271.76894",
    "final_y": "514503.984179",
    "longitude": "-89.99679255416162",
    "latitude": "29.907996539860303",
    "geocoded_column": {
      "latitude": "29.907996539860303",
      "longitude": "-89.99679255416162"
    }
  },
  {
    "service_request": "2022-857802",
    "request_type": "Trash/Recycling",
    "request_reason": "Request a Large Item Pick Up",
    "date_created": "2022-01-31T12:28:32.000",
    "date_modified": "2022-01-31T12:28:32.000",
    "request_status": "Pending",
    "responsible_agency": "Department of Sanitation",
    "final_address": "320 Alix St",
    "address_councildis": "C",
    "status": "Assigned to Contractor",
    "contractor": "Richards Disposal",
    "rowid": "857802",
    "final_x": "3686532.61436",
    "final_y": "530078.590081",
    "longitude": "-90.05223006039935",
    "latitude": "29.95137853746635",
    "geocoded_column": {
      "latitude": "29.95137853746635",
      "longitude": "-90.05223006039935"
    }
  },
  {
    "service_request": "2022-857801",
    "request_type": "Trash/Recycling",
    "request_reason": "Request a Large Item Pick Up",
    "date_created": "2022-01-31T12:27:29.000",
    "date_modified": "2022-01-31T12:27:30.000",
    "request_status": "Pending",
    "responsible_agency": "Department of Sanitation",
    "final_address": "14508 Beekman Rd, New Orleans, Louisiana, 70128",
    "address_councildis": "E",
    "status": "Assigned to Contractor",
    "contractor": "Metro Disposal",
    "rowid": "857801",
    "final_x": "3720837.3653",
    "final_y": "572761.083049",
    "longitude": "-89.94227780489769",
    "latitude": "30.06763930247447",
    "geocoded_column": {
      "latitude": "30.06763930247447",
      "longitude": "-89.94227780489769"
    }
  },
  {
    "service_request": "2022-857800",
    "request_type": "Abandoned Vehicles",
    "request_reason": "Abandoned/Junk Vehicles",
    "date_created": "2022-01-31T12:26:26.000",
    "date_modified": "2022-01-31T12:26:31.000",
    "request_status": "Pending",
    "responsible_agency": "Department of Public Works",
    "final_address": "3600 BLK Meadow Park Ln",
    "address_councildis": "C",
    "status": "Pending",
    "rowid": "857800",
    "final_x": "3703856.35045",
    "final_y": "511005.985978",
    "longitude": "-89.99823229860841",
    "latitude": "29.89839154920458",
    "geocoded_column": {
      "latitude": "29.89839154920458",
      "longitude": "-89.99823229860841"
    }
  },
  {
    "service_request": "2022-857799",
    "request_type": "Trash/Recycling",
    "request_reason": "Request a Large Item Pick Up",
    "date_created": "2022-01-31T12:23:11.000",
    "date_modified": "2022-01-31T12:23:12.000",
    "request_status": "Pending",
    "responsible_agency": "Department of Sanitation",
    "final_address": "6530 Pontchartrain Blvd",
    "address_councildis": "A",
    "status": "Assigned to Contractor",
    "contractor": "Metro Disposal",
    "rowid": "857799",
    "final_x": "3666202.03085",
    "final_y": "551575.747285",
    "longitude": "-90.11570301836039",
    "latitude": "30.01109783176945",
    "geocoded_column": {
      "latitude": "30.01109783176945",
      "longitude": "-90.11570301836039"
    }
  },
  {
    "service_request": "2022-857798",
    "request_type": "Property Maintenance",
    "request_reason": "Property Maintenance",
    "date_created": "2022-01-31T12:19:36.000",
    "date_modified": "2022-01-31T12:19:36.000",
    "request_status": "Pending",
    "responsible_agency": "Department of Code Enforcement",
    "final_address": "723 Leontine St",
    "address_councildis": "B",
    "status": "Pending",
    "rowid": "857798",
    "final_x": "3667124.06541",
    "final_y": "518072.936438",
    "longitude": "-90.1139163881045",
    "latitude": "29.918949226358958",
    "geocoded_column": {
      "latitude": "29.918949226358958",
      "longitude": "-90.1139163881045"
    }
  },
  {
    "service_request": "2022-857797",
    "request_type": "Trash/Recycling",
    "request_reason": "Repair Trash Cart",
    "date_created": "2022-01-31T12:17:55.000",
    "date_modified": "2022-01-31T12:17:55.000",
    "request_status": "Pending",
    "responsible_agency": "Department of Sanitation",
    "final_address": "4810 Lennox Blvd",
    "address_councildis": "C",
    "status": "Assigned to Contractor",
    "contractor": "Richards Disposal",
    "rowid": "857797",
    "final_x": "3700812.73834",
    "final_y": "512406.684785",
    "longitude": "-90.00778623277658",
    "latitude": "29.90234016246673",
    "geocoded_column": {
      "latitude": "29.90234016246673",
      "longitude": "-90.00778623277658"
    }
  },
  {
    "service_request": "2022-857796",
    "request_type": "Trash/Recycling",
    "request_reason": "Order Recycling Cart",
    "date_created": "2022-01-31T12:15:10.000",
    "date_modified": "2022-01-31T12:15:10.000",
    "request_status": "Pending",
    "responsible_agency": "Department of Sanitation",
    "final_address": "4810 Lennox Blvd",
    "address_councildis": "C",
    "status": "Pending",
    "rowid": "857796",
    "final_x": "3700812.73834",
    "final_y": "512406.684785",
    "longitude": "-90.00778623277658",
    "latitude": "29.90234016246673",
    "geocoded_column": {
      "latitude": "29.90234016246673",
      "longitude": "-90.00778623277658"
    }
  },
  {
    "service_request": "2022-857795",
    "request_type": "Traffic Signals/Signs/Striping/Streetlights",
    "request_reason": "Street Light Outage/Malfunction",
    "date_created": "2022-01-31T12:14:38.000",
    "date_modified": "2022-01-31T12:14:39.000",
    "request_status": "Pending",
    "responsible_agency": "Department of Public Works",
    "final_address": "2201 Elysian Fields Ave",
    "address_councildis": "D",
    "status": "Pending",
    "contractor": "Royal Engineering",
    "rowid": "857795",
    "final_x": "3684799.69173",
    "final_y": "540400.599051",
    "longitude": "-90.05733883205848",
    "latitude": "29.97981365334176",
    "geocoded_column": {
      "latitude": "29.97981365334176",
      "longitude": "-90.05733883205848"
    }
  },
  {
    "service_request": "2022-857794",
    "request_type": "Trash/Recycling",
    "request_reason": "Request a Large Item Pick Up",
    "date_created": "2022-01-31T12:08:12.000",
    "date_modified": "2022-01-31T12:08:12.000",
    "request_status": "Pending",
    "responsible_agency": "Department of Sanitation",
    "final_address": "1 Yellowstone Dr",
    "address_councildis": "C",
    "status": "Assigned to Contractor",
    "contractor": "Richards Disposal",
    "rowid": "857794",
    "final_x": "3699306.17232",
    "final_y": "518029.404854",
    "longitude": "-90.01233628756079",
    "latitude": "29.917848580087043",
    "geocoded_column": {
      "latitude": "29.917848580087043",
      "longitude": "-90.01233628756079"
    }
  },
  {
    "service_request": "2022-857793",
    "request_type": "Trash/Recycling",
    "request_reason": "Order Recycling Cart",
    "date_created": "2022-01-31T12:05:34.000",
    "date_modified": "2022-01-31T12:05:34.000",
    "request_status": "Pending",
    "responsible_agency": "Department of Sanitation",
    "final_address": "2100 Conti St",
    "address_councildis": "B",
    "status": "Pending",
    "rowid": "857793",
    "final_x": "3677912.81141",
    "final_y": "534567.634181",
    "longitude": "-90.07929205513257",
    "latitude": "29.96398407558121",
    "geocoded_column": {
      "latitude": "29.96398407558121",
      "longitude": "-90.07929205513257"
    }
  },
  {
    "service_request": "2022-857792",
    "request_type": "EMS",
    "request_reason": "EMS Complaint",
    "date_created": "2022-01-31T12:05:07.000",
    "date_modified": "2022-01-31T12:05:07.000",
    "request_status": "Pending",
    "responsible_agency": "Emergency Medical Services",
    "final_address": "546 S Tonti St",
    "address_councildis": "B",
    "status": "Pending",
    "rowid": "857792",
    "final_x": "3675344.62817",
    "final_y": "532779.622212",
    "longitude": "-90.08746354528382",
    "latitude": "29.959144678673137",
    "geocoded_column": {
      "latitude": "29.959144678673137",
      "longitude": "-90.08746354528382"
    }
  },
  {
    "service_request": "2022-857791",
    "request_type": "Safety & Permits",
    "request_reason": "Licenses & Permits",
    "date_created": "2022-01-31T12:04:50.000",
    "date_modified": "2022-01-31T12:04:50.000",
    "request_status": "Pending",
    "responsible_agency": "Safety and Permits",
    "status": "Pending",
    "rowid": "857791",
    "longitude": "0.0",
    "latitude": "0.0",
    "geocoded_column": {
      "latitude": "0.0",
      "longitude": "0.0"
    }
  },
  {
    "service_request": "2022-857790",
    "request_type": "Property Maintenance",
    "request_reason": "Property Maintenance",
    "date_created": "2022-01-31T12:04:10.000",
    "date_modified": "2022-01-31T12:04:10.000",
    "request_status": "Pending",
    "responsible_agency": "Department of Code Enforcement",
    "final_address": "13508 Trappers Ct",
    "address_councildis": "E",
    "status": "Pending",
    "rowid": "857790",
    "final_x": "3724461.72076",
    "final_y": "568980.103078",
    "longitude": "-89.93096696829286",
    "latitude": "30.05712172582346",
    "geocoded_column": {
      "latitude": "30.05712172582346",
      "longitude": "-89.93096696829286"
    }
  },
  {
    "service_request": "2022-857789",
    "request_type": "Roads/Drainage",
    "request_reason": "Damaged Sidewalk",
    "date_created": "2022-01-31T12:03:36.000",
    "date_modified": "2022-01-31T12:03:36.000",
    "request_status": "Pending",
    "responsible_agency": "Department of Public Works",
    "final_address": "3663 Annunciation St",
    "address_councildis": "B",
    "status": "Pending",
    "rowid": "857789",
    "final_x": "3673960.07144",
    "final_y": "518165.335414",
    "longitude": "-90.09233545185276",
    "latitude": "29.919001486210455",
    "geocoded_column": {
      "latitude": "29.919001486210455",
      "longitude": "-90.09233545185276"
    }
  },
  {
    "service_request": "2022-857788",
    "request_type": "Abandoned Vehicles",
    "request_reason": "Abandoned/Junk Vehicles",
    "date_created": "2022-01-31T12:02:05.000",
    "date_modified": "2022-01-31T12:02:05.000",
    "request_status": "Pending",
    "responsible_agency": "Department of Public Works",
    "final_address": "6900 BLK Camberley Ct",
    "address_councildis": "E",
    "status": "Pending",
    "rowid": "857788",
    "final_x": "3713660.43878",
    "final_y": "564283.599239",
    "longitude": "-89.9652851615879",
    "latitude": "30.044567312382423",
    "geocoded_column": {
      "latitude": "30.044567312382423",
      "longitude": "-89.9652851615879"
    }
  },
  {
    "service_request": "2022-857787",
    "request_type": "Trash/Recycling",
    "request_reason": "Request a Large Item Pick Up",
    "date_created": "2022-01-31T11:58:51.000",
    "date_modified": "2022-01-31T11:58:52.000",
    "request_status": "Pending",
    "responsible_agency": "Department of Sanitation",
    "final_address": "1609 Delery St",
    "address_councildis": "E",
    "status": "Assigned to Contractor",
    "contractor": "Metro Disposal",
    "rowid": "857787",
    "final_x": "3701279.24868",
    "final_y": "534831.764998",
    "longitude": "-90.00549381976701",
    "latitude": "29.96398648572241",
    "geocoded_column": {
      "latitude": "29.96398648572241",
      "longitude": "-90.00549381976701"
    }
  },
  {
    "service_request": "2022-857786",
    "request_type": "Property Maintenance",
    "request_reason": "Property Maintenance",
    "date_created": "2022-01-31T11:58:17.000",
    "date_modified": "2022-01-31T11:58:17.000",
    "request_status": "Pending",
    "responsible_agency": "Department of Code Enforcement",
    "final_address": "1701 Delery St",
    "address_councildis": "E",
    "status": "Pending",
    "rowid": "857786",
    "final_x": "3701307.66845",
    "final_y": "535020.004038",
    "longitude": "-90.00539718426734",
    "latitude": "29.96450316982297",
    "geocoded_column": {
      "latitude": "29.96450316982297",
      "longitude": "-90.00539718426734"
    }
  },