[
  {
    "service_request": "2024-1136366",
    "request_type": "Street and Traffic Signs",
    "request_reason": "Stop Sign Missing or Damaged",
    "date_created": "2024-09-27T23:01:59.000",
    "date_modified": "2024-09-27T23:01:59.000",
    "request_status": "Pending",
    "responsible_agency": "Department of Public Works",
    "final_address": "BURTHE ST & AUDUBON ST",
    "address_councildis": "A",
    "status": "Pending",
    "rowid": "1136366",
    "final_x": "3663820.4",
    "final_y": "525449.38",
    "longitude": "-90.12409868391593",
    "latitude": "29.939328383602945",
    "geocoded_column": {
      "latitude": "29.939328383602945",
      "longitude": "-90.12409868391593"
    }
  },
  {
    "service_request": "2024-1136365",
    "request_type": "Roads and Streets",
    "request_reason": "Pothole",
    "date_created": "2024-09-27T23:00:06.000",
    "date_modified": "2024-09-27T23:00:06.000",
    "request_status": "Pending",
    "responsible_agency": "Department of Public Works",
    "final_address": "4001 Earhart Blvd",
    "address_councildis": "B",
    "status": "Pending",
    "rowid": "1136365",
    "final_x": "3672053.39342",
    "final_y": "531868.169411",
    "longitude": "-90.09788751399965",
    "latitude": "29.95673647398991",
    "geocoded_column": {
      "latitude": "29.95673647398991",
      "longitude": "-90.09788751399965"
    }
  },
  {
    "service_request": "2024-1136364",
    "request_type": "Safety & Permits",
    "request_reason": "Licenses & Permits",
    "date_created": "2024-09-27T22:05:50.000",
    "date_modified": "2024-09-27T22:05:50.000",
    "request_status": "Pending",
    "responsible_agency": "Safety and Permits",
    "final_address": "600 BLK N Broad St",
    "address_councildis": "A",
    "status": "Pending",
    "rowid": "1136364",
    "final_x": "3676359.9435",
    "final_y": "536531.150807",
    "longitude": "-90.08412827453832",
    "latitude": "29.969429719559482",
    "geocoded_column": {
      "latitude": "29.969429719559482",
      "longitude": "-90.08412827453832"
    }
  },
  {
    "service_request": "2024-1136363",
    "request_type": "Health Related Request",
    "request_reason": "Noise Ordinance Complaint",
    "date_created": "2024-09-27T22:04:02.000",
    "date_modified": "2024-09-27T22:04:02.000",
    "request_status": "Pending",
    "responsible_agency": "Health Department",
    "final_address": "600 BLK N Broad St",
    "address_councildis": "A",
    "status": "Pending",
    "rowid": "1136363",
    "final_x": "3676359.9435",
    "final_y": "536531.150807",
    "longitude": "-90.08412827453832",
    "latitude": "29.969429719559482",
    "geocoded_column": {
      "latitude": "29.969429719559482",
      "longitude": "-90.08412827453832"
    }
  },
  {
    "service_request": "2024-1136362",
    "request_type": "Abandoned Vehicles",
    "request_reason": "Abandoned/Junk Vehicles",
    "date_created": "2024-09-27T21:34:20.000",
    "date_modified": "2024-09-27T21:34:20.000",
    "request_status": "Pending",
    "responsible_agency": "Department of Public Works",
    "final_address": "4553 Piety Dr",
    "address_councildis": "D",
    "status": "Pending",
    "rowid": "1136362",
    "final_x": "3691759.29968",
    "final_y": "551148.937493",
    "longitude": "-90.0349729625611",
    "latitude": "30.009152741400346",
    "geocoded_column": {
      "latitude": "30.009152741400346",
      "longitude": "-90.0349729625611"
    }
  },
  {
    "service_request": "2024-1136361",
    "request_type": "Utility Poles",
    "request_reason": "Utility Pole Leaning",
    "date_created": "2024-09-27T21:12:50.000",
    "date_modified": "2024-09-27T21:12:57.000",
    "request_status": "Pending",
    "responsible_agency": "Utility Company Collective",
    "final_address": "4718 Burgundy St",
    "address_councildis": "E",
    "status": "Pending",
    "rowid": "1136361",
    "final_x": "3694579.7841",
    "final_y": "533734.962309",
    "longitude": "-90.02668951299341",
    "latitude": "29.96118243624204",
    "geocoded_column": {
      "latitude": "29.96118243624204",
      "longitude": "-90.02668951299341"
    }
  },
  {
    "service_request": "2024-1136360",
    "request_type": "Roads and Streets",
    "request_reason": "Street Subsidence (Sinking)",
    "date_created": "2024-09-27T20:43:28.000",
    "date_modified": "2024-09-27T20:43:28.000",
    "request_status": "Pending",
    "responsible_agency": "Department of Public Works",
    "final_address": "7412 Zimple St",
    "address_councildis": "A",
    "status": "Pending",
    "rowid": "1136360",
    "final_x": "3663354.79405",
    "final_y": "526585.026238",
    "longitude": "-90.12553087591728",
    "latitude": "29.942464551519446",
    "geocoded_column": {
      "latitude": "29.942464551519446",
      "longitude": "-90.12553087591728"
    }
  },
  {
    "service_request": "2024-1136359",
    "request_type": "Trash/Recycling",
    "request_reason": "Missed Trash Pick-Up",
    "date_created": "2024-09-27T20:16:25.000",
    "date_modified": "2024-09-27T20:16:26.000",
    "request_status": "Pending",
    "responsible_agency": "Department of Sanitation",
    "final_address": "4921 Stephen Girard Ave",
    "address_councildis": "D",
    "status": "Assigned to Contractor",
    "contractor": "IV Waste",
    "rowid": "1136359",
    "final_x": "3692211.71062",
    "final_y": "550991.063829",
    "longitude": "-90.03354930680365",
    "latitude": "30.00870454398264",
    "geocoded_column": {
      "latitude": "30.00870454398264",
      "longitude": "-90.03354930680365"
    }
  },
  {
    "service_request": "2024-1136358",
    "request_type": "Streetlights",
    "request_reason": "Streetlight Outage/Malfunction",
    "date_created": "2024-09-27T20:13:08.000",
    "date_modified": "2024-09-27T20:13:10.000",
    "request_status": "Pending",
    "responsible_agency": "Department of Public Works",
    "final_address": "900 BLK S Carrollton Ave",
    "address_councildis": "A",
    "status": "Pending",
    "contractor": "Legacy Professional Services",
    "rowid": "1136358",
    "final_x": "3661459.43361",
    "final_y": "527643.750274",
    "longitude": "-90.13147993127737",
    "latitude": "29.945430503872853",
    "geocoded_column": {
      "latitude": "29.945430503872853",
      "longitude": "-90.13147993127737"
    }
  },
  {
    "service_request": "2024-1136357",
    "request_type": "Trash/Recycling",
    "request_reason": "Missed Trash Pick-Up",
    "date_created": "2024-09-27T20:10:56.000",
    "date_modified": "2024-09-27T20:10:57.000",
    "request_status": "Pending",
    "responsible_agency": "Department of Sanitation",
    "final_address": "4921 Stephen Girard Ave",
    "address_councildis": "D",
    "status": "Assigned to Contractor",
    "contractor": "IV Waste",
    "rowid": "1136357",
    "final_x": "3692211.71062",
    "final_y": "550991.063829",
    "longitude": "-90.03354930680365",
    "latitude": "30.00870454398264",
    "geocoded_column": {
      "latitude": "30.00870454398264",
      "longitude": "-90.03354930680365"
    }
  },
  {
    "service_request": "2024-1136356",
    "request_type": "Trash/Recycling",
    "request_reason": "Request a Large Item Pick Up",
    "date_created": "2024-09-27T19:52:58.000",
    "date_modified": "2024-09-27T19:52:59.000",
    "request_status": "Pending",
    "responsible_agency": "Department of Sanitation",
    "final_address": "7028 Lake Willow Dr",
    "address_councildis": "E",
    "status": "Assigned to Contractor",
    "contractor": "Waste Pro",
    "rowid": "1136356",
    "final_x": "3702337.71069",
    "final_y": "558895.66166",
    "longitude": "-90.00126790066801",
    "latitude": "30.030119437590105",
    "geocoded_column": {
      "latitude": "30.030119437590105",
      "longitude": "-90.00126790066801"
    }
  },
  {
    "service_request": "2024-1136355",
    "request_type": "Trash/Recycling",
    "request_reason": "Request a Large Item Pick Up",
    "date_created": "2024-09-27T19:06:05.000",
    "date_modified": "2024-09-27T19:06:06.000",
    "request_status": "Pending",
    "responsible_agency": "Department of Sanitation",
    "final_address": "2616 Palmyra St",
    "address_councildis": "B",
    "status": "Assigned to Contractor",
    "contractor": "IV Waste",
    "rowid": "1136355",
    "final_x": "3675186.2084",
    "final_y": "534189.614021",
    "longitude": "-90.08791540335774",
    "latitude": "29.963026417724357",
    "geocoded_column": {
      "latitude": "29.963026417724357",
      "longitude": "-90.08791540335774"
    }
  },
  {
    "service_request": "2024-1136354",
    "request_type": "Trash/Recycling",
    "request_reason": "Request a Large Item Pick Up",
    "date_created": "2024-09-27T19:00:49.000",
    "date_modified": "2024-09-27T19:00:50.000",
    "request_status": "Pending",
    "responsible_agency": "Department of Sanitation",
    "final_address": "4601 Murano Rd",
    "address_councildis": "E",
    "status": "Assigned to Contractor",
    "contractor": "Waste Pro",
    "rowid": "1136354",
    "final_x": "3761457.84086",
    "final_y": "573989.479402",
    "longitude": "-89.81382068365772",
    "latitude": "30.06959832373683",
    "geocoded_column": {
      "latitude": "30.06959832373683",
      "longitude": "-89.81382068365772"
    }
  },
  {
    "service_request": "2024-1136353",
    "request_type": "Trash/Recycling",
    "request_reason": "Request a Large Item Pick Up",
    "date_created": "2024-09-27T18:51:19.000",
    "date_modified": "2024-09-27T18:51:20.000",
    "request_status": "Pending",
    "responsible_agency": "Department of Sanitation",
    "final_address": "8931 Dinkins St",
    "address_councildis": "E",
    "status": "Assigned to Contractor",
    "contractor": "Waste Pro",
    "rowid": "1136353",
    "final_x": "3704861.77182",
    "final_y": "563561.737952",
    "longitude": "-89.99311946452234",
    "latitude": "30.042868390323896",
    "geocoded_column": {
      "latitude": "30.042868390323896",
      "longitude": "-89.99311946452234"
    }
  },
  {
    "service_request": "2024-1136352",
    "request_type": "Trash/Recycling",
    "request_reason": "Storm Debris Collection",
    "date_created": "2024-09-27T18:41:58.000",
    "date_modified": "2024-09-27T18:41:58.000",
    "request_status": "Pending",
    "responsible_agency": "Department of Sanitation",
    "final_address": "4708 Burgundy St",
    "address_councildis": "E",
    "status": "Pending",
    "rowid": "1136352",
    "final_x": "3694515.7041",
    "final_y": "533752.137925",
    "longitude": "-90.02689124674004",
    "latitude": "29.961231672228568",
    "geocoded_column": {
      "latitude": "29.961231672228568",
      "longitude": "-90.02689124674004"
    }
  },
  {
    "service_request": "2024-1136351",
    "request_type": "Parks & Parkways",
    "request_reason": "Request Tree Service (Right of Way/Public Property)",
    "date_created": "2024-09-27T18:12:09.000",
    "date_modified": "2024-09-27T18:12:09.000",
    "request_status": "Pending",
    "responsible_agency": "Department of Parks & Parkway",
    "final_address": "138 16Th St",
    "address_councildis": "A",
    "status": "Pending",
    "rowid": "1136351",
    "final_x": "3665792.0288",
    "final_y": "548346.07445",
    "longitude": "-90.11710669050957",
    "latitude": "30.00222932538601",
    "geocoded_column": {
      "latitude": "30.00222932538601",
      "longitude": "-90.11710669050957"
    }
  },
  {
    "service_request": "2024-1136350",
    "request_type": "Trash/Recycling",
    "request_reason": "Request a Large Item Pick Up",
    "date_created": "2024-09-27T18:07:08.000",
    "date_modified": "2024-09-27T18:07:10.000",
    "request_status": "Pending",
    "responsible_agency": "Department of Sanitation",
    "final_address": "4518 S Miro St",
    "address_councildis": "B",
    "status": "Assigned to Contractor",
    "contractor": "IV Waste",
    "rowid": "1136350",
    "final_x": "3669579.65658",
    "final_y": "527721.339775",
    "longitude": "-90.105839078741",
    "latitude": "29.945407157718655",
    "geocoded_column": {
      "latitude": "29.945407157718655",
      "longitude": "-90.105839078741"
    }
  },
  {
    "service_request": "2024-1136349",
    "request_type": "Roads and Streets",
    "request_reason": "Abandoned Service Cut",
    "date_created": "2024-09-27T17:49:37.000",
    "date_modified": "2024-09-27T17:49:37.000",
    "request_status": "Pending",
    "responsible_agency": "Department of Public Works",
    "final_address": "BROADWAY ST & NELSON ST",
    "address_councildis": "A",
    "status": "Pending",
    "rowid": "1136349",
    "final_x": "3666817.3",
    "final_y": "530398.68",
    "longitude": "-90.11447083713307",
    "latitude": "29.952850053518638",
    "geocoded_column": {
      "latitude": "29.952850053518638",
      "longitude": "-90.11447083713307"
    }
  },
  {
    "service_request": "2024-1136348",
    "request_type": "Trash/Recycling",
    "request_reason": "Request a Large Item Pick Up",
    "date_created": "2024-09-27T17:38:17.000",
    "date_modified": "2024-09-27T17:38:18.000",
    "request_status": "Pending",
    "responsible_agency": "Department of Sanitation",
    "final_address": "8931 Dinkins St",
    "address_councildis": "E",
    "status": "Assigned to Contractor",
    "contractor": "Waste Pro",
    "rowid": "1136348",
    "final_x": "3704861.77182",
    "final_y": "563561.737952",
    "longitude": "-89.99311946452234",
    "latitude": "30.042868390323896",
    "geocoded_column": {
      "latitude": "30.042868390323896",
      "longitude": "-89.99311946452234"
    }
  },
  {
    "service_request": "2024-1136347",
    "request_type": "Safety & Permits",
    "request_reason": "Zoning Enforcement",
    "date_created": "2024-09-27T17:29:41.000",
    "date_modified": "2024-09-27T17:29:41.000",
    "request_status": "Pending",
    "responsible_agency": "Safety and Permits",
    "final_address": "2256 St Claude Ave",
    "address_councildis": "C",
    "status": "Pending",
    "rowid": "1136347",
    "final_x": "3685562.25794",
    "final_y": "536316.933575",
    "longitude": "-90.05507422449332",
    "latitude": "29.968561630126942",
    "geocoded_column": {
      "latitude": "29.968561630126942",
      "longitude": "-90.05507422449332"
    }
  },
  {
    "service_request": "2024-1136346",
    "request_type": "Property Maintenance",
    "request_reason": "Property Maintenance",
    "date_created": "2024-09-27T17:01:21.000",
    "date_modified": "2024-09-27T17:01:21.000",
    "request_status": "Pending",
    "responsible_agency": "Department of Code Enforcement",
    "final_address": "1604 Pace Blvd",
    "address_councildis": "C",
    "status": "Pending",
    "rowid": "1136346",
    "final_x": "3694464.28688",
    "final_y": "525310.386429",
    "longitude": "-90.0273574422399",
    "latitude": "29.9380214042552",
    "geocoded_column": {
      "latitude": "29.9380214042552",
      "longitude": "-90.0273574422399"
    }
  },
  {
    "service_request": "2024-1136345",
    "request_type": "Property Maintenance",
    "request_reason": "Property Maintenance",
    "date_created": "2024-09-27T17:00:41.000",
    "date_modified": "2024-09-27T17:00:42.000",
    "request_status": "Pending",
    "responsible_agency": "Department of Code Enforcement",
    "final_address": "2811 Lawrence St",
    "address_councildis": "C",
    "status": "Pending",
    "rowid": "1136345",
    "final_x": "3694549.08291",
    "final_y": "525339.550973",
    "longitude": "-90.0270886854119",
    "latitude": "29.938098938999886",
    "geocoded_column": {
      "latitude": "29.938098938999886",
      "longitude": "-90.0270886854119"
    }
  },
  {
    "service_request": "2024-1136344",
    "request_type": "Trash/Recycling",
    "request_reason": "Request a Large Item Pick Up",
    "date_created": "2024-09-27T16:57:41.000",
    "date_modified": "2024-09-27T16:57:42.000",
    "request_status": "Pending",
    "responsible_agency": "Department of Sanitation",
    "final_address": "237 Crystal St",
    "address_councildis": "D",
    "status": "Assigned to Contractor",
    "contractor": "IV Waste",
    "rowid": "1136344",
    "final_x": "3667397.70554",
    "final_y": "556181.31017",
    "longitude": "-90.11177026602044",
    "latitude": "30.02372651398928",
    "geocoded_column": {
      "latitude": "30.02372651398928",
      "longitude": "-90.11177026602044"
    }
  },
  {
    "service_request": "2024-1136343",
    "request_type": "Parks & Parkways",
    "request_reason": "Request Tree Service (Right of Way/Public Property)",
    "date_created": "2024-09-27T16:54:43.000",
    "date_modified": "2024-09-27T16:54:44.000",
    "request_status": "Pending",
    "responsible_agency": "Department of Parks & Parkway",
    "final_address": "5600 Oxford Pl",
    "address_councildis": "C",
    "status": "Pending",
    "rowid": "1136343",
    "final_x": "3704249.11601",
    "final_y": "520185.829304",
    "longitude": "-89.99665485644833",
    "latitude": "29.9236203853365",
    "geocoded_column": {
      "latitude": "29.9236203853365",
      "longitude": "-89.99665485644833"
    }
  },
  {
    "service_request": "2024-1136342",
    "request_type": "Street and Traffic Signs",
    "request_reason": "Additional Signage Request",
    "date_created": "2024-09-27T16:52:26.000",
    "date_modified": "2024-09-27T16:52:26.000",
    "request_status": "Pending",
    "responsible_agency": "Department of Public Works",
    "final_address": "CATINA ST & WALKER ST",
    "address_councildis": "A",
    "status": "Pending",
    "rowid": "1136342",
    "final_x": "3667142.0",
    "final_y": "554095.38",
    "longitude": "-90.11264846390114",
    "latitude": "30.017998437827995",
    "geocoded_column": {
      "latitude": "30.017998437827995",
      "longitude": "-90.11264846390114"
    }
  },
  {
    "service_request": "2024-1136341",
    "request_type": "Safety & Permits",
    "request_reason": "Licenses & Permits",
    "date_created": "2024-09-27T16:49:18.000",
    "date_modified": "2024-09-27T16:49:18.000",
    "request_status": "Pending",
    "responsible_agency": "Safety and Permits",
    "final_address": "1543 Maura Pl",
    "address_councildis": "C",
    "status": "Pending",
    "rowid": "1136341",
    "final_x": "3699196.13604",
    "final_y": "525358.507645",
    "longitude": "-90.01241692353297",
    "latitude": "29.938004579405554",
    "geocoded_column": {
      "latitude": "29.938004579405554",
      "longitude": "-90.01241692353297"
    }
  },
  {
    "service_request": "2024-1136340",
    "request_type": "Trash/Recycling",
    "request_reason": "Request a Large Item Pick Up",
    "date_created": "2024-09-27T16:48:19.000",
    "date_modified": "2024-09-27T16:48:20.000",
    "request_status": "Pending",
    "responsible_agency": "Department of Sanitation",
    "final_address": "838 Fourth St",
    "address_councildis": "B",
    "status": "Assigned to Contractor",
    "contractor": "IV Waste",
    "rowid": "1136340",
    "final_x": "3677709.03253",
    "final_y": "520312.45964",
    "longitude": "-90.08042779852737",
    "latitude": "29.924793205866127",
    "geocoded_column": {
      "latitude": "29.924793205866127",
      "longitude": "-90.08042779852737"
    }
  },
  {
    "service_request": "2024-1136339",
    "request_type": "Trash/Recycling",
    "request_reason": "Order Recycling Cart",
    "date_created": "2024-09-27T16:46:50.000",
    "date_modified": "2024-09-27T16:46:51.000",
    "request_status": "Pending",
    "responsible_agency": "Department of Sanitation",
    "final_address": "5601 Pratt Dr",
    "address_councildis": "D",
    "status": "Pending",
    "rowid": "1136339",
    "final_x": "3680425.4813",
    "final_y": "553112.071703",
    "longitude": "-90.07071197625156",
    "latitude": "30.014898902521747",
    "geocoded_column": {
      "latitude": "30.014898902521747",
      "longitude": "-90.07071197625156"
    }
  },
  {
    "service_request": "2024-1136338",
    "request_type": "Roads and Streets",
    "request_reason": "Pothole",
    "date_created": "2024-09-27T16:35:43.000",
    "date_modified": "2024-09-27T16:35:43.000",
    "request_status": "Pending",
    "responsible_agency": "Department of Public Works",
    "final_address": "105 N Rocheblave St",
    "address_councildis": "B",
    "status": "Pending",
    "rowid": "1136338",
    "final_x": "3676204.60923",
    "final_y": "534652.960006",
    "longitude": "-90.08468346993305",
    "latitude": "29.964269987267457",
    "geocoded_column": {
      "latitude": "29.964269987267457",
      "longitude": "-90.08468346993305"
    }
  },
  {
    "service_request": "2024-1136337",
    "request_type": "Trash/Recycling",
    "request_reason": "Missed Trash Pick-Up",
    "date_created": "2024-09-27T16:29:11.000",
    "date_modified": "2024-09-27T16:29:12.000",
    "request_status": "Pending",
    "responsible_agency": "Department of Sanitation",
    "final_address": "7107 Ransom St",
    "address_councildis": "E",
    "status": "Assigned to Contractor",
    "contractor": "Waste Pro",
    "rowid": "1136337",
    "final_x": "3701438.84644",
    "final_y": "553428.416663",
    "longitude": "-90.00430867905972",
    "latitude": "30.015115313963022",
    "geocoded_column": {
      "latitude": "30.015115313963022",
      "longitude": "-90.00430867905972"
    }
  },
  {
    "service_request": "2024-1136336",
    "request_type": "Utility Poles",
    "request_reason": "Wires Sagging/Hanging Low",
    "date_created": "2024-09-27T16:26:23.000",
    "date_modified": "2024-09-27T16:26:28.000",
    "request_status": "Pending",
    "responsible_agency": "Utility Company Collective",
    "final_address": "3144 Toulouse St",
    "address_councildis": "A",
    "status": "Pending",
    "rowid": "1136336",
    "final_x": "3674888.75675",
    "final_y": "537697.44532",
    "longitude": "-90.08873440017567",
    "latitude": "29.972680653086123",
    "geocoded_column": {
      "latitude": "29.972680653086123",
      "longitude": "-90.08873440017567"
    }
  },
  {
    "service_request": "2024-1136335",
    "request_type": "Streetlights",
    "request_reason": "Streetlight Outage/Malfunction",
    "date_created": "2024-09-27T16:26:02.000",
    "date_modified": "2024-09-27T16:26:03.000",
    "request_status": "Pending",
    "responsible_agency": "Department of Public Works",
    "final_address": "8TH ST & CARONDELET ST",
    "address_councildis": "B",
    "status": "Pending",
    "contractor": "Legacy Professional Services",
    "rowid": "1136335",
    "final_x": "3674773.5",
    "final_y": "522239.78",
    "longitude": "-90.08962827927584",
    "latitude": "29.9301806474183",
    "geocoded_column": {
      "latitude": "29.9301806474183",
      "longitude": "-90.08962827927584"
    }
  },
  {
    "service_request": "2024-1136334",
    "request_type": "Trash/Recycling",
    "request_reason": "Request a Large Item Pick Up",
    "date_created": "2024-09-27T16:23:56.000",
    "date_modified": "2024-09-27T16:23:58.000",
    "request_status": "Pending",
    "responsible_agency": "Department of Sanitation",
    "final_address": "1425 Henriette Delille St",
    "address_councildis": "C",
    "status": "Assigned to Contractor",
    "contractor": "IV Waste",
    "rowid": "1136334",
    "final_x": "3682713.1309",
    "final_y": "535773.073287",
    "longitude": "-90.06409093529918",
    "latitude": "29.96715328901204",
    "geocoded_column": {
      "latitude": "29.96715328901204",
      "longitude": "-90.06409093529918"
    }
  },
  {
    "service_request": "2024-1136333",
    "request_type": "Trash/Recycling",
    "request_reason": "Repair Trash Cart",
    "date_created": "2024-09-27T16:17:51.000",
    "date_modified": "2024-09-27T16:17:52.000",
    "request_status": "Pending",
    "responsible_agency": "Department of Sanitation",
    "final_address": "270 Audubon St",
    "address_councildis": "A",
    "status": "Assigned to Contractor",
    "contractor": "IV Waste",
    "rowid": "1136333",
    "final_x": "3661338.6039",
    "final_y": "521816.755386",
    "longitude": "-90.13205431008893",
    "latitude": "29.92941159273221",
    "geocoded_column": {
      "latitude": "29.92941159273221",
      "longitude": "-90.13205431008893"
    }
  },
  {
    "service_request": "2024-1136332",
    "request_type": "Traffic Safety",
    "request_reason": "Request for Traffic Calming due to Speeding",
    "date_created": "2024-09-27T16:17:00.000",
    "date_modified": "2024-09-27T16:18:50.000",
    "request_status": "Pending",
    "responsible_agency": "Department of Public Works",
    "final_address": "ROBERT ST & S SALCEDO ST",
    "address_councildis": "A",
    "status": "Pending",
    "rowid": "1136332",
    "final_x": "3668970.8",
    "final_y": "528545.88",
    "longitude": "-90.10773359457787",
    "latitude": "29.947692295574345",
    "geocoded_column": {
      "latitude": "29.947692295574345",
      "longitude": "-90.10773359457787"
    }
  },
  {
    "service_request": "2024-1136331",
    "request_type": "Roads and Streets",
    "request_reason": "Abandoned Service Cut",
    "date_created": "2024-09-27T16:16:59.000",
    "date_modified": "2024-09-27T16:16:59.000",
    "request_status": "Pending",
    "responsible_agency": "Department of Public Works",
    "final_address": "1461 Magazine St",
    "address_councildis": "B",
    "status": "Pending",
    "rowid": "1136331",
    "final_x": "3680202.78491",
    "final_y": "524023.150652",
    "longitude": "-90.0724269539209",
    "latitude": "29.934921174757065",
    "geocoded_column": {
      "latitude": "29.934921174757065",
      "longitude": "-90.0724269539209"
    }
  },
  {
    "service_request": "2024-1136330",
    "request_type": "Trash/Recycling",
    "request_reason": "Repair Recycling Cart",
    "date_created": "2024-09-27T16:16:50.000",
    "date_modified": "2024-09-27T16:16:51.000",
    "request_status": "Pending",
    "responsible_agency": "Department of Sanitation",
    "final_address": "10924 Chaucer St",
    "address_councildis": "E",
    "status": "Pending",
    "rowid": "1136330",
    "final_x": "3712812.43915",
    "final_y": "561765.346719",
    "longitude": "-89.96806003225275",
    "latitude": "30.037670942119735",
    "geocoded_column": {
      "latitude": "30.037670942119735",
      "longitude": "-89.96806003225275"
    }
  },
  {
    "service_request": "2024-1136329",
    "request_type": "Safety & Permits",
    "request_reason": "Licenses & Permits",
    "date_created": "2024-09-27T16:16:24.000",
    "date_modified": "2024-09-27T16:16:24.000",
    "request_status": "Pending",
    "responsible_agency": "Safety and Permits",
    "final_address": "1200 BLK Saint Andrew St",
    "address_councildis": "B",
    "status": "Pending",
    "rowid": "1136329",
    "final_x": "3679153.74205",
    "final_y": "523012.049892",
    "longitude": "-90.07577380335337",
    "latitude": "29.93217268042737",
    "geocoded_column": {
      "latitude": "29.93217268042737",
      "longitude": "-90.07577380335337"
    }
  },
  {
    "service_request": "2024-1136328",
    "request_type": "Trash/Recycling",
    "request_reason": "Storm Debris Collection",
    "date_created": "2024-09-27T16:15:23.000",
    "date_modified": "2024-09-27T16:15:24.000",
    "request_status": "Pending",
    "responsible_agency": "Department of Sanitation",
    "final_address": "393 Audubon St",
    "address_councildis": "A",
    "status": "Pending",
    "rowid": "1136328",
    "final_x": "3662095.32928",
    "final_y": "522786.262266",
    "longitude": "-90.12963330510411",
    "latitude": "29.932055596304874",
    "geocoded_column": {
      "latitude": "29.932055596304874",
      "longitude": "-90.12963330510411"
    }
  },
  {
    "service_request": "2024-1136327",
    "request_type": "Property Maintenance",
    "request_reason": "Property Maintenance",
    "date_created": "2024-09-27T16:14:43.000",
    "date_modified": "2024-09-27T16:14:43.000",
    "request_status": "Pending",
    "responsible_agency": "Department of Code Enforcement",
    "final_address": "1012 Verret St",
    "address_councildis": "C",
    "status": "Pending",
    "rowid": "1136327",
    "final_x": "3687279.59369",
    "final_y": "527823.287807",
    "longitude": "-90.0499512309903",
    "latitude": "29.945154240563205",
    "geocoded_column": {
      "latitude": "29.945154240563205",
      "longitude": "-90.0499512309903"
    }
  },
  {
    "service_request": "2024-1136326",
    "request_type": "Property Maintenance",
    "request_reason": "Property Maintenance",
    "date_created": "2024-09-27T16:14:28.000",
    "date_modified": "2024-09-27T16:14:28.000",
    "request_status": "Pending",
    "responsible_agency": "Department of Code Enforcement",
    "final_address": "1012 Verret St",
    "address_councildis": "C",
    "status": "Pending",
    "rowid": "1136326",
    "final_x": "3687279.59369",
    "final_y": "527823.287807",
    "longitude": "-90.0499512309903",
    "latitude": "29.945154240563205",
    "geocoded_column": {
      "latitude": "29.945154240563205",
      "longitude": "-90.0499512309903"
    }
  },
  {
    "service_request": "2024-1136325",
    "request_type": "Property Maintenance",
    "request_reason": "Property Maintenance",
    "date_created": "2024-09-27T16:13:24.000",
    "date_modified": "2024-09-27T16:13:24.000",
    "request_status": "Pending",
    "responsible_agency": "Department of Code Enforcement",
    "final_address": "1012 Verret St",
    "address_councildis": "C",
    "status": "Pending",
    "rowid": "1136325",
    "final_x": "3687279.59369",
    "final_y": "527823.287807",
    "longitude": "-90.0499512309903",
    "latitude": "29.945154240563205",
    "geocoded_column": {
      "latitude": "29.945154240563205",
      "longitude": "-90.0499512309903"
    }
  },
  {
    "service_request": "2024-1136324",
    "request_type": "Property Maintenance",
    "request_reason": "Property Maintenance",
    "date_created": "2024-09-27T16:12:57.000",
    "date_modified": "2024-09-27T16:12:57.000",
    "request_status": "Pending",
    "responsible_agency": "Department of Code Enforcement",
    "final_address": "1012 Verret St",
    "address_councildis": "C",
    "status": "Pending",
    "rowid": "1136324",
    "final_x": "3687279.59369",
    "final_y": "527823.287807",
    "longitude": "-90.0499512309903",
    "latitude": "29.945154240563205",
    "geocoded_column": {
      "latitude": "29.945154240563205",
      "longitude": "-90.0499512309903"
    }
  },
  {
    "service_request": "2024-1136323",
    "request_type": "Property Maintenance",
    "request_reason": "Property Maintenance",
    "date_created": "2024-09-27T16:12:28.000",
    "date_modified": "2024-09-27T16:12:28.000",
    "request_status": "Pending",
    "responsible_agency": "Department of Code Enforcement",
    "final_address": "1012 Verret St",
    "address_councildis": "C",
    "status": "Pending",
    "rowid": "1136323",
    "final_x": "3687279.59369",
    "final_y": "527823.287807",
    "longitude": "-90.0499512309903",
    "latitude": "29.945154240563205",
    "geocoded_column": {
      "latitude": "29.945154240563205",
      "longitude": "-90.0499512309903"
    }
  },
  {
    "service_request": "2024-1136322",
    "request_type": "Trash/Recycling",
    "request_reason": "Replace Trash Cart",
    "date_created": "2024-09-27T16:12:22.000",
    "date_modified": "2024-09-27T16:12:23.000",
    "request_status": "Pending",
    "responsible_agency": "Department of Sanitation",
    "final_address": "7108 Selma St",
    "address_councildis": "E",
    "status": "Assigned to Contractor",
    "contractor": "Waste Pro",
    "rowid": "1136322",
    "final_x": "3701402.95044",
    "final_y": "553814.802455",
    "longitude": "-90.00440793412466",
    "latitude": "30.016178872527462",
    "geocoded_column": {
      "latitude": "30.016178872527462",
      "longitude": "-90.00440793412466"
    }
  },
  {
    "service_request": "2024-1136321",
    "request_type": "Property Maintenance",
    "request_reason": "Property Maintenance",
    "date_created": "2024-09-27T16:12:08.000",
    "date_modified": "2024-09-27T16:12:08.000",
    "request_status": "Pending",
    "responsible_agency": "Department of Code Enforcement",
    "final_address": "1012 Verret St",
    "address_councildis": "C",
    "status": "Pending",
    "rowid": "1136321",
    "final_x": "3687279.59369",
    "final_y": "527823.287807",
    "longitude": "-90.0499512309903",
    "latitude": "29.945154240563205",
    "geocoded_column": {
      "latitude": "29.945154240563205",
      "longitude": "-90.0499512309903"
    }
  },
  {
    "service_request": "2024-1136320",
    "request_type": "Streetlights",
    "request_reason": "Streetlight Outage/Malfunction",
    "date_created": "2024-09-27T16:11:24.000",
    "date_modified": "2024-09-27T16:11:26.000",
    "request_status": "Pending",
    "responsible_agency": "Department of Public Works",
    "final_address": "4606 Pecan St",
    "address_councildis": "E",
    "status": "Pending",
    "contractor": "Legacy Professional Services",
    "rowid": "1136320",
    "final_x": "3701808.14609",
    "final_y": "553469.325783",
    "longitude": "-90.00314037440234",
    "latitude": "30.01521601553962",
    "geocoded_column": {
      "latitude": "30.01521601553962",
      "longitude": "-90.00314037440234"
    }
  },
  {
    "service_request": "2024-1136319",
    "request_type": "Trash/Recycling",
    "request_reason": "Missed Trash Pick-Up",
    "date_created": "2024-09-27T16:09:13.000",
    "date_modified": "2024-09-27T16:09:14.000",
    "request_status": "Pending",
    "responsible_agency": "Department of Sanitation",
    "final_address": "7108 Selma St",
    "address_councildis": "E",
    "status": "Assigned to Contractor",
    "contractor": "Waste Pro",
    "rowid": "1136319",
    "final_x": "3701402.95044",
    "final_y": "553814.802455",
    "longitude": "-90.00440793412466",
    "latitude": "30.016178872527462",
    "geocoded_column": {
      "latitude": "30.016178872527462",
      "longitude": "-90.00440793412466"
    }
  },
  {
    "service_request": "2024-1136318",
    "request_type": "Trash/Recycling",
    "request_reason": "Repair Trash Cart",
    "date_created": "2024-09-27T16:06:50.000",
    "date_modified": "2024-09-27T16:06:51.000",
    "request_status": "Pending",
    "responsible_agency": "Department of Sanitation",
    "final_address": "8123 Apricot St",
    "address_councildis": "A",
    "status": "Assigned to Contractor",
    "contractor": "IV Waste",
    "rowid": "1136318",
    "final_x": "3665743.81652",
    "final_y": "532784.996612",
    "longitude": "-90.11778050148341",
    "latitude": "29.959442999914042",
    "geocoded_column": {
      "latitude": "29.959442999914042",
      "longitude": "-90.11778050148341"
    }
  },
  {
    "service_request": "2024-1136317",
    "request_type": "Trash/Recycling",
    "request_reason": "Repair Trash Cart",
    "date_created": "2024-09-27T16:05:35.000",
    "date_modified": "2024-09-27T16:05:36.000",
    "request_status": "Pending",
    "responsible_agency": "Department of Sanitation",
    "final_address": "314 Henry Clay Ave",
    "address_councildis": "A",
    "status": "Assigned to Contractor",
    "contractor": "IV Waste",
    "rowid": "1136317",
    "final_x": "3663128.62285",
    "final_y": "518107.731446",
    "longitude": "-90.12652684179619",
    "latitude": "29.9191612135416",
    "geocoded_column": {
      "latitude": "29.9191612135416",
      "longitude": "-90.12652684179619"
    }
  },
  {
    "service_request": "2024-1136316",
    "request_type": "Traffic Safety",
    "request_reason": "Request for Stop Sign",
    "date_created": "2024-09-27T16:05:05.000",
    "date_modified": "2024-09-27T16:05:06.000",
    "request_status": "Pending",
    "responsible_agency": "Department of Public Works",
    "final_address": "DREXEL DR & WASHINGTON AVE & SHORT ST",
    "address_councildis": "B",
    "status": "Pending",
    "rowid": "1136316",
    "final_x": "3668530.2",
    "final_y": "534914.98",
    "longitude": "-90.10890985711016",
    "latitude": "29.965218177492893",
    "geocoded_column": {
      "latitude": "29.965218177492893",
      "longitude": "-90.10890985711016"
    }
  },
  {
    "service_request": "2024-1136315",
    "request_type": "Property Maintenance",
    "request_reason": "Property Maintenance",
    "date_created": "2024-09-27T16:03:31.000",
    "date_modified": "2024-09-27T16:04:29.000",
    "request_status": "Pending",
    "responsible_agency": "Department of Code Enforcement",
    "final_address": "4222 Burgundy St",
    "address_councildis": "C",
    "status": "Pending",
    "rowid": "1136315",
    "final_x": "3692344.49904",
    "final_y": "534258.756421",
    "longitude": "-90.03372935191993",
    "latitude": "29.96269258512722",
    "geocoded_column": {
      "latitude": "29.96269258512722",
      "longitude": "-90.03372935191993"
    }
  },
  {
    "service_request": "2024-1136314",
    "request_type": "Mosquito, Termite & Rodent Control",
    "request_reason": "Mosquito Complaint",
    "date_created": "2024-09-27T15:59:18.000",
    "date_modified": "2024-09-27T15:59:18.000",
    "request_status": "Pending",
    "responsible_agency": "Mosquito, Termite & Rodent Control Board",
    "final_address": "7500 Adventure Ave",
    "address_councildis": "E",
    "status": "Pending",
    "rowid": "1136314",
    "final_x": "3725804.00563",
    "final_y": "570325.174183",
    "longitude": "-89.9266720657113",
    "latitude": "30.06077486458573",
    "geocoded_column": {
      "latitude": "30.06077486458573",
      "longitude": "-89.9266720657113"
    }
  },
  {
    "service_request": "2024-1136313",
    "request_type": "Trash/Recycling",
    "request_reason": "Request a Large Item Pick Up",
    "date_created": "2024-09-27T15:56:37.000",
    "date_modified": "2024-09-27T15:56:38.000",
    "request_status": "Pending",
    "responsible_agency": "Department of Sanitation",
    "final_address": "4848 Gallier Dr",
    "address_councildis": "D",
    "status": "Assigned to Contractor",
    "contractor": "IV Waste",
    "rowid": "1136313",
    "final_x": "3691958.77929",
    "final_y": "551795.859222",
    "longitude": "-90.03431957082353",
    "latitude": "30.01092532015771",
    "geocoded_column": {
      "latitude": "30.01092532015771",
      "longitude": "-90.03431957082353"
    }
  },
  {
    "service_request": "2024-1136312",
    "request_type": "Trash/Recycling",
    "request_reason": "Illegal Dumping",
    "date_created": "2024-09-27T15:56:30.000",
    "date_modified": "2024-09-27T15:56:30.000",
    "request_status": "Pending",
    "responsible_agency": "Department of Sanitation",
    "final_address": "2000 BLK Westbend Pkwy",
    "address_councildis": "C",
    "status": "Pending",
    "rowid": "1136312",
    "final_x": "3696909.25083",
    "final_y": "523680.099409",
    "longitude": "-90.01969752692041",
    "latitude": "29.933461826915075",
    "geocoded_column": {
      "latitude": "29.933461826915075",
      "longitude": "-90.01969752692041"
    }
  },
  {
    "service_request": "2024-1136311",
    "request_type": "Street and Traffic Signs",
    "request_reason": "Stop Sign Missing or Damaged",
    "date_created": "2024-09-27T15:56:04.000",
    "date_modified": "2024-09-27T15:56:05.000",
    "request_status": "Pending",
    "responsible_agency": "Department of Public Works",
    "final_address": "JEFFERSON AVE & TCHOUPITOULAS ST",
    "address_councildis": "A",
    "status": "Pending",
    "rowid": "1136311",
    "final_x": "3666409.8",
    "final_y": "517158.28",
    "longitude": "-90.11620163130054",
    "latitude": "29.91645508908768",
    "geocoded_column": {
      "latitude": "29.91645508908768",
      "longitude": "-90.11620163130054"
    }
  },
  {
    "service_request": "2024-1136310",
    "request_type": "Trash/Recycling",
    "request_reason": "Repair Trash Cart",
    "date_created": "2024-09-27T15:50:20.000",
    "date_modified": "2024-09-27T15:50:21.000",
    "request_status": "Pending",
    "responsible_agency": "Department of Sanitation",
    "final_address": "2002 Desire St",
    "address_councildis": "D",
    "status": "Assigned to Contractor",
    "contractor": "IV Waste",
    "rowid": "1136310",
    "final_x": "3690985.56156",
    "final_y": "539138.059274",
    "longitude": "-90.03784647624525",
    "latitude": "29.976151258188818",
    "geocoded_column": {
      "latitude": "29.976151258188818",
      "longitude": "-90.03784647624525"
    }
  },
  {
    "service_request": "2024-1136309",
    "request_type": "Property Maintenance",
    "request_reason": "Property Maintenance",
    "date_created": "2024-09-27T15:50:10.000",
    "date_modified": "2024-09-27T15:50:11.000",
    "request_status": "Pending",
    "responsible_agency": "Department of Code Enforcement",
    "final_address": "2225 St Ann St",
    "address_councildis": "D",
    "status": "Pending",
    "rowid": "1136309",
    "final_x": "3678423.77282",
    "final_y": "536130.111943",
    "longitude": "-90.07762441265268",
    "latitude": "29.96826497089667",
    "geocoded_column": {
      "latitude": "29.96826497089667",
      "longitude": "-90.07762441265268"
    }
  },
  {
    "service_request": "2024-1136308",
    "request_type": "Trash/Recycling",
    "request_reason": "Request a Large Item Pick Up",
    "date_created": "2024-09-27T15:50:04.000",
    "date_modified": "2024-09-27T15:50:05.000",
    "request_status": "Pending",
    "responsible_agency": "Department of Sanitation",
    "final_address": "13200 Maple Wood Dr",
    "address_councildis": "E",
    "status": "Assigned to Contractor",
    "contractor": "Waste Pro",
    "rowid": "1136308",
    "final_x": "3724421.32876",
    "final_y": "563704.204001",
    "longitude": "-89.93129868867888",
    "latitude": "30.042616562169073",
    "geocoded_column": {
      "latitude": "30.042616562169073",
      "longitude": "-89.93129868867888"
    }
  },
  {
    "service_request": "2024-1136307",
    "request_type": "Hurricane Francine Tree-Related Issues or Emergencies\t",
    "request_reason": "Hurricane Francine Tree-Related Issues or Emergencies",
    "date_created": "2024-09-27T15:46:28.000",
    "date_modified": "2024-09-27T15:46:29.000",
    "request_status": "Pending",
    "responsible_agency": "Department of Parks & Parkway",
    "final_address": "8401 Palm St",
    "address_councildis": "A",
    "status": "Pending",
    "rowid": "1136307",
    "final_x": "3666912.8722",
    "final_y": "535479.056646",
    "longitude": "-90.11399835637854",
    "latitude": "29.966816623269686",
    "geocoded_column": {
      "latitude": "29.966816623269686",
      "longitude": "-90.11399835637854"
    }
  },
  {
    "service_request": "2024-1136306",
    "request_type": "Trash/Recycling",
    "request_reason": "Request a Large Item Pick Up",
    "date_created": "2024-09-27T15:46:04.000",
    "date_modified": "2024-09-27T15:46:05.000",
    "request_status": "Pending",
    "responsible_agency": "Department of Sanitation",
    "final_address": "4838 St Claude Ave",
    "address_councildis": "E",
    "status": "Assigned to Contractor",
    "contractor": "Waste Pro",
    "rowid": "1136306",
    "final_x": "3695307.96675",
    "final_y": "534381.785605",
    "longitude": "-90.02436672147718",
    "latitude": "29.962938119238725",
    "geocoded_column": {
      "latitude": "29.962938119238725",
      "longitude": "-90.02436672147718"
    }
  },
  {
    "service_request": "2024-1136305",
    "request_type": "Parks & Parkways",
    "request_reason": "Request Tree Service (Right of Way/Public Property)",
    "date_created": "2024-09-27T15:45:15.000",
    "date_modified": "2024-09-27T15:45:16.000",
    "request_status": "Pending",
    "responsible_agency": "Department of Parks & Parkway",
    "final_address": "4340 Washington Ave",
    "address_councildis": "B",
    "status": "Pending",
    "rowid": "1136305",
    "final_x": "3670498.46292",
    "final_y": "530807.592834",
    "longitude": "-90.10283346243595",
    "latitude": "29.9538662455875",
    "geocoded_column": {
      "latitude": "29.9538662455875",
      "longitude": "-90.10283346243595"
    }
  },
  {
    "service_request": "2024-1136304",
    "request_type": "Trash/Recycling",
    "request_reason": "Request a Large Item Pick Up",
    "date_created": "2024-09-27T15:42:12.000",
    "date_modified": "2024-09-27T15:42:14.000",
    "request_status": "Pending",
    "responsible_agency": "Department of Sanitation",
    "final_address": "7140 Tudor Ct",
    "address_councildis": "E",
    "status": "Assigned to Contractor",
    "contractor": "Waste Pro",
    "rowid": "1136304",
    "final_x": "3703750.11281",
    "final_y": "559802.021853",
    "longitude": "-89.9967713320325",
    "latitude": "30.03256635180088",
    "geocoded_column": {
      "latitude": "30.03256635180088",
      "longitude": "-89.9967713320325"
    }
  },
  {
    "service_request": "2024-1136303",
    "request_type": "Trash/Recycling",
    "request_reason": "Missed Trash Pick-Up",
    "date_created": "2024-09-27T15:40:34.000",
    "date_modified": "2024-09-27T15:41:42.000",
    "request_status": "Pending",
    "responsible_agency": "Department of Sanitation",
    "final_address": "7140 Tudor Ct",
    "address_councildis": "E",
    "status": "Assigned to Contractor",
    "contractor": "Waste Pro",
    "rowid": "1136303",
    "final_x": "3703750.11281",
    "final_y": "559802.021853",
    "longitude": "-89.9967713320325",
    "latitude": "30.03256635180088",
    "geocoded_column": {
      "latitude": "30.03256635180088",
      "longitude": "-89.9967713320325"
    }
  },
  {
    "service_request": "2024-1136302",
    "request_type": "Trash/Recycling",
    "request_reason": "Request a Large Item Pick Up",
    "date_created": "2024-09-27T15:40:27.000",
    "date_modified": "2024-09-27T15:40:59.000",
    "request_status": "Pending",
    "responsible_agency": "Department of Sanitation",
    "final_address": "2001 Evergreen Ave",
    "address_councildis": "C",
    "status": "Assigned to Contractor",
    "contractor": "Richards Disposal",
    "rowid": "1136302",
    "final_x": "3688099.42716",
    "final_y": "524529.329084",
    "longitude": "-90.0474794759461",
    "latitude": "29.936071696789437",
    "geocoded_column": {
      "latitude": "29.936071696789437",
      "longitude": "-90.0474794759461"
    }
  },
  {
    "service_request": "2024-1136301",
    "request_type": "Parks & Parkways",
    "request_reason": "Request Tree Service (Right of Way/Public Property)",
    "date_created": "2024-09-27T15:39:15.000",
    "date_modified": "2024-09-27T15:39:16.000",
    "request_status": "Pending",
    "responsible_agency": "Department of Parks & Parkway",
    "final_address": "5508 Wingate Dr",
    "address_councildis": "D",
    "status": "Pending",
    "rowid": "1136301",
    "final_x": "3681329.39848",
    "final_y": "553064.453527",
    "longitude": "-90.06785769471936",
    "latitude": "30.014740551306527",
    "geocoded_column": {
      "latitude": "30.014740551306527",
      "longitude": "-90.06785769471936"
    }
  },
  {
    "service_request": "2024-1136300",
    "request_type": "Trash/Recycling",
    "request_reason": "Request a Large Item Pick Up",
    "date_created": "2024-09-27T15:35:04.000",
    "date_modified": "2024-09-27T15:35:06.000",
    "request_status": "Pending",
    "responsible_agency": "Department of Sanitation",
    "final_address": "1913 W Homestead Dr",
    "address_councildis": "C",
    "status": "Assigned to Contractor",
    "contractor": "Richards Disposal",
    "rowid": "1136300",
    "final_x": "3696854.68528",
    "final_y": "524885.203132",
    "longitude": "-90.01982617504373",
    "latitude": "29.936777166920255",
    "geocoded_column": {
      "latitude": "29.936777166920255",
      "longitude": "-90.01982617504373"
    }
  },
  {
    "service_request": "2024-1136299",
    "request_type": "Property Maintenance",
    "request_reason": "Property Maintenance",
    "date_created": "2024-09-27T15:34:13.000",
    "date_modified": "2024-09-27T15:34:13.000",
    "request_status": "Pending",
    "responsible_agency": "Department of Code Enforcement",
    "final_address": "2114 Louisa St",
    "address_councildis": "D",
    "status": "Pending",
    "rowid": "1136299",
    "final_x": "3690519.90051",
    "final_y": "539830.489418",
    "longitude": "-90.03929246801606",
    "latitude": "29.978069663177955",
    "geocoded_column": {
      "latitude": "29.978069663177955",
      "longitude": "-90.03929246801606"
    }
  },
  {
    "service_request": "2024-1136298",
    "request_type": "Trash/Recycling",
    "request_reason": "Replace Trash Cart",
    "date_created": "2024-09-27T15:33:50.000",
    "date_modified": "2024-09-27T15:33:51.000",
    "request_status": "Pending",
    "responsible_agency": "Department of Sanitation",
    "final_address": "10231 Deerfield Dr",
    "address_councildis": "E",
    "status": "Assigned to Contractor",
    "contractor": "Waste Pro",
    "rowid": "1136298",
    "final_x": "3709988.21585",
    "final_y": "563576.413088",
    "longitude": "-89.97691742330777",
    "latitude": "30.04274287570664",
    "geocoded_column": {
      "latitude": "30.04274287570664",
      "longitude": "-89.97691742330777"
    }
  },
  {
    "service_request": "2024-1136297",
    "request_type": "Trash/Recycling",
    "request_reason": "Repair Trash Cart",
    "date_created": "2024-09-27T15:29:52.000",
    "date_modified": "2024-09-27T15:29:54.000",
    "request_status": "Pending",
    "responsible_agency": "Department of Sanitation",
    "final_address": "1511 Dufossat St",
    "address_councildis": "B",
    "status": "Assigned to Contractor",
    "contractor": "IV Waste",
    "rowid": "1136297",
    "final_x": "3668190.59681",
    "final_y": "520516.723512",
    "longitude": "-90.11046756465794",
    "latitude": "29.925637616527034",
    "geocoded_column": {
      "latitude": "29.925637616527034",
      "longitude": "-90.11046756465794"
    }
  },
  {
    "service_request": "2024-1136296",
    "request_type": "Roads and Streets",
    "request_reason": "Pothole",
    "date_created": "2024-09-27T15:25:00.000",
    "date_modified": "2024-09-27T15:25:00.000",
    "request_status": "Pending",
    "responsible_agency": "Department of Public Works",
    "final_address": "5531 Coliseum St",
    "address_councildis": "A",
    "status": "Pending",
    "rowid": "1136296",
    "final_x": "3666424.61319",
    "final_y": "519978.471928",
    "longitude": "-90.1160603085296",
    "latitude": "29.924209299363984",
    "geocoded_column": {
      "latitude": "29.924209299363984",
      "longitude": "-90.1160603085296"
    }
  },
  {
    "service_request": "2024-1136295",
    "request_type": "Trash/Recycling",
    "request_reason": "Request a Large Item Pick Up",
    "date_created": "2024-09-27T15:21:04.000",
    "date_modified": "2024-09-27T15:21:05.000",
    "request_status": "Pending",
    "responsible_agency": "Department of Sanitation",
    "final_address": "1521 Sumner St",
    "address_councildis": "C",
    "status": "Assigned to Contractor",
    "contractor": "Richards Disposal",
    "rowid": "1136295",
    "final_x": "3690964.12368",
    "final_y": "525709.566653",
    "longitude": "-90.0383934801073",
    "latitude": "29.939228242834048",
    "geocoded_column": {
      "latitude": "29.939228242834048",
      "longitude": "-90.0383934801073"
    }
  },
  {
    "service_request": "2024-1136294",
    "request_type": "Trash/Recycling",
    "request_reason": "Request a Large Item Pick Up",
    "date_created": "2024-09-27T15:19:43.000",
    "date_modified": "2024-09-27T15:19:44.000",
    "request_status": "Pending",
    "responsible_agency": "Department of Sanitation",
    "final_address": "4822 Flake Ave",
    "address_councildis": "E",
    "status": "Assigned to Contractor",
    "contractor": "Waste Pro",
    "rowid": "1136294",
    "final_x": "3706004.17425",
    "final_y": "555980.085081",
    "longitude": "-89.98978999091734",
    "latitude": "30.02198502896095",
    "geocoded_column": {
      "latitude": "30.02198502896095",
      "longitude": "-89.98978999091734"
    }
  },
  {
    "service_request": "2024-1136293",
    "request_type": "Roads and Streets",
    "request_reason": "Street Subsidence (Sinking)",
    "date_created": "2024-09-27T15:19:38.000",
    "date_modified": "2024-09-27T15:19:38.000",
    "request_status": "Pending",
    "responsible_agency": "Department of Public Works",
    "final_address": "3823 Octavia St",
    "address_councildis": "A",
    "status": "Pending",
    "rowid": "1136293",
    "final_x": "3668851.44302",
    "final_y": "529525.545921",
    "longitude": "-90.10807737688243",
    "latitude": "29.950389567108388",
    "geocoded_column": {
      "latitude": "29.950389567108388",
      "longitude": "-90.10807737688243"
    }
  },
  {
    "service_request": "2024-1136292",
    "request_type": "Roads and Streets",
    "request_reason": "Street Subsidence (Sinking)",
    "date_created": "2024-09-27T15:17:39.000",
    "date_modified": "2024-09-27T15:17:39.000",
    "request_status": "Pending",
    "responsible_agency": "Department of Public Works",
    "final_address": "5400 York St",
    "address_councildis": "A",
    "status": "Pending",
    "rowid": "1136292",
    "final_x": "3668910.59194",
    "final_y": "528597.642688",
    "longitude": "-90.10792194782219",
    "latitude": "29.94783639672505",
    "geocoded_column": {
      "latitude": "29.94783639672505",
      "longitude": "-90.10792194782219"
    }
  },
  {
    "service_request": "2024-1136291",
    "request_type": "Property Maintenance",
    "request_reason": "Property Maintenance",
    "date_created": "2024-09-27T15:16:07.000",
    "date_modified": "2024-09-27T15:16:08.000",
    "request_status": "Pending",
    "responsible_agency": "Department of Code Enforcement",
    "final_address": "1012 Verret St",
    "address_councildis": "C",
    "status": "Pending",
    "rowid": "1136291",
    "final_x": "3687279.59369",
    "final_y": "527823.287807",
    "longitude": "-90.0499512309903",
    "latitude": "29.945154240563205",
    "geocoded_column": {
      "latitude": "29.945154240563205",
      "longitude": "-90.0499512309903"
    }
  },
  {
    "service_request": "2024-1136290",
    "request_type": "Abandoned Vehicles",
    "request_reason": "Abandoned/Junk Vehicles",
    "date_created": "2024-09-27T15:14:57.000",
    "date_modified": "2024-09-27T15:16:32.000",
    "request_status": "Pending",
    "responsible_agency": "Department of Public Works",
    "final_address": "2237 Allen St",
    "address_councildis": "D",
    "status": "Pending",
    "rowid": "1136290",
    "final_x": "3682461.92911",
    "final_y": "540482.111755",
    "longitude": "-90.06471958615366",
    "latitude": "29.98010915951112",
    "geocoded_column": {
      "latitude": "29.98010915951112",
      "longitude": "-90.06471958615366"
    }
  },
  {
    "service_request": "2024-1136289",
    "request_type": "Streetlights",
    "request_reason": "Streetlight Outage/Malfunction",
    "date_created": "2024-09-27T15:12:19.000",
    "date_modified": "2024-09-27T15:33:45.000",
    "request_status": "Pending",
    "responsible_agency": "Department of Public Works",
    "final_address": "7237 Regent St",
    "address_councildis": "A",
    "status": "Pending",
    "contractor": "Legacy Professional Services",
    "rowid": "1136289",
    "final_x": "3666277.25498",
    "final_y": "555172.083609",
    "longitude": "-90.11534457720444",
    "latitude": "30.020984294997426",
    "geocoded_column": {
      "latitude": "30.020984294997426",
      "longitude": "-90.11534457720444"
    }
  },
  {
    "service_request": "2024-1136288",
    "request_type": "Roads and Streets",
    "request_reason": "Pothole",
    "date_created": "2024-09-27T15:11:48.000",
    "date_modified": "2024-09-27T15:11:48.000",
    "request_status": "Pending",
    "responsible_agency": "Department of Public Works",
    "final_address": "2830 Palmer Ave",
    "address_councildis": "A",
    "status": "Pending",
    "rowid": "1136288",
    "final_x": "3666876.62861",
    "final_y": "527031.252222",
    "longitude": "-90.11439661456257",
    "latitude": "29.94358898377266",
    "geocoded_column": {
      "latitude": "29.94358898377266",
      "longitude": "-90.11439661456257"
    }
  },
  {
    "service_request": "2024-1136287",
    "request_type": "Property Maintenance",
    "request_reason": "Property Maintenance",
    "date_created": "2024-09-27T15:10:55.000",
    "date_modified": "2024-09-27T15:10:56.000",
    "request_status": "Pending",
    "responsible_agency": "Department of Code Enforcement",
    "final_address": "5879 W Deer Park Blvd",
    "address_councildis": "E",
    "status": "Pending",
    "rowid": "1136287",
    "final_x": "3712104.11787",
    "final_y": "561148.557406",
    "longitude": "-89.97032166208456",
    "latitude": "30.03599820489126",
    "geocoded_column": {
      "latitude": "30.03599820489126",
      "longitude": "-89.97032166208456"
    }
  },
  {
    "service_request": "2024-1136286",
    "request_type": "Trash/Recycling",
    "request_reason": "Request a Large Item Pick Up",
    "date_created": "2024-09-27T15:08:36.000",
    "date_modified": "2024-09-27T15:08:37.000",
    "request_status": "Pending",
    "responsible_agency": "Department of Sanitation",
    "final_address": "858 Taft Pl",
    "address_councildis": "A",
    "status": "Assigned to Contractor",
    "contractor": "IV Waste",
    "rowid": "1136286",
    "final_x": "3673859.13121",
    "final_y": "539839.49121",
    "longitude": "-90.09191285925388",
    "latitude": "29.97860126071355",
    "geocoded_column": {
      "latitude": "29.97860126071355",
      "longitude": "-90.09191285925388"
    }
  },
  {
    "service_request": "2024-1136285",
    "request_type": "Property Maintenance",
    "request_reason": "Property Maintenance",
    "date_created": "2024-09-27T15:07:55.000",
    "date_modified": "2024-09-27T15:07:55.000",
    "request_status": "Pending",
    "responsible_agency": "Department of Code Enforcement",
    "final_address": "2215 Pauline St",
    "address_councildis": "D",
    "status": "Pending",
    "rowid": "1136285",
    "final_x": "3692315.11721",
    "final_y": "539709.889162",
    "longitude": "-90.03362688090127",
    "latitude": "29.977682186824815",
    "geocoded_column": {
      "latitude": "29.977682186824815",
      "longitude": "-90.03362688090127"
    }
  },
  {
    "service_request": "2024-1136284",
    "request_type": "Property Maintenance",
    "request_reason": "Property Maintenance",
    "date_created": "2024-09-27T15:06:18.000",
    "date_modified": "2024-09-27T15:06:18.000",
    "request_status": "Pending",
    "responsible_agency": "Department of Code Enforcement",
    "final_address": "1838 Pauline St",
    "address_councildis": "D",
    "status": "Pending",
    "rowid": "1136284",
    "final_x": "3691891.10096",
    "final_y": "538374.251849",
    "longitude": "-90.03501386147337",
    "latitude": "29.974022877273118",
    "geocoded_column": {
      "latitude": "29.974022877273118",
      "longitude": "-90.03501386147337"
    }
  },
  {
    "service_request": "2024-1136283",
    "request_type": "Trash/Recycling",
    "request_reason": "Request a Large Item Pick Up",
    "date_created": "2024-09-27T15:05:12.000",
    "date_modified": "2024-09-27T15:05:13.000",
    "request_status": "Pending",
    "responsible_agency": "Department of Sanitation",
    "final_address": "10320 Chevy Chase Dr",
    "address_councildis": "E",
    "status": "Assigned to Contractor",
    "contractor": "Waste Pro",
    "rowid": "1136283",
    "final_x": "3710389.94443",
    "final_y": "563344.337184",
    "longitude": "-89.97565650206668",
    "latitude": "30.042091677870282",
    "geocoded_column": {
      "latitude": "30.042091677870282",
      "longitude": "-89.97565650206668"
    }
  },
  {
    "service_request": "2024-1136282",
    "request_type": "Trash/Recycling",
    "request_reason": "Repair Recycling Cart",
    "date_created": "2024-09-27T15:04:43.000",
    "date_modified": "2024-09-27T15:04:44.000",
    "request_status": "Pending",
    "responsible_agency": "Department of Sanitation",
    "final_address": "4674 Nottingham Dr",
    "address_councildis": "E",
    "status": "Pending",
    "rowid": "1136282",
    "final_x": "3716349.64421",
    "final_y": "556564.402842",
    "longitude": "-89.95707915191436",
    "latitude": "30.023254070482793",
    "geocoded_column": {
      "latitude": "30.023254070482793",
      "longitude": "-89.95707915191436"
    }
  },
  {
    "service_request": "2024-1136281",
    "request_type": "Property Maintenance",
    "request_reason": "Property Maintenance",
    "date_created": "2024-09-27T15:04:13.000",
    "date_modified": "2024-09-27T15:04:13.000",
    "request_status": "Pending",
    "responsible_agency": "Department of Code Enforcement",
    "final_address": "2214 Pauline St",
    "address_councildis": "D",
    "status": "Pending",
    "rowid": "1136281",
    "final_x": "3692231.54909",
    "final_y": "539734.377674",
    "longitude": "-90.03388993944182",
    "latitude": "29.977752127617006",
    "geocoded_column": {
      "latitude": "29.977752127617006",
      "longitude": "-90.03388993944182"
    }
  },
  {
    "service_request": "2024-1136280",
    "request_type": "Trash/Recycling",
    "request_reason": "Replace Trash Cart",
    "date_created": "2024-09-27T15:03:39.000",
    "date_modified": "2024-09-27T15:03:40.000",
    "request_status": "Pending",
    "responsible_agency": "Department of Sanitation",
    "final_address": "1347 Soldiers St",
    "address_councildis": "D",
    "status": "Assigned to Contractor",
    "contractor": "IV Waste",
    "rowid": "1136280",
    "final_x": "3677042.95611",
    "final_y": "554519.676376",
    "longitude": "-90.08135054797992",
    "latitude": "30.01887136045504",
    "geocoded_column": {
      "latitude": "30.01887136045504",
      "longitude": "-90.08135054797992"
    }
  },
  {
    "service_request": "2024-1136279",
    "request_type": "Trash/Recycling",
    "request_reason": "Request a Large Item Pick Up",
    "date_created": "2024-09-27T15:03:01.000",
    "date_modified": "2024-09-27T15:03:28.000",
    "request_status": "Pending",
    "responsible_agency": "Department of Sanitation",
    "final_address": "4674 Nottingham Dr",
    "address_councildis": "E",
    "status": "Assigned to Contractor",
    "contractor": "Waste Pro",
    "rowid": "1136279",
    "final_x": "3716349.64421",
    "final_y": "556564.402842",
    "longitude": "-89.95707915191436",
    "latitude": "30.023254070482793",
    "geocoded_column": {
      "latitude": "30.023254070482793",
      "longitude": "-89.95707915191436"
    }
  },
  {
    "service_request": "2024-1136278",
    "request_type": "Property Maintenance",
    "request_reason": "Property Maintenance",
    "date_created": "2024-09-27T15:01:01.000",
    "date_modified": "2024-09-27T15:01:01.000",
    "request_status": "Pending",
    "responsible_agency": "Department of Code Enforcement",
    "final_address": "2220 Pauline St",
    "address_councildis": "D",
    "status": "Pending",
    "rowid": "1136278",
    "final_x": "3692242.69904",
    "final_y": "539777.186826",
    "longitude": "-90.03385319085329",
    "latitude": "29.97786948981616",
    "geocoded_column": {
      "latitude": "29.97786948981616",
      "longitude": "-90.03385319085329"
    }
  },
  {
    "service_request": "2024-1136277",
    "request_type": "Trash/Recycling",
    "request_reason": "Replace Recycling Cart",
    "date_created": "2024-09-27T14:57:13.000",
    "date_modified": "2024-09-27T14:57:13.000",
    "request_status": "Pending",
    "responsible_agency": "Department of Sanitation",
    "final_address": "0 BLK Across St",
    "address_councildis": "E",
    "status": "Pending",
    "rowid": "1136277",
    "final_x": "3711887.63918",
    "final_y": "553972.247814",
    "longitude": "-89.97127534652184",
    "latitude": "30.01627326470007",
    "geocoded_column": {
      "latitude": "30.01627326470007",
      "longitude": "-89.97127534652184"
    }
  },
  {
    "service_request": "2024-1136276",
    "request_type": "Streetlights",
    "request_reason": "Streetlight Outage/Malfunction",
    "date_created": "2024-09-27T14:56:12.000",
    "date_modified": "2024-09-27T14:57:28.000",
    "request_status": "Pending",
    "responsible_agency": "Department of Public Works",
    "final_address": "4700 Major Dr",
    "address_councildis": "E",
    "status": "Pending",
    "contractor": "Legacy Professional Services",
    "rowid": "1136276",
    "final_x": "3718188.13093",
    "final_y": "556610.084314",
    "longitude": "-89.95126825953106",
    "latitude": "30.02331883143523",
    "geocoded_column": {
      "latitude": "30.02331883143523",
      "longitude": "-89.95126825953106"
    }
  },
  {
    "service_request": "2024-1136275",
    "request_type": "Street and Traffic Signs",
    "request_reason": "Traffic or Parking Sign Damaged or Missing",
    "date_created": "2024-09-27T14:55:38.000",
    "date_modified": "2024-09-27T14:55:38.000",
    "request_status": "Pending",
    "responsible_agency": "Department of Public Works",
    "final_address": "6400 BLK Freret St",
    "address_councildis": "A",
    "status": "Pending",
    "rowid": "1136275",
    "final_x": "3664806.11687",
    "final_y": "525225.165545",
    "longitude": "-90.12099412540935",
    "latitude": "29.938683225082375",
    "geocoded_column": {
      "latitude": "29.938683225082375",
      "longitude": "-90.12099412540935"
    }
  },
  {
    "service_request": "2024-1136274",
    "request_type": "Trash/Recycling",
    "request_reason": "Repair Trash Cart",
    "date_created": "2024-09-27T14:54:30.000",
    "date_modified": "2024-09-27T14:54:31.000",
    "request_status": "Pending",
    "responsible_agency": "Department of Sanitation",
    "final_address": "2207 Tennessee St",
    "address_councildis": "E",
    "status": "Assigned to Contractor",
    "contractor": "Waste Pro",
    "rowid": "1136274",
    "final_x": "3696906.41565",
    "final_y": "538529.238473",
    "longitude": "-90.0191688358972",
    "latitude": "29.974291826871372",
    "geocoded_column": {
      "latitude": "29.974291826871372",
      "longitude": "-90.0191688358972"
    }
  },
  {
    "service_request": "2024-1136273",
    "request_type": "Trash/Recycling",
    "request_reason": "Request a Large Item Pick Up",
    "date_created": "2024-09-27T14:52:28.000",
    "date_modified": "2024-09-27T14:52:29.000",
    "request_status": "Pending",
    "responsible_agency": "Department of Sanitation",
    "final_address": "5020 Dauphine St",
    "address_councildis": "E",
    "status": "Assigned to Contractor",
    "contractor": "Waste Pro",
    "rowid": "1136273",
    "final_x": "3695850.03421",
    "final_y": "533049.634372",
    "longitude": "-90.02270306635545",
    "latitude": "29.959258136164213",
    "geocoded_column": {
      "latitude": "29.959258136164213",
      "longitude": "-90.02270306635545"
    }
  },
  {
    "service_request": "2024-1136272",
    "request_type": "Trash/Recycling",
    "request_reason": "Repair Trash Cart",
    "date_created": "2024-09-27T14:51:41.000",
    "date_modified": "2024-09-27T14:52:12.000",
    "request_status": "Pending",
    "responsible_agency": "Department of Sanitation",
    "final_address": "3741 Socrates St",
    "address_councildis": "C",
    "status": "Assigned to Contractor",
    "contractor": "Richards Disposal",
    "rowid": "1136272",
    "final_x": "3697812.94775",
    "final_y": "526063.662078",
    "longitude": "-90.01675816407094",
    "latitude": "29.939987281267374",
    "geocoded_column": {
      "latitude": "29.939987281267374",
      "longitude": "-90.01675816407094"
    }
  },
  {
    "service_request": "2024-1136271",
    "request_type": "Trash/Recycling",
    "request_reason": "MIssed Recycling Pick-Up",
    "date_created": "2024-09-27T14:50:20.000",
    "date_modified": "2024-09-27T14:50:21.000",
    "request_status": "Pending",
    "responsible_agency": "Department of Sanitation",
    "final_address": "5006 N Prieur St",
    "address_councildis": "E",
    "status": "Assigned to Contractor",
    "contractor": "Waste Pro",
    "rowid": "1136271",
    "final_x": "3696862.3288",
    "final_y": "537173.051336",
    "longitude": "-90.01935718816324",
    "latitude": "29.97056418907925",
    "geocoded_column": {
      "latitude": "29.97056418907925",
      "longitude": "-90.01935718816324"
    }
  },
  {
    "service_request": "2024-1136270",
    "request_type": "Mosquito, Termite & Rodent Control",
    "request_reason": "Rodent Complaint (Rats)",
    "date_created": "2024-09-27T14:46:37.000",
    "date_modified": "2024-09-27T14:46:38.000",
    "request_status": "Pending",
    "responsible_agency": "Mosquito, Termite & Rodent Control Board",
    "final_address": "323 S Rendon St",
    "address_councildis": "B",
    "status": "Pending",
    "rowid": "1136270",
    "final_x": "3672921.47112",
    "final_y": "535701.998663",
    "longitude": "-90.09501556750286",
    "latitude": "29.967252457711595",
    "geocoded_column": {
      "latitude": "29.967252457711595",
      "longitude": "-90.09501556750286"
    }
  },
  {
    "service_request": "2024-1136269",
    "request_type": "Property Maintenance",
    "request_reason": "Property Maintenance",
    "date_created": "2024-09-27T14:45:48.000",
    "date_modified": "2024-09-27T14:45:49.000",
    "request_status": "Pending",
    "responsible_agency": "Department of Code Enforcement",
    "final_address": "4113 Thalia St",
    "address_councildis": "B",
    "status": "Pending",
    "rowid": "1136269",
    "final_x": "3671447.42631",
    "final_y": "530824.876674",
    "longitude": "-90.09983643222789",
    "latitude": "29.9538857151207",
    "geocoded_column": {
      "latitude": "29.9538857151207",
      "longitude": "-90.09983643222789"
    }
  },
  {
    "service_request": "2024-1136268",
    "request_type": "Trash/Recycling",
    "request_reason": "Request a Large Item Pick Up",
    "date_created": "2024-09-27T14:44:31.000",
    "date_modified": "2024-09-27T14:44:32.000",
    "request_status": "Pending",
    "responsible_agency": "Department of Sanitation",
    "final_address": "11000 N Hardy St",
    "address_councildis": "E",
    "status": "Assigned to Contractor",
    "contractor": "Waste Pro",
    "rowid": "1136268",
    "final_x": "3712930.31051",
    "final_y": "562216.493727",
    "longitude": "-89.96767054171889",
    "latitude": "30.038907553242698",
    "geocoded_column": {
      "latitude": "30.038907553242698",
      "longitude": "-89.96767054171889"
    }
  },
  {
    "service_request": "2024-1136267",
    "request_type": "Trash/Recycling",
    "request_reason": "Storm Debris Collection",
    "date_created": "2024-09-27T14:42:19.000",
    "date_modified": "2024-09-27T14:42:19.000",
    "request_status": "Pending",
    "responsible_agency": "Department of Sanitation",
    "final_address": "3621 Rue Nadine",
    "address_councildis": "C",
    "status": "Pending",
    "rowid": "1136267",
    "final_x": "3704693.23582",
    "final_y": "517012.090613",
    "longitude": "-89.99536992557061",
    "latitude": "29.914879447944678",
    "geocoded_column": {
      "latitude": "29.914879447944678",
      "longitude": "-89.99536992557061"
    }
  },
  {
    "service_request": "2024-1136266",
    "request_type": "Trash/Recycling",
    "request_reason": "Request a Large Item Pick Up",
    "date_created": "2024-09-27T14:36:11.000",
    "date_modified": "2024-09-27T14:36:12.000",
    "request_status": "Pending",
    "responsible_agency": "Department of Sanitation",
    "final_address": "4720 N Villere St A",
    "address_councildis": "E",
    "status": "Assigned to Contractor",
    "contractor": "Waste Pro",
    "rowid": "1136266",
    "final_x": "3695138.11664",
    "final_y": "535618.53895",
    "longitude": "-90.02485848599206",
    "latitude": "29.966344086920873",
    "geocoded_column": {
      "latitude": "29.966344086920873",
      "longitude": "-90.02485848599206"
    }
  },
  {
    "service_request": "2024-1136265",
    "request_type": "Safety & Permits",
    "request_reason": "Zoning Enforcement",
    "date_created": "2024-09-27T14:35:29.000",
    "date_modified": "2024-09-27T14:35:29.000",
    "request_status": "Pending",
    "responsible_agency": "Safety and Permits",
    "final_address": "1500 Upperline St",
    "address_councildis": "B",
    "rowid": "1136265",
    "final_x": "3669014.70727",
    "final_y": "520429.06828",
    "longitude": "-90.10786905029865",
    "latitude": "29.92537238312046",
    "geocoded_column": {
      "latitude": "29.92537238312046",
      "longitude": "-90.10786905029865"
    }
  },
  {
    "service_request": "2024-1136264",
    "request_type": "Abandoned Vehicles",
    "request_reason": "Abandoned/Junk Vehicles",
    "date_created": "2024-09-27T14:34:45.000",
    "date_modified": "2024-09-27T14:34:47.000",
    "request_status": "Pending",
    "responsible_agency": "Department of Public Works",
    "final_address": "3057 Dumaine St",
    "address_councildis": "A",
    "status": "Pending",
    "rowid": "1136264",
    "final_x": "3675780.59816",
    "final_y": "538609.700873",
    "longitude": "-90.08588643274773",
    "latitude": "29.975162378006708",
    "geocoded_column": {
      "latitude": "29.975162378006708",
      "longitude": "-90.08588643274773"
    }
  },
  {
    "service_request": "2024-1136263",
    "request_type": "Trash/Recycling",
    "request_reason": "Missed Trash Pick-Up",
    "date_created": "2024-09-27T14:34:22.000",
    "date_modified": "2024-09-27T15:48:33.000",
    "case_close_date": "2024-09-27T10:48:33.000",
    "request_status": "Closed",
    "responsible_agency": "Department of Sanitation",
    "final_address": "5016 S Johnson St",
    "address_councildis": "B",
    "status": "Invalid Request",
    "contractor": "IV Waste",
    "contractor_action": "Invalid",
    "rowid": "1136263",
    "final_x": "3668758.0649",
    "final_y": "526914.332222",
    "longitude": "-90.10846035254875",
    "latitude": "29.943212324055327",
    "geocoded_column": {
      "latitude": "29.943212324055327",
      "longitude": "-90.10846035254875"
    }
  },
  {
    "service_request": "2024-1136262",
    "request_type": "Property Maintenance",
    "request_reason": "Property Maintenance",
    "date_created": "2024-09-27T14:33:58.000",
    "date_modified": "2024-09-27T14:33:59.000",
    "request_status": "Pending",
    "responsible_agency": "Department of Code Enforcement",
    "final_address": "8918 Fig St",
    "address_councildis": "A",
    "status": "Pending",
    "rowid": "1136262",
    "final_x": "3664073.98925",
    "final_y": "535124.916486",
    "longitude": "-90.12297539724143",
    "latitude": "29.965925615443297",
    "geocoded_column": {
      "latitude": "29.965925615443297",
      "longitude": "-90.12297539724143"
    }
  },
  {
    "service_request": "2024-1136261",
    "request_type": "Trash/Recycling",
    "request_reason": "Request a Large Item Pick Up",
    "date_created": "2024-09-27T14:33:17.000",
    "date_modified": "2024-09-27T14:36:22.000",
    "request_status": "Pending",
    "responsible_agency": "Department of Sanitation",
    "final_address": "1733 General Taylor St",
    "address_councildis": "B",
    "status": "Assigned to Contractor",
    "contractor": "IV Waste",
    "rowid": "1136261",
    "final_x": "3672519.43495",
    "final_y": "521695.763385",
    "longitude": "-90.09676254786213",
    "latitude": "29.928751857448262",
    "geocoded_column": {
      "latitude": "29.928751857448262",
      "longitude": "-90.09676254786213"
    }
  },
  {
    "service_request": "2024-1136260",
    "request_type": "Trash/Recycling",
    "request_reason": "Replace Trash Cart",
    "date_created": "2024-09-27T14:30:10.000",
    "date_modified": "2024-09-27T14:30:11.000",
    "request_status": "Pending",
    "responsible_agency": "Department of Sanitation",
    "final_address": "1619 Pauline St",
    "address_councildis": "D",
    "status": "Assigned to Contractor",
    "contractor": "IV Waste",
    "rowid": "1136260",
    "final_x": "3691753.99337",
    "final_y": "537488.947848",
    "longitude": "-90.03547854578886",
    "latitude": "29.97159287609024",
    "geocoded_column": {
      "latitude": "29.97159287609024",
      "longitude": "-90.03547854578886"
    }
  },
  {
    "service_request": "2024-1136259",
    "request_type": "Trash/Recycling",
    "request_reason": "Illegal Dumping",
    "date_created": "2024-09-27T14:21:01.000",
    "date_modified": "2024-09-27T14:21:02.000",
    "request_status": "Pending",
    "responsible_agency": "Department of Sanitation",
    "final_address": "7900 BLK Olive St",
    "address_councildis": "B",
    "status": "Pending",
    "rowid": "1136259",
    "final_x": "3667699.86273",
    "final_y": "533761.032003",
    "longitude": "-90.11157088333368",
    "latitude": "29.96206957347964",
    "geocoded_column": {
      "latitude": "29.96206957347964",
      "longitude": "-90.11157088333368"
    }
  },
  {
    "service_request": "2024-1136258",
    "request_type": "Trash/Recycling",
    "request_reason": "Request a Large Item Pick Up",
    "date_created": "2024-09-27T14:19:26.000",
    "date_modified": "2024-09-27T14:19:28.000",
    "request_status": "Pending",
    "responsible_agency": "Department of Sanitation",
    "final_address": "8058 Driftwood Dr",
    "address_councildis": "E",
    "status": "Assigned to Contractor",
    "contractor": "Waste Pro",
    "rowid": "1136258",
    "final_x": "3702336.83223",
    "final_y": "561883.463711",
    "longitude": "-90.00116090888535",
    "latitude": "30.038334756716264",
    "geocoded_column": {
      "latitude": "30.038334756716264",
      "longitude": "-90.00116090888535"
    }
  },
  {
    "service_request": "2024-1136257",
    "request_type": "Property Maintenance",
    "request_reason": "Property Maintenance",
    "date_created": "2024-09-27T14:18:15.000",
    "date_modified": "2024-09-27T14:18:15.000",
    "request_status": "Pending",
    "responsible_agency": "Department of Code Enforcement",
    "final_address": "2603 Almonaster Ave",
    "address_councildis": "D",
    "status": "Pending",
    "rowid": "1136257",
    "final_x": "3688621.11113",
    "final_y": "542162.972941",
    "longitude": "-90.04520668448997",
    "latitude": "29.984541990367422",
    "geocoded_column": {
      "latitude": "29.984541990367422",
      "longitude": "-90.04520668448997"
    }
  },
  {
    "service_request": "2024-1136256",
    "request_type": "Trash/Recycling",
    "request_reason": "Order Second Trash Cart",
    "date_created": "2024-09-27T14:16:10.000",
    "date_modified": "2024-09-27T14:16:11.000",
    "request_status": "Pending",
    "responsible_agency": "Department of Sanitation",
    "final_address": "5026 Savoie Ct",
    "address_councildis": "E",
    "status": "Assigned to Contractor",
    "contractor": "Waste Pro",
    "rowid": "1136256",
    "final_x": "3725671.74214",
    "final_y": "561098.81059",
    "longitude": "-89.927447969755",
    "latitude": "30.035410678475092",
    "geocoded_column": {
      "latitude": "30.035410678475092",
      "longitude": "-89.927447969755"
    }
  },
  {
    "service_request": "2024-1136255",
    "request_type": "Property Maintenance",
    "request_reason": "Property Maintenance",
    "date_created": "2024-09-27T14:14:51.000",
    "date_modified": "2024-09-27T14:14:52.000",
    "request_status": "Pending",
    "responsible_agency": "Department of Code Enforcement",
    "final_address": "4601 Pineda St",
    "address_councildis": "D",
    "status": "Pending",
    "rowid": "1136255",
    "final_x": "3690677.65814",
    "final_y": "552590.620566",
    "longitude": "-90.03833874582484",
    "latitude": "30.0131504928054",
    "geocoded_column": {
      "latitude": "30.0131504928054",
      "longitude": "-90.03833874582484"
    }
  },
  {
    "service_request": "2024-1136254",
    "request_type": "Property Maintenance",
    "request_reason": "Property Maintenance",
    "date_created": "2024-09-27T14:13:14.000",
    "date_modified": "2024-09-27T14:13:14.000",
    "request_status": "Pending",
    "responsible_agency": "Department of Code Enforcement",
    "final_address": "6131 Providence Pl",
    "address_councildis": "D",
    "status": "Pending",
    "rowid": "1136254",
    "final_x": "3688382.06851",
    "final_y": "555843.987993",
    "longitude": "-90.04547603225951",
    "latitude": "30.022167185284534",
    "geocoded_column": {
      "latitude": "30.022167185284534",
      "longitude": "-90.04547603225951"
    }
  },
  {
    "service_request": "2024-1136253",
    "request_type": "Trash/Recycling",
    "request_reason": "Order Trash Cart",
    "date_created": "2024-09-27T14:09:41.000",
    "date_modified": "2024-09-27T14:09:42.000",
    "request_status": "Pending",
    "responsible_agency": "Department of Sanitation",
    "final_address": "7211 Bunker Hill Rd",
    "address_councildis": "E",
    "status": "Assigned to Contractor",
    "contractor": "Waste Pro",
    "rowid": "1136253",
    "final_x": "3705580.0659",
    "final_y": "561179.30851",
    "longitude": "-89.99093759177174",
    "latitude": "30.036294530338235",
    "geocoded_column": {
      "latitude": "30.036294530338235",
      "longitude": "-89.99093759177174"
    }
  },
  {
    "service_request": "2024-1136252",
    "request_type": "Property Maintenance",
    "request_reason": "Property Maintenance",
    "date_created": "2024-09-27T14:08:34.000",
    "date_modified": "2024-09-27T14:08:34.000",
    "request_status": "Pending",
    "responsible_agency": "Department of Code Enforcement",
    "final_address": "6131 Providence Pl",
    "address_councildis": "D",
    "status": "Pending",
    "rowid": "1136252",
    "final_x": "3688382.06851",
    "final_y": "555843.987993",
    "longitude": "-90.04547603225951",
    "latitude": "30.022167185284534",
    "geocoded_column": {
      "latitude": "30.022167185284534",
      "longitude": "-90.04547603225951"
    }
  },
  {
    "service_request": "2024-1136251",
    "request_type": "Property Maintenance",
    "request_reason": "Property Maintenance",
    "date_created": "2024-09-27T14:08:11.000",
    "date_modified": "2024-09-27T14:08:11.000",
    "request_status": "Pending",
    "responsible_agency": "Department of Code Enforcement",
    "final_address": "6131 Providence Pl",
    "address_councildis": "D",
    "status": "Pending",
    "rowid": "1136251",
    "final_x": "3688382.06851",
    "final_y": "555843.987993",
    "longitude": "-90.04547603225951",
    "latitude": "30.022167185284534",
    "geocoded_column": {
      "latitude": "30.022167185284534",
      "longitude": "-90.04547603225951"
    }
  },
  {
    "service_request": "2024-1136250",
    "request_type": "Trash/Recycling",
    "request_reason": "Request a Large Item Pick Up",
    "date_created": "2024-09-27T14:05:24.000",
    "date_modified": "2024-09-27T14:05:25.000",
    "request_status": "Pending",
    "responsible_agency": "Department of Sanitation",
    "final_address": "58 Curtis Dr",
    "address_councildis": "E",
    "status": "Assigned to Contractor",
    "contractor": "Waste Pro",
    "rowid": "1136250",
    "final_x": "3698132.35491",
    "final_y": "560771.563422",
    "longitude": "-90.01448853029505",
    "latitude": "30.035411198119395",
    "geocoded_column": {
      "latitude": "30.035411198119395",
      "longitude": "-90.01448853029505"
    }
  },
  {
    "service_request": "2024-1136249",
    "request_type": "Roads and Streets",
    "request_reason": "Pothole",
    "date_created": "2024-09-27T14:04:40.000",
    "date_modified": "2024-09-27T14:05:02.000",
    "case_close_date": "2024-09-27T09:05:02.000",
    "request_status": "Closed",
    "responsible_agency": "Department of Public Works",
    "final_address": "7534 Vanderkloot Ave",
    "address_councildis": "E",
    "status": "Resolved",
    "rowid": "1136249",
    "final_x": "3705909.10692",
    "final_y": "562971.621408",
    "longitude": "-89.98983135434499",
    "latitude": "30.041212079408258",
    "geocoded_column": {
      "latitude": "30.041212079408258",
      "longitude": "-89.98983135434499"
    }
  },
  {
    "service_request": "2024-1136248",
    "request_type": "Trash/Recycling",
    "request_reason": "Replace Trash Cart",
    "date_created": "2024-09-27T14:02:16.000",
    "date_modified": "2024-09-27T14:02:18.000",
    "request_status": "Pending",
    "responsible_agency": "Department of Sanitation",
    "final_address": "8737 Willow St",
    "address_councildis": "A",
    "status": "Assigned to Contractor",
    "contractor": "IV Waste",
    "rowid": "1136248",
    "final_x": "3660664.09939",
    "final_y": "530559.222722",
    "longitude": "-90.1338947140058",
    "latitude": "29.953470034873778",
    "geocoded_column": {
      "latitude": "29.953470034873778",
      "longitude": "-90.1338947140058"
    }
  },
  {
    "service_request": "2024-1136247",
    "request_type": "Roads and Streets",
    "request_reason": "Pothole",
    "date_created": "2024-09-27T13:59:24.000",
    "date_modified": "2024-09-27T13:59:25.000",
    "request_status": "Pending",
    "responsible_agency": "Department of Public Works",
    "final_address": "ST CHARLES AVE & ANDREW HIGGINS ST",
    "address_councildis": "B",
    "status": "Pending",
    "rowid": "1136247",
    "final_x": "3680312.0",
    "final_y": "527042.68",
    "longitude": "-90.07197722687869",
    "latitude": "29.943220573178106",
    "geocoded_column": {
      "latitude": "29.943220573178106",
      "longitude": "-90.07197722687869"
    }
  },
  {
    "service_request": "2024-1136246",
    "request_type": "Trash/Recycling",
    "request_reason": "Repair Trash Cart",
    "date_created": "2024-09-27T13:57:50.000",
    "date_modified": "2024-09-27T13:57:51.000",
    "request_status": "Pending",
    "responsible_agency": "Department of Sanitation",
    "final_address": "929 Washington Ave",
    "address_councildis": "B",
    "status": "Assigned to Contractor",
    "contractor": "IV Waste",
    "rowid": "1136246",
    "final_x": "3677347.61224",
    "final_y": "520453.398904",
    "longitude": "-90.08156382301814",
    "latitude": "29.925191604641753",
    "geocoded_column": {
      "latitude": "29.925191604641753",
      "longitude": "-90.08156382301814"
    }
  },
  {
    "service_request": "2024-1136245",
    "request_type": "Trash/Recycling",
    "request_reason": "Return Recycling Cart",
    "date_created": "2024-09-27T13:56:45.000",
    "date_modified": "2024-09-27T13:56:46.000",
    "request_status": "Pending",
    "responsible_agency": "Department of Sanitation",
    "final_address": "4426 De Montluzin St",
    "address_councildis": "D",
    "status": "Pending",
    "rowid": "1136245",
    "final_x": "3687189.82358",
    "final_y": "549176.831507",
    "longitude": "-90.04947925960406",
    "latitude": "30.00387174561515",
    "geocoded_column": {
      "latitude": "30.00387174561515",
      "longitude": "-90.04947925960406"
    }
  },
  {
    "service_request": "2024-1136244",
    "request_type": "Trash/Recycling",
    "request_reason": "Replace Trash Cart",
    "date_created": "2024-09-27T13:56:19.000",
    "date_modified": "2024-09-27T13:56:20.000",
    "request_status": "Pending",
    "responsible_agency": "Department of Sanitation",
    "final_address": "3600 Rue Denise",
    "address_councildis": "C",
    "status": "Assigned to Contractor",
    "contractor": "Richards Disposal",
    "rowid": "1136244",
    "final_x": "3704321.48503",
    "final_y": "517376.586677",
    "longitude": "-89.99652987183293",
    "latitude": "29.915893617325043",
    "geocoded_column": {
      "latitude": "29.915893617325043",
      "longitude": "-89.99652987183293"
    }
  },
  {
    "service_request": "2024-1136243",
    "request_type": "Trash/Recycling",
    "request_reason": "Repair Trash Cart",
    "date_created": "2024-09-27T13:56:13.000",
    "date_modified": "2024-09-27T13:56:14.000",
    "request_status": "Pending",
    "responsible_agency": "Department of Sanitation",
    "final_address": "935 Washington Ave",
    "address_councildis": "B",
    "status": "Assigned to Contractor",
    "contractor": "IV Waste",
    "rowid": "1136243",
    "final_x": "3677325.57198",
    "final_y": "520486.486584",
    "longitude": "-90.0816322561667",
    "latitude": "29.925283247071093",
    "geocoded_column": {
      "latitude": "29.925283247071093",
      "longitude": "-90.0816322561667"
    }
  },
  {
    "service_request": "2024-1136242",
    "request_type": "Trash/Recycling",
    "request_reason": "Request a Large Item Pick Up",
    "date_created": "2024-09-27T13:55:01.000",
    "date_modified": "2024-09-27T13:55:02.000",
    "request_status": "Pending",
    "responsible_agency": "Department of Sanitation",
    "final_address": "2212 Lizardi St",
    "address_councildis": "E",
    "status": "Assigned to Contractor",
    "contractor": "Waste Pro",
    "rowid": "1136242",
    "final_x": "3697639.97443",
    "final_y": "538355.589961",
    "longitude": "-90.01685839920293",
    "latitude": "29.973791202284993",
    "geocoded_column": {
      "latitude": "29.973791202284993",
      "longitude": "-90.01685839920293"
    }
  },
  {
    "service_request": "2024-1136241",
    "request_type": "Roads and Streets",
    "request_reason": "Pothole",
    "date_created": "2024-09-27T13:53:13.000",
    "date_modified": "2024-09-27T13:53:36.000",
    "case_close_date": "2024-09-27T08:53:36.000",
    "request_status": "Closed",
    "responsible_agency": "Department of Public Works",
    "final_address": "6100 BLK Orleans Ave",
    "address_councildis": "A",
    "status": "Resolved",
    "rowid": "1136241",
    "final_x": "3670973.01399",
    "final_y": "548041.739334",
    "longitude": "-90.1007496418717",
    "latitude": "30.001240282861648",
    "geocoded_column": {
      "latitude": "30.001240282861648",
      "longitude": "-90.1007496418717"
    }
  },
  {
    "service_request": "2024-1136240",
    "request_type": "Trash/Recycling",
    "request_reason": "Order Trash Cart",
    "date_created": "2024-09-27T13:48:50.000",
    "date_modified": "2024-09-27T13:48:51.000",
    "request_status": "Pending",
    "responsible_agency": "Department of Sanitation",
    "final_address": "6627 Dwyer Rd",
    "address_councildis": "E",
    "status": "Assigned to Contractor",
    "contractor": "Waste Pro",
    "rowid": "1136240",
    "final_x": "3699211.42839",
    "final_y": "555582.482201",
    "longitude": "-90.01126769860173",
    "latitude": "30.021109024865666",
    "geocoded_column": {
      "latitude": "30.021109024865666",
      "longitude": "-90.01126769860173"
    }
  },
  {
    "service_request": "2024-1136239",
    "request_type": "Trash/Recycling",
    "request_reason": "Request a Large Item Pick Up",
    "date_created": "2024-09-27T13:45:39.000",
    "date_modified": "2024-09-27T13:45:40.000",
    "request_status": "Pending",
    "responsible_agency": "Department of Sanitation",
    "final_address": "2024 Bayou Rd",
    "address_councildis": "D",
    "status": "Assigned to Contractor",
    "contractor": "IV Waste",
    "rowid": "1136239",
    "final_x": "3680078.56725",
    "final_y": "537224.6002",
    "longitude": "-90.07236046305083",
    "latitude": "29.97122446991422",
    "geocoded_column": {
      "latitude": "29.97122446991422",
      "longitude": "-90.07236046305083"
    }
  },
  {
    "service_request": "2024-1136238",
    "request_type": "Property Maintenance",
    "request_reason": "Property Maintenance",
    "date_created": "2024-09-27T13:37:03.000",
    "date_modified": "2024-09-27T13:37:05.000",
    "request_status": "Pending",
    "responsible_agency": "Department of Code Enforcement",
    "final_address": "6248 Kuebel Dr",
    "address_councildis": "E",
    "status": "Pending",
    "rowid": "1136238",
    "final_x": "3695817.03926",
    "final_y": "559908.495133",
    "longitude": "-90.02183650256475",
    "latitude": "30.033111163127217",
    "geocoded_column": {
      "latitude": "30.033111163127217",
      "longitude": "-90.02183650256475"
    }
  },
  {
    "service_request": "2024-1136237",
    "request_type": "Trash/Recycling",
    "request_reason": "Order Recycling Cart",
    "date_created": "2024-09-27T13:34:05.000",
    "date_modified": "2024-09-27T13:34:06.000",
    "request_status": "Pending",
    "responsible_agency": "Department of Sanitation",
    "final_address": "1301 St Ferdinand St",
    "address_councildis": "C",
    "status": "Pending",
    "rowid": "1136237",
    "final_x": "3687946.42243",
    "final_y": "537077.923336",
    "longitude": "-90.04751795770167",
    "latitude": "29.97058073794476",
    "geocoded_column": {
      "latitude": "29.97058073794476",
      "longitude": "-90.04751795770167"
    }
  },
  {
    "service_request": "2024-1136236",
    "request_type": "Trash/Recycling",
    "request_reason": "Request a Large Item Pick Up",
    "date_created": "2024-09-27T13:30:43.000",
    "date_modified": "2024-09-27T13:31:19.000",
    "request_status": "Pending",
    "responsible_agency": "Department of Sanitation",
    "final_address": "4556 Marque Dr",
    "address_councildis": "E",
    "status": "Assigned to Contractor",
    "contractor": "Waste Pro",
    "rowid": "1136236",
    "final_x": "3710118.04331",
    "final_y": "554568.90812",
    "longitude": "-89.97684412631453",
    "latitude": "30.017971568491106",
    "geocoded_column": {
      "latitude": "30.017971568491106",
      "longitude": "-89.97684412631453"
    }
  },
  {
    "service_request": "2024-1136235",
    "request_type": "Trash/Recycling",
    "request_reason": "Repair Trash Cart",
    "date_created": "2024-09-27T13:29:46.000",
    "date_modified": "2024-09-27T13:29:47.000",
    "request_status": "Pending",
    "responsible_agency": "Department of Sanitation",
    "final_address": "3634 Toledano St",
    "address_councildis": "B",
    "status": "Assigned to Contractor",
    "contractor": "IV Waste",
    "rowid": "1136235",
    "final_x": "3671503.61217",
    "final_y": "528774.079424",
    "longitude": "-90.09972873564763",
    "latitude": "29.94824503443892",
    "geocoded_column": {
      "latitude": "29.94824503443892",
      "longitude": "-90.09972873564763"
    }
  },
  {
    "service_request": "2024-1136234",
    "request_type": "Roads and Streets",
    "request_reason": "Pothole",
    "date_created": "2024-09-27T13:25:06.000",
    "date_modified": "2024-09-27T13:28:17.000",
    "case_close_date": "2024-09-27T08:28:17.000",
    "request_status": "Closed",
    "responsible_agency": "Department of Public Works",
    "final_address": "9300 Dinkins St",
    "address_councildis": "E",
    "status": "Resolved",
    "rowid": "1136234",
    "final_x": "3705839.73124",
    "final_y": "564018.609953",
    "longitude": "-89.9900118131281",
    "latitude": "30.04409311900977",
    "geocoded_column": {
      "latitude": "30.04409311900977",
      "longitude": "-89.9900118131281"
    }
  },
  {
    "service_request": "2024-1136233",
    "request_type": "Property Maintenance",
    "request_reason": "Property Maintenance",
    "date_created": "2024-09-27T13:24:37.000",
    "date_modified": "2024-09-27T13:24:37.000",
    "request_status": "Pending",
    "responsible_agency": "Department of Code Enforcement",
    "final_address": "629 Flood St",
    "address_councildis": "E",
    "status": "Pending",
    "rowid": "1136233",
    "final_x": "3697310.15875",
    "final_y": "532245.603587",
    "longitude": "-90.0181215130381",
    "latitude": "29.95700133263731",
    "geocoded_column": {
      "latitude": "29.95700133263731",
      "longitude": "-90.0181215130381"
    }
  },
  {
    "service_request": "2024-1136232",
    "request_type": "Parks & Parkways",
    "request_reason": "Request Grass Cutting Service (City Owned Property)",
    "date_created": "2024-09-27T13:22:26.000",
    "date_modified": "2024-09-27T13:22:53.000",
    "request_status": "Pending",
    "responsible_agency": "Department of Parks & Parkway",
    "final_address": "ORETHA CASTLE HALEY BLVD & MARTIN LUTHER KING JR BLVD",
    "address_councildis": "B",
    "status": "Pending",
    "rowid": "1136232",
    "final_x": "3678042.0",
    "final_y": "526311.98",
    "longitude": "-90.07916944143335",
    "latitude": "29.941279904933634",
    "geocoded_column": {
      "latitude": "29.941279904933634",
      "longitude": "-90.07916944143335"
    }
  },
  {
    "service_request": "2024-1136231",
    "request_type": "Trash/Recycling",
    "request_reason": "Repair Recycling Cart",
    "date_created": "2024-09-27T13:19:30.000",
    "date_modified": "2024-09-27T13:19:31.000",
    "request_status": "Pending",
    "responsible_agency": "Department of Sanitation",
    "final_address": "79 Neron Pl",
    "address_councildis": "A",
    "status": "Pending",
    "rowid": "1136231",
    "final_x": "3666065.46247",
    "final_y": "530009.599873",
    "longitude": "-90.11685785843915",
    "latitude": "29.951802178766467",
    "geocoded_column": {
      "latitude": "29.951802178766467",
      "longitude": "-90.11685785843915"
    }
  },
  {
    "service_request": "2024-1136230",
    "request_type": "Trash/Recycling",
    "request_reason": "Repair Trash Cart",
    "date_created": "2024-09-27T13:19:19.000",
    "date_modified": "2024-09-27T13:19:20.000",
    "request_status": "Pending",
    "responsible_agency": "Department of Sanitation",
    "final_address": "1313 Prytania St",
    "address_councildis": "B",
    "status": "Assigned to Contractor",
    "contractor": "IV Waste",
    "rowid": "1136230",
    "final_x": "3679869.62696",
    "final_y": "525687.381629",
    "longitude": "-90.07342095963851",
    "latitude": "29.939507335788388",
    "geocoded_column": {
      "latitude": "29.939507335788388",
      "longitude": "-90.07342095963851"
    }
  },
  {
    "service_request": "2024-1136229",
    "request_type": "Trash/Recycling",
    "request_reason": "Storm Debris Collection",
    "date_created": "2024-09-27T13:18:58.000",
    "date_modified": "2024-09-27T13:18:58.000",
    "request_status": "Pending",
    "responsible_agency": "Department of Sanitation",
    "final_address": "37 W Park Pl",
    "address_councildis": "A",
    "status": "Pending",
    "rowid": "1136229",
    "final_x": "3670016.2034",
    "final_y": "544280.565455",
    "longitude": "-90.103899786218",
    "latitude": "29.990926621401254",
    "geocoded_column": {
      "latitude": "29.990926621401254",
      "longitude": "-90.103899786218"
    }
  },
  {
    "service_request": "2024-1136228",
    "request_type": "Trash/Recycling",
    "request_reason": "Repair Trash Cart",
    "date_created": "2024-09-27T13:18:55.000",
    "date_modified": "2024-09-27T13:20:16.000",
    "request_status": "Pending",
    "responsible_agency": "Department of Sanitation",
    "final_address": "1313 Prytania St",
    "address_councildis": "B",
    "status": "Assigned to Contractor",
    "contractor": "IV Waste",
    "rowid": "1136228",
    "final_x": "3679869.62696",
    "final_y": "525687.381629",
    "longitude": "-90.07342095963851",
    "latitude": "29.939507335788388",
    "geocoded_column": {
      "latitude": "29.939507335788388",
      "longitude": "-90.07342095963851"
    }
  },