[
  {
    "service_request": "2021-847900",
    "request_type": "Roads/Drainage",
    "request_reason": "Street Subsidence (Sinking)",
    "date_created": "2021-12-14T01:24:39.000",
    "date_modified": "2021-12-14T01:24:39.000",
    "request_status": "Pending",
    "responsible_agency": "Department of Public Works",
    "final_address": "1100 BLK Monroe St",
    "address_councildis": "A",
    "status": "Pending",
    "rowid": "847900",
    "final_x": "3660269.44845",
    "final_y": "529673.850217",
    "longitude": "-90.13517009417765",
    "latitude": "29.951046897584394",
    "geocoded_column": {
      "latitude": "29.951046897584394",
      "longitude": "-90.13517009417765"
    }
  },
  {
    "service_request": "2021-847899",
    "request_type": "Trash/Recycling",
    "request_reason": "Illegal Dumping",
    "date_created": "2021-12-13T23:55:27.000",
    "date_modified": "2021-12-13T23:55:27.000",
    "request_status": "Pending",
    "responsible_agency": "Department of Sanitation",
    "final_address": "5123 Cameron Blvd",
    "address_councildis": "D",
    "status": "Pending",
    "rowid": "847899",
    "final_x": "3682711.48194",
    "final_y": "551582.404885",
    "longitude": "-90.06354287595067",
    "latitude": "30.010623413634455",
    "geocoded_column": {
      "latitude": "30.010623413634455",
      "longitude": "-90.06354287595067"
    }
  },
  {
    "service_request": "2021-847898",
    "request_type": "Trash/Recycling",
    "request_reason": "Illegal Dumping",
    "date_created": "2021-12-13T23:06:58.000",
    "date_modified": "2021-12-13T23:06:58.000",
    "request_status": "Pending",
    "responsible_agency": "Department of Sanitation",
    "final_address": "LAKE FOREST BLVD & PARC BRITTANY BLVD",
    "address_councildis": "E",
    "status": "Pending",
    "rowid": "847898",
    "final_x": "3703013.1",
    "final_y": "556785.28",
    "longitude": "-89.99921133030972",
    "latitude": "30.024295099116646",
    "geocoded_column": {
      "latitude": "30.024295099116646",
      "longitude": "-89.99921133030972"
    }
  },
  {
    "service_request": "2021-847897",
    "request_type": "Traffic Signals/Signs/Striping/Streetlights",
    "request_reason": "Street Name Sign Damaged or Missing",
    "date_created": "2021-12-13T23:04:17.000",
    "date_modified": "2021-12-13T23:04:17.000",
    "request_status": "Pending",
    "responsible_agency": "Department of Public Works",
    "final_address": "5641 Bentley Dr",
    "address_councildis": "E",
    "status": "Pending",
    "rowid": "847897",
    "final_x": "3703914.0851",
    "final_y": "556891.987482",
    "longitude": "-89.99636046889393",
    "latitude": "30.024559628149884",
    "geocoded_column": {
      "latitude": "30.024559628149884",
      "longitude": "-89.99636046889393"
    }
  },
  {
    "service_request": "2021-847896",
    "request_type": "Property Maintenance",
    "request_reason": "Property Maintenance",
    "date_created": "2021-12-13T21:53:08.000",
    "date_modified": "2021-12-13T22:00:41.000",
    "request_status": "Pending",
    "responsible_agency": "Department of Code Enforcement",
    "final_address": "601 Tricou St",
    "address_councildis": "E",
    "status": "Pending",
    "rowid": "847896",
    "final_x": "3699478.06615",
    "final_y": "531309.178434",
    "longitude": "-90.01131009773489",
    "latitude": "29.954357896172944",
    "geocoded_column": {
      "latitude": "29.954357896172944",
      "longitude": "-90.01131009773489"
    }
  },
  {
    "service_request": "2021-847895",
    "request_type": "Property Maintenance",
    "request_reason": "Property Maintenance",
    "date_created": "2021-12-13T21:43:20.000",
    "date_modified": "2021-12-13T22:00:44.000",
    "request_status": "Pending",
    "responsible_agency": "Department of Code Enforcement",
    "final_address": "2759 Clover St",
    "address_councildis": "D",
    "status": "Pending",
    "rowid": "847895",
    "final_x": "3688278.84899",
    "final_y": "546820.518545",
    "longitude": "-90.04612247536441",
    "latitude": "29.997359144234675",
    "geocoded_column": {
      "latitude": "29.997359144234675",
      "longitude": "-90.04612247536441"
    }
  },
  {
    "service_request": "2021-847894",
    "request_type": "Traffic Signals/Signs/Striping/Streetlights",
    "request_reason": "Street Light Outage/Malfunction",
    "date_created": "2021-12-13T21:31:16.000",
    "date_modified": "2021-12-13T21:31:17.000",
    "request_status": "Pending",
    "responsible_agency": "Department of Public Works",
    "final_address": "755 Jewel St",
    "address_councildis": "D",
    "status": "Pending",
    "contractor": "Royal Engineering",
    "rowid": "847894",
    "final_x": "3669855.89735",
    "final_y": "555970.782361",
    "longitude": "-90.10400998600407",
    "latitude": "30.023075350535507",
    "geocoded_column": {
      "latitude": "30.023075350535507",
      "longitude": "-90.10400998600407"
    }
  },
  {
    "service_request": "2021-847893",
    "request_type": "Traffic Signals/Signs/Striping/Streetlights",
    "request_reason": "Street Light Outage/Malfunction",
    "date_created": "2021-12-13T21:21:32.000",
    "date_modified": "2021-12-13T21:21:32.000",
    "request_status": "Pending",
    "responsible_agency": "Department of Public Works",
    "final_address": "1218 Burgundy St",
    "address_councildis": "C",
    "status": "Pending",
    "contractor": "Royal Engineering",
    "rowid": "847893",
    "final_x": "3682913.76949",
    "final_y": "534678.842886",
    "longitude": "-90.0634956129256",
    "latitude": "29.96413841950058",
    "geocoded_column": {
      "latitude": "29.96413841950058",
      "longitude": "-90.0634956129256"
    }
  },
  {
    "service_request": "2021-847892",
    "request_type": "Roads/Drainage",
    "request_reason": "Pothole",
    "date_created": "2021-12-13T21:16:20.000",
    "date_modified": "2021-12-13T21:16:20.000",
    "request_status": "Pending",
    "responsible_agency": "Department of Public Works",
    "final_address": "750 S Gayoso St",
    "address_councildis": "B",
    "status": "Pending",
    "rowid": "847892",
    "final_x": "3672616.32539",
    "final_y": "533533.140677",
    "longitude": "-90.0960531819401",
    "latitude": "29.96129788920848",
    "geocoded_column": {
      "latitude": "29.96129788920848",
      "longitude": "-90.0960531819401"
    }
  },
  {
    "service_request": "2021-847891",
    "request_type": "Traffic Signals/Signs/Striping/Streetlights",
    "request_reason": "Street Light Outage/Malfunction",
    "date_created": "2021-12-13T20:47:12.000",
    "date_modified": "2021-12-13T20:47:13.000",
    "request_status": "Pending",
    "responsible_agency": "Department of Public Works",
    "final_address": "4730 Pontchartrain Blvd",
    "address_councildis": "A",
    "status": "Pending",
    "contractor": "Royal Engineering",
    "rowid": "847891",
    "final_x": "3667497.33172",
    "final_y": "538483.786121",
    "longitude": "-90.11205149100157",
    "latitude": "29.975061512618705",
    "geocoded_column": {
      "latitude": "29.975061512618705",
      "longitude": "-90.11205149100157"
    }
  },
  {
    "service_request": "2021-847890",
    "request_type": "Traffic Signals/Signs/Striping/Streetlights",
    "request_reason": "Street Light Outage/Malfunction",
    "date_created": "2021-12-13T20:36:19.000",
    "date_modified": "2021-12-13T20:36:20.000",
    "request_status": "Pending",
    "responsible_agency": "Department of Public Works",
    "final_address": "4706 Pontchartrain Blvd",
    "address_councildis": "A",
    "status": "Pending",
    "contractor": "Royal Engineering",
    "rowid": "847890",
    "final_x": "3667562.89511",
    "final_y": "538329.654601",
    "longitude": "-90.11184961334276",
    "latitude": "29.97463578097702",
    "geocoded_column": {
      "latitude": "29.97463578097702",
      "longitude": "-90.11184961334276"
    }
  },
  {
    "service_request": "2021-847889",
    "request_type": "Traffic Signals/Signs/Striping/Streetlights",
    "request_reason": "Street Light Outage/Malfunction",
    "date_created": "2021-12-13T20:32:42.000",
    "date_modified": "2021-12-13T20:32:43.000",
    "request_status": "Pending",
    "responsible_agency": "Department of Public Works",
    "final_address": "4730 Pontchartrain Blvd",
    "address_councildis": "A",
    "status": "Pending",
    "contractor": "Royal Engineering",
    "rowid": "847889",
    "final_x": "3667497.33172",
    "final_y": "538483.786121",
    "longitude": "-90.11205149100157",
    "latitude": "29.975061512618705",
    "geocoded_column": {
      "latitude": "29.975061512618705",
      "longitude": "-90.11205149100157"
    }
  },
  {
    "service_request": "2021-847888",
    "request_type": "Trash/Recycling",
    "request_reason": "Request a Large Item Pick Up",
    "date_created": "2021-12-13T20:16:34.000",
    "date_modified": "2021-12-13T20:16:35.000",
    "request_status": "Pending",
    "responsible_agency": "Department of Sanitation",
    "final_address": "214 Porteous St",
    "address_councildis": "A",
    "status": "Assigned to Contractor",
    "contractor": "Metro Disposal",
    "rowid": "847888",
    "final_x": "3667369.57978",
    "final_y": "551619.140373",
    "longitude": "-90.11201278973255",
    "latitude": "30.011182981097097",
    "geocoded_column": {
      "latitude": "30.011182981097097",
      "longitude": "-90.11201278973255"
    }
  },
  {
    "service_request": "2021-847886",
    "request_type": "Trash/Recycling",
    "request_reason": "Return Recycling Cart",
    "date_created": "2021-12-13T20:06:12.000",
    "date_modified": "2021-12-13T21:00:50.000",
    "request_status": "Pending",
    "responsible_agency": "Department of Sanitation",
    "final_address": "1501 Robert E Lee Blvd",
    "address_councildis": "D",
    "status": "Pending",
    "rowid": "847886",
    "final_x": "3678318.7348",
    "final_y": "555441.167705",
    "longitude": "-90.077287621092",
    "latitude": "30.021366736680008",
    "geocoded_column": {
      "latitude": "30.021366736680008",
      "longitude": "-90.077287621092"
    }
  },
  {
    "service_request": "2021-847885",
    "request_type": "Trash/Recycling",
    "request_reason": "Request a Large Item Pick Up",
    "date_created": "2021-12-13T20:04:05.000",
    "date_modified": "2021-12-13T21:00:51.000",
    "request_status": "Pending",
    "responsible_agency": "Department of Sanitation",
    "final_address": "1501 Robert E Lee Blvd",
    "address_councildis": "D",
    "status": "Assigned to Contractor",
    "contractor": "Metro Disposal",
    "rowid": "847885",
    "final_x": "3678318.7348",
    "final_y": "555441.167705",
    "longitude": "-90.077287621092",
    "latitude": "30.021366736680008",
    "geocoded_column": {
      "latitude": "30.021366736680008",
      "longitude": "-90.077287621092"
    }
  },
  {
    "service_request": "2021-847884",
    "request_type": "Safety & Permits",
    "request_reason": "Construction permit",
    "date_created": "2021-12-13T19:58:49.000",
    "date_modified": "2021-12-13T19:58:49.000",
    "request_status": "Pending",
    "responsible_agency": "Department of Code Enforcement",
    "final_address": "2508 Gladiolus St",
    "address_councildis": "D",
    "status": "Pending",
    "rowid": "847884",
    "final_x": "3686415.04367",
    "final_y": "547376.838737",
    "longitude": "-90.05199050611235",
    "latitude": "29.99894626346455",
    "geocoded_column": {
      "latitude": "29.99894626346455",
      "longitude": "-90.05199050611235"
    }
  },
  {
    "service_request": "2021-847882",
    "request_type": "Property Maintenance",
    "request_reason": "Property Maintenance",
    "date_created": "2021-12-13T19:38:33.000",
    "date_modified": "2021-12-13T19:38:33.000",
    "request_status": "Pending",
    "responsible_agency": "Department of Code Enforcement",
    "final_address": "5700 Campus Blvd",
    "address_councildis": "D",
    "status": "Pending",
    "rowid": "847882",
    "final_x": "3688816.27164",
    "final_y": "554389.254616",
    "longitude": "-90.04415577851262",
    "latitude": "30.018153783504978",
    "geocoded_column": {
      "latitude": "30.018153783504978",
      "longitude": "-90.04415577851262"
    }
  },
  {
    "service_request": "2021-847881",
    "request_type": "Traffic Signals/Signs/Striping/Streetlights",
    "request_reason": "Street Light Outage/Malfunction",
    "date_created": "2021-12-13T18:43:57.000",
    "date_modified": "2021-12-13T18:43:58.000",
    "request_status": "Pending",
    "responsible_agency": "Department of Public Works",
    "final_address": "7700 Hickory St",
    "address_councildis": "A",
    "status": "Pending",
    "contractor": "Royal Engineering",
    "rowid": "847881",
    "final_x": "3664424.43968",
    "final_y": "528931.9216",
    "longitude": "-90.12207541915619",
    "latitude": "29.948886713991413",
    "geocoded_column": {
      "latitude": "29.948886713991413",
      "longitude": "-90.12207541915619"
    }
  },
  {
    "service_request": "2021-847880",
    "request_type": "Trash/Recycling",
    "request_reason": "Request a Large Item Pick Up",
    "date_created": "2021-12-13T18:43:24.000",
    "date_modified": "2021-12-13T18:43:24.000",
    "request_status": "Pending",
    "responsible_agency": "Department of Sanitation",
    "final_address": "822 Louisiana Ave",
    "address_councildis": "B",
    "status": "Assigned to Contractor",
    "contractor": "Richards Disposal",
    "rowid": "847880",
    "final_x": "3675313.98043",
    "final_y": "518775.435895",
    "longitude": "-90.08804092341875",
    "latitude": "29.920638677610395",
    "geocoded_column": {
      "latitude": "29.920638677610395",
      "longitude": "-90.08804092341875"
    }
  },
  {
    "service_request": "2021-847879",
    "request_type": "Traffic Signals/Signs/Striping/Streetlights",
    "request_reason": "Street Light Outage/Malfunction",
    "date_created": "2021-12-13T18:42:29.000",
    "date_modified": "2021-12-13T19:00:35.000",
    "request_status": "Pending",
    "responsible_agency": "Department of Public Works",
    "final_address": "118 N Olympia St",
    "address_councildis": "A",
    "status": "Pending",
    "contractor": "Royal Engineering",
    "rowid": "847879",
    "final_x": "3669643.43182",
    "final_y": "539752.49089",
    "longitude": "-90.10523058579287",
    "latitude": "29.97848695221938",
    "geocoded_column": {
      "latitude": "29.97848695221938",
      "longitude": "-90.10523058579287"
    }
  },
  {
    "service_request": "2021-847878",
    "request_type": "Traffic Signals/Signs/Striping/Streetlights",
    "request_reason": "Street Light Outage/Malfunction",
    "date_created": "2021-12-13T18:41:21.000",
    "date_modified": "2021-12-13T18:41:22.000",
    "request_status": "Pending",
    "responsible_agency": "Department of Public Works",
    "final_address": "8000 Birch St",
    "address_councildis": "A",
    "status": "Pending",
    "contractor": "Royal Engineering",
    "rowid": "847878",
    "final_x": "3663167.78163",
    "final_y": "529128.104768",
    "longitude": "-90.12603672226415",
    "latitude": "29.94946262143577",
    "geocoded_column": {
      "latitude": "29.94946262143577",
      "longitude": "-90.12603672226415"
    }
  },
  {
    "service_request": "2021-847877",
    "request_type": "Abandoned Vehicles",
    "request_reason": "Abandoned/Junk Vehicles",
    "date_created": "2021-12-13T18:40:52.000",
    "date_modified": "2021-12-13T19:00:38.000",
    "request_status": "Pending",
    "responsible_agency": "Department of Public Works",
    "final_address": "1351 Tchoupitoulas St Lot I",
    "address_councildis": "B",
    "status": "Pending",
    "rowid": "847877",
    "final_x": "3681942.95311",
    "final_y": "524658.860732",
    "longitude": "-90.06691108529611",
    "latitude": "29.936616397794364",
    "geocoded_column": {
      "latitude": "29.936616397794364",
      "longitude": "-90.06691108529611"
    }
  },
  {
    "service_request": "2021-847876",
    "request_type": "Traffic Signals/Signs/Striping/Streetlights",
    "request_reason": "Street Light Outage/Malfunction",
    "date_created": "2021-12-13T18:39:15.000",
    "date_modified": "2021-12-13T18:39:16.000",
    "request_status": "Pending",
    "responsible_agency": "Department of Public Works",
    "final_address": "3205 Fern St",
    "address_councildis": "B",
    "status": "Pending",
    "contractor": "Royal Engineering",
    "rowid": "847876",
    "final_x": "3667414.85607",
    "final_y": "533165.459268",
    "longitude": "-90.11249093253848",
    "latitude": "29.960440297731015",
    "geocoded_column": {
      "latitude": "29.960440297731015",
      "longitude": "-90.11249093253848"
    }
  },
  {
    "service_request": "2021-847874",
    "request_type": "Property Maintenance",
    "request_reason": "Property Maintenance",
    "date_created": "2021-12-13T18:22:03.000",
    "date_modified": "2021-12-13T18:22:03.000",
    "request_status": "Pending",
    "responsible_agency": "Department of Code Enforcement",
    "final_address": "3425 Milan St",
    "address_councildis": "B",
    "status": "Pending",
    "rowid": "847874",
    "final_x": "3670982.61595",
    "final_y": "527518.452479",
    "longitude": "-90.10141636215917",
    "latitude": "29.944807883564152",
    "geocoded_column": {
      "latitude": "29.944807883564152",
      "longitude": "-90.10141636215917"
    }
  },
  {
    "service_request": "2021-847873",
    "request_type": "Abandoned Vehicles",
    "request_reason": "Abandoned/Junk Vehicles",
    "date_created": "2021-12-13T17:48:52.000",
    "date_modified": "2021-12-13T18:00:40.000",
    "request_status": "Pending",
    "responsible_agency": "Department of Public Works",
    "final_address": "3718 S Johnson St",
    "address_councildis": "B",
    "status": "Pending",
    "rowid": "847873",
    "final_x": "3671325.75297",
    "final_y": "527301.171903",
    "longitude": "-90.10034035447862",
    "latitude": "29.944200284557304",
    "geocoded_column": {
      "latitude": "29.944200284557304",
      "longitude": "-90.10034035447862"
    }
  },
  {
    "service_request": "2021-847872",
    "request_type": "Trash/Recycling",
    "request_reason": "Illegal Dumping",
    "date_created": "2021-12-13T17:30:57.000",
    "date_modified": "2021-12-13T18:00:41.000",
    "request_status": "Pending",
    "responsible_agency": "Department of Sanitation",
    "final_address": "800 Dearmas St",
    "address_councildis": "C",
    "status": "Pending",
    "rowid": "847872",
    "final_x": "3687909.02198",
    "final_y": "527245.593343",
    "longitude": "-90.04798439464358",
    "latitude": "29.943546377705776",
    "geocoded_column": {
      "latitude": "29.943546377705776",
      "longitude": "-90.04798439464358"
    }
  },
  {
    "service_request": "2021-847871",
    "request_type": "Trash/Recycling",
    "request_reason": "Request a Large Item Pick Up",
    "date_created": "2021-12-13T17:24:43.000",
    "date_modified": "2021-12-13T18:00:42.000",
    "request_status": "Pending",
    "responsible_agency": "Department of Sanitation",
    "final_address": "1129 Belleville St",
    "address_councildis": "C",
    "status": "Assigned to Contractor",
    "contractor": "Richards Disposal",
    "rowid": "847871",
    "final_x": "3687696.24559",
    "final_y": "527313.103487",
    "longitude": "-90.04865379394391",
    "latitude": "29.943738568910337",
    "geocoded_column": {
      "latitude": "29.943738568910337",
      "longitude": "-90.04865379394391"
    }
  },
  {
    "service_request": "2021-847870",
    "request_type": "Trash/Recycling",
    "request_reason": "Missed Trash Pick-Up",
    "date_created": "2021-12-13T17:03:56.000",
    "date_modified": "2021-12-13T18:00:43.000",
    "request_status": "Pending",
    "responsible_agency": "Department of Sanitation",
    "final_address": "137 18th St, New Orleans, Louisiana, 70124",
    "address_councildis": "A",
    "status": "Assigned to Contractor",
    "contractor": "Metro Disposal",
    "rowid": "847870",
    "final_x": "3665853.21914",
    "final_y": "548745.660435",
    "longitude": "-90.11689998103903",
    "latitude": "30.00332626285679",
    "geocoded_column": {
      "latitude": "30.00332626285679",
      "longitude": "-90.11689998103903"
    }
  },
  {
    "service_request": "2021-847869",
    "request_type": "Parks & Parkways",
    "request_reason": "Request Tree Service (Right of Way/Public Property)",
    "date_created": "2021-12-13T16:52:56.000",
    "date_modified": "2021-12-13T16:52:56.000",
    "request_status": "Pending",
    "responsible_agency": "Department of Parks & Parkway",
    "final_address": "6126 St Charles Ave",
    "address_councildis": "A",
    "status": "Pending",
    "rowid": "847869",
    "final_x": "3665161.1241",
    "final_y": "522786.34617",
    "longitude": "-90.11995485912246",
    "latitude": "29.93196691485094",
    "geocoded_column": {
      "latitude": "29.93196691485094",
      "longitude": "-90.11995485912246"
    }
  },
  {
    "service_request": "2021-847868",
    "request_type": "Property Maintenance",
    "request_reason": "Property Maintenance",
    "date_created": "2021-12-13T16:46:32.000",
    "date_modified": "2021-12-13T16:48:40.000",
    "request_status": "Pending",
    "responsible_agency": "Department of Code Enforcement",
    "final_address": "4600 Rhodes Dr",
    "address_councildis": "E",
    "status": "Pending",
    "rowid": "847868",
    "final_x": "3702566.05751",
    "final_y": "553524.343255",
    "longitude": "-90.0007437258817",
    "latitude": "30.01534307816274",
    "geocoded_column": {
      "latitude": "30.01534307816274",
      "longitude": "-90.0007437258817"
    }
  },
  {
    "service_request": "2021-847867",
    "request_type": "Trash/Recycling",
    "request_reason": "Order Trash Cart",
    "date_created": "2021-12-13T16:45:56.000",
    "date_modified": "2021-12-13T17:00:41.000",
    "request_status": "Pending",
    "responsible_agency": "Department of Sanitation",
    "final_address": "New Orleans,LA",
    "status": "Assigned to Contractor",
    "rowid": "847867",
    "longitude": "0.0",
    "latitude": "0.0",
    "geocoded_column": {
      "latitude": "0.0",
      "longitude": "0.0"
    }
  },
  {
    "service_request": "2021-847866",
    "request_type": "Traffic Signals/Signs/Striping/Streetlights",
    "request_reason": "Street Light Outage/Malfunction",
    "date_created": "2021-12-13T16:40:13.000",
    "date_modified": "2021-12-13T17:00:43.000",
    "request_status": "Pending",
    "responsible_agency": "Department of Public Works",
    "final_address": "6112 Stratford Pl",
    "address_councildis": "C",
    "status": "Pending",
    "contractor": "Royal Engineering",
    "rowid": "847866",
    "final_x": "3706480.31639",
    "final_y": "516240.199924",
    "longitude": "-89.98975788035776",
    "latitude": "29.912699516260176",
    "geocoded_column": {
      "latitude": "29.912699516260176",
      "longitude": "-89.98975788035776"
    }
  },
  {
    "service_request": "2021-847865",
    "request_type": "Traffic Signals/Signs/Striping/Streetlights",
    "request_reason": "Street Light Outage/Malfunction",
    "date_created": "2021-12-13T16:39:52.000",
    "date_modified": "2021-12-13T17:00:44.000",
    "request_status": "Pending",
    "responsible_agency": "Department of Public Works",
    "final_address": "6112 Stratford Pl",
    "address_councildis": "C",
    "status": "Pending",
    "contractor": "Royal Engineering",
    "rowid": "847865",
    "final_x": "3706480.31639",
    "final_y": "516240.199924",
    "longitude": "-89.98975788035776",
    "latitude": "29.912699516260176",
    "geocoded_column": {
      "latitude": "29.912699516260176",
      "longitude": "-89.98975788035776"
    }
  },
  {
    "service_request": "2021-847864",
    "request_type": "Traffic Signals/Signs/Striping/Streetlights",
    "request_reason": "Street Light Outage/Malfunction",
    "date_created": "2021-12-13T16:39:31.000",
    "date_modified": "2021-12-13T17:00:46.000",
    "request_status": "Pending",
    "responsible_agency": "Department of Public Works",
    "final_address": "6112 Stratford Pl",
    "address_councildis": "C",
    "status": "Pending",
    "contractor": "Royal Engineering",
    "rowid": "847864",
    "final_x": "3706480.31639",
    "final_y": "516240.199924",
    "longitude": "-89.98975788035776",
    "latitude": "29.912699516260176",
    "geocoded_column": {
      "latitude": "29.912699516260176",
      "longitude": "-89.98975788035776"
    }
  },
  {
    "service_request": "2021-847863",
    "request_type": "Traffic Signals/Signs/Striping/Streetlights",
    "request_reason": "Street Light Outage/Malfunction",
    "date_created": "2021-12-13T16:39:10.000",
    "date_modified": "2021-12-13T17:00:47.000",
    "request_status": "Pending",
    "responsible_agency": "Department of Public Works",
    "final_address": "6112 Stratford Pl",
    "address_councildis": "C",
    "status": "Pending",
    "contractor": "Royal Engineering",
    "rowid": "847863",
    "final_x": "3706480.31639",
    "final_y": "516240.199924",
    "longitude": "-89.98975788035776",
    "latitude": "29.912699516260176",
    "geocoded_column": {
      "latitude": "29.912699516260176",
      "longitude": "-89.98975788035776"
    }
  },
  {
    "service_request": "2021-847862",
    "request_type": "Traffic Signals/Signs/Striping/Streetlights",
    "request_reason": "Street Light Outage/Malfunction",
    "date_created": "2021-12-13T16:38:14.000",
    "date_modified": "2021-12-13T17:00:48.000",
    "request_status": "Pending",
    "responsible_agency": "Department of Public Works",
    "final_address": "6112 Stratford Pl",
    "address_councildis": "C",
    "status": "Pending",
    "contractor": "Royal Engineering",
    "rowid": "847862",
    "final_x": "3706480.31639",
    "final_y": "516240.199924",
    "longitude": "-89.98975788035776",
    "latitude": "29.912699516260176",
    "geocoded_column": {
      "latitude": "29.912699516260176",
      "longitude": "-89.98975788035776"
    }
  },
  {
    "service_request": "2021-847861",
    "request_type": "Roads/Drainage",
    "request_reason": "Debris in Roadway",
    "date_created": "2021-12-13T16:36:31.000",
    "date_modified": "2021-12-13T16:36:31.000",
    "request_status": "Pending",
    "responsible_agency": "Department of Public Works",
    "final_address": "4918 Mendez St",
    "address_councildis": "D",
    "status": "Pending",
    "rowid": "847861",
    "final_x": "3691701.95772",
    "final_y": "554415.856024",
    "longitude": "-90.03503717902002",
    "latitude": "30.018137340310957",
    "geocoded_column": {
      "latitude": "30.018137340310957",
      "longitude": "-90.03503717902002"
    }
  },
  {
    "service_request": "2021-847860",
    "request_type": "Trash/Recycling",
    "request_reason": "Illegal Dumping",
    "date_created": "2021-12-13T16:32:39.000",
    "date_modified": "2021-12-13T16:32:39.000",
    "request_status": "Pending",
    "responsible_agency": "Department of Sanitation",
    "final_address": "733 Whitney Ave",
    "address_councildis": "C",
    "status": "Pending",
    "rowid": "847860",
    "final_x": "3690120.99913",
    "final_y": "528713.008384",
    "longitude": "-90.04094837160913",
    "latitude": "29.94751285385595",
    "geocoded_column": {
      "latitude": "29.94751285385595",
      "longitude": "-90.04094837160913"
    }
  },
  {
    "service_request": "2021-847859",
    "request_type": "Traffic Signals/Signs/Striping/Streetlights",
    "request_reason": "Street Light Outage/Malfunction",
    "date_created": "2021-12-13T16:29:58.000",
    "date_modified": "2021-12-13T17:00:49.000",
    "request_status": "Pending",
    "responsible_agency": "Department of Public Works",
    "final_address": "3600 BLK Elaine Pl",
    "address_councildis": "A",
    "status": "Pending",
    "contractor": "Royal Engineering",
    "rowid": "847859",
    "final_x": "3674200.98457",
    "final_y": "539408.576154",
    "longitude": "-90.09084791565428",
    "latitude": "29.977406203325305",
    "geocoded_column": {
      "latitude": "29.977406203325305",
      "longitude": "-90.09084791565428"
    }
  },
  {
    "service_request": "2021-847858",
    "request_type": "Traffic Signals/Signs/Striping/Streetlights",
    "request_reason": "Street Light Outage/Malfunction",
    "date_created": "2021-12-13T16:29:42.000",
    "date_modified": "2021-12-13T17:00:50.000",
    "request_status": "Pending",
    "responsible_agency": "Department of Public Works",
    "final_address": "3600 BLK Elaine Pl",
    "address_councildis": "A",
    "status": "Pending",
    "contractor": "Royal Engineering",
    "rowid": "847858",
    "final_x": "3674200.98457",
    "final_y": "539408.576154",
    "longitude": "-90.09084791565428",
    "latitude": "29.977406203325305",
    "geocoded_column": {
      "latitude": "29.977406203325305",
      "longitude": "-90.09084791565428"
    }
  },
  {
    "service_request": "2021-847857",
    "request_type": "Traffic Signals/Signs/Striping/Streetlights",
    "request_reason": "Street Light Outage/Malfunction",
    "date_created": "2021-12-13T16:29:23.000",
    "date_modified": "2021-12-13T17:00:52.000",
    "request_status": "Pending",
    "responsible_agency": "Department of Public Works",
    "final_address": "3600 BLK Elaine Pl",
    "address_councildis": "A",
    "status": "Pending",
    "contractor": "Royal Engineering",
    "rowid": "847857",
    "final_x": "3674200.98457",
    "final_y": "539408.576154",
    "longitude": "-90.09084791565428",
    "latitude": "29.977406203325305",
    "geocoded_column": {
      "latitude": "29.977406203325305",
      "longitude": "-90.09084791565428"
    }
  },
  {
    "service_request": "2021-847856",
    "request_type": "Traffic Signals/Signs/Striping/Streetlights",
    "request_reason": "Street Light Outage/Malfunction",
    "date_created": "2021-12-13T16:29:00.000",
    "date_modified": "2021-12-13T17:00:53.000",
    "request_status": "Pending",
    "responsible_agency": "Department of Public Works",
    "final_address": "3600 BLK Elaine Pl",
    "address_councildis": "A",
    "status": "Pending",
    "contractor": "Royal Engineering",
    "rowid": "847856",
    "final_x": "3674200.98457",
    "final_y": "539408.576154",
    "longitude": "-90.09084791565428",
    "latitude": "29.977406203325305",
    "geocoded_column": {
      "latitude": "29.977406203325305",
      "longitude": "-90.09084791565428"
    }
  },
  {
    "service_request": "2021-847854",
    "request_type": "Trash/Recycling",
    "request_reason": "Request a Large Item Pick Up",
    "date_created": "2021-12-13T16:28:14.000",
    "date_modified": "2021-12-13T17:00:54.000",
    "request_status": "Pending",
    "responsible_agency": "Department of Sanitation",
    "final_address": "1305 Cambronne St",
    "address_councildis": "A",
    "status": "Assigned to Contractor",
    "contractor": "Richards Disposal",
    "rowid": "847854",
    "final_x": "3661477.68294",
    "final_y": "529381.152577",
    "longitude": "-90.13136476945115",
    "latitude": "29.950207278190852",
    "geocoded_column": {
      "latitude": "29.950207278190852",
      "longitude": "-90.13136476945115"
    }
  },
  {
    "service_request": "2021-847853",
    "request_type": "Traffic Signals/Signs/Striping/Streetlights",
    "request_reason": "Street Light Knocked Down/Leaning",
    "date_created": "2021-12-13T16:27:41.000",
    "date_modified": "2021-12-13T16:27:42.000",
    "request_status": "Pending",
    "responsible_agency": "Department of Public Works",
    "final_address": "1313 Dauphine St",
    "address_councildis": "C",
    "status": "Pending",
    "contractor": "Royal Engineering",
    "rowid": "847853",
    "final_x": "3683346.63855",
    "final_y": "534767.745734",
    "longitude": "-90.06212553700524",
    "latitude": "29.96436967420662",
    "geocoded_column": {
      "latitude": "29.96436967420662",
      "longitude": "-90.06212553700524"
    }
  },
  {
    "service_request": "2021-847852",
    "request_type": "Traffic Signals/Signs/Striping/Streetlights",
    "request_reason": "Street Light Knocked Down/Leaning",
    "date_created": "2021-12-13T16:27:25.000",
    "date_modified": "2021-12-13T17:00:55.000",
    "request_status": "Pending",
    "responsible_agency": "Department of Public Works",
    "final_address": "3607 Elaine Pl",
    "address_councildis": "A",
    "status": "Pending",
    "contractor": "Royal Engineering",
    "rowid": "847852",
    "final_x": "3674253.98286",
    "final_y": "539450.804746",
    "longitude": "-90.09067908273096",
    "latitude": "29.977520737234975",
    "geocoded_column": {
      "latitude": "29.977520737234975",
      "longitude": "-90.09067908273096"
    }
  },
  {
    "service_request": "2021-847851",
    "request_type": "Trash/Recycling",
    "request_reason": "Illegal Dumping",
    "date_created": "2021-12-13T16:26:45.000",
    "date_modified": "2021-12-13T16:26:45.000",
    "request_status": "Pending",
    "responsible_agency": "Department of Sanitation",
    "final_address": "307 Whitney Ave",
    "address_councildis": "C",
    "status": "Pending",
    "rowid": "847851",
    "final_x": "3690184.77161",
    "final_y": "530592.184834",
    "longitude": "-90.04068008293709",
    "latitude": "29.952677964016527",
    "geocoded_column": {
      "latitude": "29.952677964016527",
      "longitude": "-90.04068008293709"
    }
  },
  {
    "service_request": "2021-847850",
    "request_type": "Trash/Recycling",
    "request_reason": "Request a Large Item Pick Up",
    "date_created": "2021-12-13T16:26:37.000",
    "date_modified": "2021-12-13T16:26:37.000",
    "request_status": "Pending",
    "responsible_agency": "Department of Sanitation",
    "final_address": "7700 Lucerne St",
    "address_councildis": "E",
    "status": "Assigned to Contractor",
    "contractor": "Metro Disposal",
    "rowid": "847850",
    "final_x": "3710499.07518",
    "final_y": "566249.638563",
    "longitude": "-89.97520278104568",
    "latitude": "30.050076531565757",
    "geocoded_column": {
      "latitude": "30.050076531565757",
      "longitude": "-89.97520278104568"
    }
  },
  {
    "service_request": "2021-847849",
    "request_type": "Traffic Signals/Signs/Striping/Streetlights",
    "request_reason": "Street Light Outage/Malfunction",
    "date_created": "2021-12-13T16:23:15.000",
    "date_modified": "2021-12-13T17:00:57.000",
    "request_status": "Pending",
    "responsible_agency": "Department of Public Works",
    "final_address": "S NORMAN C FRANCIS PKWY & GRAVIER ST",
    "address_councildis": "B",
    "status": "Pending",
    "contractor": "Royal Engineering",
    "rowid": "847849",
    "final_x": "3671663.7",
    "final_y": "534538.28",
    "longitude": "-90.09902722046705",
    "latitude": "29.964089936811025",
    "geocoded_column": {
      "latitude": "29.964089936811025",
      "longitude": "-90.09902722046705"
    }
  },
  {
    "service_request": "2021-847848",
    "request_type": "Traffic Signals/Signs/Striping/Streetlights",
    "request_reason": "Street Light Outage/Malfunction",
    "date_created": "2021-12-13T16:21:41.000",
    "date_modified": "2021-12-13T17:00:58.000",
    "request_status": "Pending",
    "responsible_agency": "Department of Public Works",
    "final_address": "DREXEL DR & S NORMAN C FRANCIS PKWY & NORMAN C FRANCIS OVERPASS",
    "address_councildis": "B",
    "status": "Pending",
    "contractor": "Royal Engineering",
    "rowid": "847848",
    "final_x": "3670779.0",
    "final_y": "533283.58",
    "longitude": "-90.10186361549945",
    "latitude": "29.96066610422205",
    "geocoded_column": {
      "latitude": "29.96066610422205",
      "longitude": "-90.10186361549945"
    }
  },
  {
    "service_request": "2021-847846",
    "request_type": "Traffic Signals/Signs/Striping/Streetlights",
    "request_reason": "Street Light Outage/Malfunction",
    "date_created": "2021-12-13T16:13:38.000",
    "date_modified": "2021-12-13T17:01:01.000",
    "request_status": "Pending",
    "responsible_agency": "Department of Public Works",
    "final_address": "400 S Norman C Francis Prkwy",
    "address_councildis": "B",
    "status": "Pending",
    "contractor": "Royal Engineering",
    "rowid": "847846",
    "final_x": "3672559.88475",
    "final_y": "535592.16871",
    "longitude": "-90.09616120876072",
    "latitude": "29.966961202127123",
    "geocoded_column": {
      "latitude": "29.966961202127123",
      "longitude": "-90.09616120876072"
    }
  },
  {
    "service_request": "2021-847845",
    "request_type": "Traffic Signals/Signs/Striping/Streetlights",
    "request_reason": "Street Light Outage/Malfunction",
    "date_created": "2021-12-13T16:13:13.000",
    "date_modified": "2021-12-13T17:01:02.000",
    "request_status": "Pending",
    "responsible_agency": "Department of Public Works",
    "final_address": "400 S Norman C Francis Prkwy",
    "address_councildis": "B",
    "status": "Pending",
    "contractor": "Royal Engineering",
    "rowid": "847845",
    "final_x": "3672559.88475",
    "final_y": "535592.16871",
    "longitude": "-90.09616120876072",
    "latitude": "29.966961202127123",
    "geocoded_column": {
      "latitude": "29.966961202127123",
      "longitude": "-90.09616120876072"
    }
  },
  {
    "service_request": "2021-847844",
    "request_type": "Traffic Signals/Signs/Striping/Streetlights",
    "request_reason": "Street Light Outage/Malfunction",
    "date_created": "2021-12-13T16:12:52.000",
    "date_modified": "2021-12-13T17:01:03.000",
    "request_status": "Pending",
    "responsible_agency": "Department of Public Works",
    "final_address": "400 S Norman C Francis Prkwy",
    "address_councildis": "B",
    "status": "Pending",
    "contractor": "Royal Engineering",
    "rowid": "847844",
    "final_x": "3672559.88475",
    "final_y": "535592.16871",
    "longitude": "-90.09616120876072",
    "latitude": "29.966961202127123",
    "geocoded_column": {
      "latitude": "29.966961202127123",
      "longitude": "-90.09616120876072"
    }
  },
  {
    "service_request": "2021-847843",
    "request_type": "Abandoned Vehicles",
    "request_reason": "Abandoned/Junk Vehicles",
    "date_created": "2021-12-13T16:11:08.000",
    "date_modified": "2021-12-13T17:01:07.000",
    "request_status": "Pending",
    "responsible_agency": "Department of Public Works",
    "final_address": "THALIA ST & S DERBIGNY ST",
    "address_councildis": "B",
    "status": "Pending",
    "rowid": "847843",
    "final_x": "3674927.1",
    "final_y": "528594.68",
    "longitude": "-90.0889255169288",
    "latitude": "29.94764995671278",
    "geocoded_column": {
      "latitude": "29.94764995671278",
      "longitude": "-90.0889255169288"
    }
  },
  {
    "service_request": "2021-847842",
    "request_type": "Traffic Signals/Signs/Striping/Streetlights",
    "request_reason": "Street Light Outage/Malfunction",
    "date_created": "2021-12-13T16:10:18.000",
    "date_modified": "2021-12-13T17:01:08.000",
    "request_status": "Pending",
    "responsible_agency": "Department of Public Works",
    "final_address": "S NORMAN C FRANCIS PKWY & DHEMECOURT ST",
    "address_councildis": "B",
    "status": "Pending",
    "contractor": "Royal Engineering",
    "rowid": "847842",
    "final_x": "3671940.5",
    "final_y": "535213.18",
    "longitude": "-90.09813013364315",
    "latitude": "29.965937484228466",
    "geocoded_column": {
      "latitude": "29.965937484228466",
      "longitude": "-90.09813013364315"
    }
  },
  {
    "service_request": "2021-847841",
    "request_type": "Traffic Signals/Signs/Striping/Streetlights",
    "request_reason": "Street Light Outage/Malfunction",
    "date_created": "2021-12-13T16:09:52.000",
    "date_modified": "2021-12-13T17:01:09.000",
    "request_status": "Pending",
    "responsible_agency": "Department of Public Works",
    "final_address": "S NORMAN C FRANCIS PKWY & DHEMECOURT ST",
    "address_councildis": "B",
    "status": "Pending",
    "contractor": "Royal Engineering",
    "rowid": "847841",
    "final_x": "3671940.5",
    "final_y": "535213.18",
    "longitude": "-90.09813013364315",
    "latitude": "29.965937484228466",
    "geocoded_column": {
      "latitude": "29.965937484228466",
      "longitude": "-90.09813013364315"
    }
  },
  {
    "service_request": "2021-847840",
    "request_type": "Traffic Signals/Signs/Striping/Streetlights",
    "request_reason": "Street Light Outage/Malfunction",
    "date_created": "2021-12-13T16:09:11.000",
    "date_modified": "2021-12-13T17:01:10.000",
    "request_status": "Pending",
    "responsible_agency": "Department of Public Works",
    "final_address": "S NORMAN C FRANCIS PKWY & DHEMECOURT ST",
    "address_councildis": "B",
    "status": "Pending",
    "contractor": "Royal Engineering",
    "rowid": "847840",
    "final_x": "3671940.5",
    "final_y": "535213.18",
    "longitude": "-90.09813013364315",
    "latitude": "29.965937484228466",
    "geocoded_column": {
      "latitude": "29.965937484228466",
      "longitude": "-90.09813013364315"
    }
  },
  {
    "service_request": "2021-847839",
    "request_type": "Traffic Signals/Signs/Striping/Streetlights",
    "request_reason": "Request for Stop Sign",
    "date_created": "2021-12-13T16:04:19.000",
    "date_modified": "2021-12-13T17:01:12.000",
    "request_status": "Pending",
    "responsible_agency": "Department of Public Works",
    "final_address": "COHN ST & EAGLE ST",
    "address_councildis": "A",
    "status": "Pending",
    "rowid": "847839",
    "final_x": "3661786.3",
    "final_y": "531862.28",
    "longitude": "-90.13030806375723",
    "latitude": "29.95702067377058",
    "geocoded_column": {
      "latitude": "29.95702067377058",
      "longitude": "-90.13030806375723"
    }
  },
  {
    "service_request": "2021-847838",
    "request_type": "Traffic Signals/Signs/Striping/Streetlights",
    "request_reason": "Traffic Sign Missing/Damaged",
    "date_created": "2021-12-13T16:03:08.000",
    "date_modified": "2021-12-13T16:03:08.000",
    "request_status": "Pending",
    "responsible_agency": "Department of Public Works",
    "final_address": "605 Toulouse St",
    "address_councildis": "C",
    "status": "Pending",
    "rowid": "847838",
    "final_x": "3682565.89852",
    "final_y": "532005.795907",
    "longitude": "-90.06468761758097",
    "latitude": "29.95679904999362",
    "geocoded_column": {
      "latitude": "29.95679904999362",
      "longitude": "-90.06468761758097"
    }
  },
  {
    "service_request": "2021-847837",
    "request_type": "Trash/Recycling",
    "request_reason": "Request a Large Item Pick Up",
    "date_created": "2021-12-13T16:02:42.000",
    "date_modified": "2021-12-13T17:01:13.000",
    "request_status": "Pending",
    "responsible_agency": "Department of Sanitation",
    "final_address": "1023 Foucher St",
    "address_councildis": "B",
    "status": "Assigned to Contractor",
    "contractor": "Richards Disposal",
    "rowid": "847837",
    "final_x": "3674264.92974",
    "final_y": "519143.618679",
    "longitude": "-90.09133969896322",
    "latitude": "29.92168236972631",
    "geocoded_column": {
      "latitude": "29.92168236972631",
      "longitude": "-90.09133969896322"
    }
  },
  {
    "service_request": "2021-847836",
    "request_type": "Trash/Recycling",
    "request_reason": "Replace Trash Cart",
    "date_created": "2021-12-13T16:00:57.000",
    "date_modified": "2021-12-13T17:01:14.000",
    "request_status": "Pending",
    "responsible_agency": "Department of Sanitation",
    "final_address": "2919 Castiglione St",
    "address_councildis": "D",
    "status": "Assigned to Contractor",
    "contractor": "Metro Disposal",
    "rowid": "847836",
    "final_x": "3679229.34978",
    "final_y": "542440.065869",
    "longitude": "-90.07486150660526",
    "latitude": "29.98559086437853",
    "geocoded_column": {
      "latitude": "29.98559086437853",
      "longitude": "-90.07486150660526"
    }
  },
  {
    "service_request": "2021-847835",
    "request_type": "Property Maintenance",
    "request_reason": "Property Maintenance",
    "date_created": "2021-12-13T15:58:44.000",
    "date_modified": "2021-12-13T16:00:36.000",
    "request_status": "Pending",
    "responsible_agency": "Department of Code Enforcement",
    "final_address": "3701 Mansfield Ave",
    "address_councildis": "C",
    "status": "Pending",
    "rowid": "847835",
    "final_x": "3708942.3596",
    "final_y": "517373.531829",
    "longitude": "-89.98194485150553",
    "latitude": "29.9157361748237",
    "geocoded_column": {
      "latitude": "29.9157361748237",
      "longitude": "-89.98194485150553"
    }
  },
  {
    "service_request": "2021-847834",
    "request_type": "Traffic Signals/Signs/Striping/Streetlights",
    "request_reason": "Request for Stop Sign",
    "date_created": "2021-12-13T15:55:44.000",
    "date_modified": "2021-12-13T16:00:40.000",
    "request_status": "Pending",
    "responsible_agency": "Department of Public Works",
    "final_address": "Nelson St & Monroe St, New Orleans, Louisiana, 70118",
    "status": "Pending",
    "rowid": "847834",
    "longitude": "0.0",
    "latitude": "0.0",
    "geocoded_column": {
      "latitude": "0.0",
      "longitude": "0.0"
    }
  },
  {
    "service_request": "2021-847833",
    "request_type": "Roads/Drainage",
    "request_reason": "Pothole",
    "date_created": "2021-12-13T15:51:42.000",
    "date_modified": "2021-12-13T15:51:42.000",
    "request_status": "Pending",
    "responsible_agency": "Department of Public Works",
    "final_address": "2001 Elysian Fields Ave",
    "address_councildis": "D",
    "status": "Pending",
    "rowid": "847833",
    "final_x": "3684853.99407",
    "final_y": "539663.065098",
    "longitude": "-90.05719326657642",
    "latitude": "29.977784031051165",
    "geocoded_column": {
      "latitude": "29.977784031051165",
      "longitude": "-90.05719326657642"
    }
  },
  {
    "service_request": "2021-847832",
    "request_type": "Traffic Signals/Signs/Striping/Streetlights",
    "request_reason": "Traffic Sign Missing/Damaged",
    "date_created": "2021-12-13T15:44:55.000",
    "date_modified": "2021-12-13T15:44:55.000",
    "request_status": "Pending",
    "responsible_agency": "Department of Public Works",
    "final_address": "CHARTRES ST & TOULOUSE ST",
    "address_councildis": "C",
    "status": "Pending",
    "rowid": "847832",
    "final_x": "3682604.6",
    "final_y": "531944.08",
    "longitude": "-90.06456756863",
    "latitude": "29.956628173994527",
    "geocoded_column": {
      "latitude": "29.956628173994527",
      "longitude": "-90.06456756863"
    }
  },
  {
    "service_request": "2021-847830",
    "request_type": "Trash/Recycling",
    "request_reason": "Start Trash Service",
    "date_created": "2021-12-13T15:38:00.000",
    "date_modified": "2021-12-13T16:00:45.000",
    "request_status": "Pending",
    "responsible_agency": "Department of Sanitation",
    "final_address": "6333 Annunciation St",
    "address_councildis": "A",
    "status": "Assigned to Contractor",
    "contractor": "Richards Disposal",
    "rowid": "847830",
    "final_x": "3662679.54279",
    "final_y": "518564.102071",
    "longitude": "-90.12792921160111",
    "latitude": "29.920429088660736",
    "geocoded_column": {
      "latitude": "29.920429088660736",
      "longitude": "-90.12792921160111"
    }
  },
  {
    "service_request": "2021-847829",
    "request_type": "Trash/Recycling",
    "request_reason": "Request a Large Item Pick Up",
    "date_created": "2021-12-13T15:33:19.000",
    "date_modified": "2021-12-13T15:33:19.000",
    "request_status": "Pending",
    "responsible_agency": "Department of Sanitation",
    "final_address": "5768 Wilton Dr",
    "address_councildis": "D",
    "status": "Assigned to Contractor",
    "contractor": "Metro Disposal",
    "rowid": "847829",
    "final_x": "3681682.79631",
    "final_y": "554525.631064",
    "longitude": "-90.06669009632147",
    "latitude": "30.01874752080159",
    "geocoded_column": {
      "latitude": "30.01874752080159",
      "longitude": "-90.06669009632147"
    }
  },
  {
    "service_request": "2021-847828",
    "request_type": "Trash/Recycling",
    "request_reason": "Request a Large Item Pick Up",
    "date_created": "2021-12-13T15:24:19.000",
    "date_modified": "2021-12-13T16:00:50.000",
    "request_status": "Pending",
    "responsible_agency": "Department of Sanitation",
    "final_address": "1224 Congress St",
    "address_councildis": "C",
    "status": "Assigned to Contractor",
    "contractor": "Metro Disposal",
    "rowid": "847828",
    "final_x": "3690821.96457",
    "final_y": "536136.893383",
    "longitude": "-90.03847027460986",
    "latitude": "29.967904197503834",
    "geocoded_column": {
      "latitude": "29.967904197503834",
      "longitude": "-90.03847027460986"
    }
  },
  {
    "service_request": "2021-847827",
    "request_type": "Trash/Recycling",
    "request_reason": "Request a Large Item Pick Up",
    "date_created": "2021-12-13T15:18:10.000",
    "date_modified": "2021-12-13T15:18:10.000",
    "request_status": "Pending",
    "responsible_agency": "Department of Sanitation",
    "final_address": "3113 Louisiana Avenue Prkwy",
    "address_councildis": "B",
    "status": "Assigned to Contractor",
    "contractor": "Richards Disposal",
    "rowid": "847827",
    "final_x": "3672130.69883",
    "final_y": "526729.63635",
    "longitude": "-90.09781836479425",
    "latitude": "29.94260490718634",
    "geocoded_column": {
      "latitude": "29.94260490718634",
      "longitude": "-90.09781836479425"
    }
  },
  {
    "service_request": "2021-847826",
    "request_type": "Trash/Recycling",
    "request_reason": "Request a Large Item Pick Up",
    "date_created": "2021-12-13T15:13:52.000",
    "date_modified": "2021-12-13T15:13:52.000",
    "request_status": "Pending",
    "responsible_agency": "Department of Sanitation",
    "final_address": "2115 Peniston St",
    "address_councildis": "B",
    "status": "Assigned to Contractor",
    "contractor": "Richards Disposal",
    "rowid": "847826",
    "final_x": "3672471.85179",
    "final_y": "523000.174075",
    "longitude": "-90.09686832407532",
    "latitude": "29.9323399783098",
    "geocoded_column": {
      "latitude": "29.9323399783098",
      "longitude": "-90.09686832407532"
    }
  },
  {
    "service_request": "2021-847824",
    "request_type": "Trash/Recycling",
    "request_reason": "Order Recycling Cart",
    "date_created": "2021-12-13T15:07:55.000",
    "date_modified": "2021-12-13T16:00:52.000",
    "request_status": "Pending",
    "responsible_agency": "Department of Sanitation",
    "final_address": "1839 Louisa St",
    "address_councildis": "D",
    "status": "Pending",
    "rowid": "847824",
    "final_x": "3690338.94838",
    "final_y": "538820.061065",
    "longitude": "-90.03990000049788",
    "latitude": "29.975296961618003",
    "geocoded_column": {
      "latitude": "29.975296961618003",
      "longitude": "-90.03990000049788"
    }
  },
  {
    "service_request": "2021-847823",
    "request_type": "Trash/Recycling",
    "request_reason": "Order Trash Cart",
    "date_created": "2021-12-13T15:05:50.000",
    "date_modified": "2021-12-13T16:00:54.000",
    "request_status": "Pending",
    "responsible_agency": "Department of Sanitation",
    "final_address": "1839 Louisa St",
    "address_councildis": "D",
    "status": "Assigned to Contractor",
    "contractor": "Metro Disposal",
    "rowid": "847823",
    "final_x": "3690338.94838",
    "final_y": "538820.061065",
    "longitude": "-90.03990000049788",
    "latitude": "29.975296961618003",
    "geocoded_column": {
      "latitude": "29.975296961618003",
      "longitude": "-90.03990000049788"
    }
  },
  {
    "service_request": "2021-847821",
    "request_type": "Trash/Recycling",
    "request_reason": "Request a Large Item Pick Up",
    "date_created": "2021-12-13T14:58:04.000",
    "date_modified": "2021-12-13T14:58:05.000",
    "request_status": "Pending",
    "responsible_agency": "Department of Sanitation",
    "final_address": "2318 Winthrop St",
    "address_councildis": "E",
    "status": "Assigned to Contractor",
    "contractor": "Metro Disposal",
    "rowid": "847821",
    "final_x": "3700406.62122",
    "final_y": "538123.950473",
    "longitude": "-90.00812924139349",
    "latitude": "29.973066585920034",
    "geocoded_column": {
      "latitude": "29.973066585920034",
      "longitude": "-90.00812924139349"
    }
  },
  {
    "service_request": "2021-847820",
    "request_type": "Trash/Recycling",
    "request_reason": "Request a Large Item Pick Up",
    "date_created": "2021-12-13T14:56:26.000",
    "date_modified": "2021-12-13T15:00:35.000",
    "request_status": "Pending",
    "responsible_agency": "Department of Sanitation",
    "final_address": "2629 S Carrollton Ave",
    "address_councildis": "A",
    "status": "Assigned to Contractor",
    "contractor": "Richards Disposal",
    "rowid": "847820",
    "final_x": "3665638.64736",
    "final_y": "532166.214275",
    "longitude": "-90.11813332478329",
    "latitude": "29.957744618307977",
    "geocoded_column": {
      "latitude": "29.957744618307977",
      "longitude": "-90.11813332478329"
    }
  },
  {
    "service_request": "2021-847818",
    "request_type": "Trash/Recycling",
    "request_reason": "Missed Trash Pick-Up",
    "date_created": "2021-12-13T14:52:14.000",
    "date_modified": "2021-12-13T15:00:42.000",
    "request_status": "Pending",
    "responsible_agency": "Department of Sanitation",
    "final_address": "425 S Gayoso St",
    "address_councildis": "B",
    "status": "Assigned to Contractor",
    "contractor": "Richards Disposal",
    "rowid": "847818",
    "final_x": "3673422.05044",
    "final_y": "534760.521286",
    "longitude": "-90.09346690102821",
    "latitude": "29.964648827081337",
    "geocoded_column": {
      "latitude": "29.964648827081337",
      "longitude": "-90.09346690102821"
    }
  },
  {
    "service_request": "2021-847817",
    "request_type": "Roads/Drainage",
    "request_reason": "Damaged Sidewalk",
    "date_created": "2021-12-13T14:50:53.000",
    "date_modified": "2021-12-13T15:00:45.000",
    "request_status": "Pending",
    "responsible_agency": "Department of Public Works",
    "final_address": "1600 BLK N Lopez St",
    "address_councildis": "A",
    "status": "Pending",
    "rowid": "847817",
    "final_x": "3676597.2511",
    "final_y": "540634.24201",
    "longitude": "-90.0832374685317",
    "latitude": "29.980704698467342",
    "geocoded_column": {
      "latitude": "29.980704698467342",
      "longitude": "-90.0832374685317"
    }
  },
  {
    "service_request": "2021-847815",
    "request_type": "Trash/Recycling",
    "request_reason": "Replace Trash Cart",
    "date_created": "2021-12-13T14:48:17.000",
    "date_modified": "2021-12-13T15:00:48.000",
    "request_status": "Pending",
    "responsible_agency": "Department of Sanitation",
    "final_address": "2530 Palmer Ave",
    "address_councildis": "A",
    "status": "Assigned to Contractor",
    "contractor": "Richards Disposal",
    "rowid": "847815",
    "final_x": "3666507.57914",
    "final_y": "526176.081982",
    "longitude": "-90.11559049956274",
    "latitude": "29.941248330668945",
    "geocoded_column": {
      "latitude": "29.941248330668945",
      "longitude": "-90.11559049956274"
    }
  },
  {
    "service_request": "2021-847814",
    "request_type": "Trash/Recycling",
    "request_reason": "Missed Trash Pick-Up",
    "date_created": "2021-12-13T14:36:54.000",
    "date_modified": "2021-12-13T15:00:53.000",
    "request_status": "Pending",
    "responsible_agency": "Department of Sanitation",
    "final_address": "1318 Killdeer St",
    "address_councildis": "D",
    "status": "Assigned to Contractor",
    "contractor": "Metro Disposal",
    "rowid": "847814",
    "final_x": "3677312.85672",
    "final_y": "556289.012122",
    "longitude": "-90.08043662902203",
    "latitude": "30.023728280635172",
    "geocoded_column": {
      "latitude": "30.023728280635172",
      "longitude": "-90.08043662902203"
    }
  },
  {
    "service_request": "2021-847813",
    "request_type": "Trash/Recycling",
    "request_reason": "Request a Large Item Pick Up",
    "date_created": "2021-12-13T14:31:20.000",
    "date_modified": "2021-12-13T15:00:59.000",
    "request_status": "Pending",
    "responsible_agency": "Department of Sanitation",
    "final_address": "New Orleans,LA",
    "address_councildis": "E",
    "status": "Assigned to Contractor",
    "contractor": "Metro Disposal",
    "rowid": "847813",
    "final_x": "3700567.51575",
    "final_y": "557884.815643",
    "longitude": "-90.00689866171606",
    "latitude": "30.02739646652489",
    "geocoded_column": {
      "latitude": "30.02739646652489",
      "longitude": "-90.00689866171606"
    }
  },
  {
    "service_request": "2021-847812",
    "request_type": "Trash/Recycling",
    "request_reason": "Repair Trash Cart",
    "date_created": "2021-12-13T14:25:50.000",
    "date_modified": "2021-12-13T14:25:58.000",
    "request_status": "Pending",
    "responsible_agency": "Department of Sanitation",
    "final_address": "3104 Cleveland Ave",
    "address_councildis": "B",
    "status": "Assigned to Contractor",
    "contractor": "Richards Disposal",
    "rowid": "847812",
    "final_x": "3673739.98625",
    "final_y": "535749.360519",
    "longitude": "-90.09242906291776",
    "latitude": "29.967358338653828",
    "geocoded_column": {
      "latitude": "29.967358338653828",
      "longitude": "-90.09242906291776"
    }
  },
  {
    "service_request": "2021-847811",
    "request_type": "Roads/Drainage",
    "request_reason": "Pothole",
    "date_created": "2021-12-13T14:23:14.000",
    "date_modified": "2021-12-13T15:01:00.000",
    "request_status": "Pending",
    "responsible_agency": "Department of Public Works",
    "final_address": "AUDUBON BLVD & FONTAINEBLEAU DR",
    "address_councildis": "A",
    "status": "Pending",
    "rowid": "847811",
    "final_x": "3667348.6",
    "final_y": "530285.98",
    "longitude": "-90.11279701214708",
    "latitude": "29.952524614624952",
    "geocoded_column": {
      "latitude": "29.952524614624952",
      "longitude": "-90.11279701214708"
    }
  },
  {
    "service_request": "2021-847810",
    "request_type": "Roads/Drainage",
    "request_reason": "Damaged Sidewalk",
    "date_created": "2021-12-13T14:20:56.000",
    "date_modified": "2021-12-13T14:20:56.000",
    "request_status": "Pending",
    "responsible_agency": "Department of Public Works",
    "final_address": "333 Poydras St",
    "address_councildis": "B",
    "status": "Pending",
    "rowid": "847810",
    "final_x": "3682119.68354",
    "final_y": "529146.713216",
    "longitude": "-90.0661964585987",
    "latitude": "29.94895111751747",
    "geocoded_column": {
      "latitude": "29.94895111751747",
      "longitude": "-90.0661964585987"
    }
  },
  {
    "service_request": "2021-847809",
    "request_type": "Trash/Recycling",
    "request_reason": "Request a Large Item Pick Up",
    "date_created": "2021-12-13T14:17:12.000",
    "date_modified": "2021-12-13T14:17:13.000",
    "request_status": "Pending",
    "responsible_agency": "Department of Sanitation",
    "final_address": "8227 Maple St",
    "address_councildis": "A",
    "status": "Assigned to Contractor",
    "contractor": "Richards Disposal",
    "rowid": "847809",
    "final_x": "3660615.50291",
    "final_y": "527751.484287",
    "longitude": "-90.13414094652704",
    "latitude": "29.94575105081861",
    "geocoded_column": {
      "latitude": "29.94575105081861",
      "longitude": "-90.13414094652704"
    }
  },
  {
    "service_request": "2021-847808",
    "request_type": "Abandoned Vehicles",
    "request_reason": "Abandoned/Junk Vehicles",
    "date_created": "2021-12-13T14:11:16.000",
    "date_modified": "2021-12-13T15:01:04.000",
    "request_status": "Pending",
    "responsible_agency": "Department of Public Works",
    "final_address": "2435 State St, New Orleans, Louisiana, 70118",
    "address_councildis": "A",
    "status": "Pending",
    "rowid": "847808",
    "final_x": "3666839.76481",
    "final_y": "525628.481405",
    "longitude": "-90.11456011194096",
    "latitude": "29.93973289371097",
    "geocoded_column": {
      "latitude": "29.93973289371097",
      "longitude": "-90.11456011194096"
    }
  },
  {
    "service_request": "2021-847806",
    "request_type": "Trash/Recycling",
    "request_reason": "Replace Trash Cart",
    "date_created": "2021-12-13T14:10:04.000",
    "date_modified": "2021-12-13T14:10:05.000",
    "request_status": "Pending",
    "responsible_agency": "Department of Sanitation",
    "final_address": "1490 Pressburg St",
    "address_councildis": "D",
    "status": "Assigned to Contractor",
    "contractor": "Metro Disposal",
    "rowid": "847806",
    "final_x": "3678197.82747",
    "final_y": "553925.107351",
    "longitude": "-90.07772214764785",
    "latitude": "30.01720176396163",
    "geocoded_column": {
      "latitude": "30.01720176396163",
      "longitude": "-90.07772214764785"
    }
  },
  {
    "service_request": "2021-847804",
    "request_type": "Property Maintenance",
    "request_reason": "Property Maintenance",
    "date_created": "2021-12-13T14:05:28.000",
    "date_modified": "2021-12-13T14:05:28.000",
    "request_status": "Pending",
    "responsible_agency": "Department of Code Enforcement",
    "final_address": "5620 Providence Pl",
    "address_councildis": "D",
    "status": "Pending",
    "rowid": "847804",
    "final_x": "3688209.48969",
    "final_y": "554116.883544",
    "longitude": "-90.04608264383462",
    "latitude": "30.01742362132846",
    "geocoded_column": {
      "latitude": "30.01742362132846",
      "longitude": "-90.04608264383462"
    }
  },
  {
    "service_request": "2021-847803",
    "request_type": "Trash/Recycling",
    "request_reason": "Replace Trash Cart",
    "date_created": "2021-12-13T13:54:56.000",
    "date_modified": "2021-12-13T13:54:57.000",
    "request_status": "Pending",
    "responsible_agency": "Department of Sanitation",
    "final_address": "1242 Frenchmen St",
    "address_councildis": "C",
    "status": "Assigned to Contractor",
    "contractor": "Metro Disposal",
    "rowid": "847803",
    "final_x": "3684503.75113",
    "final_y": "536971.994888",
    "longitude": "-90.058394022151",
    "latitude": "29.97039524778264",
    "geocoded_column": {
      "latitude": "29.97039524778264",
      "longitude": "-90.058394022151"
    }
  },
  {
    "service_request": "2021-847801",
    "request_type": "Mosquito, Termite & Rodent Control",
    "request_reason": "Non-Rodent Complaint (Mice, Possums, Snakes)",
    "date_created": "2021-12-13T13:49:23.000",
    "date_modified": "2021-12-13T14:01:20.000",
    "request_status": "Pending",
    "responsible_agency": "Mosquito, Termite & Rodent Control Board",
    "final_address": "4133 General Pershing St",
    "address_councildis": "B",
    "status": "Pending",
    "rowid": "847801",
    "final_x": "3670028.04846",
    "final_y": "529492.805889",
    "longitude": "-90.10436336924452",
    "latitude": "29.95026489527118",
    "geocoded_column": {
      "latitude": "29.95026489527118",
      "longitude": "-90.10436336924452"
    }
  },
  {
    "service_request": "2021-847800",
    "request_type": "Abandoned Vehicles",
    "request_reason": "Abandoned/Junk Vehicles",
    "date_created": "2021-12-13T13:40:30.000",
    "date_modified": "2021-12-13T13:40:30.000",
    "request_status": "Pending",
    "responsible_agency": "Department of Public Works",
    "final_address": "1003 Teche St",
    "address_councildis": "C",
    "status": "Pending",
    "rowid": "847800",
    "final_x": "3686520.47036",
    "final_y": "527838.222591",
    "longitude": "-90.05234748823128",
    "latitude": "29.94521866320905",
    "geocoded_column": {
      "latitude": "29.94521866320905",
      "longitude": "-90.05234748823128"
    }
  },
  {
    "service_request": "2021-847799",
    "request_type": "Traffic Signals/Signs/Striping/Streetlights",
    "request_reason": "Request for Traffic Calming due to Speeding",
    "date_created": "2021-12-13T13:36:37.000",
    "date_modified": "2021-12-13T13:36:38.000",
    "request_status": "Pending",
    "responsible_agency": "Department of Public Works",
    "final_address": "3202 Castiglione St",
    "address_councildis": "A",
    "status": "Pending",
    "rowid": "847799",
    "final_x": "3678213.06798",
    "final_y": "542746.048269",
    "longitude": "-90.07806093981567",
    "latitude": "29.986462861222783",
    "geocoded_column": {
      "latitude": "29.986462861222783",
      "longitude": "-90.07806093981567"
    }
  },
  {
    "service_request": "2021-847798",
    "request_type": "Trash/Recycling",
    "request_reason": "Request a Large Item Pick Up",
    "date_created": "2021-12-13T13:36:31.000",
    "date_modified": "2021-12-13T14:01:22.000",
    "request_status": "Pending",
    "responsible_agency": "Department of Sanitation",
    "final_address": "10311 Brookfield Dr",
    "address_councildis": "E",
    "status": "Assigned to Contractor",
    "contractor": "Metro Disposal",
    "rowid": "847798",
    "final_x": "3710414.29233",
    "final_y": "563222.36848",
    "longitude": "-89.97558412168767",
    "latitude": "30.041755519512574",
    "geocoded_column": {
      "latitude": "30.041755519512574",
      "longitude": "-89.97558412168767"
    }
  },
  {
    "service_request": "2021-847797",
    "request_type": "Trash/Recycling",
    "request_reason": "Missed Trash Pick-Up",
    "date_created": "2021-12-13T13:28:59.000",
    "date_modified": "2021-12-13T13:28:59.000",
    "request_status": "Pending",
    "responsible_agency": "Department of Sanitation",
    "final_address": "2083 Law St",
    "address_councildis": "D",
    "status": "Assigned to Contractor",
    "contractor": "Metro Disposal",
    "rowid": "847797",
    "final_x": "3683244.05858",
    "final_y": "541761.82254",
    "longitude": "-90.062204458645",
    "latitude": "29.983604081767677",
    "geocoded_column": {
      "latitude": "29.983604081767677",
      "longitude": "-90.062204458645"
    }
  },
  {
    "service_request": "2021-847796",
    "request_type": "Trash/Recycling",
    "request_reason": "Order Trash Cart",
    "date_created": "2021-12-13T13:28:47.000",
    "date_modified": "2021-12-13T14:01:25.000",
    "request_status": "Pending",
    "responsible_agency": "Department of Sanitation",
    "final_address": "1215 Feliciana St",
    "address_councildis": "C",
    "status": "Assigned to Contractor",
    "contractor": "Metro Disposal",
    "rowid": "847796",
    "final_x": "3688892.07593",
    "final_y": "536547.095495",
    "longitude": "-90.0445503373585",
    "latitude": "29.96909193515483",
    "geocoded_column": {
      "latitude": "29.96909193515483",
      "longitude": "-90.0445503373585"
    }
  },
  {
    "service_request": "2021-847795",
    "request_type": "Abandoned Vehicles",
    "request_reason": "Abandoned/Junk Vehicles",
    "date_created": "2021-12-13T13:27:33.000",
    "date_modified": "2021-12-13T13:27:33.000",
    "request_status": "Pending",
    "responsible_agency": "Department of Public Works",
    "final_address": "7637 Mackenzie St",
    "address_councildis": "E",
    "status": "Pending",
    "rowid": "847795",
    "final_x": "3711072.27646",
    "final_y": "566080.735203",
    "longitude": "-89.97339745484625",
    "latitude": "30.049593422386092",
    "geocoded_column": {
      "latitude": "30.049593422386092",
      "longitude": "-89.97339745484625"
    }
  },
  {
    "service_request": "2021-847794",
    "request_type": "Trash/Recycling",
    "request_reason": "Request a Large Item Pick Up",
    "date_created": "2021-12-13T13:24:37.000",
    "date_modified": "2021-12-13T14:01:27.000",
    "request_status": "Pending",
    "responsible_agency": "Department of Sanitation",
    "final_address": "5548 Tullis Dr",
    "address_councildis": "C",
    "status": "Assigned to Contractor",
    "contractor": "Richards Disposal",
    "rowid": "847794",
    "final_x": "3704524.26065",
    "final_y": "512244.990577",
    "longitude": "-89.99607886880972",
    "latitude": "29.90177697621373",
    "geocoded_column": {
      "latitude": "29.90177697621373",
      "longitude": "-89.99607886880972"
    }
  },
  {
    "service_request": "2021-847793",
    "request_type": "Abandoned Vehicles",
    "request_reason": "Abandoned/Junk Vehicles",
    "date_created": "2021-12-13T13:24:25.000",
    "date_modified": "2021-12-13T13:24:26.000",
    "request_status": "Pending",
    "responsible_agency": "Department of Public Works",
    "final_address": "6047 Kuebel Dr",
    "address_councildis": "E",
    "status": "Pending",
    "rowid": "847793",
    "final_x": "3695183.77283",
    "final_y": "559837.115165",
    "longitude": "-90.02384025428437",
    "latitude": "30.03293481015972",
    "geocoded_column": {
      "latitude": "30.03293481015972",
      "longitude": "-90.02384025428437"
    }
  },
  {
    "service_request": "2021-847792",
    "request_type": "Roads/Drainage",
    "request_reason": "Street Subsidence (Sinking)",
    "date_created": "2021-12-13T13:24:03.000",
    "date_modified": "2021-12-13T14:01:28.000",
    "request_status": "Pending",
    "responsible_agency": "Department of Public Works",
    "final_address": "PONTCHARTRAIN BLVD & NO HAMMOND HWY & ROBERT E LEE BLVD",
    "address_councildis": "A",
    "status": "Pending",
    "rowid": "847792",
    "final_x": "3666603.2",
    "final_y": "554859.98",
    "longitude": "-90.11432517178939",
    "latitude": "30.020116589758146",
    "geocoded_column": {
      "latitude": "30.020116589758146",
      "longitude": "-90.11432517178939"
    }
  },
  {
    "service_request": "2021-847791",
    "request_type": "Trash/Recycling",
    "request_reason": "Request a Large Item Pick Up",
    "date_created": "2021-12-13T13:24:00.000",
    "date_modified": "2021-12-13T14:01:30.000",
    "request_status": "Pending",
    "responsible_agency": "Department of Sanitation",
    "final_address": "2121 Josephine St",
    "address_councildis": "B",
    "status": "Assigned to Contractor",
    "contractor": "Richards Disposal",
    "rowid": "847791",
    "final_x": "3676676.93518",
    "final_y": "525611.222845",
    "longitude": "-90.08350334605383",
    "latitude": "29.9393940661282",
    "geocoded_column": {
      "latitude": "29.9393940661282",
      "longitude": "-90.08350334605383"
    }
  },
  {
    "service_request": "2021-847789",
    "request_type": "Trash/Recycling",
    "request_reason": "Missed Trash Pick-Up",
    "date_created": "2021-12-13T13:22:48.000",
    "date_modified": "2021-12-13T14:01:31.000",
    "request_status": "Pending",
    "responsible_agency": "Department of Sanitation",
    "final_address": "2121 Josephine St",
    "address_councildis": "B",
    "status": "Assigned to Contractor",
    "contractor": "Richards Disposal",
    "rowid": "847789",
    "final_x": "3676676.93518",
    "final_y": "525611.222845",
    "longitude": "-90.08350334605383",
    "latitude": "29.9393940661282",
    "geocoded_column": {
      "latitude": "29.9393940661282",
      "longitude": "-90.08350334605383"
    }
  },
  {
    "service_request": "2021-847788",
    "request_type": "Trash/Recycling",
    "request_reason": "Dead Animal Pick Up",
    "date_created": "2021-12-13T13:22:18.000",
    "date_modified": "2021-12-13T13:22:19.000",
    "request_status": "Pending",
    "responsible_agency": "Department of Sanitation",
    "final_address": "4216 N Robertson St A",
    "address_councildis": "D",
    "status": "Assigned to Contractor",
    "contractor": "Metro Disposal",
    "rowid": "847788",
    "final_x": "3692911.9704",
    "final_y": "536563.889863",
    "longitude": "-90.03185467970921",
    "latitude": "29.96901317929378",
    "geocoded_column": {
      "latitude": "29.96901317929378",
      "longitude": "-90.03185467970921"
    }
  },
  {
    "service_request": "2021-847787",
    "request_type": "Trash/Recycling",
    "request_reason": "Missed Trash Pick-Up",
    "date_created": "2021-12-13T13:20:29.000",
    "date_modified": "2021-12-13T14:01:39.000",
    "request_status": "Pending",
    "responsible_agency": "Department of Sanitation",
    "final_address": "4532 Magazine St",
    "address_councildis": "B",
    "status": "Assigned to Contractor",
    "contractor": "Richards Disposal",
    "rowid": "847787",
    "final_x": "3670385.57153",
    "final_y": "518674.043447",
    "longitude": "-90.1036011061994",
    "latitude": "29.920506237844997",
    "geocoded_column": {
      "latitude": "29.920506237844997",
      "longitude": "-90.1036011061994"
    }
  },
  {
    "service_request": "2021-847786",
    "request_type": "Roads/Drainage",
    "request_reason": "Pothole",
    "date_created": "2021-12-13T13:20:22.000",
    "date_modified": "2021-12-13T14:01:41.000",
    "request_status": "Pending",
    "responsible_agency": "Department of Public Works",
    "final_address": "600 BLK Toulouse St",
    "address_councildis": "C",
    "status": "Pending",
    "rowid": "847786",
    "final_x": "3682461.8916",
    "final_y": "532048.558722",
    "longitude": "-90.06501454329869",
    "latitude": "29.95691979910888",
    "geocoded_column": {
      "latitude": "29.95691979910888",
      "longitude": "-90.06501454329869"
    }
  },
  {
    "service_request": "2021-847785",
    "request_type": "Trash/Recycling",
    "request_reason": "Replace Trash Cart",
    "date_created": "2021-12-13T13:15:36.000",
    "date_modified": "2021-12-13T14:01:43.000",
    "request_status": "Pending",
    "responsible_agency": "Department of Sanitation",
    "final_address": "3514 Timber Bluff Ln",
    "address_councildis": "C",
    "status": "Assigned to Contractor",
    "contractor": "Richards Disposal",
    "rowid": "847785",
    "final_x": "3704362.09642",
    "final_y": "511369.683056",
    "longitude": "-89.99662287119837",
    "latitude": "29.899375380096735",
    "geocoded_column": {
      "latitude": "29.899375380096735",
      "longitude": "-89.99662287119837"
    }
  },
  {
    "service_request": "2021-847783",
    "request_type": "Abandoned Vehicles",
    "request_reason": "Abandoned/Junk Vehicles",
    "date_created": "2021-12-13T13:15:25.000",
    "date_modified": "2021-12-13T13:15:25.000",
    "request_status": "Pending",
    "responsible_agency": "Department of Public Works",
    "final_address": "3200 BLK Bringier St",
    "address_councildis": "C",
    "status": "Pending",
    "rowid": "847783",
    "final_x": "3696119.41842",
    "final_y": "525102.11461",
    "longitude": "-90.02213959928979",
    "latitude": "29.93739675396347",
    "geocoded_column": {
      "latitude": "29.93739675396347",
      "longitude": "-90.02213959928979"
    }
  },
  {
    "service_request": "2021-847781",
    "request_type": "Abandoned Vehicles",
    "request_reason": "Abandoned/Junk Vehicles",
    "date_created": "2021-12-13T13:15:15.000",
    "date_modified": "2021-12-13T13:15:16.000",
    "request_status": "Pending",
    "responsible_agency": "Department of Public Works",
    "final_address": "7105 Foch Rd",
    "address_councildis": "D",
    "status": "Pending",
    "rowid": "847781",
    "final_x": "3696593.33488",
    "final_y": "556851.142746",
    "longitude": "-90.0194941262665",
    "latitude": "30.02468015908366",
    "geocoded_column": {
      "latitude": "30.02468015908366",
      "longitude": "-90.0194941262665"
    }
  },
  {
    "service_request": "2021-847782",
    "request_type": "Trash/Recycling",
    "request_reason": "Missed Trash Pick-Up",
    "date_created": "2021-12-13T13:15:15.000",
    "date_modified": "2021-12-13T13:15:16.000",
    "request_status": "Pending",
    "responsible_agency": "Department of Sanitation",
    "final_address": "1922 Charbonnet St",
    "address_councildis": "E",
    "status": "Assigned to Contractor",
    "contractor": "Metro Disposal",
    "rowid": "847782",
    "final_x": "3699394.48535",
    "final_y": "536798.609416",
    "longitude": "-90.0113740350822",
    "latitude": "29.969454523625323",
    "geocoded_column": {
      "latitude": "29.969454523625323",
      "longitude": "-90.0113740350822"
    }
  },
  {
    "service_request": "2021-847779",
    "request_type": "Trash/Recycling",
    "request_reason": "Request a Large Item Pick Up",
    "date_created": "2021-12-13T13:06:27.000",
    "date_modified": "2021-12-13T13:06:27.000",
    "request_status": "Pending",
    "responsible_agency": "Department of Sanitation",
    "final_address": "2709 Lapeyrouse St",
    "address_councildis": "D",
    "status": "Assigned to Contractor",
    "contractor": "Metro Disposal",
    "rowid": "847779",
    "final_x": "3678749.9188",
    "final_y": "540472.545035",
    "longitude": "-90.07644400272135",
    "latitude": "29.980195335778333",
    "geocoded_column": {
      "latitude": "29.980195335778333",
      "longitude": "-90.07644400272135"
    }
  },
  {
    "service_request": "2021-847778",
    "request_type": "Property Maintenance",
    "request_reason": "Property Maintenance",
    "date_created": "2021-12-13T13:04:24.000",
    "date_modified": "2021-12-13T14:01:52.000",
    "request_status": "Pending",
    "responsible_agency": "Department of Code Enforcement",
    "final_address": "4240 Dale St",
    "address_councildis": "E",
    "status": "Pending",
    "rowid": "847778",
    "final_x": "3699609.52471",
    "final_y": "552335.621078",
    "longitude": "-90.010128306252",
    "latitude": "30.0121687536349",
    "geocoded_column": {
      "latitude": "30.0121687536349",
      "longitude": "-90.010128306252"
    }
  },
  {
    "service_request": "2021-847777",
    "request_type": "Traffic Signals/Signs/Striping/Streetlights",
    "request_reason": "Additional signage",
    "date_created": "2021-12-13T13:01:07.000",
    "date_modified": "2021-12-13T14:01:53.000",
    "request_status": "Pending",
    "responsible_agency": "Department of Public Works",
    "final_address": "4125 Magazine St",
    "address_councildis": "B",
    "status": "Pending",
    "rowid": "847777",
    "final_x": "3671936.96007",
    "final_y": "518917.775863",
    "longitude": "-90.09869579641673",
    "latitude": "29.921130551861616",
    "geocoded_column": {
      "latitude": "29.921130551861616",
      "longitude": "-90.09869579641673"
    }
  },
  {
    "service_request": "2021-847776",
    "request_type": "Abandoned Vehicles",
    "request_reason": "Abandoned/Junk Vehicles",
    "date_created": "2021-12-13T12:55:51.000",
    "date_modified": "2021-12-13T13:11:00.000",
    "case_close_date": "2021-12-13T07:11:00.000",
    "request_status": "Closed",
    "responsible_agency": "Department of Public Works",
    "final_address": "1132 Arabella St",
    "address_councildis": "A",
    "status": "Pending",
    "rowid": "847776",
    "final_x": "3666060.43879",
    "final_y": "520179.14092",
    "longitude": "-90.11720316124227",
    "latitude": "29.924771708749315",
    "geocoded_column": {
      "latitude": "29.924771708749315",
      "longitude": "-90.11720316124227"
    }
  },
  {
    "service_request": "2021-847775",
    "request_type": "Trash/Recycling",
    "request_reason": "Illegal Dumping",
    "date_created": "2021-12-13T12:55:48.000",
    "date_modified": "2021-12-13T12:55:48.000",
    "request_status": "Pending",
    "responsible_agency": "Department of Sanitation",
    "final_address": "2412 S Saratoga St",
    "address_councildis": "B",
    "status": "Pending",
    "rowid": "847775",
    "final_x": "3675879.20225",
    "final_y": "524608.144956",
    "longitude": "-90.08605636752623",
    "latitude": "29.936659832396415",
    "geocoded_column": {
      "latitude": "29.936659832396415",
      "longitude": "-90.08605636752623"
    }
  },
  {
    "service_request": "2021-847773",
    "request_type": "Roads/Drainage",
    "request_reason": "Man hole cover issue",
    "date_created": "2021-12-13T12:47:46.000",
    "date_modified": "2021-12-13T15:06:46.000",
    "case_close_date": "2021-12-12T18:00:00.000",
    "request_status": "Closed",
    "responsible_agency": "Department of Public Works",
    "final_address": "CLEVELAND AVE & S CLAIBORNE AVE",
    "address_councildis": "B",
    "status": "Duplicate Case",
    "rowid": "847773",
    "final_x": "3678195.7",
    "final_y": "532412.38",
    "longitude": "-90.0784732551096",
    "latitude": "29.958049340020203",
    "geocoded_column": {
      "latitude": "29.958049340020203",
      "longitude": "-90.0784732551096"
    }
  },
  {
    "service_request": "2021-847771",
    "request_type": "Trash/Recycling",
    "request_reason": "Illegal Dumping",
    "date_created": "2021-12-13T12:43:27.000",
    "date_modified": "2021-12-13T12:43:27.000",
    "request_status": "Pending",
    "responsible_agency": "Department of Sanitation",
    "final_address": "1963 N Johnson St",
    "address_councildis": "D",
    "status": "Pending",
    "rowid": "847771",
    "final_x": "3683422.95689",
    "final_y": "539559.246154",
    "longitude": "-90.0617166091956",
    "latitude": "29.97754231071183",
    "geocoded_column": {
      "latitude": "29.97754231071183",
      "longitude": "-90.0617166091956"
    }
  },
  {
    "service_request": "2021-847770",
    "request_type": "Property Maintenance",
    "request_reason": "Property Maintenance",
    "date_created": "2021-12-13T12:41:34.000",
    "date_modified": "2021-12-13T12:41:34.000",
    "request_status": "Pending",
    "responsible_agency": "Department of Code Enforcement",
    "final_address": "1426 Lizardi St",
    "address_councildis": "E",
    "status": "Pending",
    "rowid": "847770",
    "final_x": "3696874.5384",
    "final_y": "535490.228294",
    "longitude": "-90.01937957174277",
    "latitude": "29.965936641750954",
    "geocoded_column": {
      "latitude": "29.965936641750954",
      "longitude": "-90.01937957174277"
    }
  },
  {
    "service_request": "2021-847769",
    "request_type": "Trash/Recycling",
    "request_reason": "Illegal Dumping",
    "date_created": "2021-12-13T12:40:48.000",
    "date_modified": "2021-12-13T12:40:48.000",
    "request_status": "Pending",
    "responsible_agency": "Department of Sanitation",
    "final_address": "1767 N Roman St",
    "address_councildis": "D",
    "status": "Pending",
    "rowid": "847769",
    "final_x": "3682773.50152",
    "final_y": "538763.831433",
    "longitude": "-90.06379564017614",
    "latitude": "29.975374999321474",
    "geocoded_column": {
      "latitude": "29.975374999321474",
      "longitude": "-90.06379564017614"
    }
  },
  {
    "service_request": "2021-847768",
    "request_type": "Property Maintenance",
    "request_reason": "Property Maintenance",
    "date_created": "2021-12-13T12:35:53.000",
    "date_modified": "2021-12-13T12:35:53.000",
    "request_status": "Pending",
    "responsible_agency": "Department of Code Enforcement",
    "final_address": "2269 N Galvez St",
    "address_councildis": "D",
    "status": "Pending",
    "rowid": "847768",
    "final_x": "3685412.85077",
    "final_y": "540078.415883",
    "longitude": "-90.05541357717695",
    "latitude": "29.978908973905767",
    "geocoded_column": {
      "latitude": "29.978908973905767",
      "longitude": "-90.05541357717695"
    }
  },
  {
    "service_request": "2021-847767",
    "request_type": "Roads/Drainage",
    "request_reason": "Alley Way",
    "date_created": "2021-12-13T12:35:49.000",
    "date_modified": "2021-12-13T12:35:49.000",
    "request_status": "Pending",
    "responsible_agency": "Department of Public Works",
    "final_address": "4974 Gallier Dr",
    "address_councildis": "D",
    "status": "Pending",
    "rowid": "847767",
    "final_x": "3691674.87318",
    "final_y": "552528.45167",
    "longitude": "-90.03519031694915",
    "latitude": "30.012948524698885",
    "geocoded_column": {
      "latitude": "30.012948524698885",
      "longitude": "-90.03519031694915"
    }
  },
  {
    "service_request": "2021-847766",
    "request_type": "Property Maintenance",
    "request_reason": "Property Maintenance",
    "date_created": "2021-12-13T12:35:12.000",
    "date_modified": "2021-12-13T12:35:12.000",
    "request_status": "Pending",
    "responsible_agency": "Department of Code Enforcement",
    "final_address": "3746 Pin Oak Ave",
    "address_councildis": "C",
    "status": "Pending",
    "rowid": "847766",
    "final_x": "3704696.61879",
    "final_y": "514480.850611",
    "longitude": "-89.99545253269095",
    "latitude": "29.907919297426353",
    "geocoded_column": {
      "latitude": "29.907919297426353",
      "longitude": "-89.99545253269095"
    }
  },
  {
    "service_request": "2021-847764",
    "request_type": "Property Maintenance",
    "request_reason": "Property Maintenance",
    "date_created": "2021-12-13T12:31:06.000",
    "date_modified": "2021-12-13T12:31:06.000",
    "request_status": "Pending",
    "responsible_agency": "Department of Code Enforcement",
    "final_address": "2337 N Galvez St",
    "address_councildis": "D",
    "status": "Pending",
    "rowid": "847764",
    "final_x": "3685772.93782",
    "final_y": "540099.417675",
    "longitude": "-90.05427554696168",
    "latitude": "29.97895567410009",
    "geocoded_column": {
      "latitude": "29.97895567410009",
      "longitude": "-90.05427554696168"
    }
  },
  {
    "service_request": "2021-847763",
    "request_type": "Traffic Signals/Signs/Striping/Streetlights",
    "request_reason": "Street Light Outage/Malfunction",
    "date_created": "2021-12-13T12:29:19.000",
    "date_modified": "2021-12-13T13:00:33.000",
    "request_status": "Pending",
    "responsible_agency": "Department of Public Works",
    "final_address": "911 Dublin St",
    "address_councildis": "A",
    "status": "Pending",
    "contractor": "Royal Engineering",
    "rowid": "847763",
    "final_x": "3661092.8375",
    "final_y": "527887.144703",
    "longitude": "-90.13262934653075",
    "latitude": "29.94611032882318",
    "geocoded_column": {
      "latitude": "29.94611032882318",
      "longitude": "-90.13262934653075"
    }
  },
  {
    "service_request": "2021-847762",
    "request_type": "Trash/Recycling",
    "request_reason": "Request a Large Item Pick Up",
    "date_created": "2021-12-13T12:26:03.000",
    "date_modified": "2021-12-13T13:00:34.000",
    "request_status": "Pending",
    "responsible_agency": "Department of Sanitation",
    "final_address": "2473 Royal St",
    "address_councildis": "C",
    "status": "Assigned to Contractor",
    "contractor": "Metro Disposal",
    "rowid": "847762",
    "final_x": "3686510.63567",
    "final_y": "535006.36103",
    "longitude": "-90.05212548178295",
    "latitude": "29.964928886464726",
    "geocoded_column": {
      "latitude": "29.964928886464726",
      "longitude": "-90.05212548178295"
    }
  },
  {
    "service_request": "2021-847761",
    "request_type": "Property Maintenance",
    "request_reason": "Property Maintenance",
    "date_created": "2021-12-13T12:25:59.000",
    "date_modified": "2021-12-13T12:25:59.000",
    "request_status": "Pending",
    "responsible_agency": "Department of Code Enforcement",
    "final_address": "1955 N Johnson St",
    "address_councildis": "D",
    "status": "Pending",
    "rowid": "847761",
    "final_x": "3683385.12066",
    "final_y": "539550.40097",
    "longitude": "-90.06183641862906",
    "latitude": "29.977519144054806",
    "geocoded_column": {
      "latitude": "29.977519144054806",
      "longitude": "-90.06183641862906"
    }
  },
  {
    "service_request": "2021-847760",
    "request_type": "Property Maintenance",
    "request_reason": "Property Maintenance",
    "date_created": "2021-12-13T12:22:54.000",
    "date_modified": "2021-12-13T12:22:54.000",
    "request_status": "Pending",
    "responsible_agency": "Department of Code Enforcement",
    "final_address": "1929 N Johnson St",
    "address_councildis": "D",
    "status": "Pending",
    "rowid": "847760",
    "final_x": "3683119.36117",
    "final_y": "539523.972554",
    "longitude": "-90.06267670125592",
    "latitude": "29.97745458128321",
    "geocoded_column": {
      "latitude": "29.97745458128321",
      "longitude": "-90.06267670125592"
    }
  },
  {
    "service_request": "2021-847759",
    "request_type": "Property Maintenance",
    "request_reason": "Property Maintenance",
    "date_created": "2021-12-13T12:19:12.000",
    "date_modified": "2021-12-13T12:19:12.000",
    "request_status": "Pending",
    "responsible_agency": "Department of Code Enforcement",
    "final_address": "1919 N Tonti St",
    "address_councildis": "D",
    "status": "Pending",
    "rowid": "847759",
    "final_x": "3682225.16834",
    "final_y": "540569.244683",
    "longitude": "-90.06546433005214",
    "latitude": "29.980355950127123",
    "geocoded_column": {
      "latitude": "29.980355950127123",
      "longitude": "-90.06546433005214"
    }
  },
  {
    "service_request": "2021-847758",
    "request_type": "Trash/Recycling",
    "request_reason": "Replace Trash Cart",
    "date_created": "2021-12-13T12:18:50.000",
    "date_modified": "2021-12-13T13:00:36.000",
    "request_status": "Pending",
    "responsible_agency": "Department of Sanitation",
    "final_address": "615 English Turn Dr",
    "address_councildis": "C",
    "status": "Assigned to Contractor",
    "contractor": "Richards Disposal",
    "rowid": "847758",
    "final_x": "3717828.54629",
    "final_y": "515068.744755",
    "longitude": "-89.95398456401912",
    "latitude": "29.909107666287305",
    "geocoded_column": {
      "latitude": "29.909107666287305",
      "longitude": "-89.95398456401912"
    }
  },
  {
    "service_request": "2021-847756",
    "request_type": "Trash/Recycling",
    "request_reason": "Replace Trash Cart",
    "date_created": "2021-12-13T12:16:24.000",
    "date_modified": "2021-12-13T13:00:37.000",
    "request_status": "Pending",
    "responsible_agency": "Department of Sanitation",
    "final_address": "1713 Pleasure St",
    "address_councildis": "D",
    "status": "Assigned to Contractor",
    "contractor": "Metro Disposal",
    "rowid": "847756",
    "final_x": "3680658.61019",
    "final_y": "544890.975119",
    "longitude": "-90.07026172302393",
    "latitude": "29.992286762853062",
    "geocoded_column": {
      "latitude": "29.992286762853062",
      "longitude": "-90.07026172302393"
    }
  },
  {
    "service_request": "2021-847755",
    "request_type": "Trash/Recycling",
    "request_reason": "Order Trash Cart",
    "date_created": "2021-12-13T12:16:11.000",
    "date_modified": "2021-12-13T13:00:39.000",
    "request_status": "Pending",
    "responsible_agency": "Department of Sanitation",
    "final_address": "New Orleans,LA",
    "status": "Assigned to Contractor",
    "rowid": "847755",
    "longitude": "0.0",
    "latitude": "0.0",
    "geocoded_column": {
      "latitude": "0.0",
      "longitude": "0.0"
    }
  },
  {
    "service_request": "2021-847754",
    "request_type": "Property Maintenance",
    "request_reason": "Property Maintenance",
    "date_created": "2021-12-13T12:15:43.000",
    "date_modified": "2021-12-13T12:15:43.000",
    "request_status": "Pending",
    "responsible_agency": "Department of Code Enforcement",
    "final_address": "1977 N Rocheblave St",
    "address_councildis": "D",
    "status": "Pending",
    "rowid": "847754",
    "final_x": "3682309.98716",
    "final_y": "540943.270411",
    "longitude": "-90.0651833619741",
    "latitude": "29.981381809192047",
    "geocoded_column": {
      "latitude": "29.981381809192047",
      "longitude": "-90.0651833619741"
    }
  },
  {
    "service_request": "2021-847753",
    "request_type": "Trash/Recycling",
    "request_reason": "Order Recycling Cart",
    "date_created": "2021-12-13T12:10:04.000",
    "date_modified": "2021-12-13T13:00:42.000",
    "request_status": "Pending",
    "responsible_agency": "Department of Sanitation",
    "final_address": "3400 Bienville Ave",
    "address_councildis": "B",
    "status": "Pending",
    "rowid": "847753",
    "final_x": "3673517.07854",
    "final_y": "537403.287944",
    "longitude": "-90.09307647494279",
    "latitude": "29.971912715918478",
    "geocoded_column": {
      "latitude": "29.971912715918478",
      "longitude": "-90.09307647494279"
    }
  },
  {
    "service_request": "2021-847751",
    "request_type": "Property Maintenance",
    "request_reason": "Property Maintenance",
    "date_created": "2021-12-13T12:08:31.000",
    "date_modified": "2021-12-13T12:08:31.000",
    "request_status": "Pending",
    "responsible_agency": "Department of Code Enforcement",
    "final_address": "2501 George Nick Connor Dr",
    "address_councildis": "D",
    "status": "Pending",
    "rowid": "847751",
    "final_x": "3681214.20392",
    "final_y": "541224.523724",
    "longitude": "-90.06863454176275",
    "latitude": "29.982188458472294",
    "geocoded_column": {
      "latitude": "29.982188458472294",
      "longitude": "-90.06863454176275"
    }
  },
  {
    "service_request": "2021-847750",
    "request_type": "Abandoned Vehicles",
    "request_reason": "Abandoned/Junk Vehicles",
    "date_created": "2021-12-13T12:08:04.000",
    "date_modified": "2021-12-13T12:08:04.000",
    "request_status": "Pending",
    "responsible_agency": "Department of Public Works",
    "final_address": "5812 W Louis Prima Dr",
    "address_councildis": "E",
    "status": "Pending",
    "rowid": "847750",
    "final_x": "3715479.78578",
    "final_y": "562501.673183",
    "longitude": "-89.95960277026097",
    "latitude": "30.039607885896725",
    "geocoded_column": {
      "latitude": "30.039607885896725",
      "longitude": "-89.95960277026097"
    }
  },
  {
    "service_request": "2021-847749",
    "request_type": "Roads/Drainage",
    "request_reason": "Man hole cover issue",
    "date_created": "2021-12-13T12:05:33.000",
    "date_modified": "2021-12-13T12:05:33.000",
    "request_status": "Pending",
    "responsible_agency": "Department of Public Works",
    "final_address": "EAGLE ST & PALM ST",
    "address_councildis": "A",
    "status": "Pending",
    "rowid": "847749",
    "final_x": "3665885.1",
    "final_y": "536362.48",
    "longitude": "-90.11721446229649",
    "latitude": "29.969275777805144",
    "geocoded_column": {
      "latitude": "29.969275777805144",
      "longitude": "-90.11721446229649"
    }
  },
  {
    "service_request": "2021-847746",
    "request_type": "Property Maintenance",
    "request_reason": "Property Maintenance",
    "date_created": "2021-12-13T11:58:15.000",
    "date_modified": "2021-12-13T11:58:15.000",
    "request_status": "Pending",
    "responsible_agency": "Department of Code Enforcement",
    "final_address": "1939 Duels St",
    "address_councildis": "D",
    "status": "Pending",
    "rowid": "847746",
    "final_x": "3682611.15586",
    "final_y": "542454.449357",
    "longitude": "-90.06417926733916",
    "latitude": "29.985527852316153",
    "geocoded_column": {
      "latitude": "29.985527852316153",
      "longitude": "-90.06417926733916"
    }
  },
  {
    "service_request": "2021-847745",
    "request_type": "Roads/Drainage",
    "request_reason": "Man hole cover issue",
    "date_created": "2021-12-13T11:56:16.000",
    "date_modified": "2021-12-13T11:56:16.000",
    "request_status": "Pending",
    "responsible_agency": "Department of Public Works",
    "final_address": "1209 Patterson St",
    "address_councildis": "C",
    "status": "Pending",
    "rowid": "847745",
    "final_x": "3689388.983",
    "final_y": "531216.204994",
    "longitude": "-90.04317063253121",
    "latitude": "29.954418465264524",
    "geocoded_column": {
      "latitude": "29.954418465264524",
      "longitude": "-90.04317063253121"
    }
  },
  {
    "service_request": "2021-847744",
    "request_type": "Trash/Recycling",
    "request_reason": "Request a Large Item Pick Up",
    "date_created": "2021-12-13T11:55:15.000",
    "date_modified": "2021-12-13T11:55:16.000",
    "request_status": "Pending",
    "responsible_agency": "Department of Sanitation",
    "final_address": "5170 Spain St",
    "address_councildis": "D",
    "status": "Assigned to Contractor",
    "contractor": "Metro Disposal",
    "rowid": "847744",
    "final_x": "3684792.19746",
    "final_y": "551872.646678",
    "longitude": "-90.05695889090909",
    "latitude": "30.011357907652613",
    "geocoded_column": {
      "latitude": "30.011357907652613",
      "longitude": "-90.05695889090909"
    }
  },
  {
    "service_request": "2021-847743",
    "request_type": "Abandoned Vehicles",
    "request_reason": "Abandoned/Junk Vehicles",
    "date_created": "2021-12-13T11:55:13.000",
    "date_modified": "2021-12-13T12:00:27.000",
    "request_status": "Pending",
    "responsible_agency": "Department of Public Works",
    "final_address": "1940 St Thomas St Apt D",
    "address_councildis": "B",
    "status": "Pending",
    "rowid": "847743",
    "final_x": "3680763.94882",
    "final_y": "521210.288185",
    "longitude": "-90.07075321540599",
    "latitude": "29.927169737789846",
    "geocoded_column": {
      "latitude": "29.927169737789846",
      "longitude": "-90.07075321540599"
    }
  },
  {
    "service_request": "2021-847742",
    "request_type": "Trash/Recycling",
    "request_reason": "Replace Trash Cart",
    "date_created": "2021-12-13T11:54:12.000",
    "date_modified": "2021-12-13T12:00:29.000",
    "request_status": "Pending",
    "responsible_agency": "Department of Sanitation",
    "final_address": "2685 Jonquil St",
    "address_councildis": "D",
    "status": "Assigned to Contractor",
    "contractor": "Metro Disposal",
    "rowid": "847742",
    "final_x": "3687750.66268",
    "final_y": "547356.731345",
    "longitude": "-90.04777198886947",
    "latitude": "29.998849840120155",
    "geocoded_column": {
      "latitude": "29.998849840120155",
      "longitude": "-90.04777198886947"
    }
  },
  {
    "service_request": "2021-847741",
    "request_type": "Trash/Recycling",
    "request_reason": "Order Recycling Cart",
    "date_created": "2021-12-13T11:53:41.000",
    "date_modified": "2021-12-13T12:00:30.000",
    "request_status": "Pending",
    "responsible_agency": "Department of Sanitation",
    "final_address": "3420 Robert St",
    "address_councildis": "B",
    "status": "Pending",
    "rowid": "847741",
    "final_x": "3668859.89172",
    "final_y": "527459.910079",
    "longitude": "-90.1081204402199",
    "latitude": "29.944709492813185",
    "geocoded_column": {
      "latitude": "29.944709492813185",
      "longitude": "-90.1081204402199"
    }
  },
  {
    "service_request": "2021-847740",
    "request_type": "Trash/Recycling",
    "request_reason": "Request a Large Item Pick Up",
    "date_created": "2021-12-13T11:52:28.000",
    "date_modified": "2021-12-13T12:00:32.000",
    "request_status": "Pending",
    "responsible_agency": "Department of Sanitation",
    "final_address": "3420 Robert St",
    "address_councildis": "B",
    "status": "Assigned to Contractor",
    "contractor": "Richards Disposal",
    "rowid": "847740",
    "final_x": "3668859.89172",
    "final_y": "527459.910079",
    "longitude": "-90.1081204402199",
    "latitude": "29.944709492813185",
    "geocoded_column": {
      "latitude": "29.944709492813185",
      "longitude": "-90.1081204402199"
    }
  },