[
  {
    "service_request": "2022-935044",
    "request_type": "Trash/Recycling",
    "request_reason": "Order Recycling Cart",
    "date_created": "2022-11-02T00:01:09.000",
    "date_modified": "2022-11-02T00:01:09.000",
    "request_status": "Pending",
    "responsible_agency": "Department of Sanitation",
    "final_address": "13066 Chateau Ct",
    "address_councildis": "E",
    "status": "Pending",
    "rowid": "935044",
    "final_x": "3723960.7047",
    "final_y": "562072.527455",
    "longitude": "-89.93281745223936",
    "latitude": "30.03814561326362",
    "geocoded_column": {
      "latitude": "30.03814561326362",
      "longitude": "-89.93281745223936"
    }
  },
  {
    "service_request": "2022-935043",
    "request_type": "Trash/Recycling",
    "request_reason": "Replace Trash Cart",
    "date_created": "2022-11-02T00:00:41.000",
    "date_modified": "2022-11-02T00:00:41.000",
    "request_status": "Pending",
    "responsible_agency": "Department of Sanitation",
    "final_address": "5514 Camp St",
    "address_councildis": "A",
    "status": "Assigned to Contractor",
    "contractor": "Richards Disposal",
    "rowid": "935043",
    "final_x": "3666380.47412",
    "final_y": "519170.566007",
    "longitude": "-90.1162267296249",
    "latitude": "29.921989101601685",
    "geocoded_column": {
      "latitude": "29.921989101601685",
      "longitude": "-90.1162267296249"
    }
  },
  {
    "service_request": "2022-935042",
    "request_type": "Trash/Recycling",
    "request_reason": "Order Recycling Cart",
    "date_created": "2022-11-01T23:44:29.000",
    "date_modified": "2022-11-01T23:44:29.000",
    "request_status": "Pending",
    "responsible_agency": "Department of Sanitation",
    "final_address": "14031 Curran Rd",
    "address_councildis": "E",
    "status": "Pending",
    "rowid": "935042",
    "final_x": "3718593.06412",
    "final_y": "572362.346537",
    "longitude": "-89.94938760757036",
    "latitude": "30.06661766882365",
    "geocoded_column": {
      "latitude": "30.06661766882365",
      "longitude": "-89.94938760757036"
    }
  },
  {
    "service_request": "2022-935041",
    "request_type": "Trash/Recycling",
    "request_reason": "Change Size of Trash Cart",
    "date_created": "2022-11-01T23:33:24.000",
    "date_modified": "2022-11-01T23:33:25.000",
    "request_status": "Pending",
    "responsible_agency": "Department of Sanitation",
    "final_address": "4016 Royal St",
    "address_councildis": "C",
    "status": "Assigned to Contractor",
    "contractor": "Metro Disposal",
    "rowid": "935041",
    "final_x": "3691562.80316",
    "final_y": "533743.292741",
    "longitude": "-90.03621626132382",
    "latitude": "29.96129959561464",
    "geocoded_column": {
      "latitude": "29.96129959561464",
      "longitude": "-90.03621626132382"
    }
  },
  {
    "service_request": "2022-935040",
    "request_type": "Trash/Recycling",
    "request_reason": "Order Recycling Cart",
    "date_created": "2022-11-01T23:25:14.000",
    "date_modified": "2022-11-01T23:25:14.000",
    "request_status": "Pending",
    "responsible_agency": "Department of Sanitation",
    "final_address": "6478 Colbert St",
    "address_councildis": "A",
    "status": "Pending",
    "rowid": "935040",
    "final_x": "3667632.72436",
    "final_y": "550758.064789",
    "longitude": "-90.1112104231085",
    "latitude": "30.008807609655967",
    "geocoded_column": {
      "latitude": "30.008807609655967",
      "longitude": "-90.1112104231085"
    }
  },
  {
    "service_request": "2022-935039",
    "request_type": "Trash/Recycling",
    "request_reason": "Order Recycling Cart",
    "date_created": "2022-11-01T23:24:52.000",
    "date_modified": "2022-11-01T23:24:52.000",
    "request_status": "Pending",
    "responsible_agency": "Department of Sanitation",
    "final_address": "707 N Murat St",
    "address_councildis": "A",
    "status": "Pending",
    "rowid": "935039",
    "final_x": "3671016.73806",
    "final_y": "541191.641292",
    "longitude": "-90.10084427840954",
    "latitude": "29.982403582547906",
    "geocoded_column": {
      "latitude": "29.982403582547906",
      "longitude": "-90.10084427840954"
    }
  },
  {
    "service_request": "2022-935038",
    "request_type": "Trash/Recycling",
    "request_reason": "Stop Trash Service",
    "date_created": "2022-11-01T23:22:24.000",
    "date_modified": "2022-11-01T23:22:25.000",
    "request_status": "Pending",
    "responsible_agency": "Department of Sanitation",
    "final_address": "13010 Chateau Ct",
    "address_councildis": "E",
    "status": "Assigned to Contractor",
    "contractor": "Metro Disposal",
    "rowid": "935038",
    "final_x": "3724378.4176",
    "final_y": "562264.919455",
    "longitude": "-89.93148995267548",
    "latitude": "30.038660567184344",
    "geocoded_column": {
      "latitude": "30.038660567184344",
      "longitude": "-89.93148995267548"
    }
  },
  {
    "service_request": "2022-935037",
    "request_type": "Trash/Recycling",
    "request_reason": "Order Recycling Cart",
    "date_created": "2022-11-01T23:17:37.000",
    "date_modified": "2022-11-01T23:17:37.000",
    "request_status": "Pending",
    "responsible_agency": "Department of Sanitation",
    "final_address": "175 32Nd St",
    "address_councildis": "A",
    "status": "Pending",
    "rowid": "935037",
    "final_x": "3665745.37453",
    "final_y": "550737.409493",
    "longitude": "-90.11717389614606",
    "latitude": "30.0088060300145",
    "geocoded_column": {
      "latitude": "30.0088060300145",
      "longitude": "-90.11717389614606"
    }
  },
  {
    "service_request": "2022-935036",
    "request_type": "Trash/Recycling",
    "request_reason": "Order Recycling Cart",
    "date_created": "2022-11-01T23:15:03.000",
    "date_modified": "2022-11-01T23:15:03.000",
    "request_status": "Pending",
    "responsible_agency": "Department of Sanitation",
    "final_address": "5116 Dauphine St",
    "address_councildis": "E",
    "status": "Pending",
    "rowid": "935036",
    "final_x": "3696062.88605",
    "final_y": "533001.757188",
    "longitude": "-90.02203266520762",
    "latitude": "29.959119794684064",
    "geocoded_column": {
      "latitude": "29.959119794684064",
      "longitude": "-90.02203266520762"
    }
  },
  {
    "service_request": "2022-935035",
    "request_type": "Trash/Recycling",
    "request_reason": "Order Recycling Cart",
    "date_created": "2022-11-01T23:01:51.000",
    "date_modified": "2022-11-01T23:01:51.000",
    "request_status": "Pending",
    "responsible_agency": "Department of Sanitation",
    "final_address": "7300 General Haig St",
    "address_councildis": "D",
    "status": "Pending",
    "rowid": "935035",
    "final_x": "3671179.8834",
    "final_y": "555171.839961",
    "longitude": "-90.09985364741961",
    "latitude": "30.020839421217318",
    "geocoded_column": {
      "latitude": "30.020839421217318",
      "longitude": "-90.09985364741961"
    }
  },
  {
    "service_request": "2022-935034",
    "request_type": "Trash/Recycling",
    "request_reason": "Order Recycling Cart",
    "date_created": "2022-11-01T22:57:26.000",
    "date_modified": "2022-11-01T22:57:26.000",
    "request_status": "Pending",
    "responsible_agency": "Department of Sanitation",
    "final_address": "7740 Shubrick Ave",
    "address_councildis": "E",
    "status": "Pending",
    "rowid": "935034",
    "final_x": "3706520.37047",
    "final_y": "564039.152033",
    "longitude": "-89.98785994587051",
    "latitude": "30.044127643556447",
    "geocoded_column": {
      "latitude": "30.044127643556447",
      "longitude": "-89.98785994587051"
    }
  },
  {
    "service_request": "2022-935033",
    "request_type": "Trash/Recycling",
    "request_reason": "Order Recycling Cart",
    "date_created": "2022-11-01T22:55:43.000",
    "date_modified": "2022-11-01T22:55:43.000",
    "request_status": "Pending",
    "responsible_agency": "Department of Sanitation",
    "final_address": "868 Germain St",
    "address_councildis": "A",
    "status": "Pending",
    "rowid": "935033",
    "final_x": "3669745.40468",
    "final_y": "547732.97525",
    "longitude": "-90.10463823812113",
    "latitude": "30.00042754210439",
    "geocoded_column": {
      "latitude": "30.00042754210439",
      "longitude": "-90.10463823812113"
    }
  },
  {
    "service_request": "2022-935032",
    "request_type": "Health Related Questions",
    "request_reason": "Noise Ordinance Complaint",
    "date_created": "2022-11-01T22:53:45.000",
    "date_modified": "2022-11-01T22:53:45.000",
    "request_status": "Pending",
    "responsible_agency": "Health Department",
    "final_address": "4009 Octavia St, New Orleans, Louisiana, 70125",
    "address_councildis": "B",
    "status": "Pending",
    "rowid": "935032",
    "final_x": "3668966.96218",
    "final_y": "530092.333889",
    "longitude": "-90.10769348395522",
    "latitude": "29.95194465157315",
    "geocoded_column": {
      "latitude": "29.95194465157315",
      "longitude": "-90.10769348395522"
    }
  },
  {
    "service_request": "2022-935031",
    "request_type": "Trash/Recycling",
    "request_reason": "Order Recycling Cart",
    "date_created": "2022-11-01T22:48:56.000",
    "date_modified": "2022-11-01T22:48:56.000",
    "request_status": "Pending",
    "responsible_agency": "Department of Sanitation",
    "final_address": "5868 Catina St",
    "address_councildis": "A",
    "status": "Pending",
    "rowid": "935031",
    "final_x": "3666690.69012",
    "final_y": "546950.861905",
    "longitude": "-90.11431459298038",
    "latitude": "29.99836671361283",
    "geocoded_column": {
      "latitude": "29.99836671361283",
      "longitude": "-90.11431459298038"
    }
  },
  {
    "service_request": "2022-935030",
    "request_type": "Trash/Recycling",
    "request_reason": "Order Recycling Cart",
    "date_created": "2022-11-01T22:48:14.000",
    "date_modified": "2022-11-01T22:48:14.000",
    "request_status": "Pending",
    "responsible_agency": "Department of Sanitation",
    "final_address": "7292 Canal Blvd",
    "address_councildis": "D",
    "status": "Pending",
    "rowid": "935030",
    "final_x": "3669072.11207",
    "final_y": "555441.814425",
    "longitude": "-90.10650447790532",
    "latitude": "30.021643975338005",
    "geocoded_column": {
      "latitude": "30.021643975338005",
      "longitude": "-90.10650447790532"
    }
  },
  {
    "service_request": "2022-935029",
    "request_type": "Roads/Drainage",
    "request_reason": "Alley Way",
    "date_created": "2022-11-01T22:47:56.000",
    "date_modified": "2022-11-01T22:47:56.000",
    "request_status": "Pending",
    "responsible_agency": "Department of Public Works",
    "final_address": "5868 Catina St",
    "address_councildis": "A",
    "status": "Pending",
    "rowid": "935029",
    "final_x": "3666690.69012",
    "final_y": "546950.861905",
    "longitude": "-90.11431459298038",
    "latitude": "29.99836671361283",
    "geocoded_column": {
      "latitude": "29.99836671361283",
      "longitude": "-90.11431459298038"
    }
  },
  {
    "service_request": "2022-935028",
    "request_type": "Trash/Recycling",
    "request_reason": "Order Recycling Cart",
    "date_created": "2022-11-01T22:45:03.000",
    "date_modified": "2022-11-01T22:45:03.000",
    "request_status": "Pending",
    "responsible_agency": "Department of Sanitation",
    "final_address": "4943 Metropolitan Dr",
    "address_councildis": "D",
    "status": "Pending",
    "rowid": "935028",
    "final_x": "3690570.90064",
    "final_y": "551823.818902",
    "longitude": "-90.03870341395586",
    "latitude": "30.01104538891619",
    "geocoded_column": {
      "latitude": "30.01104538891619",
      "longitude": "-90.03870341395586"
    }
  },
  {
    "service_request": "2022-935027",
    "request_type": "Trash/Recycling",
    "request_reason": "Order Recycling Cart",
    "date_created": "2022-11-01T22:43:37.000",
    "date_modified": "2022-11-01T22:43:37.000",
    "request_status": "Pending",
    "responsible_agency": "Department of Sanitation",
    "final_address": "7325 Heather Ct",
    "address_councildis": "E",
    "status": "Pending",
    "rowid": "935027",
    "final_x": "3705655.12817",
    "final_y": "562184.583519",
    "longitude": "-89.99066315632616",
    "latitude": "30.039056222074823",
    "geocoded_column": {
      "latitude": "30.039056222074823",
      "longitude": "-89.99066315632616"
    }
  },
  {
    "service_request": "2022-935026",
    "request_type": "Trash/Recycling",
    "request_reason": "Order Recycling Cart",
    "date_created": "2022-11-01T22:41:31.000",
    "date_modified": "2022-11-01T22:41:31.000",
    "request_status": "Pending",
    "responsible_agency": "Department of Sanitation",
    "final_address": "113 Mary Jane Ln",
    "address_councildis": "E",
    "status": "Pending",
    "rowid": "935026",
    "final_x": "3718012.57887",
    "final_y": "571541.812584",
    "longitude": "-89.95125387761479",
    "latitude": "30.064380808689773",
    "geocoded_column": {
      "latitude": "30.064380808689773",
      "longitude": "-89.95125387761479"
    }
  },
  {
    "service_request": "2022-935025",
    "request_type": "Trash/Recycling",
    "request_reason": "Repair Recycling Cart",
    "date_created": "2022-11-01T22:37:20.000",
    "date_modified": "2022-11-01T22:37:20.000",
    "request_status": "Pending",
    "responsible_agency": "Department of Sanitation",
    "final_address": "1018 Desire St",
    "address_councildis": "C",
    "status": "Pending",
    "rowid": "935025",
    "final_x": "3690085.51036",
    "final_y": "535441.974598",
    "longitude": "-90.040820768112",
    "latitude": "29.96601627763169",
    "geocoded_column": {
      "latitude": "29.96601627763169",
      "longitude": "-90.040820768112"
    }
  },
  {
    "service_request": "2022-935024",
    "request_type": "Trash/Recycling",
    "request_reason": "Order Recycling Cart",
    "date_created": "2022-11-01T22:34:04.000",
    "date_modified": "2022-11-01T22:34:04.000",
    "request_status": "Pending",
    "responsible_agency": "Department of Sanitation",
    "final_address": "7530 Shaw Ave",
    "address_councildis": "E",
    "status": "Pending",
    "rowid": "935024",
    "final_x": "3707281.03588",
    "final_y": "564003.755425",
    "longitude": "-89.9854572404045",
    "latitude": "30.044005735699",
    "geocoded_column": {
      "latitude": "30.044005735699",
      "longitude": "-89.9854572404045"
    }
  },
  {
    "service_request": "2022-935023",
    "request_type": "Trash/Recycling",
    "request_reason": "Order Recycling Cart",
    "date_created": "2022-11-01T22:29:57.000",
    "date_modified": "2022-11-01T22:29:58.000",
    "request_status": "Pending",
    "responsible_agency": "Department of Sanitation",
    "final_address": "12920 Chanelle Ct",
    "address_councildis": "E",
    "status": "Pending",
    "rowid": "935023",
    "final_x": "3716942.32549",
    "final_y": "567599.992612",
    "longitude": "-89.9547869127029",
    "latitude": "30.05357788828101",
    "geocoded_column": {
      "latitude": "30.05357788828101",
      "longitude": "-89.9547869127029"
    }
  },
  {
    "service_request": "2022-935022",
    "request_type": "Trash/Recycling",
    "request_reason": "Replace Recycling Cart",
    "date_created": "2022-11-01T22:28:25.000",
    "date_modified": "2022-11-01T22:28:25.000",
    "request_status": "Pending",
    "responsible_agency": "Department of Sanitation",
    "final_address": "7321 Sardonyx St",
    "address_councildis": "D",
    "status": "Pending",
    "rowid": "935022",
    "final_x": "3669688.613",
    "final_y": "555682.860953",
    "longitude": "-90.10454832544691",
    "latitude": "30.022288603221206",
    "geocoded_column": {
      "latitude": "30.022288603221206",
      "longitude": "-90.10454832544691"
    }
  },
  {
    "service_request": "2022-935021",
    "request_type": "Trash/Recycling",
    "request_reason": "Order Recycling Cart",
    "date_created": "2022-11-01T22:26:58.000",
    "date_modified": "2022-11-01T22:26:58.000",
    "request_status": "Pending",
    "responsible_agency": "Department of Sanitation",
    "final_address": "5839 Marshal Foch St",
    "address_councildis": "A",
    "status": "Pending",
    "rowid": "935021",
    "final_x": "3669816.73242",
    "final_y": "546123.662544",
    "longitude": "-90.10446743167132",
    "latitude": "29.996000386645672",
    "geocoded_column": {
      "latitude": "29.996000386645672",
      "longitude": "-90.10446743167132"
    }
  },
  {
    "service_request": "2022-935020",
    "request_type": "Traffic Signals/Signs/Striping/Streetlights",
    "request_reason": "Street Name Sign Damaged or Missing",
    "date_created": "2022-11-01T22:25:11.000",
    "date_modified": "2022-11-01T22:25:11.000",
    "request_status": "Pending",
    "responsible_agency": "Department of Public Works",
    "final_address": "619 River Oaks Dr",
    "address_councildis": "C",
    "status": "Pending",
    "rowid": "935020",
    "final_x": "3701438.68689",
    "final_y": "520325.121208",
    "longitude": "-90.00552118946918",
    "latitude": "29.92409323884641",
    "geocoded_column": {
      "latitude": "29.92409323884641",
      "longitude": "-90.00552118946918"
    }
  },
  {
    "service_request": "2022-935019",
    "request_type": "Traffic Signals/Signs/Striping/Streetlights",
    "request_reason": "Street Light Outage/Malfunction",
    "date_created": "2022-11-01T22:25:01.000",
    "date_modified": "2022-11-01T22:25:02.000",
    "request_status": "Pending",
    "responsible_agency": "Department of Public Works",
    "final_address": "5827 Marshal Foch St",
    "address_councildis": "A",
    "status": "Pending",
    "contractor": "Legacy Professional Services",
    "rowid": "935019",
    "final_x": "3669811.57946",
    "final_y": "546067.803088",
    "longitude": "-90.10448560190295",
    "latitude": "29.995846944401443",
    "geocoded_column": {
      "latitude": "29.995846944401443",
      "longitude": "-90.10448560190295"
    }
  },
  {
    "service_request": "2022-935018",
    "request_type": "Trash/Recycling",
    "request_reason": "Replace Recycling Cart",
    "date_created": "2022-11-01T22:23:59.000",
    "date_modified": "2022-11-01T22:23:59.000",
    "request_status": "Pending",
    "responsible_agency": "Department of Sanitation",
    "final_address": "619 River Oaks Dr",
    "address_councildis": "C",
    "status": "Pending",
    "rowid": "935018",
    "final_x": "3701438.68689",
    "final_y": "520325.121208",
    "longitude": "-90.00552118946918",
    "latitude": "29.92409323884641",
    "geocoded_column": {
      "latitude": "29.92409323884641",
      "longitude": "-90.00552118946918"
    }
  },
  {
    "service_request": "2022-935017",
    "request_type": "Trash/Recycling",
    "request_reason": "Order Trash Cart",
    "date_created": "2022-11-01T22:20:31.000",
    "date_modified": "2022-11-01T22:20:32.000",
    "request_status": "Pending",
    "responsible_agency": "Department of Sanitation",
    "final_address": "5642 Evelyn Ct",
    "address_councildis": "A",
    "status": "Assigned to Contractor",
    "contractor": "Metro Disposal",
    "rowid": "935017",
    "final_x": "3664415.95296",
    "final_y": "545074.114959",
    "longitude": "-90.12156321012914",
    "latitude": "29.99327264562637",
    "geocoded_column": {
      "latitude": "29.99327264562637",
      "longitude": "-90.12156321012914"
    }
  },
  {
    "service_request": "2022-935016",
    "request_type": "Trash/Recycling",
    "request_reason": "Order Recycling Cart",
    "date_created": "2022-11-01T22:17:54.000",
    "date_modified": "2022-11-01T22:17:54.000",
    "request_status": "Pending",
    "responsible_agency": "Department of Sanitation",
    "final_address": "4635 Charlene Dr",
    "address_councildis": "E",
    "status": "Pending",
    "rowid": "935016",
    "final_x": "3708049.08952",
    "final_y": "554789.052056",
    "longitude": "-89.98337297589134",
    "latitude": "30.01864406347757",
    "geocoded_column": {
      "latitude": "30.01864406347757",
      "longitude": "-89.98337297589134"
    }
  },
  {
    "service_request": "2022-935015",
    "request_type": "Trash/Recycling",
    "request_reason": "Repair Recycling Cart",
    "date_created": "2022-11-01T22:17:38.000",
    "date_modified": "2022-11-01T22:17:38.000",
    "request_status": "Pending",
    "responsible_agency": "Department of Sanitation",
    "final_address": "6035 Chamberlain Dr",
    "address_councildis": "D",
    "status": "Pending",
    "rowid": "935015",
    "final_x": "3679365.24232",
    "final_y": "554716.614104",
    "longitude": "-90.07400610609703",
    "latitude": "30.01934289373655",
    "geocoded_column": {
      "latitude": "30.01934289373655",
      "longitude": "-90.07400610609703"
    }
  },
  {
    "service_request": "2022-935014",
    "request_type": "Trash/Recycling",
    "request_reason": "Repair Trash Cart",
    "date_created": "2022-11-01T22:17:23.000",
    "date_modified": "2022-11-01T22:17:23.000",
    "request_status": "Pending",
    "responsible_agency": "Department of Sanitation",
    "final_address": "13034 Chateau Ct",
    "address_councildis": "E",
    "status": "Assigned to Contractor",
    "contractor": "Metro Disposal",
    "rowid": "935014",
    "final_x": "3724199.98656",
    "final_y": "562163.434463",
    "longitude": "-89.932057757593",
    "latitude": "30.038387526309382",
    "geocoded_column": {
      "latitude": "30.038387526309382",
      "longitude": "-89.932057757593"
    }
  },
  {
    "service_request": "2022-935013",
    "request_type": "Trash/Recycling",
    "request_reason": "Order Recycling Cart",
    "date_created": "2022-11-01T22:17:14.000",
    "date_modified": "2022-11-01T22:17:14.000",
    "request_status": "Pending",
    "responsible_agency": "Department of Sanitation",
    "final_address": "2240 Montreal St",
    "address_councildis": "D",
    "status": "Pending",
    "rowid": "935013",
    "final_x": "3684894.05218",
    "final_y": "546518.083537",
    "longitude": "-90.05682555501345",
    "latitude": "29.996631674717378",
    "geocoded_column": {
      "latitude": "29.996631674717378",
      "longitude": "-90.05682555501345"
    }
  },
  {
    "service_request": "2022-935012",
    "request_type": "Trash/Recycling",
    "request_reason": "Order Recycling Cart",
    "date_created": "2022-11-01T22:16:54.000",
    "date_modified": "2022-11-01T22:16:54.000",
    "request_status": "Pending",
    "responsible_agency": "Department of Sanitation",
    "final_address": "6123 Dauphine St",
    "address_councildis": "E",
    "status": "Pending",
    "rowid": "935012",
    "final_x": "3699253.81264",
    "final_y": "532246.742275",
    "longitude": "-90.01198405806518",
    "latitude": "29.956942976935856",
    "geocoded_column": {
      "latitude": "29.956942976935856",
      "longitude": "-90.01198405806518"
    }
  },
  {
    "service_request": "2022-935011",
    "request_type": "Trash/Recycling",
    "request_reason": "Order Recycling Cart",
    "date_created": "2022-11-01T22:16:06.000",
    "date_modified": "2022-11-01T22:16:06.000",
    "request_status": "Pending",
    "responsible_agency": "Department of Sanitation",
    "final_address": "16 Green Ash Pl",
    "address_councildis": "C",
    "status": "Pending",
    "rowid": "935011",
    "final_x": "3715958.75807",
    "final_y": "517058.714613",
    "longitude": "-89.95981058361158",
    "latitude": "29.914641138415693",
    "geocoded_column": {
      "latitude": "29.914641138415693",
      "longitude": "-89.95981058361158"
    }
  },
  {
    "service_request": "2022-935010",
    "request_type": "Trash/Recycling",
    "request_reason": "Order Recycling Cart",
    "date_created": "2022-11-01T22:15:48.000",
    "date_modified": "2022-11-01T22:15:48.000",
    "request_status": "Pending",
    "responsible_agency": "Department of Sanitation",
    "final_address": "13034 Chateau Ct",
    "address_councildis": "E",
    "status": "Pending",
    "rowid": "935010",
    "final_x": "3724199.98656",
    "final_y": "562163.434463",
    "longitude": "-89.932057757593",
    "latitude": "30.038387526309382",
    "geocoded_column": {
      "latitude": "30.038387526309382",
      "longitude": "-89.932057757593"
    }
  },
  {
    "service_request": "2022-935009",
    "request_type": "Trash/Recycling",
    "request_reason": "Order Recycling Cart",
    "date_created": "2022-11-01T22:13:48.000",
    "date_modified": "2022-11-01T22:13:48.000",
    "request_status": "Pending",
    "responsible_agency": "Department of Sanitation",
    "final_address": "2536 Congress St",
    "address_councildis": "D",
    "status": "Pending",
    "rowid": "935009",
    "final_x": "3692066.11197",
    "final_y": "541174.69934",
    "longitude": "-90.03436087510364",
    "latitude": "29.98171765486854",
    "geocoded_column": {
      "latitude": "29.98171765486854",
      "longitude": "-90.03436087510364"
    }
  },
  {
    "service_request": "2022-935008",
    "request_type": "Trash/Recycling",
    "request_reason": "Order Recycling Cart",
    "date_created": "2022-11-01T22:11:42.000",
    "date_modified": "2022-11-01T22:11:42.000",
    "request_status": "Pending",
    "responsible_agency": "Department of Sanitation",
    "final_address": "931 Reynes St",
    "address_councildis": "E",
    "status": "Pending",
    "rowid": "935008",
    "final_x": "3695858.20227",
    "final_y": "533711.840261",
    "longitude": "-90.0226533546818",
    "latitude": "29.9610787116296",
    "geocoded_column": {
      "latitude": "29.9610787116296",
      "longitude": "-90.0226533546818"
    }
  },
  {
    "service_request": "2022-935007",
    "request_type": "Trash/Recycling",
    "request_reason": "Order Recycling Cart",
    "date_created": "2022-11-01T22:11:41.000",
    "date_modified": "2022-11-01T22:11:41.000",
    "request_status": "Pending",
    "responsible_agency": "Department of Sanitation",
    "final_address": "2505 N Derbigny St",
    "address_councildis": "D",
    "status": "Pending",
    "rowid": "935007",
    "final_x": "3687091.51375",
    "final_y": "538729.996105",
    "longitude": "-90.05015942540139",
    "latitude": "29.975149709810797",
    "geocoded_column": {
      "latitude": "29.975149709810797",
      "longitude": "-90.05015942540139"
    }
  },
  {
    "service_request": "2022-935006",
    "request_type": "Trash/Recycling",
    "request_reason": "Missed Trash Pick-Up",
    "date_created": "2022-11-01T22:10:01.000",
    "date_modified": "2022-11-01T22:10:02.000",
    "request_status": "Pending",
    "responsible_agency": "Department of Sanitation",
    "final_address": "5216 Atlanta St",
    "address_councildis": "B",
    "status": "Assigned to Contractor",
    "contractor": "Richards Disposal",
    "rowid": "935006",
    "final_x": "3667950.65569",
    "final_y": "520683.950457",
    "longitude": "-90.11121935799825",
    "latitude": "29.9261044765486",
    "geocoded_column": {
      "latitude": "29.9261044765486",
      "longitude": "-90.11121935799825"
    }
  },
  {
    "service_request": "2022-935005",
    "request_type": "Parks & Parkways",
    "request_reason": "Request Tree Service (Right of Way/Public Property)",
    "date_created": "2022-11-01T22:04:11.000",
    "date_modified": "2022-11-01T22:06:32.000",
    "request_status": "Pending",
    "responsible_agency": "Department of Parks & Parkway",
    "final_address": "NAPOLEON AVE & S BROAD ST & FONTAINEBLEAU DR",
    "address_councildis": "B",
    "status": "Pending",
    "rowid": "935005",
    "final_x": "3670099.9",
    "final_y": "528963.08",
    "longitude": "-90.10415444170367",
    "latitude": "29.94880620330634",
    "geocoded_column": {
      "latitude": "29.94880620330634",
      "longitude": "-90.10415444170367"
    }
  },
  {
    "service_request": "2022-935004",
    "request_type": "Trash/Recycling",
    "request_reason": "MIssed Recycling Pick-Up",
    "date_created": "2022-11-01T22:02:20.000",
    "date_modified": "2022-11-01T22:02:20.000",
    "request_status": "Pending",
    "responsible_agency": "Department of Sanitation",
    "final_address": "11141 S Parkwood Ct",
    "address_councildis": "E",
    "status": "Assigned to Contractor",
    "contractor": "Metro Disposal",
    "rowid": "935004",
    "final_x": "3716453.18277",
    "final_y": "558911.693916",
    "longitude": "-89.95666288570379",
    "latitude": "30.02970476462228",
    "geocoded_column": {
      "latitude": "30.02970476462228",
      "longitude": "-89.95666288570379"
    }
  },
  {
    "service_request": "2022-935003",
    "request_type": "Trash/Recycling",
    "request_reason": "Order Recycling Cart",
    "date_created": "2022-11-01T22:02:06.000",
    "date_modified": "2022-11-01T22:02:06.000",
    "request_status": "Pending",
    "responsible_agency": "Department of Sanitation",
    "final_address": "2452 Killdeer St",
    "address_councildis": "D",
    "status": "Pending",
    "rowid": "935003",
    "final_x": "3685099.00175",
    "final_y": "557605.164379",
    "longitude": "-90.05578764150388",
    "latitude": "30.02711081970179",
    "geocoded_column": {
      "latitude": "30.02711081970179",
      "longitude": "-90.05578764150388"
    }
  },
  {
    "service_request": "2022-935001",
    "request_type": "Trash/Recycling",
    "request_reason": "Replace Trash Cart",
    "date_created": "2022-11-01T21:54:39.000",
    "date_modified": "2022-11-01T21:54:39.000",
    "request_status": "Pending",
    "responsible_agency": "Department of Sanitation",
    "final_address": "8643 Chase St",
    "address_councildis": "E",
    "status": "Assigned to Contractor",
    "contractor": "Metro Disposal",
    "rowid": "935001",
    "final_x": "3703816.81604",
    "final_y": "563576.663456",
    "longitude": "-89.99642137423083",
    "latitude": "30.042942994435744",
    "geocoded_column": {
      "latitude": "30.042942994435744",
      "longitude": "-89.99642137423083"
    }
  },
  {
    "service_request": "2022-935000",
    "request_type": "Trash/Recycling",
    "request_reason": "Replace Trash Cart",
    "date_created": "2022-11-01T21:53:39.000",
    "date_modified": "2022-11-01T21:53:40.000",
    "request_status": "Pending",
    "responsible_agency": "Department of Sanitation",
    "final_address": "5561 New England Dr",
    "address_councildis": "E",
    "status": "Assigned to Contractor",
    "contractor": "Metro Disposal",
    "rowid": "935000",
    "final_x": "3723762.16383",
    "final_y": "563918.816417",
    "longitude": "-89.93337359632196",
    "latitude": "30.04322881805274",
    "geocoded_column": {
      "latitude": "30.04322881805274",
      "longitude": "-89.93337359632196"
    }
  },
  {
    "service_request": "2022-934999",
    "request_type": "Trash/Recycling",
    "request_reason": "Replace Trash Cart",
    "date_created": "2022-11-01T21:48:24.000",
    "date_modified": "2022-11-01T21:50:14.000",
    "request_status": "Pending",
    "responsible_agency": "Department of Sanitation",
    "final_address": "6744 Marshal Foch St",
    "address_councildis": "A",
    "status": "Assigned to Contractor",
    "contractor": "Metro Disposal",
    "rowid": "934999",
    "final_x": "3670193.71534",
    "final_y": "552271.830614",
    "longitude": "-90.1030680430949",
    "latitude": "30.012894577748327",
    "geocoded_column": {
      "latitude": "30.012894577748327",
      "longitude": "-90.1030680430949"
    }
  },
  {
    "service_request": "2022-934998",
    "request_type": "Trash/Recycling",
    "request_reason": "Order Recycling Cart",
    "date_created": "2022-11-01T21:46:58.000",
    "date_modified": "2022-11-01T21:46:58.000",
    "request_status": "Pending",
    "responsible_agency": "Department of Sanitation",
    "final_address": "4801 Montegut Dr",
    "address_councildis": "D",
    "status": "Pending",
    "rowid": "934998",
    "final_x": "3690005.24028",
    "final_y": "550667.648724",
    "longitude": "-90.04053176747792",
    "latitude": "30.007883907764914",
    "geocoded_column": {
      "latitude": "30.007883907764914",
      "longitude": "-90.04053176747792"
    }
  },
  {
    "service_request": "2022-934997",
    "request_type": "Trash/Recycling",
    "request_reason": "Order Recycling Cart",
    "date_created": "2022-11-01T21:46:26.000",
    "date_modified": "2022-11-01T21:46:26.000",
    "request_status": "Pending",
    "responsible_agency": "Department of Sanitation",
    "final_address": "4715 Rhodes Dr",
    "address_councildis": "E",
    "status": "Pending",
    "rowid": "934997",
    "final_x": "3702603.64113",
    "final_y": "554175.997976",
    "longitude": "-90.00060103259554",
    "latitude": "30.017133677784727",
    "geocoded_column": {
      "latitude": "30.017133677784727",
      "longitude": "-90.00060103259554"
    }
  },
  {
    "service_request": "2022-934996",
    "request_type": "Trash/Recycling",
    "request_reason": "Order Recycling Cart",
    "date_created": "2022-11-01T21:45:26.000",
    "date_modified": "2022-11-01T21:45:26.000",
    "request_status": "Pending",
    "responsible_agency": "Department of Sanitation",
    "final_address": "7407 Malvern Dr",
    "address_councildis": "E",
    "status": "Pending",
    "rowid": "934996",
    "final_x": "3702795.39268",
    "final_y": "560971.45891",
    "longitude": "-89.9997452919829",
    "latitude": "30.03581243350918",
    "geocoded_column": {
      "latitude": "30.03581243350918",
      "longitude": "-89.9997452919829"
    }
  },
  {
    "service_request": "2022-934995",
    "request_type": "Trash/Recycling",
    "request_reason": "Order Recycling Cart",
    "date_created": "2022-11-01T21:45:24.000",
    "date_modified": "2022-11-01T21:45:24.000",
    "request_status": "Pending",
    "responsible_agency": "Department of Sanitation",
    "final_address": "5006 Dauphine St",
    "address_councildis": "E",
    "status": "Pending",
    "rowid": "934995",
    "final_x": "3695726.7704",
    "final_y": "533081.7529",
    "longitude": "-90.02309114202708",
    "latitude": "29.959350326984005",
    "geocoded_column": {
      "latitude": "29.959350326984005",
      "longitude": "-90.02309114202708"
    }
  },
  {
    "service_request": "2022-934994",
    "request_type": "Trash/Recycling",
    "request_reason": "Order Recycling Cart",
    "date_created": "2022-11-01T21:45:11.000",
    "date_modified": "2022-11-01T21:45:11.000",
    "request_status": "Pending",
    "responsible_agency": "Department of Sanitation",
    "final_address": "6141 Craigie Rd",
    "address_councildis": "E",
    "status": "Pending",
    "rowid": "934994",
    "final_x": "3695975.48874",
    "final_y": "558920.902748",
    "longitude": "-90.0213715227464",
    "latitude": "30.030390674830926",
    "geocoded_column": {
      "latitude": "30.030390674830926",
      "longitude": "-90.0213715227464"
    }
  },
  {
    "service_request": "2022-934993",
    "request_type": "Trash/Recycling",
    "request_reason": "Replace Trash Cart",
    "date_created": "2022-11-01T21:45:03.000",
    "date_modified": "2022-11-01T21:45:03.000",
    "request_status": "Pending",
    "responsible_agency": "Department of Sanitation",
    "final_address": "4801 Montegut Dr",
    "address_councildis": "D",
    "status": "Assigned to Contractor",
    "contractor": "Metro Disposal",
    "rowid": "934993",
    "final_x": "3690005.24028",
    "final_y": "550667.648724",
    "longitude": "-90.04053176747792",
    "latitude": "30.007883907764914",
    "geocoded_column": {
      "latitude": "30.007883907764914",
      "longitude": "-90.04053176747792"
    }
  },
  {
    "service_request": "2022-934992",
    "request_type": "Trash/Recycling",
    "request_reason": "Order Recycling Cart",
    "date_created": "2022-11-01T21:41:25.000",
    "date_modified": "2022-11-01T21:41:25.000",
    "request_status": "Pending",
    "responsible_agency": "Department of Sanitation",
    "final_address": "4905 Arts St",
    "address_councildis": "D",
    "status": "Pending",
    "rowid": "934992",
    "final_x": "3685944.70582",
    "final_y": "550936.777109",
    "longitude": "-90.05335068315641",
    "latitude": "30.00874925764659",
    "geocoded_column": {
      "latitude": "30.00874925764659",
      "longitude": "-90.05335068315641"
    }
  },
  {
    "service_request": "2022-934991",
    "request_type": "Trash/Recycling",
    "request_reason": "Order Recycling Cart",
    "date_created": "2022-11-01T21:40:15.000",
    "date_modified": "2022-11-01T21:40:15.000",
    "request_status": "Pending",
    "responsible_agency": "Department of Sanitation",
    "final_address": "4526 Read Blvd",
    "address_councildis": "E",
    "status": "Pending",
    "rowid": "934991",
    "final_x": "3712773.7491",
    "final_y": "555120.409625",
    "longitude": "-89.9684324429325",
    "latitude": "30.019401267732274",
    "geocoded_column": {
      "latitude": "30.019401267732274",
      "longitude": "-89.9684324429325"
    }
  },
  {
    "service_request": "2022-934990",
    "request_type": "Trash/Recycling",
    "request_reason": "Order Recycling Cart",
    "date_created": "2022-11-01T21:38:47.000",
    "date_modified": "2022-11-01T21:38:47.000",
    "request_status": "Pending",
    "responsible_agency": "Department of Sanitation",
    "final_address": "2360 New York St",
    "address_councildis": "D",
    "status": "Pending",
    "rowid": "934990",
    "final_x": "3684630.64802",
    "final_y": "556588.077722",
    "longitude": "-90.05730338412182",
    "latitude": "30.024328558345946",
    "geocoded_column": {
      "latitude": "30.024328558345946",
      "longitude": "-90.05730338412182"
    }
  },
  {
    "service_request": "2022-934987",
    "request_type": "Trash/Recycling",
    "request_reason": "Replace Recycling Cart",
    "date_created": "2022-11-01T21:31:21.000",
    "date_modified": "2022-11-01T21:31:21.000",
    "request_status": "Pending",
    "responsible_agency": "Department of Sanitation",
    "final_address": "52 Hawk St",
    "address_councildis": "D",
    "status": "Pending",
    "rowid": "934987",
    "final_x": "3672679.64136",
    "final_y": "555690.687769",
    "longitude": "-90.095097123646",
    "latitude": "30.022221589214237",
    "geocoded_column": {
      "latitude": "30.022221589214237",
      "longitude": "-90.095097123646"
    }
  },
  {
    "service_request": "2022-934986",
    "request_type": "Trash/Recycling",
    "request_reason": "Order Recycling Cart",
    "date_created": "2022-11-01T21:30:55.000",
    "date_modified": "2022-11-01T21:30:55.000",
    "request_status": "Pending",
    "responsible_agency": "Department of Sanitation",
    "final_address": "4800 Feliciana Dr",
    "address_councildis": "D",
    "status": "Pending",
    "rowid": "934986",
    "final_x": "3690105.28521",
    "final_y": "550680.26722",
    "longitude": "-90.0402152468528",
    "latitude": "30.007915499920287",
    "geocoded_column": {
      "latitude": "30.007915499920287",
      "longitude": "-90.0402152468528"
    }
  },
  {
    "service_request": "2022-934985",
    "request_type": "Roads/Drainage",
    "request_reason": "Street Flooding / Drainage",
    "date_created": "2022-11-01T21:29:42.000",
    "date_modified": "2022-11-01T21:29:42.000",
    "request_status": "Pending",
    "responsible_agency": "Department of Public Works",
    "final_address": "5822 Patton St",
    "address_councildis": "A",
    "status": "Pending",
    "rowid": "934985",
    "final_x": "3665132.2681",
    "final_y": "518361.396278",
    "longitude": "-90.12019385065521",
    "latitude": "29.919800535355538",
    "geocoded_column": {
      "latitude": "29.919800535355538",
      "longitude": "-90.12019385065521"
    }
  },
  {
    "service_request": "2022-934984",
    "request_type": "Trash/Recycling",
    "request_reason": "Order Recycling Cart",
    "date_created": "2022-11-01T21:28:51.000",
    "date_modified": "2022-11-01T21:28:51.000",
    "request_status": "Pending",
    "responsible_agency": "Department of Sanitation",
    "final_address": "6159 Colbert St",
    "address_councildis": "A",
    "status": "Pending",
    "rowid": "934984",
    "final_x": "3667607.53901",
    "final_y": "548468.792338",
    "longitude": "-90.11136712293536",
    "latitude": "30.002513645513933",
    "geocoded_column": {
      "latitude": "30.002513645513933",
      "longitude": "-90.11136712293536"
    }
  },
  {
    "service_request": "2022-934983",
    "request_type": "Traffic Signals/Signs/Striping/Streetlights",
    "request_reason": "Street Light Outage/Malfunction",
    "date_created": "2022-11-01T21:26:52.000",
    "date_modified": "2022-11-01T21:26:53.000",
    "request_status": "Pending",
    "responsible_agency": "Department of Public Works",
    "final_address": "2323 Filmore Ave",
    "address_councildis": "D",
    "status": "Pending",
    "contractor": "Legacy Professional Services",
    "rowid": "934983",
    "final_x": "3684630.42613",
    "final_y": "552543.253782",
    "longitude": "-90.0574463999321",
    "latitude": "30.01320678639251",
    "geocoded_column": {
      "latitude": "30.01320678639251",
      "longitude": "-90.0574463999321"
    }
  },
  {
    "service_request": "2022-934982",
    "request_type": "Trash/Recycling",
    "request_reason": "Order Recycling Cart",
    "date_created": "2022-11-01T21:26:28.000",
    "date_modified": "2022-11-01T21:26:28.000",
    "request_status": "Pending",
    "responsible_agency": "Department of Sanitation",
    "final_address": "13071 New Hampshire Dr",
    "address_councildis": "E",
    "status": "Pending",
    "rowid": "934982",
    "final_x": "3723669.2375",
    "final_y": "564831.91293",
    "longitude": "-89.93363202730049",
    "latitude": "30.045742577137585",
    "geocoded_column": {
      "latitude": "30.045742577137585",
      "longitude": "-89.93363202730049"
    }
  },
  {
    "service_request": "2022-934981",
    "request_type": "Traffic Signals/Signs/Striping/Streetlights",
    "request_reason": "Street Light Outage/Malfunction",
    "date_created": "2022-11-01T21:26:05.000",
    "date_modified": "2022-11-01T21:26:05.000",
    "request_status": "Pending",
    "responsible_agency": "Department of Public Works",
    "final_address": "3450 Catalina Dr",
    "address_councildis": "C",
    "status": "Pending",
    "contractor": "Legacy Professional Services",
    "rowid": "934981",
    "final_x": "3696892.27869",
    "final_y": "524436.837884",
    "longitude": "-90.01972371910858",
    "latitude": "29.935543132149267",
    "geocoded_column": {
      "latitude": "29.935543132149267",
      "longitude": "-90.01972371910858"
    }
  },
  {
    "service_request": "2022-934980",
    "request_type": "Trash/Recycling",
    "request_reason": "Order Recycling Cart",
    "date_created": "2022-11-01T21:24:52.000",
    "date_modified": "2022-11-01T21:24:52.000",
    "request_status": "Pending",
    "responsible_agency": "Department of Sanitation",
    "final_address": "6828 Argonne Blvd",
    "address_councildis": "A",
    "status": "Pending",
    "rowid": "934980",
    "final_x": "3670603.01383",
    "final_y": "552769.896278",
    "longitude": "-90.10175796512603",
    "latitude": "30.014251992333474",
    "geocoded_column": {
      "latitude": "30.014251992333474",
      "longitude": "-90.10175796512603"
    }
  },
  {
    "service_request": "2022-934979",
    "request_type": "Trash/Recycling",
    "request_reason": "Replace Recycling Cart",
    "date_created": "2022-11-01T21:24:42.000",
    "date_modified": "2022-11-01T21:24:42.000",
    "request_status": "Pending",
    "responsible_agency": "Department of Sanitation",
    "final_address": "8121 Aberdeen Rd",
    "address_councildis": "E",
    "status": "Pending",
    "rowid": "934979",
    "final_x": "3702711.29098",
    "final_y": "561376.059422",
    "longitude": "-89.99999618851304",
    "latitude": "30.036927617801375",
    "geocoded_column": {
      "latitude": "30.036927617801375",
      "longitude": "-89.99999618851304"
    }
  },
  {
    "service_request": "2022-934978",
    "request_type": "Traffic Signals/Signs/Striping/Streetlights",
    "request_reason": "Traffic Signal Malfunctioning/Damaged",
    "date_created": "2022-11-01T21:24:29.000",
    "date_modified": "2022-11-01T21:24:29.000",
    "request_status": "Pending",
    "responsible_agency": "Department of Public Works",
    "final_address": "3421 Catalina Dr",
    "address_councildis": "C",
    "status": "Pending",
    "rowid": "934978",
    "final_x": "3696763.47152",
    "final_y": "524323.939516",
    "longitude": "-90.02013444704197",
    "latitude": "29.93523676024524",
    "geocoded_column": {
      "latitude": "29.93523676024524",
      "longitude": "-90.02013444704197"
    }
  },
  {
    "service_request": "2022-934977",
    "request_type": "Trash/Recycling",
    "request_reason": "Order Recycling Cart",
    "date_created": "2022-11-01T21:18:06.000",
    "date_modified": "2022-11-01T21:18:06.000",
    "request_status": "Pending",
    "responsible_agency": "Department of Sanitation",
    "final_address": "23 Swan St",
    "address_councildis": "D",
    "status": "Pending",
    "rowid": "934977",
    "final_x": "3673270.77288",
    "final_y": "557614.408923",
    "longitude": "-90.09316350208401",
    "latitude": "30.027493550320155",
    "geocoded_column": {
      "latitude": "30.027493550320155",
      "longitude": "-90.09316350208401"
    }
  },
  {
    "service_request": "2022-934976",
    "request_type": "Trash/Recycling",
    "request_reason": "Order Recycling Cart",
    "date_created": "2022-11-01T21:17:00.000",
    "date_modified": "2022-11-01T21:17:01.000",
    "request_status": "Pending",
    "responsible_agency": "Department of Sanitation",
    "final_address": "7500 Shaw Ave",
    "address_councildis": "E",
    "status": "Pending",
    "rowid": "934976",
    "final_x": "3707365.31998",
    "final_y": "563845.296673",
    "longitude": "-89.98519675980253",
    "latitude": "30.043567310907513",
    "geocoded_column": {
      "latitude": "30.043567310907513",
      "longitude": "-89.98519675980253"
    }
  },
  {
    "service_request": "2022-934975",
    "request_type": "Trash/Recycling",
    "request_reason": "Order Recycling Cart",
    "date_created": "2022-11-01T21:16:10.000",
    "date_modified": "2022-11-01T21:16:10.000",
    "request_status": "Pending",
    "responsible_agency": "Department of Sanitation",
    "final_address": "7720 Trapier Ave",
    "address_councildis": "E",
    "status": "Pending",
    "rowid": "934975",
    "final_x": "3706357.93271",
    "final_y": "563813.270369",
    "longitude": "-89.98838169676335",
    "latitude": "30.043511802387744",
    "geocoded_column": {
      "latitude": "30.043511802387744",
      "longitude": "-89.98838169676335"
    }
  },
  {
    "service_request": "2022-934974",
    "request_type": "Trash/Recycling",
    "request_reason": "Order Recycling Cart",
    "date_created": "2022-11-01T21:15:04.000",
    "date_modified": "2022-11-01T21:15:04.000",
    "request_status": "Pending",
    "responsible_agency": "Department of Sanitation",
    "final_address": "4628 Mithra St",
    "address_councildis": "D",
    "status": "Pending",
    "rowid": "934974",
    "final_x": "3691032.86083",
    "final_y": "553429.511639",
    "longitude": "-90.03718651818404",
    "latitude": "30.01544608899375",
    "geocoded_column": {
      "latitude": "30.01544608899375",
      "longitude": "-90.03718651818404"
    }
  },
  {
    "service_request": "2022-934973",
    "request_type": "Trash/Recycling",
    "request_reason": "Order Recycling Cart",
    "date_created": "2022-11-01T21:13:41.000",
    "date_modified": "2022-11-01T21:13:42.000",
    "request_status": "Pending",
    "responsible_agency": "Department of Sanitation",
    "final_address": "4301 Perlita St",
    "address_councildis": "D",
    "status": "Pending",
    "rowid": "934973",
    "final_x": "3678919.82363",
    "final_y": "548090.423698",
    "longitude": "-90.07564328057572",
    "latitude": "30.001136703019863",
    "geocoded_column": {
      "latitude": "30.001136703019863",
      "longitude": "-90.07564328057572"
    }
  },
  {
    "service_request": "2022-934972",
    "request_type": "Trash/Recycling",
    "request_reason": "Order Recycling Cart",
    "date_created": "2022-11-01T21:12:28.000",
    "date_modified": "2022-11-01T21:12:28.000",
    "request_status": "Pending",
    "responsible_agency": "Department of Sanitation",
    "final_address": "7520 Shaw Ave",
    "address_councildis": "E",
    "status": "Pending",
    "rowid": "934972",
    "final_x": "3707309.46795",
    "final_y": "563952.325473",
    "longitude": "-89.9853692953895",
    "latitude": "30.04386340418402",
    "geocoded_column": {
      "latitude": "30.04386340418402",
      "longitude": "-89.9853692953895"
    }
  },
  {
    "service_request": "2022-934971",
    "request_type": "Trash/Recycling",
    "request_reason": "Order Recycling Cart",
    "date_created": "2022-11-01T21:11:50.000",
    "date_modified": "2022-11-01T21:11:51.000",
    "request_status": "Pending",
    "responsible_agency": "Department of Sanitation",
    "final_address": "4440 Allen St",
    "address_councildis": "D",
    "status": "Pending",
    "rowid": "934971",
    "final_x": "3681690.93212",
    "final_y": "548959.435219",
    "longitude": "-90.06685877773567",
    "latitude": "30.003442249109593",
    "geocoded_column": {
      "latitude": "30.003442249109593",
      "longitude": "-90.06685877773567"
    }
  },
  {
    "service_request": "2022-934970",
    "request_type": "Trash/Recycling",
    "request_reason": "Order Recycling Cart",
    "date_created": "2022-11-01T21:11:33.000",
    "date_modified": "2022-11-01T21:11:33.000",
    "request_status": "Pending",
    "responsible_agency": "Department of Sanitation",
    "final_address": "839 Marigny St",
    "address_councildis": "C",
    "status": "Pending",
    "rowid": "934970",
    "final_x": "3685516.64591",
    "final_y": "535576.06023",
    "longitude": "-90.0552443670129",
    "latitude": "29.966525884647336",
    "geocoded_column": {
      "latitude": "29.966525884647336",
      "longitude": "-90.0552443670129"
    }
  },
  {
    "service_request": "2022-934969",
    "request_type": "Trash/Recycling",
    "request_reason": "Order Recycling Cart",
    "date_created": "2022-11-01T21:10:56.000",
    "date_modified": "2022-11-01T21:10:56.000",
    "request_status": "Pending",
    "responsible_agency": "Department of Sanitation",
    "final_address": "4801 Corsica Pl",
    "address_councildis": "E",
    "status": "Pending",
    "rowid": "934969",
    "final_x": "3727518.07046",
    "final_y": "561574.080287",
    "longitude": "-89.92159484345733",
    "latitude": "30.036655056059942",
    "geocoded_column": {
      "latitude": "30.036655056059942",
      "longitude": "-89.92159484345733"
    }
  },
  {
    "service_request": "2022-934968",
    "request_type": "Trash/Recycling",
    "request_reason": "Order Recycling Cart",
    "date_created": "2022-11-01T21:10:27.000",
    "date_modified": "2022-11-01T21:10:27.000",
    "request_status": "Pending",
    "responsible_agency": "Department of Sanitation",
    "final_address": "6736 Lake Willow Dr",
    "address_councildis": "E",
    "status": "Pending",
    "rowid": "934968",
    "final_x": "3703911.31729",
    "final_y": "559381.573213",
    "longitude": "-89.99627742054787",
    "latitude": "30.031405110804034",
    "geocoded_column": {
      "latitude": "30.031405110804034",
      "longitude": "-89.99627742054787"
    }
  },
  {
    "service_request": "2022-934967",
    "request_type": "Trash/Recycling",
    "request_reason": "Order Recycling Cart",
    "date_created": "2022-11-01T21:07:13.000",
    "date_modified": "2022-11-01T21:07:13.000",
    "request_status": "Pending",
    "responsible_agency": "Department of Sanitation",
    "final_address": "1316 Jay St",
    "address_councildis": "D",
    "status": "Pending",
    "rowid": "934967",
    "final_x": "3677338.45704",
    "final_y": "556018.883865",
    "longitude": "-90.08036507060098",
    "latitude": "30.022984756428198",
    "geocoded_column": {
      "latitude": "30.022984756428198",
      "longitude": "-90.08036507060098"
    }
  },
  {
    "service_request": "2022-934966",
    "request_type": "Trash/Recycling",
    "request_reason": "Order Recycling Cart",
    "date_created": "2022-11-01T21:05:03.000",
    "date_modified": "2022-11-01T21:05:03.000",
    "request_status": "Pending",
    "responsible_agency": "Department of Sanitation",
    "final_address": "82 Oriole St",
    "address_councildis": "D",
    "status": "Pending",
    "rowid": "934966",
    "final_x": "3675262.54792",
    "final_y": "556965.11849",
    "longitude": "-90.08689196389021",
    "latitude": "30.02564881197483",
    "geocoded_column": {
      "latitude": "30.02564881197483",
      "longitude": "-90.08689196389021"
    }
  },
  {
    "service_request": "2022-934965",
    "request_type": "Trash/Recycling",
    "request_reason": "Order Recycling Cart",
    "date_created": "2022-11-01T21:02:58.000",
    "date_modified": "2022-11-01T21:02:58.000",
    "request_status": "Pending",
    "responsible_agency": "Department of Sanitation",
    "final_address": "6119 Marigny St",
    "address_councildis": "D",
    "status": "Pending",
    "rowid": "934965",
    "final_x": "3683976.6102",
    "final_y": "555526.977497",
    "longitude": "-90.05940729928459",
    "latitude": "30.021430934880307",
    "geocoded_column": {
      "latitude": "30.021430934880307",
      "longitude": "-90.05940729928459"
    }
  },
  {
    "service_request": "2022-934964",
    "request_type": "Trash/Recycling",
    "request_reason": "Order Recycling Cart",
    "date_created": "2022-11-01T21:02:34.000",
    "date_modified": "2022-11-01T21:02:34.000",
    "request_status": "Pending",
    "responsible_agency": "Department of Sanitation",
    "final_address": "227 Stafford Pl",
    "address_councildis": "A",
    "status": "Pending",
    "rowid": "934964",
    "final_x": "3665774.19175",
    "final_y": "554012.834328",
    "longitude": "-90.11697300250992",
    "latitude": "30.017811461762367",
    "geocoded_column": {
      "latitude": "30.017811461762367",
      "longitude": "-90.11697300250992"
    }
  },
  {
    "service_request": "2022-934963",
    "request_type": "Roads/Drainage",
    "request_reason": "Damaged Sidewalk",
    "date_created": "2022-11-01T20:56:59.000",
    "date_modified": "2022-11-01T20:56:59.000",
    "request_status": "Pending",
    "responsible_agency": "Department of Public Works",
    "final_address": "6 W Blue Ridge Ct",
    "address_councildis": "E",
    "status": "Pending",
    "rowid": "934963",
    "final_x": "3714017.37183",
    "final_y": "567276.42986",
    "longitude": "-89.96404406896644",
    "latitude": "30.052784656711175",
    "geocoded_column": {
      "latitude": "30.052784656711175",
      "longitude": "-89.96404406896644"
    }
  },
  {
    "service_request": "2022-934962",
    "request_type": "Trash/Recycling",
    "request_reason": "Order Recycling Cart",
    "date_created": "2022-11-01T20:55:22.000",
    "date_modified": "2022-11-01T20:55:22.000",
    "request_status": "Pending",
    "responsible_agency": "Department of Sanitation",
    "final_address": "2444 Dreux Ave",
    "address_councildis": "D",
    "status": "Pending",
    "rowid": "934962",
    "final_x": "3685710.50889",
    "final_y": "552075.21519",
    "longitude": "-90.05405043050037",
    "latitude": "30.011886738314047",
    "geocoded_column": {
      "latitude": "30.011886738314047",
      "longitude": "-90.05405043050037"
    }
  },
  {
    "service_request": "2022-934961",
    "request_type": "Property Maintenance",
    "request_reason": "Property Maintenance",
    "date_created": "2022-11-01T20:52:10.000",
    "date_modified": "2022-11-01T20:52:10.000",
    "request_status": "Pending",
    "responsible_agency": "Department of Code Enforcement",
    "final_address": "6 W Blue Ridge Ct",
    "address_councildis": "E",
    "status": "Pending",
    "rowid": "934961",
    "final_x": "3714017.37183",
    "final_y": "567276.42986",
    "longitude": "-89.96404406896644",
    "latitude": "30.052784656711175",
    "geocoded_column": {
      "latitude": "30.052784656711175",
      "longitude": "-89.96404406896644"
    }
  },
  {
    "service_request": "2022-934960",
    "request_type": "Roads/Drainage",
    "request_reason": "Pothole",
    "date_created": "2022-11-01T20:51:24.000",
    "date_modified": "2022-11-01T20:51:24.000",
    "request_status": "Pending",
    "responsible_agency": "Department of Public Works",
    "final_address": "5010 Piety Dr",
    "address_councildis": "D",
    "status": "Pending",
    "rowid": "934960",
    "final_x": "3691134.43299",
    "final_y": "552501.974486",
    "longitude": "-90.03689875569371",
    "latitude": "30.012892546499508",
    "geocoded_column": {
      "latitude": "30.012892546499508",
      "longitude": "-90.03689875569371"
    }
  },
  {
    "service_request": "2022-934959",
    "request_type": "Trash/Recycling",
    "request_reason": "Order Recycling Cart",
    "date_created": "2022-11-01T20:50:47.000",
    "date_modified": "2022-11-01T20:50:47.000",
    "request_status": "Pending",
    "responsible_agency": "Department of Sanitation",
    "final_address": "4601 Longfellow Dr",
    "address_councildis": "E",
    "status": "Pending",
    "rowid": "934959",
    "final_x": "3709783.24984",
    "final_y": "554880.658264",
    "longitude": "-89.97789028369054",
    "latitude": "30.018839653654233",
    "geocoded_column": {
      "latitude": "30.018839653654233",
      "longitude": "-89.97789028369054"
    }
  },
  {
    "service_request": "2022-934958",
    "request_type": "Trash/Recycling",
    "request_reason": "Order Recycling Cart",
    "date_created": "2022-11-01T20:50:39.000",
    "date_modified": "2022-11-01T20:50:39.000",
    "request_status": "Pending",
    "responsible_agency": "Department of Sanitation",
    "final_address": "5012 Louisa Dr",
    "address_councildis": "D",
    "status": "Pending",
    "rowid": "934958",
    "final_x": "3690598.65404",
    "final_y": "552266.952022",
    "longitude": "-90.0385999106537",
    "latitude": "30.01226297895756",
    "geocoded_column": {
      "latitude": "30.01226297895756",
      "longitude": "-90.0385999106537"
    }
  },
  {
    "service_request": "2022-934957",
    "request_type": "Trash/Recycling",
    "request_reason": "Replace Trash Cart",
    "date_created": "2022-11-01T20:50:22.000",
    "date_modified": "2022-11-01T20:50:23.000",
    "request_status": "Pending",
    "responsible_agency": "Department of Sanitation",
    "final_address": "7230 Sardonyx St",
    "address_councildis": "D",
    "status": "Assigned to Contractor",
    "contractor": "Metro Disposal",
    "rowid": "934957",
    "final_x": "3669493.15822",
    "final_y": "555335.654873",
    "longitude": "-90.10517767540836",
    "latitude": "30.021339672142325",
    "geocoded_column": {
      "latitude": "30.021339672142325",
      "longitude": "-90.10517767540836"
    }
  },
  {
    "service_request": "2022-934956",
    "request_type": "Trash/Recycling",
    "request_reason": "Order Trash Cart",
    "date_created": "2022-11-01T20:50:06.000",
    "date_modified": "2022-11-01T20:50:07.000",
    "request_status": "Pending",
    "responsible_agency": "Department of Sanitation",
    "final_address": "3028 Marais St.",
    "address_councildis": "C",
    "status": "Assigned to Contractor",
    "contractor": "Metro Disposal",
    "rowid": "934956",
    "final_x": "3688748.66396",
    "final_y": "536404.647047",
    "longitude": "-90.04500829911602",
    "latitude": "29.968704686321242",
    "geocoded_column": {
      "latitude": "29.968704686321242",
      "longitude": "-90.04500829911602"
    }
  },
  {
    "service_request": "2022-934955",
    "request_type": "Trash/Recycling",
    "request_reason": "Order Recycling Cart",
    "date_created": "2022-11-01T20:49:27.000",
    "date_modified": "2022-11-01T20:49:27.000",
    "request_status": "Pending",
    "responsible_agency": "Department of Sanitation",
    "final_address": "617 S Hennessey St",
    "address_councildis": "A",
    "status": "Pending",
    "rowid": "934955",
    "final_x": "3668964.66766",
    "final_y": "537271.872584",
    "longitude": "-90.10745819857478",
    "latitude": "29.97168607255421",
    "geocoded_column": {
      "latitude": "29.97168607255421",
      "longitude": "-90.10745819857478"
    }
  },
  {
    "service_request": "2022-934954",
    "request_type": "Abandoned Vehicles",
    "request_reason": "Abandoned/Junk Vehicles",
    "date_created": "2022-11-01T20:46:25.000",
    "date_modified": "2022-11-01T20:46:25.000",
    "request_status": "Pending",
    "responsible_agency": "Department of Public Works",
    "final_address": "10500 Hayne Blvd",
    "address_councildis": "E",
    "status": "Pending",
    "rowid": "934954",
    "final_x": "3708589.48139",
    "final_y": "566402.163491",
    "longitude": "-89.98123256652492",
    "latitude": "30.050558009758674",
    "geocoded_column": {
      "latitude": "30.050558009758674",
      "longitude": "-89.98123256652492"
    }
  },
  {
    "service_request": "2022-934953",
    "request_type": "Trash/Recycling",
    "request_reason": "Order Recycling Cart",
    "date_created": "2022-11-01T20:46:23.000",
    "date_modified": "2022-11-01T20:46:23.000",
    "request_status": "Pending",
    "responsible_agency": "Department of Sanitation",
    "final_address": "2639 Desire St",
    "address_councildis": "D",
    "status": "Pending",
    "rowid": "934953",
    "final_x": "3691698.7224",
    "final_y": "541680.200716",
    "longitude": "-90.03550317560494",
    "latitude": "29.983119049350144",
    "geocoded_column": {
      "latitude": "29.983119049350144",
      "longitude": "-90.03550317560494"
    }
  },
  {
    "service_request": "2022-934952",
    "request_type": "Trash/Recycling",
    "request_reason": "Order Recycling Cart",
    "date_created": "2022-11-01T20:45:58.000",
    "date_modified": "2022-11-01T20:45:58.000",
    "request_status": "Pending",
    "responsible_agency": "Department of Sanitation",
    "final_address": "7059 Argonne Blvd",
    "address_councildis": "A",
    "status": "Pending",
    "rowid": "934952",
    "final_x": "3670873.16967",
    "final_y": "554285.441048",
    "longitude": "-90.10085290129963",
    "latitude": "30.018411215288392",
    "geocoded_column": {
      "latitude": "30.018411215288392",
      "longitude": "-90.10085290129963"
    }
  },
  {
    "service_request": "2022-934951",
    "request_type": "Trash/Recycling",
    "request_reason": "Order Recycling Cart",
    "date_created": "2022-11-01T20:45:53.000",
    "date_modified": "2022-11-01T20:45:53.000",
    "request_status": "Pending",
    "responsible_agency": "Department of Sanitation",
    "final_address": "170 16Th St",
    "address_councildis": "A",
    "status": "Pending",
    "rowid": "934951",
    "final_x": "3665690.58644",
    "final_y": "548355.878034",
    "longitude": "-90.11742683167131",
    "latitude": "30.002259242118253",
    "geocoded_column": {
      "latitude": "30.002259242118253",
      "longitude": "-90.11742683167131"
    }
  },
  {
    "service_request": "2022-934950",
    "request_type": "Trash/Recycling",
    "request_reason": "Order Recycling Cart",
    "date_created": "2022-11-01T20:45:40.000",
    "date_modified": "2022-11-01T20:45:40.000",
    "request_status": "Pending",
    "responsible_agency": "Department of Sanitation",
    "final_address": "4901 Music St, New Orleans, Louisiana, 70122",
    "address_councildis": "D",
    "status": "Pending",
    "rowid": "934950",
    "final_x": "3685659.69007",
    "final_y": "550900.812309",
    "longitude": "-90.05425240736616",
    "latitude": "30.008659118827424",
    "geocoded_column": {
      "latitude": "30.008659118827424",
      "longitude": "-90.05425240736616"
    }
  },
  {
    "service_request": "2022-934949",
    "request_type": "Trash/Recycling",
    "request_reason": "Order Recycling Cart",
    "date_created": "2022-11-01T20:45:08.000",
    "date_modified": "2022-11-01T20:45:08.000",
    "request_status": "Pending",
    "responsible_agency": "Department of Sanitation",
    "final_address": "8616 Willow St",
    "address_councildis": "A",
    "status": "Pending",
    "rowid": "934949",
    "final_x": "3660978.56358",
    "final_y": "530167.053633",
    "longitude": "-90.1329147370174",
    "latitude": "29.952382640977998",
    "geocoded_column": {
      "latitude": "29.952382640977998",
      "longitude": "-90.1329147370174"
    }
  },
  {
    "service_request": "2022-934948",
    "request_type": "Trash/Recycling",
    "request_reason": "Order Recycling Cart",
    "date_created": "2022-11-01T20:43:04.000",
    "date_modified": "2022-11-01T20:43:04.000",
    "request_status": "Pending",
    "responsible_agency": "Department of Sanitation",
    "final_address": "6239 Caldwell Dr",
    "address_councildis": "D",
    "status": "Pending",
    "rowid": "934948",
    "final_x": "3679467.99554",
    "final_y": "556257.434522",
    "longitude": "-90.07362791811484",
    "latitude": "30.02357648269675",
    "geocoded_column": {
      "latitude": "30.02357648269675",
      "longitude": "-90.07362791811484"
    }
  },
  {
    "service_request": "2022-934947",
    "request_type": "Trash/Recycling",
    "request_reason": "Order Recycling Cart",
    "date_created": "2022-11-01T20:42:11.000",
    "date_modified": "2022-11-01T20:42:11.000",
    "request_status": "Pending",
    "responsible_agency": "Department of Sanitation",
    "final_address": "130 Mound Ave",
    "address_councildis": "A",
    "status": "Pending",
    "rowid": "934947",
    "final_x": "3666548.98881",
    "final_y": "543831.15035",
    "longitude": "-90.11486702682444",
    "latitude": "29.989792718799464",
    "geocoded_column": {
      "latitude": "29.989792718799464",
      "longitude": "-90.11486702682444"
    }
  },
  {
    "service_request": "2022-934946",
    "request_type": "Trash/Recycling",
    "request_reason": "Order Recycling Cart",
    "date_created": "2022-11-01T20:41:08.000",
    "date_modified": "2022-11-01T20:41:08.000",
    "request_status": "Pending",
    "responsible_agency": "Department of Sanitation",
    "final_address": "6825 Marshal Foch St",
    "address_councildis": "A",
    "status": "Pending",
    "rowid": "934946",
    "final_x": "3670396.56897",
    "final_y": "552741.683478",
    "longitude": "-90.10241118697913",
    "latitude": "30.014180516725286",
    "geocoded_column": {
      "latitude": "30.014180516725286",
      "longitude": "-90.10241118697913"
    }
  },
  {
    "service_request": "2022-934945",
    "request_type": "Trash/Recycling",
    "request_reason": "Order Recycling Cart",
    "date_created": "2022-11-01T20:41:06.000",
    "date_modified": "2022-11-01T20:41:06.000",
    "request_status": "Pending",
    "responsible_agency": "Department of Sanitation",
    "final_address": "6556 Milne Blvd",
    "address_councildis": "A",
    "status": "Pending",
    "rowid": "934945",
    "final_x": "3667304.4306",
    "final_y": "551351.677013",
    "longitude": "-90.11222762828766",
    "latitude": "30.01044945965226",
    "geocoded_column": {
      "latitude": "30.01044945965226",
      "longitude": "-90.11222762828766"
    }
  },
  {
    "service_request": "2022-934944",
    "request_type": "Trash/Recycling",
    "request_reason": "Order Recycling Cart",
    "date_created": "2022-11-01T20:39:22.000",
    "date_modified": "2022-11-01T20:39:22.000",
    "request_status": "Pending",
    "responsible_agency": "Department of Sanitation",
    "final_address": "7230 Sardonyx St",
    "address_councildis": "D",
    "status": "Pending",
    "rowid": "934944",
    "final_x": "3669493.15822",
    "final_y": "555335.654873",
    "longitude": "-90.10517767540836",
    "latitude": "30.021339672142325",
    "geocoded_column": {
      "latitude": "30.021339672142325",
      "longitude": "-90.10517767540836"
    }
  },
  {
    "service_request": "2022-934943",
    "request_type": "Trash/Recycling",
    "request_reason": "Order Recycling Cart",
    "date_created": "2022-11-01T20:38:25.000",
    "date_modified": "2022-11-01T20:38:26.000",
    "request_status": "Pending",
    "responsible_agency": "Department of Sanitation",
    "final_address": "4737 Virgilian St",
    "address_councildis": "D",
    "status": "Pending",
    "rowid": "934943",
    "final_x": "3697559.25283",
    "final_y": "553762.707735",
    "longitude": "-90.01655415426141",
    "latitude": "30.016157646194056",
    "geocoded_column": {
      "latitude": "30.016157646194056",
      "longitude": "-90.01655415426141"
    }
  },
  {
    "service_request": "2022-934942",
    "request_type": "Trash/Recycling",
    "request_reason": "MIssed Recycling Pick-Up",
    "date_created": "2022-11-01T20:38:14.000",
    "date_modified": "2022-11-01T20:38:15.000",
    "request_status": "Pending",
    "responsible_agency": "Department of Sanitation",
    "final_address": "130 S Murat St",
    "address_councildis": "A",
    "status": "Assigned to Contractor",
    "contractor": "Richards Disposal",
    "rowid": "934942",
    "final_x": "3669543.29223",
    "final_y": "539119.185482",
    "longitude": "-90.10556829656949",
    "latitude": "29.976748527138856",
    "geocoded_column": {
      "latitude": "29.976748527138856",
      "longitude": "-90.10556829656949"
    }
  },
  {
    "service_request": "2022-934941",
    "request_type": "Trash/Recycling",
    "request_reason": "Order Recycling Cart",
    "date_created": "2022-11-01T20:34:36.000",
    "date_modified": "2022-11-01T20:34:36.000",
    "request_status": "Pending",
    "responsible_agency": "Department of Sanitation",
    "final_address": "722 Weiblen Pl",
    "address_councildis": "A",
    "status": "Pending",
    "rowid": "934941",
    "final_x": "3668374.33364",
    "final_y": "542531.230029",
    "longitude": "-90.10914511346975",
    "latitude": "29.986164883280722",
    "geocoded_column": {
      "latitude": "29.986164883280722",
      "longitude": "-90.10914511346975"
    }
  },
  {
    "service_request": "2022-934940",
    "request_type": "Trash/Recycling",
    "request_reason": "Order Recycling Cart",
    "date_created": "2022-11-01T20:34:35.000",
    "date_modified": "2022-11-01T20:34:35.000",
    "request_status": "Pending",
    "responsible_agency": "Department of Sanitation",
    "final_address": "7401 Lake Barrington Dr",
    "address_councildis": "E",
    "status": "Pending",
    "rowid": "934940",
    "final_x": "3712512.0604",
    "final_y": "564986.06333",
    "longitude": "-89.9688880916525",
    "latitude": "30.046536454199256",
    "geocoded_column": {
      "latitude": "30.046536454199256",
      "longitude": "-89.9688880916525"
    }
  },
  {
    "service_request": "2022-934939",
    "request_type": "Trash/Recycling",
    "request_reason": "Order Trash Cart",
    "date_created": "2022-11-01T20:33:50.000",
    "date_modified": "2022-11-01T20:33:50.000",
    "request_status": "Pending",
    "responsible_agency": "Department of Sanitation",
    "final_address": "2811 Eton St New Orleans 70131",
    "address_councildis": "C",
    "status": "Assigned to Contractor",
    "contractor": "Richards Disposal",
    "rowid": "934939",
    "final_x": "3703863.32074",
    "final_y": "520609.236024",
    "longitude": "-89.99785708333408",
    "latitude": "29.924796976220083",
    "geocoded_column": {
      "latitude": "29.924796976220083",
      "longitude": "-89.99785708333408"
    }
  },
  {
    "service_request": "2022-934938",
    "request_type": "Trash/Recycling",
    "request_reason": "Replace Trash Cart",
    "date_created": "2022-11-01T20:33:07.000",
    "date_modified": "2022-11-01T20:33:08.000",
    "request_status": "Pending",
    "responsible_agency": "Department of Sanitation",
    "final_address": "2947 Oliver White Ave",
    "address_councildis": "D",
    "status": "Assigned to Contractor",
    "contractor": "Metro Disposal",
    "rowid": "934938",
    "final_x": "3692091.91139",
    "final_y": "543199.325774",
    "longitude": "-90.03420688701394",
    "latitude": "29.9872838454095",
    "geocoded_column": {
      "latitude": "29.9872838454095",
      "longitude": "-90.03420688701394"
    }
  },
  {
    "service_request": "2022-934937",
    "request_type": "Trash/Recycling",
    "request_reason": "Order Recycling Cart",
    "date_created": "2022-11-01T20:31:24.000",
    "date_modified": "2022-11-01T20:31:24.000",
    "request_status": "Pending",
    "responsible_agency": "Department of Sanitation",
    "final_address": "2947 Oliver White Ave",
    "address_councildis": "D",
    "status": "Pending",
    "rowid": "934937",
    "final_x": "3692091.91139",
    "final_y": "543199.325774",
    "longitude": "-90.03420688701394",
    "latitude": "29.9872838454095",
    "geocoded_column": {
      "latitude": "29.9872838454095",
      "longitude": "-90.03420688701394"
    }
  },
  {
    "service_request": "2022-934936",
    "request_type": "Trash/Recycling",
    "request_reason": "Order Recycling Cart",
    "date_created": "2022-11-01T20:30:32.000",
    "date_modified": "2022-11-01T20:30:32.000",
    "request_status": "Pending",
    "responsible_agency": "Department of Sanitation",
    "final_address": "5251 Michoud Blvd",
    "address_councildis": "E",
    "status": "Pending",
    "rowid": "934936",
    "final_x": "3724873.17337",
    "final_y": "562779.96944",
    "longitude": "-89.9299064760112",
    "latitude": "30.04006008965546",
    "geocoded_column": {
      "latitude": "30.04006008965546",
      "longitude": "-89.9299064760112"
    }
  },
  {
    "service_request": "2022-934935",
    "request_type": "Trash/Recycling",
    "request_reason": "Replace Recycling Cart",
    "date_created": "2022-11-01T20:28:56.000",
    "date_modified": "2022-11-01T20:28:56.000",
    "request_status": "Pending",
    "responsible_agency": "Department of Sanitation",
    "final_address": "5835 Rhodes Ave",
    "address_councildis": "C",
    "status": "Pending",
    "rowid": "934935",
    "final_x": "3704946.23857",
    "final_y": "519503.889271",
    "longitude": "-89.9944794672973",
    "latitude": "29.921722907517996",
    "geocoded_column": {
      "latitude": "29.921722907517996",
      "longitude": "-89.9944794672973"
    }
  },
  {
    "service_request": "2022-934934",
    "request_type": "Trash/Recycling",
    "request_reason": "Replace Recycling Cart",
    "date_created": "2022-11-01T20:27:44.000",
    "date_modified": "2022-11-01T20:27:44.000",
    "request_status": "Pending",
    "responsible_agency": "Department of Sanitation",
    "final_address": "6845 Milne Blvd",
    "address_councildis": "A",
    "status": "Pending",
    "rowid": "934934",
    "final_x": "3667693.70311",
    "final_y": "553150.981143",
    "longitude": "-90.1109371194508",
    "latitude": "30.015385501836644",
    "geocoded_column": {
      "latitude": "30.015385501836644",
      "longitude": "-90.1109371194508"
    }
  },
  {
    "service_request": "2022-934933",
    "request_type": "Trash/Recycling",
    "request_reason": "Replace Trash Cart",
    "date_created": "2022-11-01T20:25:41.000",
    "date_modified": "2022-11-01T20:25:42.000",
    "request_status": "Pending",
    "responsible_agency": "Department of Sanitation",
    "final_address": "4637 Baronne St",
    "address_councildis": "B",
    "status": "Assigned to Contractor",
    "contractor": "Richards Disposal",
    "rowid": "934933",
    "final_x": "3669720.4969",
    "final_y": "521533.899129",
    "longitude": "-90.10560371844876",
    "latitude": "29.92838954141403",
    "geocoded_column": {
      "latitude": "29.92838954141403",
      "longitude": "-90.10560371844876"
    }
  },
  {
    "service_request": "2022-934932",
    "request_type": "Trash/Recycling",
    "request_reason": "Order Recycling Cart",
    "date_created": "2022-11-01T20:24:07.000",
    "date_modified": "2022-11-01T20:24:08.000",
    "request_status": "Pending",
    "responsible_agency": "Department of Sanitation",
    "final_address": "7820 Newcastle St",
    "address_councildis": "E",
    "status": "Pending",
    "rowid": "934932",
    "final_x": "3696940.6353",
    "final_y": "559904.389981",
    "longitude": "-90.01828599773117",
    "latitude": "30.033064466478933",
    "geocoded_column": {
      "latitude": "30.033064466478933",
      "longitude": "-90.01828599773117"
    }
  },
  {
    "service_request": "2022-934931",
    "request_type": "Trash/Recycling",
    "request_reason": "Order Recycling Cart",
    "date_created": "2022-11-01T20:22:50.000",
    "date_modified": "2022-11-01T20:22:50.000",
    "request_status": "Pending",
    "responsible_agency": "Department of Sanitation",
    "final_address": "5630 Bentley Dr",
    "address_councildis": "E",
    "status": "Pending",
    "rowid": "934931",
    "final_x": "3703801.53943",
    "final_y": "556824.241178",
    "longitude": "-89.99671858803845",
    "latitude": "30.02437696231326",
    "geocoded_column": {
      "latitude": "30.02437696231326",
      "longitude": "-89.99671858803845"
    }
  },
  {
    "service_request": "2022-934930",
    "request_type": "Trash/Recycling",
    "request_reason": "Order Recycling Cart",
    "date_created": "2022-11-01T20:22:36.000",
    "date_modified": "2022-11-01T20:22:37.000",
    "request_status": "Pending",
    "responsible_agency": "Department of Sanitation",
    "final_address": "5115 Eastern St",
    "address_councildis": "D",
    "status": "Pending",
    "rowid": "934930",
    "final_x": "3687964.59798",
    "final_y": "551833.080598",
    "longitude": "-90.04693741218956",
    "latitude": "30.011151567240706",
    "geocoded_column": {
      "latitude": "30.011151567240706",
      "longitude": "-90.04693741218956"
    }
  },
  {
    "service_request": "2022-934929",
    "request_type": "Trash/Recycling",
    "request_reason": "Replace Recycling Cart",
    "date_created": "2022-11-01T20:20:28.000",
    "date_modified": "2022-11-01T20:20:28.000",
    "request_status": "Pending",
    "responsible_agency": "Department of Sanitation",
    "final_address": "2106 Piety St",
    "address_councildis": "D",
    "status": "Pending",
    "rowid": "934929",
    "final_x": "3690771.71388",
    "final_y": "539653.031626",
    "longitude": "-90.03850348849589",
    "latitude": "29.977573895447094",
    "geocoded_column": {
      "latitude": "29.977573895447094",
      "longitude": "-90.03850348849589"
    }
  },
  {
    "service_request": "2022-934928",
    "request_type": "Trash/Recycling",
    "request_reason": "Order Recycling Cart",
    "date_created": "2022-11-01T20:20:24.000",
    "date_modified": "2022-11-01T20:20:24.000",
    "request_status": "Pending",
    "responsible_agency": "Department of Sanitation",
    "final_address": "2324 Gordon St",
    "address_councildis": "E",
    "status": "Pending",
    "rowid": "934928",
    "final_x": "3700934.10948",
    "final_y": "537945.013961",
    "longitude": "-90.0064698852921",
    "latitude": "29.97255779036344",
    "geocoded_column": {
      "latitude": "29.97255779036344",
      "longitude": "-90.0064698852921"
    }
  },
  {
    "service_request": "2022-934927",
    "request_type": "Trash/Recycling",
    "request_reason": "Order Trash Cart",
    "date_created": "2022-11-01T20:20:04.000",
    "date_modified": "2022-11-01T20:20:05.000",
    "request_status": "Pending",
    "responsible_agency": "Department of Sanitation",
    "final_address": "2159 N Tonti St",
    "address_councildis": "D",
    "status": "Assigned to Contractor",
    "contractor": "Metro Disposal",
    "rowid": "934927",
    "final_x": "3684034.45909",
    "final_y": "540707.403979",
    "longitude": "-90.05974497607941",
    "latitude": "29.980680668297726",
    "geocoded_column": {
      "latitude": "29.980680668297726",
      "longitude": "-90.05974497607941"
    }
  },
  {
    "service_request": "2022-934926",
    "request_type": "Abandoned Vehicles",
    "request_reason": "Abandoned/Junk Vehicles",
    "date_created": "2022-11-01T20:18:44.000",
    "date_modified": "2022-11-01T20:18:44.000",
    "request_status": "Pending",
    "responsible_agency": "Department of Public Works",
    "final_address": "7406 Adventure Ave",
    "address_councildis": "E",
    "status": "Pending",
    "rowid": "934926",
    "final_x": "3725970.09702",
    "final_y": "570073.607271",
    "longitude": "-89.92615682848015",
    "latitude": "30.0600775546344",
    "geocoded_column": {
      "latitude": "30.0600775546344",
      "longitude": "-89.92615682848015"
    }
  },
  {
    "service_request": "2022-934925",
    "request_type": "Trash/Recycling",
    "request_reason": "Missed Trash Pick-Up",
    "date_created": "2022-11-01T20:17:54.000",
    "date_modified": "2022-11-01T20:17:55.000",
    "request_status": "Pending",
    "responsible_agency": "Department of Sanitation",
    "final_address": "1930 Foucher St",
    "address_councildis": "B",
    "status": "Assigned to Contractor",
    "contractor": "Richards Disposal",
    "rowid": "934925",
    "final_x": "3672974.67355",
    "final_y": "522540.367354",
    "longitude": "-90.09529664300699",
    "latitude": "29.93106072938339",
    "geocoded_column": {
      "latitude": "29.93106072938339",
      "longitude": "-90.09529664300699"
    }
  },
  {
    "service_request": "2022-934924",
    "request_type": "Trash/Recycling",
    "request_reason": "Missed Trash Pick-Up",
    "date_created": "2022-11-01T20:17:14.000",
    "date_modified": "2022-11-01T20:17:15.000",
    "request_status": "Pending",
    "responsible_agency": "Department of Sanitation",
    "final_address": "1301 General Taylor St",
    "address_councildis": "B",
    "status": "Assigned to Contractor",
    "contractor": "Richards Disposal",
    "rowid": "934924",
    "final_x": "3672844.37032",
    "final_y": "520291.135864",
    "longitude": "-90.09578468200387",
    "latitude": "29.924879936904606",
    "geocoded_column": {
      "latitude": "29.924879936904606",
      "longitude": "-90.09578468200387"
    }
  },
  {
    "service_request": "2022-934923",
    "request_type": "Trash/Recycling",
    "request_reason": "Missed Trash Pick-Up",
    "date_created": "2022-11-01T20:14:04.000",
    "date_modified": "2022-11-01T20:14:05.000",
    "request_status": "Pending",
    "responsible_agency": "Department of Sanitation",
    "final_address": "1821 Delachaise St",
    "address_councildis": "B",
    "status": "Assigned to Contractor",
    "contractor": "Richards Disposal",
    "rowid": "934923",
    "final_x": "3673543.1595",
    "final_y": "522281.719546",
    "longitude": "-90.09351084033159",
    "latitude": "29.930332630031966",
    "geocoded_column": {
      "latitude": "29.930332630031966",
      "longitude": "-90.09351084033159"
    }
  },
  {
    "service_request": "2022-934922",
    "request_type": "Trash/Recycling",
    "request_reason": "Order Recycling Cart",
    "date_created": "2022-11-01T20:13:00.000",
    "date_modified": "2022-11-01T20:13:00.000",
    "request_status": "Pending",
    "responsible_agency": "Department of Sanitation",
    "final_address": "2729 Gladiolus St",
    "address_councildis": "D",
    "status": "Pending",
    "rowid": "934922",
    "final_x": "3687963.13276",
    "final_y": "547663.820626",
    "longitude": "-90.04708990541175",
    "latitude": "29.99968766818103",
    "geocoded_column": {
      "latitude": "29.99968766818103",
      "longitude": "-90.04708990541175"
    }
  },
  {
    "service_request": "2022-934921",
    "request_type": "Traffic Signals/Signs/Striping/Streetlights",
    "request_reason": "Street Light Outage/Malfunction",
    "date_created": "2022-11-01T20:11:08.000",
    "date_modified": "2022-11-01T20:11:08.000",
    "request_status": "Pending",
    "responsible_agency": "Department of Public Works",
    "final_address": "2326 Holiday Dr",
    "address_councildis": "C",
    "status": "Pending",
    "contractor": "Legacy Professional Services",
    "rowid": "934921",
    "final_x": "3698951.64836",
    "final_y": "522751.404922",
    "longitude": "-90.0132836097515",
    "latitude": "29.930843696750383",
    "geocoded_column": {
      "latitude": "29.930843696750383",
      "longitude": "-90.0132836097515"
    }
  },
  {
    "service_request": "2022-934920",
    "request_type": "Trash/Recycling",
    "request_reason": "Order Recycling Cart",
    "date_created": "2022-11-01T20:10:30.000",
    "date_modified": "2022-11-01T20:10:30.000",
    "request_status": "Pending",
    "responsible_agency": "Department of Sanitation",
    "final_address": "447 Fairway Dr",
    "address_councildis": "A",
    "status": "Pending",
    "rowid": "934920",
    "final_x": "3664365.92269",
    "final_y": "542770.714445",
    "longitude": "-90.12179818057967",
    "latitude": "29.986940529346576",
    "geocoded_column": {
      "latitude": "29.986940529346576",
      "longitude": "-90.12179818057967"
    }
  },
  {
    "service_request": "2022-934919",
    "request_type": "Trash/Recycling",
    "request_reason": "Replace Recycling Cart",
    "date_created": "2022-11-01T20:10:21.000",
    "date_modified": "2022-11-01T20:10:21.000",
    "request_status": "Pending",
    "responsible_agency": "Department of Sanitation",
    "final_address": "3617 pin oak ave nola 70131",
    "status": "Pending",
    "rowid": "934919",
    "longitude": "0.0",
    "latitude": "0.0",
    "geocoded_column": {
      "latitude": "0.0",
      "longitude": "0.0"
    }
  },
  {
    "service_request": "2022-934918",
    "request_type": "Trash/Recycling",
    "request_reason": "Order Recycling Cart",
    "date_created": "2022-11-01T20:09:24.000",
    "date_modified": "2022-11-01T20:09:24.000",
    "request_status": "Pending",
    "responsible_agency": "Department of Sanitation",
    "final_address": "921 Emerald St",
    "address_councildis": "D",
    "status": "Pending",
    "rowid": "934918",
    "final_x": "3670855.93435",
    "final_y": "554929.307224",
    "longitude": "-90.10088547721307",
    "latitude": "30.02018212750014",
    "geocoded_column": {
      "latitude": "30.02018212750014",
      "longitude": "-90.10088547721307"
    }
  },
  {
    "service_request": "2022-934917",
    "request_type": "Trash/Recycling",
    "request_reason": "Order Recycling Cart",
    "date_created": "2022-11-01T20:07:44.000",
    "date_modified": "2022-11-01T20:07:44.000",
    "request_status": "Pending",
    "responsible_agency": "Department of Sanitation",
    "final_address": "419 Kenilworth St",
    "address_councildis": "A",
    "status": "Pending",
    "rowid": "934917",
    "final_x": "3667503.34465",
    "final_y": "546191.131664",
    "longitude": "-90.11177299666124",
    "latitude": "29.996253919805064",
    "geocoded_column": {
      "latitude": "29.996253919805064",
      "longitude": "-90.11177299666124"
    }
  },
  {
    "service_request": "2022-934916",
    "request_type": "Trash/Recycling",
    "request_reason": "Order Recycling Cart",
    "date_created": "2022-11-01T20:07:06.000",
    "date_modified": "2022-11-01T20:07:06.000",
    "request_status": "Pending",
    "responsible_agency": "Department of Sanitation",
    "final_address": "6421 St Bernard Ave",
    "address_councildis": "D",
    "status": "Pending",
    "rowid": "934916",
    "final_x": "3677037.3524",
    "final_y": "556668.555738",
    "longitude": "-90.08129406389371",
    "latitude": "30.024780167792514",
    "geocoded_column": {
      "latitude": "30.024780167792514",
      "longitude": "-90.08129406389371"
    }
  },
  {
    "service_request": "2022-934915",
    "request_type": "Trash/Recycling",
    "request_reason": "Missed Trash Pick-Up",
    "date_created": "2022-11-01T20:06:36.000",
    "date_modified": "2022-11-01T20:06:37.000",
    "request_status": "Pending",
    "responsible_agency": "Department of Sanitation",
    "final_address": "4800 BLK Carondelet St",
    "address_councildis": "B",
    "status": "Assigned to Contractor",
    "contractor": "Richards Disposal",
    "rowid": "934915",
    "final_x": "3669207.29147",
    "final_y": "521082.012414",
    "longitude": "-90.10723906540228",
    "latitude": "29.927162106952178",
    "geocoded_column": {
      "latitude": "29.927162106952178",
      "longitude": "-90.10723906540228"
    }
  },
  {
    "service_request": "2022-934914",
    "request_type": "Trash/Recycling",
    "request_reason": "Order Recycling Cart",
    "date_created": "2022-11-01T20:06:07.000",
    "date_modified": "2022-11-01T20:06:07.000",
    "request_status": "Pending",
    "responsible_agency": "Department of Sanitation",
    "final_address": "6016 Argonne Blvd",
    "address_councildis": "A",
    "status": "Pending",
    "rowid": "934914",
    "final_x": "3670104.66241",
    "final_y": "547290.050641",
    "longitude": "-90.10351833521887",
    "latitude": "29.999199055833078",
    "geocoded_column": {
      "latitude": "29.999199055833078",
      "longitude": "-90.10351833521887"
    }
  },
  {
    "service_request": "2022-934913",
    "request_type": "Trash/Recycling",
    "request_reason": "Order Recycling Cart",
    "date_created": "2022-11-01T20:05:45.000",
    "date_modified": "2022-11-01T20:05:45.000",
    "request_status": "Pending",
    "responsible_agency": "Department of Sanitation",
    "final_address": "4749 Western St",
    "address_councildis": "D",
    "status": "Pending",
    "rowid": "934913",
    "final_x": "3684195.6534",
    "final_y": "550483.856852",
    "longitude": "-90.05889241639325",
    "latitude": "30.00755749804106",
    "geocoded_column": {
      "latitude": "30.00755749804106",
      "longitude": "-90.05889241639325"
    }
  },
  {
    "service_request": "2022-934912",
    "request_type": "Trash/Recycling",
    "request_reason": "Order Recycling Cart",
    "date_created": "2022-11-01T20:03:39.000",
    "date_modified": "2022-11-01T20:03:39.000",
    "request_status": "Pending",
    "responsible_agency": "Department of Sanitation",
    "final_address": "4928 Sandalwood St",
    "address_councildis": "E",
    "status": "Pending",
    "rowid": "934912",
    "final_x": "3712041.30757",
    "final_y": "557272.957851",
    "longitude": "-89.97066580439461",
    "latitude": "30.025343898347618",
    "geocoded_column": {
      "latitude": "30.025343898347618",
      "longitude": "-89.97066580439461"
    }
  },
  {
    "service_request": "2022-934911",
    "request_type": "Trash/Recycling",
    "request_reason": "Order Recycling Cart",
    "date_created": "2022-11-01T20:02:42.000",
    "date_modified": "2022-11-01T20:02:42.000",
    "request_status": "Pending",
    "responsible_agency": "Department of Sanitation",
    "final_address": "6381 Colbert St",
    "address_councildis": "A",
    "status": "Pending",
    "rowid": "934911",
    "final_x": "3667750.39348",
    "final_y": "550023.197076",
    "longitude": "-90.11086343609524",
    "latitude": "30.006783528477207",
    "geocoded_column": {
      "latitude": "30.006783528477207",
      "longitude": "-90.11086343609524"
    }
  },
  {
    "service_request": "2022-934910",
    "request_type": "Mosquito, Termite & Rodent Control",
    "request_reason": "Mosquito Complaint",
    "date_created": "2022-11-01T20:02:07.000",
    "date_modified": "2022-11-01T20:02:07.000",
    "request_status": "Pending",
    "responsible_agency": "Mosquito, Termite & Rodent Control Board",
    "final_address": "4751 Knight Dr",
    "address_councildis": "E",
    "status": "Pending",
    "rowid": "934910",
    "final_x": "3708200.97246",
    "final_y": "555622.376345",
    "longitude": "-89.98286205284205",
    "latitude": "30.02093046042013",
    "geocoded_column": {
      "latitude": "30.02093046042013",
      "longitude": "-89.98286205284205"
    }
  },
  {
    "service_request": "2022-934909",
    "request_type": "Trash/Recycling",
    "request_reason": "Order Recycling Cart",
    "date_created": "2022-11-01T20:02:06.000",
    "date_modified": "2022-11-01T20:02:06.000",
    "request_status": "Pending",
    "responsible_agency": "Department of Sanitation",
    "final_address": "4919 Arts St",
    "address_councildis": "D",
    "status": "Pending",
    "rowid": "934909",
    "final_x": "3685930.11266",
    "final_y": "551035.383381",
    "longitude": "-90.05339330772976",
    "latitude": "30.0090208371814",
    "geocoded_column": {
      "latitude": "30.0090208371814",
      "longitude": "-90.05339330772976"
    }
  },
  {
    "service_request": "2022-934908",
    "request_type": "Trash/Recycling",
    "request_reason": "Repair Recycling Cart",
    "date_created": "2022-11-01T19:57:51.000",
    "date_modified": "2022-11-01T19:57:51.000",
    "request_status": "Pending",
    "responsible_agency": "Department of Sanitation",
    "final_address": "6031 Warwick Ct",
    "address_councildis": "C",
    "status": "Pending",
    "rowid": "934908",
    "final_x": "3706141.75537",
    "final_y": "515818.027188",
    "longitude": "-89.99084207868353",
    "latitude": "29.91154959812794",
    "geocoded_column": {
      "latitude": "29.91154959812794",
      "longitude": "-89.99084207868353"
    }
  },
  {
    "service_request": "2022-934907",
    "request_type": "Trash/Recycling",
    "request_reason": "Order Recycling Cart",
    "date_created": "2022-11-01T19:57:48.000",
    "date_modified": "2022-11-01T19:57:49.000",
    "request_status": "Pending",
    "responsible_agency": "Department of Sanitation",
    "final_address": "940 Desire St",
    "address_councildis": "C",
    "status": "Pending",
    "rowid": "934907",
    "final_x": "3690017.80176",
    "final_y": "535234.698502",
    "longitude": "-90.04104197165077",
    "latitude": "29.965448440858374",
    "geocoded_column": {
      "latitude": "29.965448440858374",
      "longitude": "-90.04104197165077"
    }
  },
  {
    "service_request": "2022-934906",
    "request_type": "Trash/Recycling",
    "request_reason": "Repair Recycling Cart",
    "date_created": "2022-11-01T19:57:35.000",
    "date_modified": "2022-11-01T19:57:35.000",
    "request_status": "Pending",
    "responsible_agency": "Department of Sanitation",
    "final_address": "6523 Manchester St",
    "address_councildis": "E",
    "status": "Pending",
    "rowid": "934906",
    "final_x": "3697395.63767",
    "final_y": "559417.949853",
    "longitude": "-90.01686581556521",
    "latitude": "30.031712577024948",
    "geocoded_column": {
      "latitude": "30.031712577024948",
      "longitude": "-90.01686581556521"
    }
  },
  {
    "service_request": "2022-934905",
    "request_type": "Trash/Recycling",
    "request_reason": "Order Recycling Cart",
    "date_created": "2022-11-01T19:55:17.000",
    "date_modified": "2022-11-01T19:55:17.000",
    "request_status": "Pending",
    "responsible_agency": "Department of Sanitation",
    "final_address": "251 West Robert E Lee Blvd",
    "address_councildis": "A",
    "status": "Pending",
    "rowid": "934905",
    "final_x": "3665806.23437",
    "final_y": "555021.315353",
    "longitude": "-90.11683793088102",
    "latitude": "30.020583493962206",
    "geocoded_column": {
      "latitude": "30.020583493962206",
      "longitude": "-90.11683793088102"
    }
  },
  {
    "service_request": "2022-934904",
    "request_type": "Trash/Recycling",
    "request_reason": "Order Recycling Cart",
    "date_created": "2022-11-01T19:54:09.000",
    "date_modified": "2022-11-01T19:54:09.000",
    "request_status": "Pending",
    "responsible_agency": "Department of Sanitation",
    "final_address": "8511 Morrison Rd",
    "address_councildis": "E",
    "status": "Pending",
    "rowid": "934904",
    "final_x": "3704387.56964",
    "final_y": "561341.972382",
    "longitude": "-89.99470008165738",
    "latitude": "30.0367801519222",
    "geocoded_column": {
      "latitude": "30.0367801519222",
      "longitude": "-89.99470008165738"
    }
  },
  {
    "service_request": "2022-934903",
    "request_type": "Trash/Recycling",
    "request_reason": "Missed Trash Pick-Up",
    "date_created": "2022-11-01T19:53:40.000",
    "date_modified": "2022-11-01T19:53:41.000",
    "request_status": "Pending",
    "responsible_agency": "Department of Sanitation",
    "final_address": "1934 Foucher St",
    "address_councildis": "B",
    "status": "Assigned to Contractor",
    "contractor": "Richards Disposal",
    "rowid": "934903",
    "final_x": "3672965.40232",
    "final_y": "522567.842298",
    "longitude": "-90.09532497398654",
    "latitude": "29.931136552044457",
    "geocoded_column": {
      "latitude": "29.931136552044457",
      "longitude": "-90.09532497398654"
    }
  },
  {
    "service_request": "2022-934902",
    "request_type": "Trash/Recycling",
    "request_reason": "Order Recycling Cart",
    "date_created": "2022-11-01T19:52:53.000",
    "date_modified": "2022-11-01T19:52:53.000",
    "request_status": "Pending",
    "responsible_agency": "Department of Sanitation",
    "final_address": "255 West Robert E Lee Blvd",
    "address_councildis": "A",
    "status": "Pending",
    "rowid": "934902",
    "final_x": "3665764.99636",
    "final_y": "554998.331481",
    "longitude": "-90.11696900209189",
    "latitude": "30.020521500175303",
    "geocoded_column": {
      "latitude": "30.020521500175303",
      "longitude": "-90.11696900209189"
    }
  },
  {
    "service_request": "2022-934901",
    "request_type": "Trash/Recycling",
    "request_reason": "Order Recycling Cart",
    "date_created": "2022-11-01T19:52:37.000",
    "date_modified": "2022-11-01T19:52:38.000",
    "request_status": "Pending",
    "responsible_agency": "Department of Sanitation",
    "final_address": "14311 Sai Gon Dr",
    "address_councildis": "E",
    "status": "Pending",
    "rowid": "934901",
    "final_x": "3729639.65536",
    "final_y": "563055.20752",
    "longitude": "-89.91483235429105",
    "latitude": "30.040655495786627",
    "geocoded_column": {
      "latitude": "30.040655495786627",
      "longitude": "-89.91483235429105"
    }
  },
  {
    "service_request": "2022-934900",
    "request_type": "Trash/Recycling",
    "request_reason": "Replace Trash Cart",
    "date_created": "2022-11-01T19:52:36.000",
    "date_modified": "2022-11-01T19:52:36.000",
    "request_status": "Pending",
    "responsible_agency": "Department of Sanitation",
    "final_address": "1575 N Dorgenois St",
    "address_councildis": "D",
    "status": "Assigned to Contractor",
    "contractor": "Metro Disposal",
    "rowid": "934900",
    "final_x": "3679484.22831",
    "final_y": "539789.251658",
    "longitude": "-90.07414845994522",
    "latitude": "29.97829434771025",
    "geocoded_column": {
      "latitude": "29.97829434771025",
      "longitude": "-90.07414845994522"
    }
  },
  {
    "service_request": "2022-934899",
    "request_type": "Trash/Recycling",
    "request_reason": "Order Recycling Cart",
    "date_created": "2022-11-01T19:52:27.000",
    "date_modified": "2022-11-01T19:52:28.000",
    "request_status": "Pending",
    "responsible_agency": "Department of Sanitation",
    "final_address": "917 Egania St",
    "address_councildis": "E",
    "status": "Pending",
    "rowid": "934899",
    "final_x": "3696658.54512",
    "final_y": "533420.477636",
    "longitude": "-90.02013657690115",
    "latitude": "29.960252370749064",
    "geocoded_column": {
      "latitude": "29.960252370749064",
      "longitude": "-90.02013657690115"
    }
  },