[
  {
    "service_request": "2025-1216464",
    "request_type": "General Services",
    "request_reason": "General Service Request",
    "date_created": "2025-08-07T22:40:52.000",
    "date_modified": "2025-08-07T22:40:54.000",
    "request_status": "Pending",
    "responsible_agency": "Orleans Parish Communication District",
    "final_address": "3700 Orleans Ave",
    "address_councildis": "A",
    "status": "Pending",
    "rowid": "1216464",
    "final_x": "3673513.17089",
    "final_y": "539031.870922",
    "longitude": "-90.09303314266045",
    "latitude": "29.976390882081823",
    "geocoded_column": {
      "latitude": "29.976390882081823",
      "longitude": "-90.09303314266045"
    }
  },
  {
    "service_request": "2025-1216463",
    "request_type": "Trash/Recycling",
    "request_reason": "Replace Trash Cart",
    "date_created": "2025-08-07T21:48:32.000",
    "date_modified": "2025-08-07T21:48:34.000",
    "request_status": "Pending",
    "responsible_agency": "Department of Sanitation",
    "final_address": "3509 Silver Maple Ct",
    "address_councildis": "C",
    "status": "Assigned to Contractor",
    "contractor": "Richards Disposal",
    "rowid": "1216463",
    "final_x": "3703435.80356",
    "final_y": "512426.905777",
    "longitude": "-89.99950726634738",
    "latitude": "29.902312065260368",
    "geocoded_column": {
      "latitude": "29.902312065260368",
      "longitude": "-89.99950726634738"
    }
  },
  {
    "service_request": "2025-1216462",
    "request_type": "Streetlights",
    "request_reason": "Streetlight Outage/Malfunction",
    "date_created": "2025-08-07T21:44:07.000",
    "date_modified": "2025-08-07T21:44:09.000",
    "request_status": "Pending",
    "responsible_agency": "Department of Public Works",
    "final_address": "3414 Clermont Dr",
    "address_councildis": "D",
    "status": "Pending",
    "contractor": "Legacy Professional Services",
    "rowid": "1216462",
    "final_x": "3686085.08489",
    "final_y": "545208.124239",
    "longitude": "-90.05310939355999",
    "latitude": "29.992993218945013",
    "geocoded_column": {
      "latitude": "29.992993218945013",
      "longitude": "-90.05310939355999"
    }
  },
  {
    "service_request": "2025-1216461",
    "request_type": "Abandoned Vehicles",
    "request_reason": "Abandoned/Junk Vehicles",
    "date_created": "2025-08-07T21:17:40.000",
    "date_modified": "2025-08-07T21:17:42.000",
    "request_status": "Pending",
    "responsible_agency": "Department of Public Works",
    "final_address": "1453 N Robertson St",
    "address_councildis": "C",
    "status": "Pending",
    "rowid": "1216461",
    "final_x": "3681845.73519",
    "final_y": "536748.499976",
    "longitude": "-90.06679612759542",
    "latitude": "29.96986176692242",
    "geocoded_column": {
      "latitude": "29.96986176692242",
      "longitude": "-90.06679612759542"
    }
  },
  {
    "service_request": "2025-1216460",
    "request_type": "Abandoned Vehicles",
    "request_reason": "Abandoned/Junk Vehicles",
    "date_created": "2025-08-07T21:08:28.000",
    "date_modified": "2025-08-07T21:08:29.000",
    "request_status": "Pending",
    "responsible_agency": "Department of Public Works",
    "final_address": "1470 N Robertson St",
    "address_councildis": "C",
    "status": "Pending",
    "rowid": "1216460",
    "final_x": "3681979.83484",
    "final_y": "536819.41268",
    "longitude": "-90.0663701523637",
    "latitude": "29.97005267602594",
    "geocoded_column": {
      "latitude": "29.97005267602594",
      "longitude": "-90.0663701523637"
    }
  },
  {
    "service_request": "2025-1216459",
    "request_type": "Streetlights",
    "request_reason": "Streetlight Outage/Malfunction",
    "date_created": "2025-08-07T21:01:36.000",
    "date_modified": "2025-08-07T21:01:37.000",
    "request_status": "Pending",
    "responsible_agency": "Department of Public Works",
    "final_address": "4659 Music St",
    "address_councildis": "D",
    "status": "Pending",
    "contractor": "Legacy Professional Services",
    "rowid": "1216459",
    "final_x": "3685758.4607",
    "final_y": "550017.274324",
    "longitude": "-90.05397152618316",
    "latitude": "30.006226678712384",
    "geocoded_column": {
      "latitude": "30.006226678712384",
      "longitude": "-90.05397152618316"
    }
  },
  {
    "service_request": "2025-1216458",
    "request_type": "Abandoned Vehicles",
    "request_reason": "Abandoned/Junk Vehicles",
    "date_created": "2025-08-07T21:01:16.000",
    "date_modified": "2025-08-07T21:01:17.000",
    "request_status": "Pending",
    "responsible_agency": "Department of Public Works",
    "final_address": "8642 Hammond St",
    "address_councildis": "E",
    "status": "Pending",
    "rowid": "1216458",
    "final_x": "3707342.08228",
    "final_y": "555843.028761",
    "longitude": "-89.98556767364744",
    "latitude": "30.02156497469993",
    "geocoded_column": {
      "latitude": "30.02156497469993",
      "longitude": "-89.98556767364744"
    }
  },
  {
    "service_request": "2025-1216457",
    "request_type": "Streetlights",
    "request_reason": "Streetlight Outage/Malfunction",
    "date_created": "2025-08-07T20:36:57.000",
    "date_modified": "2025-08-07T20:37:00.000",
    "request_status": "Pending",
    "responsible_agency": "Department of Public Works",
    "final_address": "829 Touro St",
    "address_councildis": "C",
    "status": "Pending",
    "contractor": "Legacy Professional Services",
    "rowid": "1216457",
    "final_x": "3684325.21589",
    "final_y": "535411.455046",
    "longitude": "-90.05901266505654",
    "latitude": "29.966109764801487",
    "geocoded_column": {
      "latitude": "29.966109764801487",
      "longitude": "-90.05901266505654"
    }
  },
  {
    "service_request": "2025-1216456",
    "request_type": "Property Maintenance",
    "request_reason": "Property Maintenance",
    "date_created": "2025-08-07T20:22:10.000",
    "date_modified": "2025-08-07T20:22:12.000",
    "request_status": "Pending",
    "responsible_agency": "Department of Code Enforcement",
    "final_address": "8713 Oak St",
    "address_councildis": "A",
    "status": "Pending",
    "rowid": "1216456",
    "final_x": "3660319.08659",
    "final_y": "529922.071745",
    "longitude": "-90.13500516429322",
    "latitude": "29.951727999987707",
    "geocoded_column": {
      "latitude": "29.951727999987707",
      "longitude": "-90.13500516429322"
    }
  },
  {
    "service_request": "2025-1216455",
    "request_type": "Property Maintenance",
    "request_reason": "Property Maintenance",
    "date_created": "2025-08-07T20:19:41.000",
    "date_modified": "2025-08-07T20:19:43.000",
    "request_status": "Pending",
    "responsible_agency": "Department of Code Enforcement",
    "final_address": "8701 Oak St",
    "address_councildis": "A",
    "status": "Pending",
    "rowid": "1216455",
    "final_x": "3660362.08435",
    "final_y": "529884.680513",
    "longitude": "-90.13487063207896",
    "latitude": "29.951623949556087",
    "geocoded_column": {
      "latitude": "29.951623949556087",
      "longitude": "-90.13487063207896"
    }
  },
  {
    "service_request": "2025-1216454",
    "request_type": "Trash/Recycling",
    "request_reason": "Request a Large Item Pick Up",
    "date_created": "2025-08-07T20:04:42.000",
    "date_modified": "2025-08-07T20:04:43.000",
    "request_status": "Pending",
    "responsible_agency": "Department of Sanitation",
    "final_address": "324 S Clark St",
    "address_councildis": "B",
    "status": "Assigned to Contractor",
    "contractor": "IV Waste",
    "rowid": "1216454",
    "final_x": "3672288.98875",
    "final_y": "536166.082567",
    "longitude": "-90.09699714520475",
    "latitude": "29.96854731192575",
    "geocoded_column": {
      "latitude": "29.96854731192575",
      "longitude": "-90.09699714520475"
    }
  },
  {
    "service_request": "2025-1216453",
    "request_type": "General Services",
    "request_reason": "General Service Request",
    "date_created": "2025-08-07T19:50:00.000",
    "date_modified": "2025-08-07T19:50:02.000",
    "request_status": "Pending",
    "responsible_agency": "Orleans Parish Communication District",
    "final_address": "2816 Banks St",
    "address_councildis": "B",
    "status": "Pending",
    "rowid": "1216453",
    "final_x": "3673977.86017",
    "final_y": "534556.743045",
    "longitude": "-90.09171866335743",
    "latitude": "29.96407195676531",
    "geocoded_column": {
      "latitude": "29.96407195676531",
      "longitude": "-90.09171866335743"
    }
  },
  {
    "service_request": "2025-1216452",
    "request_type": "Abandoned Vehicles",
    "request_reason": "Abandoned/Junk Vehicles",
    "date_created": "2025-08-07T19:43:40.000",
    "date_modified": "2025-08-07T19:43:42.000",
    "request_status": "Pending",
    "responsible_agency": "Department of Public Works",
    "final_address": "4006 Annunciation St",
    "address_councildis": "B",
    "status": "Pending",
    "rowid": "1216452",
    "final_x": "3672530.69691",
    "final_y": "517853.182198",
    "longitude": "-90.0968578934684",
    "latitude": "29.91818565394963",
    "geocoded_column": {
      "latitude": "29.91818565394963",
      "longitude": "-90.0968578934684"
    }
  },
  {
    "service_request": "2025-1216451",
    "request_type": "Streetlights",
    "request_reason": "Streetlight Outage/Malfunction",
    "date_created": "2025-08-07T19:38:40.000",
    "date_modified": "2025-08-07T19:38:43.000",
    "request_status": "Pending",
    "responsible_agency": "Department of Public Works",
    "final_address": "13000 BLK Curran Rd",
    "address_councildis": "E",
    "status": "Pending",
    "contractor": "Legacy Professional Services",
    "rowid": "1216451",
    "final_x": "3715494.28354",
    "final_y": "569664.598975",
    "longitude": "-89.95928550005252",
    "latitude": "30.059302527648068",
    "geocoded_column": {
      "latitude": "30.059302527648068",
      "longitude": "-89.95928550005252"
    }
  },
  {
    "service_request": "2025-1216450",
    "request_type": "Parks & Parkways",
    "request_reason": "Park Maintenance/Clean Up",
    "date_created": "2025-08-07T19:25:09.000",
    "date_modified": "2025-08-07T19:25:13.000",
    "request_status": "Pending",
    "responsible_agency": "Department of Parks & Parkway",
    "final_address": "1673 Duels St",
    "address_councildis": "D",
    "status": "Pending",
    "rowid": "1216450",
    "final_x": "3680621.58792",
    "final_y": "542282.722765",
    "longitude": "-90.0704694730226",
    "latitude": "29.985116107860517",
    "geocoded_column": {
      "latitude": "29.985116107860517",
      "longitude": "-90.0704694730226"
    }
  },
  {
    "service_request": "2025-1216449",
    "request_type": "Trash/Recycling",
    "request_reason": "Request a Large Item Pick Up",
    "date_created": "2025-08-07T19:14:15.000",
    "date_modified": "2025-08-07T19:14:18.000",
    "request_status": "Pending",
    "responsible_agency": "Department of Sanitation",
    "final_address": "6132 Wales St",
    "address_councildis": "E",
    "status": "Assigned to Contractor",
    "contractor": "Waste Pro",
    "rowid": "1216449",
    "final_x": "3695739.53213",
    "final_y": "559602.019357",
    "longitude": "-90.02209251433426",
    "latitude": "30.032270911255324",
    "geocoded_column": {
      "latitude": "30.032270911255324",
      "longitude": "-90.02209251433426"
    }
  },
  {
    "service_request": "2025-1216448",
    "request_type": "Trash/Recycling",
    "request_reason": "Request a Large Item Pick Up",
    "date_created": "2025-08-07T19:06:43.000",
    "date_modified": "2025-08-07T19:06:45.000",
    "request_status": "Pending",
    "responsible_agency": "Department of Sanitation",
    "final_address": "2810 General Taylor St",
    "address_councildis": "B",
    "status": "Assigned to Contractor",
    "contractor": "IV Waste",
    "rowid": "1216448",
    "final_x": "3671589.24935",
    "final_y": "525300.904125",
    "longitude": "-90.09957641981057",
    "latitude": "29.938692400453732",
    "geocoded_column": {
      "latitude": "29.938692400453732",
      "longitude": "-90.09957641981057"
    }
  },
  {
    "service_request": "2025-1216447",
    "request_type": "Utility Poles",
    "request_reason": "Wires Sagging/Hanging Low",
    "date_created": "2025-08-07T18:57:33.000",
    "date_modified": "2025-08-07T18:57:35.000",
    "request_status": "Pending",
    "responsible_agency": "Utility Company Collective",
    "final_address": "1833 Milan St",
    "address_councildis": "B",
    "status": "Pending",
    "rowid": "1216447",
    "final_x": "3671554.47438",
    "final_y": "521945.09913",
    "longitude": "-90.09980026310488",
    "latitude": "29.92946604967125",
    "geocoded_column": {
      "latitude": "29.92946604967125",
      "longitude": "-90.09980026310488"
    }
  },
  {
    "service_request": "2025-1216446",
    "request_type": "Trash/Recycling",
    "request_reason": "Request a Large Item Pick Up",
    "date_created": "2025-08-07T18:55:46.000",
    "date_modified": "2025-08-07T18:55:47.000",
    "request_status": "Pending",
    "responsible_agency": "Department of Sanitation",
    "final_address": "4524 Rosemont Pl",
    "address_councildis": "E",
    "status": "Assigned to Contractor",
    "contractor": "Waste Pro",
    "rowid": "1216446",
    "final_x": "3702746.81994",
    "final_y": "553713.533783",
    "longitude": "-90.00016565014923",
    "latitude": "30.015857498261596",
    "geocoded_column": {
      "latitude": "30.015857498261596",
      "longitude": "-90.00016565014923"
    }
  },
  {
    "service_request": "2025-1216445",
    "request_type": "Trash/Recycling",
    "request_reason": "Repair Trash Cart",
    "date_created": "2025-08-07T18:55:10.000",
    "date_modified": "2025-08-07T18:55:12.000",
    "request_status": "Pending",
    "responsible_agency": "Department of Sanitation",
    "final_address": "2212 Jefferson Ave",
    "address_councildis": "A",
    "status": "Assigned to Contractor",
    "contractor": "IV Waste",
    "rowid": "1216445",
    "final_x": "3667787.33505",
    "final_y": "523785.405563",
    "longitude": "-90.11163052971469",
    "latitude": "29.93463727914601",
    "geocoded_column": {
      "latitude": "29.93463727914601",
      "longitude": "-90.11163052971469"
    }
  },
  {
    "service_request": "2025-1216444",
    "request_type": "Trash/Recycling",
    "request_reason": "Repair Trash Cart",
    "date_created": "2025-08-07T18:54:58.000",
    "date_modified": "2025-08-07T18:54:59.000",
    "request_status": "Pending",
    "responsible_agency": "Department of Sanitation",
    "final_address": "1835 Independence St",
    "address_councildis": "D",
    "status": "Assigned to Contractor",
    "contractor": "IV Waste",
    "rowid": "1216444",
    "final_x": "3691719.24176",
    "final_y": "538427.824649",
    "longitude": "-90.03555471331873",
    "latitude": "29.97417553669906",
    "geocoded_column": {
      "latitude": "29.97417553669906",
      "longitude": "-90.03555471331873"
    }
  },
  {
    "service_request": "2025-1216443",
    "request_type": "Property Maintenance",
    "request_reason": "Property Maintenance",
    "date_created": "2025-08-07T18:43:50.000",
    "date_modified": "2025-08-07T18:43:53.000",
    "request_status": "Pending",
    "responsible_agency": "Department of Code Enforcement",
    "final_address": "2618 Painters St",
    "address_councildis": "D",
    "status": "Pending",
    "rowid": "1216443",
    "final_x": "3687062.83759",
    "final_y": "542210.381901",
    "longitude": "-90.05012689498085",
    "latitude": "29.984720423778384",
    "geocoded_column": {
      "latitude": "29.984720423778384",
      "longitude": "-90.05012689498085"
    }
  },
  {
    "service_request": "2025-1216442",
    "request_type": "Street and Traffic Signs",
    "request_reason": "Street Name Sign Damaged or Missing",
    "date_created": "2025-08-07T18:40:33.000",
    "date_modified": "2025-08-07T18:40:37.000",
    "request_status": "Pending",
    "responsible_agency": "Department of Public Works",
    "final_address": "ST CLAUDE AVE & FRANKLIN AVE",
    "address_councildis": "C",
    "status": "Pending",
    "rowid": "1216442",
    "final_x": "3687068.7",
    "final_y": "536547.68",
    "longitude": "-90.05030865196827",
    "latitude": "29.96914980739771",
    "geocoded_column": {
      "latitude": "29.96914980739771",
      "longitude": "-90.05030865196827"
    }
  },
  {
    "service_request": "2025-1216441",
    "request_type": "Trash/Recycling",
    "request_reason": "Order Recycling Cart",
    "date_created": "2025-08-07T18:19:10.000",
    "date_modified": "2025-08-07T18:19:12.000",
    "request_status": "Pending",
    "responsible_agency": "Department of Sanitation",
    "final_address": "0 BLK Annandale Ct",
    "address_councildis": "C",
    "status": "Pending",
    "rowid": "1216441",
    "final_x": "3722818.92178",
    "final_y": "512165.663777",
    "longitude": "-89.93834584390989",
    "latitude": "29.900959104990605",
    "geocoded_column": {
      "latitude": "29.900959104990605",
      "longitude": "-89.93834584390989"
    }
  },
  {
    "service_request": "2025-1216440",
    "request_type": "Trash/Recycling",
    "request_reason": "Repair Recycling Cart",
    "date_created": "2025-08-07T17:58:20.000",
    "date_modified": "2025-08-07T17:58:21.000",
    "request_status": "Pending",
    "responsible_agency": "Department of Sanitation",
    "final_address": "4617 Toulouse St",
    "address_councildis": "A",
    "status": "Pending",
    "rowid": "1216440",
    "final_x": "3670422.22247",
    "final_y": "541132.924172",
    "longitude": "-90.10272404758017",
    "latitude": "29.98225970036471",
    "geocoded_column": {
      "latitude": "29.98225970036471",
      "longitude": "-90.10272404758017"
    }
  },
  {
    "service_request": "2025-1216439",
    "request_type": "Trash/Recycling",
    "request_reason": "Request a Large Item Pick Up",
    "date_created": "2025-08-07T17:56:32.000",
    "date_modified": "2025-08-07T17:56:34.000",
    "request_status": "Pending",
    "responsible_agency": "Department of Sanitation",
    "final_address": "2435 Alvar St",
    "address_councildis": "D",
    "status": "Assigned to Contractor",
    "contractor": "IV Waste",
    "rowid": "1216439",
    "final_x": "3692822.18755",
    "final_y": "540560.044683",
    "longitude": "-90.03199489142852",
    "latitude": "29.98000398560768",
    "geocoded_column": {
      "latitude": "29.98000398560768",
      "longitude": "-90.03199489142852"
    }
  },
  {
    "service_request": "2025-1216438",
    "request_type": "Trash/Recycling",
    "request_reason": "Request a Large Item Pick Up",
    "date_created": "2025-08-07T17:52:53.000",
    "date_modified": "2025-08-07T17:52:54.000",
    "request_status": "Pending",
    "responsible_agency": "Department of Sanitation",
    "final_address": "5419 Freret St",
    "address_councildis": "A",
    "status": "Assigned to Contractor",
    "contractor": "IV Waste",
    "rowid": "1216438",
    "final_x": "3667761.82676",
    "final_y": "524116.028156",
    "longitude": "-90.11169993103742",
    "latitude": "29.93554713323735",
    "geocoded_column": {
      "latitude": "29.93554713323735",
      "longitude": "-90.11169993103742"
    }
  },
  {
    "service_request": "2025-1216437",
    "request_type": "Property Maintenance",
    "request_reason": "Property Maintenance",
    "date_created": "2025-08-07T17:51:56.000",
    "date_modified": "2025-08-07T17:51:59.000",
    "request_status": "Pending",
    "responsible_agency": "Department of Code Enforcement",
    "final_address": "1312 Caton St",
    "address_councildis": "D",
    "status": "Pending",
    "rowid": "1216437",
    "final_x": "3677421.71765",
    "final_y": "546772.051217",
    "longitude": "-90.08042146712478",
    "latitude": "29.997556772969922",
    "geocoded_column": {
      "latitude": "29.997556772969922",
      "longitude": "-90.08042146712478"
    }
  },
  {
    "service_request": "2025-1216436",
    "request_type": "Trash/Recycling",
    "request_reason": "Request a Large Item Pick Up",
    "date_created": "2025-08-07T17:47:30.000",
    "date_modified": "2025-08-07T17:47:31.000",
    "request_status": "Pending",
    "responsible_agency": "Department of Sanitation",
    "final_address": "5232 Mandeville St",
    "address_councildis": "D",
    "status": "Assigned to Contractor",
    "contractor": "IV Waste",
    "rowid": "1216436",
    "final_x": "3684500.53257",
    "final_y": "552322.419414",
    "longitude": "-90.05786456019798",
    "latitude": "30.012603548803582",
    "geocoded_column": {
      "latitude": "30.012603548803582",
      "longitude": "-90.05786456019798"
    }
  },
  {
    "service_request": "2025-1216435",
    "request_type": "Property Maintenance",
    "request_reason": "Property Maintenance",
    "date_created": "2025-08-07T17:46:35.000",
    "date_modified": "2025-08-07T17:46:36.000",
    "request_status": "Pending",
    "responsible_agency": "Department of Code Enforcement",
    "final_address": "1719 Pauline St",
    "address_councildis": "D",
    "status": "Pending",
    "rowid": "1216435",
    "final_x": "3691857.28732",
    "final_y": "537866.409417",
    "longitude": "-90.03513882353639",
    "latitude": "29.972627544221556",
    "geocoded_column": {
      "latitude": "29.972627544221556",
      "longitude": "-90.03513882353639"
    }
  },
  {
    "service_request": "2025-1216434",
    "request_type": "Property Maintenance",
    "request_reason": "Property Maintenance",
    "date_created": "2025-08-07T17:42:38.000",
    "date_modified": "2025-08-07T17:42:40.000",
    "request_status": "Pending",
    "responsible_agency": "Department of Code Enforcement",
    "final_address": "8725 Plum St",
    "address_councildis": "A",
    "status": "Pending",
    "rowid": "1216434",
    "final_x": "3660489.38304",
    "final_y": "530234.848961",
    "longitude": "-90.13445711361601",
    "latitude": "29.952583138844293",
    "geocoded_column": {
      "latitude": "29.952583138844293",
      "longitude": "-90.13445711361601"
    }
  },
  {
    "service_request": "2025-1216433",
    "request_type": "Trash/Recycling",
    "request_reason": "Missed Trash Pick-Up",
    "date_created": "2025-08-07T17:33:32.000",
    "date_modified": "2025-08-07T17:33:34.000",
    "request_status": "Pending",
    "responsible_agency": "Department of Sanitation",
    "final_address": "6009 Wickfield Dr",
    "address_councildis": "D",
    "status": "Assigned to Contractor",
    "contractor": "IV Waste",
    "rowid": "1216433",
    "final_x": "3681025.90575",
    "final_y": "554714.318616",
    "longitude": "-90.06875905490138",
    "latitude": "30.01928629273023",
    "geocoded_column": {
      "latitude": "30.01928629273023",
      "longitude": "-90.06875905490138"
    }
  },
  {
    "service_request": "2025-1216432",
    "request_type": "Property Maintenance",
    "request_reason": "Property Maintenance",
    "date_created": "2025-08-07T17:30:25.000",
    "date_modified": "2025-08-07T17:30:27.000",
    "request_status": "Pending",
    "responsible_agency": "Department of Code Enforcement",
    "final_address": "5016 Mithra St",
    "address_councildis": "D",
    "status": "Pending",
    "rowid": "1216432",
    "final_x": "3692132.65238",
    "final_y": "553776.694743",
    "longitude": "-90.03369925721434",
    "latitude": "30.01636646021401",
    "geocoded_column": {
      "latitude": "30.01636646021401",
      "longitude": "-90.03369925721434"
    }
  },
  {
    "service_request": "2025-1216431",
    "request_type": "Property Maintenance",
    "request_reason": "Property Maintenance",
    "date_created": "2025-08-07T17:27:24.000",
    "date_modified": "2025-08-07T17:27:26.000",
    "request_status": "Pending",
    "responsible_agency": "Department of Code Enforcement",
    "final_address": "4600 Mithra St",
    "address_councildis": "D",
    "status": "Pending",
    "rowid": "1216431",
    "final_x": "3690837.20508",
    "final_y": "553374.846359",
    "longitude": "-90.03780665053668",
    "latitude": "30.015301863848624",
    "geocoded_column": {
      "latitude": "30.015301863848624",
      "longitude": "-90.03780665053668"
    }
  },
  {
    "service_request": "2025-1216430",
    "request_type": "Property Maintenance",
    "request_reason": "Property Maintenance",
    "date_created": "2025-08-07T17:24:23.000",
    "date_modified": "2025-08-07T17:24:25.000",
    "request_status": "Pending",
    "responsible_agency": "Department of Code Enforcement",
    "final_address": "3930 Mithra St",
    "address_councildis": "D",
    "status": "Pending",
    "rowid": "1216430",
    "final_x": "3688635.41609",
    "final_y": "552914.977303",
    "longitude": "-90.0447795956118",
    "latitude": "30.014105659927605",
    "geocoded_column": {
      "latitude": "30.014105659927605",
      "longitude": "-90.0447795956118"
    }
  },
  {
    "service_request": "2025-1216429",
    "request_type": "Property Maintenance",
    "request_reason": "Property Maintenance",
    "date_created": "2025-08-07T17:19:53.000",
    "date_modified": "2025-08-07T17:19:56.000",
    "request_status": "Pending",
    "responsible_agency": "Department of Code Enforcement",
    "final_address": "5008 Mexico St",
    "address_councildis": "D",
    "status": "Pending",
    "rowid": "1216429",
    "final_x": "3690991.32758",
    "final_y": "556521.726938",
    "longitude": "-90.03720722994366",
    "latitude": "30.023949817967225",
    "geocoded_column": {
      "latitude": "30.023949817967225",
      "longitude": "-90.03720722994366"
    }
  },
  {
    "service_request": "2025-1216428",
    "request_type": "Trash/Recycling",
    "request_reason": "Request a Large Item Pick Up",
    "date_created": "2025-08-07T17:18:28.000",
    "date_modified": "2025-08-07T17:18:30.000",
    "request_status": "Pending",
    "responsible_agency": "Department of Sanitation",
    "final_address": "5447 Marcia Ave",
    "address_councildis": "A",
    "status": "Assigned to Contractor",
    "contractor": "IV Waste",
    "rowid": "1216428",
    "final_x": "3664902.34554",
    "final_y": "544022.095246",
    "longitude": "-90.12006195661223",
    "latitude": "29.99036579645197",
    "geocoded_column": {
      "latitude": "29.99036579645197",
      "longitude": "-90.12006195661223"
    }
  },
  {
    "service_request": "2025-1216427",
    "request_type": "Property Maintenance",
    "request_reason": "Property Maintenance",
    "date_created": "2025-08-07T17:17:11.000",
    "date_modified": "2025-08-07T17:17:13.000",
    "request_status": "Pending",
    "responsible_agency": "Department of Code Enforcement",
    "final_address": "5001 Madrid St",
    "address_councildis": "D",
    "status": "Pending",
    "rowid": "1216427",
    "final_x": "3691133.91337",
    "final_y": "556289.688794",
    "longitude": "-90.03676498438705",
    "latitude": "30.023307364589897",
    "geocoded_column": {
      "latitude": "30.023307364589897",
      "longitude": "-90.03676498438705"
    }
  },
  {
    "service_request": "2025-1216426",
    "request_type": "Property Maintenance",
    "request_reason": "Property Maintenance",
    "date_created": "2025-08-07T17:14:30.000",
    "date_modified": "2025-08-07T17:14:31.000",
    "request_status": "Pending",
    "responsible_agency": "Department of Code Enforcement",
    "final_address": "5400 Feliciana Dr",
    "address_councildis": "D",
    "status": "Pending",
    "rowid": "1216426",
    "final_x": "3689995.83004",
    "final_y": "553297.017623",
    "longitude": "-90.04046776879704",
    "latitude": "30.01511399377677",
    "geocoded_column": {
      "latitude": "30.01511399377677",
      "longitude": "-90.04046776879704"
    }
  },
  {
    "service_request": "2025-1216425",
    "request_type": "Streetlights",
    "request_reason": "Streetlight Outage/Malfunction",
    "date_created": "2025-08-07T17:12:15.000",
    "date_modified": "2025-08-07T17:12:18.000",
    "request_status": "Pending",
    "responsible_agency": "Department of Public Works",
    "final_address": "2460 Bedford Dr",
    "address_councildis": "C",
    "status": "Pending",
    "contractor": "Legacy Professional Services",
    "rowid": "1216425",
    "final_x": "3705323.76446",
    "final_y": "521876.66297",
    "longitude": "-89.99320019142745",
    "latitude": "29.928235074065615",
    "geocoded_column": {
      "latitude": "29.928235074065615",
      "longitude": "-89.99320019142745"
    }
  },
  {
    "service_request": "2025-1216424",
    "request_type": "Property Maintenance",
    "request_reason": "Property Maintenance",
    "date_created": "2025-08-07T17:05:28.000",
    "date_modified": "2025-08-07T17:05:29.000",
    "request_status": "Pending",
    "responsible_agency": "Department of Code Enforcement",
    "final_address": "6421 Debore Dr",
    "address_councildis": "D",
    "status": "Pending",
    "rowid": "1216424",
    "final_x": "3690895.98326",
    "final_y": "557129.271258",
    "longitude": "-90.03748678816125",
    "latitude": "30.025623301757133",
    "geocoded_column": {
      "latitude": "30.025623301757133",
      "longitude": "-90.03748678816125"
    }
  },
  {
    "service_request": "2025-1216423",
    "request_type": "Property Maintenance",
    "request_reason": "Property Maintenance",
    "date_created": "2025-08-07T17:01:32.000",
    "date_modified": "2025-08-07T17:01:34.000",
    "request_status": "Pending",
    "responsible_agency": "Department of Code Enforcement",
    "final_address": "5037 Columbia St",
    "address_councildis": "D",
    "status": "Pending",
    "rowid": "1216423",
    "final_x": "3690755.02633",
    "final_y": "558655.69334",
    "longitude": "-90.03787766017604",
    "latitude": "30.02982476975597",
    "geocoded_column": {
      "latitude": "30.02982476975597",
      "longitude": "-90.03787766017604"
    }
  },
  {
    "service_request": "2025-1216422",
    "request_type": "Trash/Recycling",
    "request_reason": "Replace Trash Cart",
    "date_created": "2025-08-07T16:59:40.000",
    "date_modified": "2025-08-07T16:59:41.000",
    "request_status": "Pending",
    "responsible_agency": "Department of Sanitation",
    "final_address": "814 St Andrew St",
    "address_councildis": "B",
    "status": "Assigned to Contractor",
    "contractor": "IV Waste",
    "rowid": "1216422",
    "final_x": "3680121.18895",
    "final_y": "521809.906234",
    "longitude": "-90.07276141945425",
    "latitude": "29.92883794969442",
    "geocoded_column": {
      "latitude": "29.92883794969442",
      "longitude": "-90.07276141945425"
    }
  },
  {
    "service_request": "2025-1216421",
    "request_type": "Roads and Streets",
    "request_reason": "Pothole",
    "date_created": "2025-08-07T16:59:33.000",
    "date_modified": "2025-08-07T16:59:35.000",
    "request_status": "Pending",
    "responsible_agency": "Department of Public Works",
    "final_address": "7100 BLK Bailey St",
    "address_councildis": "C",
    "status": "Pending",
    "rowid": "1216421",
    "final_x": "3710612.20079",
    "final_y": "518870.538162",
    "longitude": "-89.97661829932755",
    "latitude": "29.91979816039668",
    "geocoded_column": {
      "latitude": "29.91979816039668",
      "longitude": "-89.97661829932755"
    }
  },
  {
    "service_request": "2025-1216420",
    "request_type": "Streetlights",
    "request_reason": "Streetlight Outage/Malfunction",
    "date_created": "2025-08-07T16:57:50.000",
    "date_modified": "2025-08-07T16:57:51.000",
    "request_status": "Pending",
    "responsible_agency": "Department of Public Works",
    "final_address": "BAILEY ST & WINSTON ST",
    "address_councildis": "C",
    "status": "Pending",
    "contractor": "Legacy Professional Services",
    "rowid": "1216420",
    "final_x": "3711151.3",
    "final_y": "518820.78",
    "longitude": "-89.97491850593985",
    "latitude": "29.919643780480406",
    "geocoded_column": {
      "latitude": "29.919643780480406",
      "longitude": "-89.97491850593985"
    }
  },
  {
    "service_request": "2025-1216419",
    "request_type": "Trash/Recycling",
    "request_reason": "Missed Trash Pick-Up",
    "date_created": "2025-08-07T16:57:15.000",
    "date_modified": "2025-08-07T16:57:17.000",
    "request_status": "Pending",
    "responsible_agency": "Department of Sanitation",
    "final_address": "4501 Camelot Dr",
    "address_councildis": "E",
    "status": "Assigned to Contractor",
    "contractor": "Waste Pro",
    "rowid": "1216419",
    "final_x": "3708597.74865",
    "final_y": "554105.161496",
    "longitude": "-89.9816649169048",
    "latitude": "30.016745844861433",
    "geocoded_column": {
      "latitude": "30.016745844861433",
      "longitude": "-89.9816649169048"
    }
  },
  {
    "service_request": "2025-1216418",
    "request_type": "Utility Poles",
    "request_reason": "Utility Pole Leaning",
    "date_created": "2025-08-07T16:50:11.000",
    "date_modified": "2025-08-07T16:50:15.000",
    "request_status": "Pending",
    "responsible_agency": "Utility Company Collective",
    "final_address": "500 BLK Adams St",
    "address_councildis": "A",
    "status": "Pending",
    "rowid": "1216418",
    "final_x": "3661515.64576",
    "final_y": "525688.613765",
    "longitude": "-90.13136720423879",
    "latitude": "29.940052878804824",
    "geocoded_column": {
      "latitude": "29.940052878804824",
      "longitude": "-90.13136720423879"
    }
  },
  {
    "service_request": "2025-1216417",
    "request_type": "Trash/Recycling",
    "request_reason": "Request a Large Item Pick Up",
    "date_created": "2025-08-07T16:50:08.000",
    "date_modified": "2025-08-07T16:50:10.000",
    "request_status": "Pending",
    "responsible_agency": "Department of Sanitation",
    "final_address": "829 Touro St",
    "address_councildis": "C",
    "status": "Assigned to Contractor",
    "contractor": "IV Waste",
    "rowid": "1216417",
    "final_x": "3684325.21589",
    "final_y": "535411.455046",
    "longitude": "-90.05901266505654",
    "latitude": "29.966109764801487",
    "geocoded_column": {
      "latitude": "29.966109764801487",
      "longitude": "-90.05901266505654"
    }
  },
  {
    "service_request": "2025-1216416",
    "request_type": "Trash/Recycling",
    "request_reason": "Request a Large Item Pick Up",
    "date_created": "2025-08-07T16:45:07.000",
    "date_modified": "2025-08-07T16:45:10.000",
    "request_status": "Pending",
    "responsible_agency": "Department of Sanitation",
    "final_address": "2559 N Rocheblave St",
    "address_councildis": "D",
    "status": "Assigned to Contractor",
    "contractor": "IV Waste",
    "rowid": "1216416",
    "final_x": "3686358.50076",
    "final_y": "541266.039244",
    "longitude": "-90.05238492838237",
    "latitude": "29.982145485697366",
    "geocoded_column": {
      "latitude": "29.982145485697366",
      "longitude": "-90.05238492838237"
    }
  },
  {
    "service_request": "2025-1216415",
    "request_type": "Trash/Recycling",
    "request_reason": "Order Trash Cart",
    "date_created": "2025-08-07T16:43:26.000",
    "date_modified": "2025-08-07T16:43:28.000",
    "request_status": "Pending",
    "responsible_agency": "Department of Sanitation",
    "final_address": "6117 Willow St Apt 101",
    "address_councildis": "A",
    "status": "Assigned to Contractor",
    "contractor": "IV Waste",
    "rowid": "1216415",
    "final_x": "3666656.14362",
    "final_y": "525895.888189",
    "longitude": "-90.11513085656057",
    "latitude": "29.940473545574854",
    "geocoded_column": {
      "latitude": "29.940473545574854",
      "longitude": "-90.11513085656057"
    }
  },
  {
    "service_request": "2025-1216414",
    "request_type": "Trash/Recycling",
    "request_reason": "Order Recycling Cart",
    "date_created": "2025-08-07T16:40:31.000",
    "date_modified": "2025-08-07T16:40:33.000",
    "request_status": "Pending",
    "responsible_agency": "Department of Sanitation",
    "final_address": "614 General Pershing St",
    "address_councildis": "B",
    "status": "Pending",
    "rowid": "1216414",
    "final_x": "3671489.10977",
    "final_y": "517918.496694",
    "longitude": "-90.10014341022573",
    "latitude": "29.918396112730118",
    "geocoded_column": {
      "latitude": "29.918396112730118",
      "longitude": "-90.10014341022573"
    }
  },
  {
    "service_request": "2025-1216413",
    "request_type": "Traffic Signals",
    "request_reason": "Traffic Signal Malfunctioning or Damaged",
    "date_created": "2025-08-07T16:38:35.000",
    "date_modified": "2025-08-07T16:38:36.000",
    "request_status": "Pending",
    "responsible_agency": "Department of Public Works",
    "final_address": "READ BLVD & I 10 E SERVICE RD",
    "address_councildis": "E",
    "status": "Pending",
    "rowid": "1216413",
    "final_x": "3710559.3",
    "final_y": "561123.18",
    "longitude": "-89.9752044811129",
    "latitude": "30.035978863856286",
    "geocoded_column": {
      "latitude": "30.035978863856286",
      "longitude": "-89.9752044811129"
    }
  },
  {
    "service_request": "2025-1216412",
    "request_type": "Trash/Recycling",
    "request_reason": "Missed Trash Pick-Up",
    "date_created": "2025-08-07T16:36:49.000",
    "date_modified": "2025-08-07T17:20:39.000",
    "request_status": "Pending",
    "responsible_agency": "Department of Sanitation",
    "final_address": "1540 Adams St",
    "address_councildis": "A",
    "status": "Assigned to Contractor",
    "contractor": "IV Waste",
    "rowid": "1216412",
    "final_x": "3663944.25523",
    "final_y": "528418.620032",
    "longitude": "-90.12360868596292",
    "latitude": "29.947489248484388",
    "geocoded_column": {
      "latitude": "29.947489248484388",
      "longitude": "-90.12360868596292"
    }
  },
  {
    "service_request": "2025-1216411",
    "request_type": "Trash/Recycling",
    "request_reason": "Order Trash Cart",
    "date_created": "2025-08-07T16:32:43.000",
    "date_modified": "2025-08-07T16:32:45.000",
    "request_status": "Pending",
    "responsible_agency": "Department of Sanitation",
    "final_address": "1816 St Philip St",
    "address_councildis": "D",
    "status": "Assigned to Contractor",
    "contractor": "IV Waste",
    "rowid": "1216411",
    "final_x": "3680009.92091",
    "final_y": "535774.867719",
    "longitude": "-90.07262763182445",
    "latitude": "29.967240280129612",
    "geocoded_column": {
      "latitude": "29.967240280129612",
      "longitude": "-90.07262763182445"
    }
  },
  {
    "service_request": "2025-1216410",
    "request_type": "Trash/Recycling",
    "request_reason": "Request a Large Item Pick Up",
    "date_created": "2025-08-07T16:31:50.000",
    "date_modified": "2025-08-07T16:31:53.000",
    "request_status": "Pending",
    "responsible_agency": "Department of Sanitation",
    "final_address": "6 Tennyson Pl",
    "address_councildis": "C",
    "status": "Assigned to Contractor",
    "contractor": "Richards Disposal",
    "rowid": "1216410",
    "final_x": "3705002.29771",
    "final_y": "517419.517622",
    "longitude": "-89.99437939716854",
    "latitude": "29.915989805118706",
    "geocoded_column": {
      "latitude": "29.915989805118706",
      "longitude": "-89.99437939716854"
    }
  },
  {
    "service_request": "2025-1216409",
    "request_type": "Abandoned Vehicles",
    "request_reason": "Abandoned/Junk Vehicles",
    "date_created": "2025-08-07T16:27:08.000",
    "date_modified": "2025-08-07T16:27:10.000",
    "request_status": "Pending",
    "responsible_agency": "Department of Public Works",
    "final_address": "2600 BLK Saint Andrew St",
    "address_councildis": "B",
    "status": "Pending",
    "rowid": "1216409",
    "final_x": "3675727.45559",
    "final_y": "527079.302256",
    "longitude": "-90.08645054380635",
    "latitude": "29.9434592442984",
    "geocoded_column": {
      "latitude": "29.9434592442984",
      "longitude": "-90.08645054380635"
    }
  },
  {
    "service_request": "2025-1216408",
    "request_type": "Abandoned Vehicles",
    "request_reason": "Abandoned/Junk Vehicles",
    "date_created": "2025-08-07T16:25:36.000",
    "date_modified": "2025-08-07T16:25:40.000",
    "request_status": "Pending",
    "responsible_agency": "Department of Public Works",
    "final_address": "3901 Toulouse St",
    "address_councildis": "A",
    "status": "Pending",
    "rowid": "1216408",
    "final_x": "3672864.31918",
    "final_y": "539308.925066",
    "longitude": "-90.09507295971285",
    "latitude": "29.97717198271486",
    "geocoded_column": {
      "latitude": "29.97717198271486",
      "longitude": "-90.09507295971285"
    }
  },
  {
    "service_request": "2025-1216407",
    "request_type": "Abandoned Vehicles",
    "request_reason": "Abandoned/Junk Vehicles",
    "date_created": "2025-08-07T16:24:14.000",
    "date_modified": "2025-08-07T16:24:16.000",
    "request_status": "Pending",
    "responsible_agency": "Department of Public Works",
    "final_address": "2238 First St",
    "address_councildis": "B",
    "status": "Pending",
    "rowid": "1216407",
    "final_x": "3675574.69953",
    "final_y": "525226.871997",
    "longitude": "-90.08699645038365",
    "latitude": "29.938370239704017",
    "geocoded_column": {
      "latitude": "29.938370239704017",
      "longitude": "-90.08699645038365"
    }
  },
  {
    "service_request": "2025-1216406",
    "request_type": "Trash/Recycling",
    "request_reason": "MIssed Recycling Pick-Up",
    "date_created": "2025-08-07T16:24:04.000",
    "date_modified": "2025-08-07T16:24:06.000",
    "request_status": "Pending",
    "responsible_agency": "Department of Sanitation",
    "final_address": "2719 Pine St",
    "address_councildis": "B",
    "status": "Assigned to Contractor",
    "contractor": "IV Waste",
    "rowid": "1216406",
    "final_x": "3667064.95809",
    "final_y": "531326.021954",
    "longitude": "-90.11365767177112",
    "latitude": "29.95539269486613",
    "geocoded_column": {
      "latitude": "29.95539269486613",
      "longitude": "-90.11365767177112"
    }
  },
  {
    "service_request": "2025-1216405",
    "request_type": "Trash/Recycling",
    "request_reason": "Missed Trash Pick-Up",
    "date_created": "2025-08-07T16:23:01.000",
    "date_modified": "2025-08-07T16:23:03.000",
    "request_status": "Pending",
    "responsible_agency": "Department of Sanitation",
    "final_address": "2327 Memorial Park Dr",
    "address_councildis": "C",
    "status": "Assigned to Contractor",
    "contractor": "Richards Disposal",
    "rowid": "1216405",
    "final_x": "3691985.99382",
    "final_y": "521772.56953",
    "longitude": "-90.0353081247991",
    "latitude": "29.92837104498418",
    "geocoded_column": {
      "latitude": "29.92837104498418",
      "longitude": "-90.0353081247991"
    }
  },
  {
    "service_request": "2025-1216404",
    "request_type": "Abandoned Vehicles",
    "request_reason": "Abandoned/Junk Vehicles",
    "date_created": "2025-08-07T16:22:02.000",
    "date_modified": "2025-08-07T16:22:05.000",
    "request_status": "Pending",
    "responsible_agency": "Department of Public Works",
    "final_address": "2100 BLK Clara St",
    "address_councildis": "B",
    "status": "Pending",
    "rowid": "1216404",
    "final_x": "3675190.85857",
    "final_y": "527173.502527",
    "longitude": "-90.08814148965328",
    "latitude": "29.943734308841147",
    "geocoded_column": {
      "latitude": "29.943734308841147",
      "longitude": "-90.08814148965328"
    }
  },
  {
    "service_request": "2025-1216403",
    "request_type": "Streetlights",
    "request_reason": "Streetlight Outage/Malfunction",
    "date_created": "2025-08-07T16:21:05.000",
    "date_modified": "2025-08-07T16:21:06.000",
    "request_status": "Pending",
    "responsible_agency": "Department of Public Works",
    "final_address": "9706 W Wheaton Cir",
    "address_councildis": "E",
    "status": "Pending",
    "contractor": "Legacy Professional Services",
    "rowid": "1216403",
    "final_x": "3708555.56824",
    "final_y": "562082.603807",
    "longitude": "-89.98150082269372",
    "latitude": "30.038682048877615",
    "geocoded_column": {
      "latitude": "30.038682048877615",
      "longitude": "-89.98150082269372"
    }
  },
  {
    "service_request": "2025-1216402",
    "request_type": "Parks & Parkways",
    "request_reason": "Request Tree Service (Right of Way/Public Property)",
    "date_created": "2025-08-07T16:20:51.000",
    "date_modified": "2025-08-07T16:20:52.000",
    "request_status": "Pending",
    "responsible_agency": "Department of Parks & Parkway",
    "final_address": "857 Roosevelt Pl",
    "address_councildis": "A",
    "status": "Pending",
    "rowid": "1216402",
    "final_x": "3673549.38376",
    "final_y": "540076.199371",
    "longitude": "-90.09288306491281",
    "latitude": "29.979261351065553",
    "geocoded_column": {
      "latitude": "29.979261351065553",
      "longitude": "-90.09288306491281"
    }
  },
  {
    "service_request": "2025-1216401",
    "request_type": "Streetlights",
    "request_reason": "Streetlight Outage/Malfunction",
    "date_created": "2025-08-07T16:19:57.000",
    "date_modified": "2025-08-07T16:19:59.000",
    "request_status": "Pending",
    "responsible_agency": "Department of Public Works",
    "final_address": "9706 W Wheaton Cir",
    "address_councildis": "E",
    "status": "Pending",
    "contractor": "Legacy Professional Services",
    "rowid": "1216401",
    "final_x": "3708555.56824",
    "final_y": "562082.603807",
    "longitude": "-89.98150082269372",
    "latitude": "30.038682048877615",
    "geocoded_column": {
      "latitude": "30.038682048877615",
      "longitude": "-89.98150082269372"
    }
  },
  {
    "service_request": "2025-1216400",
    "request_type": "Streetlights",
    "request_reason": "Streetlight Outage/Malfunction",
    "date_created": "2025-08-07T16:18:25.000",
    "date_modified": "2025-08-07T16:18:27.000",
    "request_status": "Pending",
    "responsible_agency": "Department of Public Works",
    "final_address": "9706 W Wheaton Cir",
    "address_councildis": "E",
    "status": "Pending",
    "contractor": "Legacy Professional Services",
    "rowid": "1216400",
    "final_x": "3708555.56824",
    "final_y": "562082.603807",
    "longitude": "-89.98150082269372",
    "latitude": "30.038682048877615",
    "geocoded_column": {
      "latitude": "30.038682048877615",
      "longitude": "-89.98150082269372"
    }
  },
  {
    "service_request": "2025-1216399",
    "request_type": "Trash/Recycling",
    "request_reason": "Missed Trash Pick-Up",
    "date_created": "2025-08-07T16:18:06.000",
    "date_modified": "2025-08-07T17:33:15.000",
    "case_close_date": "2025-08-07T12:33:15.000",
    "request_status": "Closed",
    "responsible_agency": "Department of Sanitation",
    "final_address": "1422 Annette St",
    "address_councildis": "C",
    "status": "Invalid Request",
    "contractor": "IV Waste",
    "contractor_action": "Invalid Request",
    "rowid": "1216399",
    "final_x": "3682927.20943",
    "final_y": "537452.717384",
    "longitude": "-90.06335608435244",
    "latitude": "29.971765207503026",
    "geocoded_column": {
      "latitude": "29.971765207503026",
      "longitude": "-90.06335608435244"
    }
  },
  {
    "service_request": "2025-1216398",
    "request_type": "Abandoned Vehicles",
    "request_reason": "Abandoned/Junk Vehicles",
    "date_created": "2025-08-07T16:15:20.000",
    "date_modified": "2025-08-07T16:15:22.000",
    "request_status": "Pending",
    "responsible_agency": "Department of Public Works",
    "final_address": "2510 Behrman Hwy",
    "address_councildis": "C",
    "status": "Pending",
    "rowid": "1216398",
    "final_x": "3692551.92521",
    "final_y": "521025.232185",
    "longitude": "-90.03354837151666",
    "latitude": "29.926298479740506",
    "geocoded_column": {
      "latitude": "29.926298479740506",
      "longitude": "-90.03354837151666"
    }
  },
  {
    "service_request": "2025-1216397",
    "request_type": "Streetlights",
    "request_reason": "Streetlight Outage/Malfunction",
    "date_created": "2025-08-07T16:15:01.000",
    "date_modified": "2025-08-07T16:15:03.000",
    "request_status": "Pending",
    "responsible_agency": "Department of Public Works",
    "final_address": "5300 Berkley Dr",
    "address_councildis": "C",
    "status": "Pending",
    "contractor": "Legacy Professional Services",
    "rowid": "1216397",
    "final_x": "3703359.75998",
    "final_y": "518294.021686",
    "longitude": "-89.99953171787156",
    "latitude": "29.91844706456825",
    "geocoded_column": {
      "latitude": "29.91844706456825",
      "longitude": "-89.99953171787156"
    }
  },
  {
    "service_request": "2025-1216396",
    "request_type": "Trash/Recycling",
    "request_reason": "Replace Trash Cart",
    "date_created": "2025-08-07T16:12:35.000",
    "date_modified": "2025-08-07T16:12:37.000",
    "request_status": "Pending",
    "responsible_agency": "Department of Sanitation",
    "final_address": "3901 Toulouse St",
    "address_councildis": "A",
    "status": "Assigned to Contractor",
    "contractor": "IV Waste",
    "rowid": "1216396",
    "final_x": "3672864.31918",
    "final_y": "539308.925066",
    "longitude": "-90.09507295971285",
    "latitude": "29.97717198271486",
    "geocoded_column": {
      "latitude": "29.97717198271486",
      "longitude": "-90.09507295971285"
    }
  },
  {
    "service_request": "2025-1216395",
    "request_type": "Trash/Recycling",
    "request_reason": "Request a Large Item Pick Up",
    "date_created": "2025-08-07T16:11:33.000",
    "date_modified": "2025-08-07T16:11:35.000",
    "request_status": "Pending",
    "responsible_agency": "Department of Sanitation",
    "final_address": "301 N Rendon St",
    "address_councildis": "B",
    "status": "Assigned to Contractor",
    "contractor": "IV Waste",
    "rowid": "1216395",
    "final_x": "3674097.07777",
    "final_y": "537177.797064",
    "longitude": "-90.09125246158024",
    "latitude": "29.971275417643977",
    "geocoded_column": {
      "latitude": "29.971275417643977",
      "longitude": "-90.09125246158024"
    }
  },
  {
    "service_request": "2025-1216394",
    "request_type": "Abandoned Vehicles",
    "request_reason": "Abandoned/Junk Vehicles",
    "date_created": "2025-08-07T16:08:14.000",
    "date_modified": "2025-08-07T16:08:15.000",
    "request_status": "Pending",
    "responsible_agency": "Department of Public Works",
    "final_address": "2607 Danneel St",
    "address_councildis": "B",
    "status": "Pending",
    "rowid": "1216394",
    "final_x": "3675560.72891",
    "final_y": "524054.58758",
    "longitude": "-90.08708081050145",
    "latitude": "29.935147258862333",
    "geocoded_column": {
      "latitude": "29.935147258862333",
      "longitude": "-90.08708081050145"
    }
  },
  {
    "service_request": "2025-1216393",
    "request_type": "Trash/Recycling",
    "request_reason": "Request a Large Item Pick Up",
    "date_created": "2025-08-07T16:07:42.000",
    "date_modified": "2025-08-07T16:07:43.000",
    "request_status": "Pending",
    "responsible_agency": "Department of Sanitation",
    "final_address": "7145 Downman Rd",
    "address_councildis": "D",
    "status": "Assigned to Contractor",
    "contractor": "Waste Pro",
    "rowid": "1216393",
    "final_x": "3695294.48867",
    "final_y": "556839.897242",
    "longitude": "-90.02359864589498",
    "latitude": "30.024690123887616",
    "geocoded_column": {
      "latitude": "30.024690123887616",
      "longitude": "-90.02359864589498"
    }
  },
  {
    "service_request": "2025-1216392",
    "request_type": "Property Maintenance",
    "request_reason": "Property Maintenance",
    "date_created": "2025-08-07T16:06:07.000",
    "date_modified": "2025-08-07T16:06:10.000",
    "request_status": "Pending",
    "responsible_agency": "Department of Code Enforcement",
    "final_address": "1823 Marais St",
    "address_councildis": "C",
    "status": "Pending",
    "rowid": "1216392",
    "final_x": "3683681.06345",
    "final_y": "536597.960583",
    "longitude": "-90.06100527433433",
    "latitude": "29.969391927145153",
    "geocoded_column": {
      "latitude": "29.969391927145153",
      "longitude": "-90.06100527433433"
    }
  },
  {
    "service_request": "2025-1216391",
    "request_type": "Trash/Recycling",
    "request_reason": "Request a Large Item Pick Up",
    "date_created": "2025-08-07T16:04:24.000",
    "date_modified": "2025-08-07T16:04:26.000",
    "request_status": "Pending",
    "responsible_agency": "Department of Sanitation",
    "final_address": "6920 Coventry St",
    "address_councildis": "E",
    "status": "Assigned to Contractor",
    "contractor": "Waste Pro",
    "rowid": "1216391",
    "final_x": "3698915.83108",
    "final_y": "559734.374749",
    "longitude": "-90.01205042252808",
    "latitude": "30.032534511770212",
    "geocoded_column": {
      "latitude": "30.032534511770212",
      "longitude": "-90.01205042252808"
    }
  },
  {
    "service_request": "2025-1216390",
    "request_type": "Trash/Recycling",
    "request_reason": "Repair Trash Cart",
    "date_created": "2025-08-07T16:02:04.000",
    "date_modified": "2025-08-07T16:02:11.000",
    "request_status": "Pending",
    "responsible_agency": "Department of Sanitation",
    "final_address": "1321 Nashville Ave",
    "address_councildis": "A",
    "status": "Assigned to Contractor",
    "contractor": "IV Waste",
    "rowid": "1216390",
    "final_x": "3666003.12333",
    "final_y": "520832.265017",
    "longitude": "-90.1173622089946",
    "latitude": "29.926569266617697",
    "geocoded_column": {
      "latitude": "29.926569266617697",
      "longitude": "-90.1173622089946"
    }
  },
  {
    "service_request": "2025-1216389",
    "request_type": "Trash/Recycling",
    "request_reason": "Request a Large Item Pick Up",
    "date_created": "2025-08-07T16:00:35.000",
    "date_modified": "2025-08-07T16:00:37.000",
    "request_status": "Pending",
    "responsible_agency": "Department of Sanitation",
    "final_address": "1320 Second St",
    "address_councildis": "B",
    "status": "Assigned to Contractor",
    "contractor": "IV Waste",
    "rowid": "1216389",
    "final_x": "3677269.52674",
    "final_y": "522063.147194",
    "longitude": "-90.0817548103995",
    "latitude": "29.92962023441985",
    "geocoded_column": {
      "latitude": "29.92962023441985",
      "longitude": "-90.0817548103995"
    }
  },
  {
    "service_request": "2025-1216388",
    "request_type": "Parks & Parkways",
    "request_reason": "Request Tree Service (Right of Way/Public Property)",
    "date_created": "2025-08-07T15:56:01.000",
    "date_modified": "2025-08-07T15:56:03.000",
    "request_status": "Pending",
    "responsible_agency": "Department of Parks & Parkway",
    "final_address": "428 32Nd St",
    "address_councildis": "A",
    "status": "Pending",
    "rowid": "1216388",
    "final_x": "3664628.93972",
    "final_y": "550680.84418",
    "longitude": "-90.12070298600686",
    "latitude": "30.008683029673087",
    "geocoded_column": {
      "latitude": "30.008683029673087",
      "longitude": "-90.12070298600686"
    }
  },
  {
    "service_request": "2025-1216387",
    "request_type": "Trash/Recycling",
    "request_reason": "Request a Large Item Pick Up",
    "date_created": "2025-08-07T15:55:51.000",
    "date_modified": "2025-08-07T15:55:54.000",
    "request_status": "Pending",
    "responsible_agency": "Department of Sanitation",
    "final_address": "4900 Corsica Pl",
    "address_councildis": "E",
    "status": "Assigned to Contractor",
    "contractor": "Waste Pro",
    "rowid": "1216387",
    "final_x": "3727271.58144",
    "final_y": "561865.392031",
    "longitude": "-89.92236245233427",
    "latitude": "30.037464390789193",
    "geocoded_column": {
      "latitude": "30.037464390789193",
      "longitude": "-89.92236245233427"
    }
  },
  {
    "service_request": "2025-1216386",
    "request_type": "Trash/Recycling",
    "request_reason": "Request a Large Item Pick Up",
    "date_created": "2025-08-07T15:52:01.000",
    "date_modified": "2025-08-07T15:52:03.000",
    "request_status": "Pending",
    "responsible_agency": "Department of Sanitation",
    "final_address": "2300 Somerset Dr",
    "address_councildis": "C",
    "status": "Assigned to Contractor",
    "contractor": "Richards Disposal",
    "rowid": "1216386",
    "final_x": "3702732.51876",
    "final_y": "522623.667706",
    "longitude": "-90.00135270587234",
    "latitude": "29.930372155221505",
    "geocoded_column": {
      "latitude": "29.930372155221505",
      "longitude": "-90.00135270587234"
    }
  },
  {
    "service_request": "2025-1216385",
    "request_type": "Traffic Signals",
    "request_reason": "Traffic Signal Malfunctioning or Damaged",
    "date_created": "2025-08-07T15:51:44.000",
    "date_modified": "2025-08-07T15:51:46.000",
    "request_status": "Pending",
    "responsible_agency": "Department of Public Works",
    "final_address": "ESPLANADE AVE & N CLAIBORNE AVE",
    "address_councildis": "D",
    "status": "Pending",
    "rowid": "1216385",
    "final_x": "3681231.3",
    "final_y": "536639.18",
    "longitude": "-90.06874038104324",
    "latitude": "29.969579834804723",
    "geocoded_column": {
      "latitude": "29.969579834804723",
      "longitude": "-90.06874038104324"
    }
  },
  {
    "service_request": "2025-1216384",
    "request_type": "Trash/Recycling",
    "request_reason": "Request a Large Item Pick Up",
    "date_created": "2025-08-07T15:50:33.000",
    "date_modified": "2025-08-07T15:50:35.000",
    "request_status": "Pending",
    "responsible_agency": "Department of Sanitation",
    "final_address": "4917 Spain St",
    "address_councildis": "D",
    "status": "Assigned to Contractor",
    "contractor": "IV Waste",
    "rowid": "1216384",
    "final_x": "3684999.64501",
    "final_y": "551036.465301",
    "longitude": "-90.056332922905",
    "latitude": "30.009052357951056",
    "geocoded_column": {
      "latitude": "30.009052357951056",
      "longitude": "-90.056332922905"
    }
  },
  {
    "service_request": "2025-1216383",
    "request_type": "Street and Traffic Signs",
    "request_reason": "Street Name Sign Damaged or Missing",
    "date_created": "2025-08-07T15:48:27.000",
    "date_modified": "2025-08-07T15:48:29.000",
    "request_status": "Pending",
    "responsible_agency": "Department of Public Works",
    "final_address": "FORSTALL ST & N CLAIBORNE AVE",
    "address_councildis": "E",
    "status": "Pending",
    "rowid": "1216383",
    "final_x": "3696772.1",
    "final_y": "536056.08",
    "longitude": "-90.01968258100904",
    "latitude": "29.967495761797704",
    "geocoded_column": {
      "latitude": "29.967495761797704",
      "longitude": "-90.01968258100904"
    }
  },
  {
    "service_request": "2025-1216382",
    "request_type": "Trash/Recycling",
    "request_reason": "Missed Trash Pick-Up",
    "date_created": "2025-08-07T15:47:17.000",
    "date_modified": "2025-08-07T17:19:57.000",
    "case_close_date": "2025-08-07T12:19:56.000",
    "request_status": "Closed",
    "responsible_agency": "Department of Sanitation",
    "final_address": "3941 Piedmont Dr",
    "address_councildis": "D",
    "status": "Invalid Request",
    "contractor": "IV Waste",
    "contractor_action": "Invalid Request",
    "rowid": "1216382",
    "final_x": "3685387.14588",
    "final_y": "547243.187025",
    "longitude": "-90.05524235424207",
    "latitude": "29.998610335142036",
    "geocoded_column": {
      "latitude": "29.998610335142036",
      "longitude": "-90.05524235424207"
    }
  },
  {
    "service_request": "2025-1216381",
    "request_type": "Drainage",
    "request_reason": "Catch Basin Not Draining",
    "date_created": "2025-08-07T15:46:33.000",
    "date_modified": "2025-08-07T15:46:35.000",
    "request_status": "Pending",
    "responsible_agency": "Sewerage & Water Board",
    "final_address": "1010 N Galvez St",
    "address_councildis": "D",
    "status": "Pending",
    "rowid": "1216381",
    "final_x": "3679193.36373",
    "final_y": "536643.805511",
    "longitude": "-90.0751761978668",
    "latitude": "29.96965423974076",
    "geocoded_column": {
      "latitude": "29.96965423974076",
      "longitude": "-90.0751761978668"
    }
  },
  {
    "service_request": "2025-1216380",
    "request_type": "Drainage",
    "request_reason": "Catch Basin Not Draining",
    "date_created": "2025-08-07T15:46:33.000",
    "date_modified": "2025-08-07T15:46:35.000",
    "request_status": "Pending",
    "responsible_agency": "Sewerage & Water Board",
    "final_address": "1010 N Galvez St",
    "address_councildis": "D",
    "status": "Pending",
    "rowid": "1216380",
    "final_x": "3679193.36373",
    "final_y": "536643.805511",
    "longitude": "-90.0751761978668",
    "latitude": "29.96965423974076",
    "geocoded_column": {
      "latitude": "29.96965423974076",
      "longitude": "-90.0751761978668"
    }
  },
  {
    "service_request": "2025-1216379",
    "request_type": "Roads and Streets",
    "request_reason": "Pothole",
    "date_created": "2025-08-07T15:38:31.000",
    "date_modified": "2025-08-07T15:38:33.000",
    "request_status": "Pending",
    "responsible_agency": "Department of Public Works",
    "final_address": "2500 BLK Mendez St",
    "address_councildis": "D",
    "status": "Pending",
    "rowid": "1216379",
    "final_x": "3686008.46784",
    "final_y": "553596.569432",
    "longitude": "-90.0530553480104",
    "latitude": "30.016060754279888",
    "geocoded_column": {
      "latitude": "30.016060754279888",
      "longitude": "-90.0530553480104"
    }
  },
  {
    "service_request": "2025-1216378",
    "request_type": "Trash/Recycling",
    "request_reason": "Repair Trash Cart",
    "date_created": "2025-08-07T15:37:17.000",
    "date_modified": "2025-08-07T15:37:19.000",
    "request_status": "Pending",
    "responsible_agency": "Department of Sanitation",
    "final_address": "6041 Constance St",
    "address_councildis": "A",
    "status": "Assigned to Contractor",
    "contractor": "IV Waste",
    "rowid": "1216378",
    "final_x": "3664301.74484",
    "final_y": "519033.121783",
    "longitude": "-90.12279301759045",
    "latitude": "29.921671722664886",
    "geocoded_column": {
      "latitude": "29.921671722664886",
      "longitude": "-90.12279301759045"
    }
  },
  {
    "service_request": "2025-1216377",
    "request_type": "Trash/Recycling",
    "request_reason": "Repair Trash Cart",
    "date_created": "2025-08-07T15:35:13.000",
    "date_modified": "2025-08-07T15:35:43.000",
    "request_status": "Pending",
    "responsible_agency": "Department of Sanitation",
    "final_address": "2642 Ernest St",
    "address_councildis": "C",
    "status": "Assigned to Contractor",
    "contractor": "Richards Disposal",
    "rowid": "1216377",
    "final_x": "3708899.89899",
    "final_y": "520186.339512",
    "longitude": "-89.9819741653689",
    "latitude": "29.9234717895883",
    "geocoded_column": {
      "latitude": "29.9234717895883",
      "longitude": "-89.9819741653689"
    }
  },
  {
    "service_request": "2025-1216376",
    "request_type": "Trash/Recycling",
    "request_reason": "Illegal Dumping",
    "date_created": "2025-08-07T15:34:32.000",
    "date_modified": "2025-08-07T15:34:34.000",
    "request_status": "Pending",
    "responsible_agency": "Department of Sanitation",
    "final_address": "BENEFIT ST & ALVAR ST",
    "address_councildis": "D",
    "status": "Pending",
    "rowid": "1216376",
    "final_x": "3693499.7",
    "final_y": "543698.98",
    "longitude": "-90.02974224562607",
    "latitude": "29.988613750897144",
    "geocoded_column": {
      "latitude": "29.988613750897144",
      "longitude": "-90.02974224562607"
    }
  },
  {
    "service_request": "2025-1216375",
    "request_type": "Parks & Parkways",
    "request_reason": "Park Maintenance/Clean Up",
    "date_created": "2025-08-07T15:32:48.000",
    "date_modified": "2025-08-07T15:32:51.000",
    "request_status": "Pending",
    "responsible_agency": "Department of Parks & Parkway",
    "final_address": "2102 N Claiborne Ave",
    "address_councildis": "C",
    "status": "Pending",
    "rowid": "1216375",
    "final_x": "3684499.00213",
    "final_y": "537955.645833",
    "longitude": "-90.05837445470412",
    "latitude": "29.973100090921548",
    "geocoded_column": {
      "latitude": "29.973100090921548",
      "longitude": "-90.05837445470412"
    }
  },
  {
    "service_request": "2025-1216374",
    "request_type": "Property Maintenance",
    "request_reason": "Property Maintenance",
    "date_created": "2025-08-07T15:30:18.000",
    "date_modified": "2025-08-07T15:30:27.000",
    "request_status": "Pending",
    "responsible_agency": "Department of Code Enforcement",
    "final_address": "5501 Bundy Rd",
    "address_councildis": "E",
    "status": "Pending",
    "rowid": "1216374",
    "final_x": "3709937.84766",
    "final_y": "558061.934683",
    "longitude": "-89.97728285709977",
    "latitude": "30.027581888538652",
    "geocoded_column": {
      "latitude": "30.027581888538652",
      "longitude": "-89.97728285709977"
    }
  },
  {
    "service_request": "2025-1216373",
    "request_type": "Street and Traffic Signs",
    "request_reason": "Street Name Sign Damaged or Missing",
    "date_created": "2025-08-07T15:24:53.000",
    "date_modified": "2025-08-07T15:24:55.000",
    "request_status": "Pending",
    "responsible_agency": "Department of Public Works",
    "final_address": "2200 Rev. John Raphael, Jr. Way Ste A",
    "address_councildis": "B",
    "status": "Pending",
    "rowid": "1216373",
    "final_x": "3675793.03054",
    "final_y": "525974.246589",
    "longitude": "-90.08628147773392",
    "latitude": "29.940418742767207",
    "geocoded_column": {
      "latitude": "29.940418742767207",
      "longitude": "-90.08628147773392"
    }
  },
  {
    "service_request": "2025-1216372",
    "request_type": "Street and Traffic Signs",
    "request_reason": "Street Name Sign Damaged or Missing",
    "date_created": "2025-08-07T15:20:40.000",
    "date_modified": "2025-08-07T15:20:41.000",
    "request_status": "Pending",
    "responsible_agency": "Department of Public Works",
    "final_address": "2200 Rev. John Raphael, Jr. Way Ste A",
    "address_councildis": "B",
    "status": "Pending",
    "rowid": "1216372",
    "final_x": "3675793.03054",
    "final_y": "525974.246589",
    "longitude": "-90.08628147773392",
    "latitude": "29.940418742767207",
    "geocoded_column": {
      "latitude": "29.940418742767207",
      "longitude": "-90.08628147773392"
    }
  },
  {
    "service_request": "2025-1216371",
    "request_type": "Trash/Recycling",
    "request_reason": "Request a Large Item Pick Up",
    "date_created": "2025-08-07T15:18:51.000",
    "date_modified": "2025-08-07T15:18:53.000",
    "request_status": "Pending",
    "responsible_agency": "Department of Sanitation",
    "final_address": "1430 Gordon St",
    "address_councildis": "E",
    "status": "Assigned to Contractor",
    "contractor": "Waste Pro",
    "rowid": "1216371",
    "final_x": "3699640.55332",
    "final_y": "534742.155974",
    "longitude": "-90.01067190353001",
    "latitude": "29.963792206509968",
    "geocoded_column": {
      "latitude": "29.963792206509968",
      "longitude": "-90.01067190353001"
    }
  },
  {
    "service_request": "2025-1216370",
    "request_type": "Mosquito, Termite & Rodent Control",
    "request_reason": "Rodent Complaint (Mice & Rats)",
    "date_created": "2025-08-07T15:18:30.000",
    "date_modified": "2025-08-07T15:18:33.000",
    "request_status": "Pending",
    "responsible_agency": "Mosquito, Termite & Rodent Control Board",
    "final_address": "2561 Madrid St",
    "address_councildis": "D",
    "status": "Pending",
    "rowid": "1216370",
    "final_x": "3686186.62895",
    "final_y": "555595.127257",
    "longitude": "-90.05242184985838",
    "latitude": "30.02155057612654",
    "geocoded_column": {
      "latitude": "30.02155057612654",
      "longitude": "-90.05242184985838"
    }
  },
  {
    "service_request": "2025-1216369",
    "request_type": "Mosquito, Termite & Rodent Control",
    "request_reason": "Rodent Complaint (Mice & Rats)",
    "date_created": "2025-08-07T15:16:57.000",
    "date_modified": "2025-08-07T15:16:59.000",
    "request_status": "Pending",
    "responsible_agency": "Mosquito, Termite & Rodent Control Board",
    "final_address": "519 N Gayoso St",
    "address_councildis": "A",
    "status": "Pending",
    "rowid": "1216369",
    "final_x": "3675368.1108",
    "final_y": "537296.403272",
    "longitude": "-90.08723428412092",
    "latitude": "29.971563598679754",
    "geocoded_column": {
      "latitude": "29.971563598679754",
      "longitude": "-90.08723428412092"
    }
  },
  {
    "service_request": "2025-1216368",
    "request_type": "Trash/Recycling",
    "request_reason": "Illegal Dumping",
    "date_created": "2025-08-07T15:15:41.000",
    "date_modified": "2025-08-07T15:57:19.000",
    "request_status": "Pending",
    "responsible_agency": "Department of Sanitation",
    "final_address": "1409 Gordon St",
    "address_councildis": "E",
    "status": "Assigned to Contractor",
    "rowid": "1216368",
    "final_x": "3699646.58954",
    "final_y": "534569.639941",
    "longitude": "-90.0106591304862",
    "latitude": "29.963317657544",
    "geocoded_column": {
      "latitude": "29.963317657544",
      "longitude": "-90.0106591304862"
    }
  },
  {
    "service_request": "2025-1216367",
    "request_type": "Trash/Recycling",
    "request_reason": "Request a Large Item Pick Up",
    "date_created": "2025-08-07T15:14:00.000",
    "date_modified": "2025-08-07T15:24:22.000",
    "request_status": "Pending",
    "responsible_agency": "Department of Sanitation",
    "final_address": "2250 Benefit St",
    "address_councildis": "D",
    "status": "Assigned to Contractor",
    "contractor": "IV Waste",
    "rowid": "1216367",
    "final_x": "3684813.28898",
    "final_y": "544400.414031",
    "longitude": "-90.05715518607487",
    "latitude": "29.990811313561313",
    "geocoded_column": {
      "latitude": "29.990811313561313",
      "longitude": "-90.05715518607487"
    }
  },
  {
    "service_request": "2025-1216366",
    "request_type": "Street and Traffic Signs",
    "request_reason": "Additional Signage Request",
    "date_created": "2025-08-07T15:09:50.000",
    "date_modified": "2025-08-07T15:09:51.000",
    "request_status": "Pending",
    "responsible_agency": "Department of Public Works",
    "final_address": "2801 Franklin Ave",
    "address_councildis": "D",
    "status": "Pending",
    "rowid": "1216366",
    "final_x": "3687463.88873",
    "final_y": "543219.95611",
    "longitude": "-90.04882440505301",
    "latitude": "29.987484037612635",
    "geocoded_column": {
      "latitude": "29.987484037612635",
      "longitude": "-90.04882440505301"
    }
  },
  {
    "service_request": "2025-1216365",
    "request_type": "Trash/Recycling",
    "request_reason": "Missed Trash Pick-Up",
    "date_created": "2025-08-07T15:08:02.000",
    "date_modified": "2025-08-07T16:07:56.000",
    "case_close_date": "2025-08-07T11:07:55.000",
    "request_status": "Closed",
    "responsible_agency": "Department of Sanitation",
    "final_address": "7902 Freret St",
    "address_councildis": "A",
    "status": "Invalid Request",
    "contractor": "IV Waste",
    "contractor_action": "Invalid",
    "rowid": "1216365",
    "final_x": "3661995.03879",
    "final_y": "527344.024063",
    "longitude": "-90.1297987847559",
    "latitude": "29.94459089428192",
    "geocoded_column": {
      "latitude": "29.94459089428192",
      "longitude": "-90.1297987847559"
    }
  },
  {
    "service_request": "2025-1216364",
    "request_type": "Trash/Recycling",
    "request_reason": "Request a Large Item Pick Up",
    "date_created": "2025-08-07T15:07:21.000",
    "date_modified": "2025-08-07T15:07:23.000",
    "request_status": "Pending",
    "responsible_agency": "Department of Sanitation",
    "final_address": "11280 Waverly Dr",
    "address_councildis": "E",
    "status": "Assigned to Contractor",
    "contractor": "Waste Pro",
    "rowid": "1216364",
    "final_x": "3717668.50066",
    "final_y": "560245.272669",
    "longitude": "-89.9527717674451",
    "latitude": "30.033331365237245",
    "geocoded_column": {
      "latitude": "30.033331365237245",
      "longitude": "-89.9527717674451"
    }
  },
  {
    "service_request": "2025-1216363",
    "request_type": "Trash/Recycling",
    "request_reason": "Order Recycling Cart",
    "date_created": "2025-08-07T15:06:12.000",
    "date_modified": "2025-08-07T15:06:13.000",
    "request_status": "Pending",
    "responsible_agency": "Department of Sanitation",
    "final_address": "7321 Eastmore Rd",
    "address_councildis": "E",
    "status": "Pending",
    "rowid": "1216363",
    "final_x": "3700594.57809",
    "final_y": "559689.479005",
    "longitude": "-90.00674712653371",
    "latitude": "30.032357732210247",
    "geocoded_column": {
      "latitude": "30.032357732210247",
      "longitude": "-90.00674712653371"
    }
  },
  {
    "service_request": "2025-1216362",
    "request_type": "Property Maintenance",
    "request_reason": "Property Maintenance",
    "date_created": "2025-08-07T15:00:19.000",
    "date_modified": "2025-08-07T15:00:34.000",
    "request_status": "Pending",
    "responsible_agency": "Department of Code Enforcement",
    "final_address": "2941 Preston Pl",
    "address_councildis": "C",
    "status": "Pending",
    "rowid": "1216362",
    "final_x": "3708563.94622",
    "final_y": "518958.814071",
    "longitude": "-89.98308029397296",
    "latitude": "29.920107414471424",
    "geocoded_column": {
      "latitude": "29.920107414471424",
      "longitude": "-89.98308029397296"
    }
  },
  {
    "service_request": "2025-1216361",
    "request_type": "Trash/Recycling",
    "request_reason": "Request a Large Item Pick Up",
    "date_created": "2025-08-07T15:00:16.000",
    "date_modified": "2025-08-07T15:00:18.000",
    "request_status": "Pending",
    "responsible_agency": "Department of Sanitation",
    "final_address": "4137 N Miro St",
    "address_councildis": "D",
    "status": "Assigned to Contractor",
    "contractor": "IV Waste",
    "rowid": "1216361",
    "final_x": "3693327.77341",
    "final_y": "539403.655882",
    "longitude": "-90.03043957768517",
    "latitude": "29.976808532445112",
    "geocoded_column": {
      "latitude": "29.976808532445112",
      "longitude": "-90.03043957768517"
    }
  },
  {
    "service_request": "2025-1216360",
    "request_type": "Abandoned Vehicles",
    "request_reason": "Abandoned/Junk Vehicles",
    "date_created": "2025-08-07T14:58:24.000",
    "date_modified": "2025-08-07T14:58:26.000",
    "request_status": "Pending",
    "responsible_agency": "Department of Public Works",
    "final_address": "SANDY COVE DR & PASS DR",
    "address_councildis": "E",
    "status": "Pending",
    "rowid": "1216360",
    "final_x": "3715038.9",
    "final_y": "570096.68",
    "longitude": "-89.96070855739926",
    "latitude": "30.060505579176017",
    "geocoded_column": {
      "latitude": "30.060505579176017",
      "longitude": "-89.96070855739926"
    }
  },
  {
    "service_request": "2025-1216359",
    "request_type": "Streetlights",
    "request_reason": "Streetlight Outage/Malfunction",
    "date_created": "2025-08-07T14:54:22.000",
    "date_modified": "2025-08-07T14:54:24.000",
    "request_status": "Pending",
    "responsible_agency": "Department of Public Works",
    "final_address": "1317 Octavia St",
    "address_councildis": "A",
    "status": "Pending",
    "contractor": "Legacy Professional Services",
    "rowid": "1216359",
    "final_x": "3666912.1449",
    "final_y": "520773.623545",
    "longitude": "-90.11449463654631",
    "latitude": "29.926381464847747",
    "geocoded_column": {
      "latitude": "29.926381464847747",
      "longitude": "-90.11449463654631"
    }
  },
  {
    "service_request": "2025-1216358",
    "request_type": "Abandoned Vehicles",
    "request_reason": "Abandoned/Junk Vehicles",
    "date_created": "2025-08-07T14:54:03.000",
    "date_modified": "2025-08-07T14:54:04.000",
    "request_status": "Pending",
    "responsible_agency": "Department of Public Works",
    "final_address": "4900 BLK Western St",
    "address_councildis": "D",
    "status": "Pending",
    "rowid": "1216358",
    "final_x": "3684067.35657",
    "final_y": "551044.869155",
    "longitude": "-90.05927803520744",
    "latitude": "30.00910400141602",
    "geocoded_column": {
      "latitude": "30.00910400141602",
      "longitude": "-90.05927803520744"
    }
  },
  {
    "service_request": "2025-1216357",
    "request_type": "Drainage",
    "request_reason": "Catch Basin Not Draining",
    "date_created": "2025-08-07T14:52:23.000",
    "date_modified": "2025-08-07T14:52:25.000",
    "request_status": "Pending",
    "responsible_agency": "Sewerage & Water Board",
    "final_address": "900 Solomon Pl",
    "address_councildis": "A",
    "status": "Pending",
    "rowid": "1216357",
    "final_x": "3672560.34983",
    "final_y": "541078.764492",
    "longitude": "-90.09597263394686",
    "latitude": "29.982047466070718",
    "geocoded_column": {
      "latitude": "29.982047466070718",
      "longitude": "-90.09597263394686"
    }
  },
  {
    "service_request": "2025-1216356",
    "request_type": "Trash/Recycling",
    "request_reason": "Request a Large Item Pick Up",
    "date_created": "2025-08-07T14:48:02.000",
    "date_modified": "2025-08-07T14:48:04.000",
    "request_status": "Pending",
    "responsible_agency": "Department of Sanitation",
    "final_address": "4843 Eunice Dr",
    "address_councildis": "E",
    "status": "Assigned to Contractor",
    "contractor": "Waste Pro",
    "rowid": "1216356",
    "final_x": "3710531.81912",
    "final_y": "556577.006938",
    "longitude": "-89.97546157699512",
    "latitude": "30.02347957955886",
    "geocoded_column": {
      "latitude": "30.02347957955886",
      "longitude": "-89.97546157699512"
    }
  },
  {
    "service_request": "2025-1216355",
    "request_type": "Abandoned Vehicles",
    "request_reason": "Abandoned/Junk Vehicles",
    "date_created": "2025-08-07T14:46:11.000",
    "date_modified": "2025-08-07T14:46:14.000",
    "request_status": "Pending",
    "responsible_agency": "Department of Public Works",
    "final_address": "700 East Dr",
    "address_councildis": "A",
    "status": "Pending",
    "rowid": "1216355",
    "final_x": "3662749.51763",
    "final_y": "519614.81484",
    "longitude": "-90.12767343520558",
    "latitude": "29.92331619733855",
    "geocoded_column": {
      "latitude": "29.92331619733855",
      "longitude": "-90.12767343520558"
    }
  },
  {
    "service_request": "2025-1216354",
    "request_type": "Streetlights",
    "request_reason": "Streetlight Outage/Malfunction",
    "date_created": "2025-08-07T14:44:43.000",
    "date_modified": "2025-08-07T14:44:45.000",
    "request_status": "Pending",
    "responsible_agency": "Department of Public Works",
    "final_address": "4883 Rosemont Pl",
    "address_councildis": "E",
    "status": "Pending",
    "contractor": "Legacy Professional Services",
    "rowid": "1216354",
    "final_x": "3702699.70097",
    "final_y": "555773.340569",
    "longitude": "-90.00023880785623",
    "latitude": "30.02152268490085",
    "geocoded_column": {
      "latitude": "30.02152268490085",
      "longitude": "-90.00023880785623"
    }
  },
  {
    "service_request": "2025-1216353",
    "request_type": "Trash/Recycling",
    "request_reason": "Start Trash Service",
    "date_created": "2025-08-07T14:43:56.000",
    "date_modified": "2025-08-07T14:43:59.000",
    "request_status": "Pending",
    "responsible_agency": "Department of Sanitation",
    "final_address": "3311 St Ann St",
    "address_councildis": "A",
    "status": "Assigned to Contractor",
    "contractor": "IV Waste",
    "rowid": "1216353",
    "final_x": "3674836.62312",
    "final_y": "538845.117961",
    "longitude": "-90.08885968234804",
    "latitude": "29.975837918563485",
    "geocoded_column": {
      "latitude": "29.975837918563485",
      "longitude": "-90.08885968234804"
    }
  },
  {
    "service_request": "2025-1216352",
    "request_type": "Healthy Homes",
    "request_reason": "Healthy Homes",
    "date_created": "2025-08-07T14:42:34.000",
    "date_modified": "2025-08-07T14:42:36.000",
    "request_status": "Pending",
    "responsible_agency": "Department of Code Enforcement",
    "final_address": "4939 Miles Dr",
    "address_councildis": "D",
    "status": "Pending",
    "rowid": "1216352",
    "final_x": "3680333.29813",
    "final_y": "549626.467604",
    "longitude": "-90.07112454348045",
    "latitude": "30.00531753980393",
    "geocoded_column": {
      "latitude": "30.00531753980393",
      "longitude": "-90.07112454348045"
    }
  },
  {
    "service_request": "2025-1216351",
    "request_type": "Trash/Recycling",
    "request_reason": "Return Trash Cart",
    "date_created": "2025-08-07T14:41:27.000",
    "date_modified": "2025-08-07T14:41:29.000",
    "request_status": "Pending",
    "responsible_agency": "Department of Sanitation",
    "final_address": "12 Fontainebleau Dr",
    "address_councildis": "A",
    "status": "Assigned to Contractor",
    "contractor": "IV Waste",
    "rowid": "1216351",
    "final_x": "3665601.99751",
    "final_y": "531780.781571",
    "longitude": "-90.11826196111153",
    "latitude": "29.956685872991745",
    "geocoded_column": {
      "latitude": "29.956685872991745",
      "longitude": "-90.11826196111153"
    }
  },
  {
    "service_request": "2025-1216350",
    "request_type": "Trash/Recycling",
    "request_reason": "Request a Large Item Pick Up",
    "date_created": "2025-08-07T14:40:27.000",
    "date_modified": "2025-08-07T14:41:58.000",
    "request_status": "Pending",
    "responsible_agency": "Department of Sanitation",
    "final_address": "4900 Royal St",
    "address_councildis": "E",
    "status": "Assigned to Contractor",
    "contractor": "Waste Pro",
    "rowid": "1216350",
    "final_x": "3694989.39696",
    "final_y": "532869.47482",
    "longitude": "-90.02542723173862",
    "latitude": "29.958789800641274",
    "geocoded_column": {
      "latitude": "29.958789800641274",
      "longitude": "-90.02542723173862"
    }
  },
  {
    "service_request": "2025-1216349",
    "request_type": "Property Maintenance",
    "request_reason": "Property Maintenance",
    "date_created": "2025-08-07T14:38:43.000",
    "date_modified": "2025-08-07T14:38:47.000",
    "request_status": "Pending",
    "responsible_agency": "Department of Code Enforcement",
    "final_address": "20501 Old Spanish Trl",
    "address_councildis": "E",
    "status": "Pending",
    "rowid": "1216349",
    "final_x": "3761719.41309",
    "final_y": "572407.974057",
    "longitude": "-89.81306014220682",
    "latitude": "30.065240373314854",
    "geocoded_column": {
      "latitude": "30.065240373314854",
      "longitude": "-89.81306014220682"
    }
  },
  {
    "service_request": "2025-1216348",
    "request_type": "Trash/Recycling",
    "request_reason": "Return Trash Cart",
    "date_created": "2025-08-07T14:33:58.000",
    "date_modified": "2025-08-07T14:34:42.000",
    "request_status": "Pending",
    "responsible_agency": "Department of Sanitation",
    "final_address": "11424 N Easterlyn Cir",
    "address_councildis": "E",
    "status": "Assigned to Contractor",
    "contractor": "Waste Pro",
    "rowid": "1216348",
    "final_x": "3718539.65785",
    "final_y": "560929.500318",
    "longitude": "-89.94999275011361",
    "latitude": "30.03518382553971",
    "geocoded_column": {
      "latitude": "30.03518382553971",
      "longitude": "-89.94999275011361"
    }
  },
  {
    "service_request": "2025-1216347",
    "request_type": "Trash/Recycling",
    "request_reason": "Return Recycling Cart",
    "date_created": "2025-08-07T14:33:07.000",
    "date_modified": "2025-08-07T14:33:08.000",
    "request_status": "Pending",
    "responsible_agency": "Department of Sanitation",
    "final_address": "6565 Canal Blvd",
    "address_councildis": "A",
    "status": "Pending",
    "rowid": "1216347",
    "final_x": "3668996.79559",
    "final_y": "551193.543317",
    "longitude": "-90.10688613593328",
    "latitude": "30.009964948298855",
    "geocoded_column": {
      "latitude": "30.009964948298855",
      "longitude": "-90.10688613593328"
    }
  },
  {
    "service_request": "2025-1216346",
    "request_type": "Parks & Parkways",
    "request_reason": "Request Grass Cutting Service (City Owned Property)",
    "date_created": "2025-08-07T14:31:52.000",
    "date_modified": "2025-08-07T14:59:37.000",
    "case_close_date": "2025-08-07T09:59:36.000",
    "request_status": "Closed",
    "responsible_agency": "Department of Parks & Parkway",
    "final_address": "7538 Warfield St",
    "address_councildis": "E",
    "status": "Referred to Property Owner",
    "rowid": "1216346",
    "final_x": "3702840.87031",
    "final_y": "553064.302167",
    "longitude": "-89.9998923665658",
    "latitude": "30.014069349987334",
    "geocoded_column": {
      "latitude": "30.014069349987334",
      "longitude": "-89.9998923665658"
    }
  },
  {
    "service_request": "2025-1216345",
    "request_type": "Trash/Recycling",
    "request_reason": "Request a Large Item Pick Up",
    "date_created": "2025-08-07T14:29:44.000",
    "date_modified": "2025-08-07T14:29:46.000",
    "request_status": "Pending",
    "responsible_agency": "Department of Sanitation",
    "final_address": "6565 Canal Blvd",
    "address_councildis": "A",
    "status": "Assigned to Contractor",
    "contractor": "IV Waste",
    "rowid": "1216345",
    "final_x": "3668996.79559",
    "final_y": "551193.543317",
    "longitude": "-90.10688613593328",
    "latitude": "30.009964948298855",
    "geocoded_column": {
      "latitude": "30.009964948298855",
      "longitude": "-90.10688613593328"
    }
  },
  {
    "service_request": "2025-1216344",
    "request_type": "Property Maintenance",
    "request_reason": "Property Maintenance",
    "date_created": "2025-08-07T14:19:59.000",
    "date_modified": "2025-08-07T14:20:01.000",
    "request_status": "Pending",
    "responsible_agency": "Department of Code Enforcement",
    "final_address": "3337 Nashville Ave",
    "address_councildis": "A",
    "status": "Pending",
    "rowid": "1216344",
    "final_x": "3668106.59188",
    "final_y": "528040.191871",
    "longitude": "-90.11047928801209",
    "latitude": "29.946327206133606",
    "geocoded_column": {
      "latitude": "29.946327206133606",
      "longitude": "-90.11047928801209"
    }
  },
  {
    "service_request": "2025-1216343",
    "request_type": "Trash/Recycling",
    "request_reason": "Order Recycling Cart",
    "date_created": "2025-08-07T14:19:46.000",
    "date_modified": "2025-08-07T14:19:48.000",
    "request_status": "Pending",
    "responsible_agency": "Department of Sanitation",
    "final_address": "4800 Piety Dr",
    "address_councildis": "D",
    "status": "Pending",
    "rowid": "1216343",
    "final_x": "3691582.85974",
    "final_y": "551246.654293",
    "longitude": "-90.03552689731205",
    "latitude": "30.009426922541333",
    "geocoded_column": {
      "latitude": "30.009426922541333",
      "longitude": "-90.03552689731205"
    }
  },
  {
    "service_request": "2025-1216342",
    "request_type": "Trash/Recycling",
    "request_reason": "Order Recycling Cart",
    "date_created": "2025-08-07T14:18:50.000",
    "date_modified": "2025-08-07T14:18:52.000",
    "request_status": "Pending",
    "responsible_agency": "Department of Sanitation",
    "final_address": "419 Second St",
    "address_councildis": "B",
    "status": "Pending",
    "rowid": "1216342",
    "final_x": "3679205.4173",
    "final_y": "519302.407543",
    "longitude": "-90.0757392011216",
    "latitude": "29.921970816065233",
    "geocoded_column": {
      "latitude": "29.921970816065233",
      "longitude": "-90.0757392011216"
    }
  },
  {
    "service_request": "2025-1216341",
    "request_type": "Trash/Recycling",
    "request_reason": "Repair Trash Cart",
    "date_created": "2025-08-07T14:17:14.000",
    "date_modified": "2025-08-07T14:17:18.000",
    "request_status": "Pending",
    "responsible_agency": "Department of Sanitation",
    "final_address": "806 Louque Pl",
    "address_councildis": "A",
    "status": "Assigned to Contractor",
    "contractor": "IV Waste",
    "rowid": "1216341",
    "final_x": "3668727.03783",
    "final_y": "543467.93243",
    "longitude": "-90.10799941537084",
    "latitude": "29.988730129276135",
    "geocoded_column": {
      "latitude": "29.988730129276135",
      "longitude": "-90.10799941537084"
    }
  },
  {
    "service_request": "2025-1216340",
    "request_type": "Trash/Recycling",
    "request_reason": "Order Trash Cart",
    "date_created": "2025-08-07T14:15:04.000",
    "date_modified": "2025-08-07T14:15:06.000",
    "request_status": "Pending",
    "responsible_agency": "Department of Sanitation",
    "final_address": "124 Wren St",
    "address_councildis": "D",
    "status": "Assigned to Contractor",
    "contractor": "IV Waste",
    "rowid": "1216340",
    "final_x": "3673327.76468",
    "final_y": "556215.459994",
    "longitude": "-90.09303126220661",
    "latitude": "30.023645249905254",
    "geocoded_column": {
      "latitude": "30.023645249905254",
      "longitude": "-90.09303126220661"
    }
  },
  {
    "service_request": "2025-1216339",
    "request_type": "Trash/Recycling",
    "request_reason": "Start Trash Service",
    "date_created": "2025-08-07T14:13:57.000",
    "date_modified": "2025-08-07T14:13:58.000",
    "request_status": "Pending",
    "responsible_agency": "Department of Sanitation",
    "final_address": "124 Wren St",
    "address_councildis": "D",
    "status": "Assigned to Contractor",
    "contractor": "IV Waste",
    "rowid": "1216339",
    "final_x": "3673327.76468",
    "final_y": "556215.459994",
    "longitude": "-90.09303126220661",
    "latitude": "30.023645249905254",
    "geocoded_column": {
      "latitude": "30.023645249905254",
      "longitude": "-90.09303126220661"
    }
  },
  {
    "service_request": "2025-1216338",
    "request_type": "Streetlights",
    "request_reason": "Streetlight Outage/Malfunction",
    "date_created": "2025-08-07T14:13:07.000",
    "date_modified": "2025-08-07T14:13:09.000",
    "request_status": "Pending",
    "responsible_agency": "Department of Public Works",
    "final_address": "256 Elmira Ave",
    "address_councildis": "C",
    "status": "Pending",
    "contractor": "Legacy Professional Services",
    "rowid": "1216338",
    "final_x": "3688290.5407",
    "final_y": "530942.986754",
    "longitude": "-90.04664875826435",
    "latitude": "29.953701171104807",
    "geocoded_column": {
      "latitude": "29.953701171104807",
      "longitude": "-90.04664875826435"
    }
  },
  {
    "service_request": "2025-1216337",
    "request_type": "Trash/Recycling",
    "request_reason": "Missed Trash Pick-Up",
    "date_created": "2025-08-07T14:09:04.000",
    "date_modified": "2025-08-07T15:32:45.000",
    "case_close_date": "2025-08-07T10:32:44.000",
    "request_status": "Closed",
    "responsible_agency": "Department of Sanitation",
    "final_address": "1539 Adams St",
    "address_councildis": "A",
    "status": "Invalid Request",
    "contractor": "IV Waste",
    "contractor_action": "Invalid",
    "rowid": "1216337",
    "final_x": "3664006.79322",
    "final_y": "528362.78784",
    "longitude": "-90.12341308988694",
    "latitude": "29.94733391230838",
    "geocoded_column": {
      "latitude": "29.94733391230838",
      "longitude": "-90.12341308988694"
    }
  },
  {
    "service_request": "2025-1216336",
    "request_type": "Trash/Recycling",
    "request_reason": "Request a Large Item Pick Up",
    "date_created": "2025-08-07T14:05:58.000",
    "date_modified": "2025-08-07T14:05:59.000",
    "request_status": "Pending",
    "responsible_agency": "Department of Sanitation",
    "final_address": "810 Piety St",
    "address_councildis": "C",
    "status": "Assigned to Contractor",
    "contractor": "IV Waste",
    "rowid": "1216336",
    "final_x": "3689552.5983",
    "final_y": "534763.80391",
    "longitude": "-90.0425278104829",
    "latitude": "29.964168063493883",
    "geocoded_column": {
      "latitude": "29.964168063493883",
      "longitude": "-90.0425278104829"
    }
  },
  {
    "service_request": "2025-1216335",
    "request_type": "Trash/Recycling",
    "request_reason": "Request a Large Item Pick Up",
    "date_created": "2025-08-07T14:00:24.000",
    "date_modified": "2025-08-07T14:00:37.000",
    "request_status": "Pending",
    "responsible_agency": "Department of Sanitation",
    "final_address": "7184 Lamb Rd",
    "address_councildis": "D",
    "status": "Assigned to Contractor",
    "contractor": "Waste Pro",
    "rowid": "1216335",
    "final_x": "3697394.54435",
    "final_y": "557799.200219",
    "longitude": "-90.0169280382058",
    "latitude": "30.02726167058012",
    "geocoded_column": {
      "latitude": "30.02726167058012",
      "longitude": "-90.0169280382058"
    }
  },
  {
    "service_request": "2025-1216334",
    "request_type": "Safety & Permits",
    "request_reason": "Zoning Enforcement",
    "date_created": "2025-08-07T13:59:49.000",
    "date_modified": "2025-08-07T15:35:17.000",
    "request_status": "Pending",
    "responsible_agency": "Safety and Permits",
    "final_address": "1227 St Anthony St",
    "address_councildis": "C",
    "status": "Pending",
    "rowid": "1216334",
    "final_x": "3683537.05071",
    "final_y": "536408.695943",
    "longitude": "-90.06146671196375",
    "latitude": "29.968875911080815",
    "geocoded_column": {
      "latitude": "29.968875911080815",
      "longitude": "-90.06146671196375"
    }
  },
  {
    "service_request": "2025-1216333",
    "request_type": "Trash/Recycling",
    "request_reason": "Replace Trash Cart",
    "date_created": "2025-08-07T13:57:23.000",
    "date_modified": "2025-08-07T13:57:24.000",
    "request_status": "Pending",
    "responsible_agency": "Department of Sanitation",
    "final_address": "810 Piety St",
    "address_councildis": "C",
    "status": "Assigned to Contractor",
    "contractor": "IV Waste",
    "rowid": "1216333",
    "final_x": "3689552.5983",
    "final_y": "534763.80391",
    "longitude": "-90.0425278104829",
    "latitude": "29.964168063493883",
    "geocoded_column": {
      "latitude": "29.964168063493883",
      "longitude": "-90.0425278104829"
    }
  },
  {
    "service_request": "2025-1216332",
    "request_type": "Trash/Recycling",
    "request_reason": "Request a Large Item Pick Up",
    "date_created": "2025-08-07T13:57:00.000",
    "date_modified": "2025-08-07T13:57:03.000",
    "request_status": "Pending",
    "responsible_agency": "Department of Sanitation",
    "final_address": "1726 Paul Morphy St",
    "address_councildis": "D",
    "status": "Assigned to Contractor",
    "contractor": "IV Waste",
    "rowid": "1216332",
    "final_x": "3679411.18376",
    "final_y": "541138.952524",
    "longitude": "-90.07433232270378",
    "latitude": "29.9820077636322",
    "geocoded_column": {
      "latitude": "29.9820077636322",
      "longitude": "-90.07433232270378"
    }
  },
  {
    "service_request": "2025-1216331",
    "request_type": "Trash/Recycling",
    "request_reason": "Request a Large Item Pick Up",
    "date_created": "2025-08-07T13:55:44.000",
    "date_modified": "2025-08-07T13:55:46.000",
    "request_status": "Pending",
    "responsible_agency": "Department of Sanitation",
    "final_address": "2015 Coliseum St",
    "address_councildis": "B",
    "status": "Assigned to Contractor",
    "contractor": "IV Waste",
    "rowid": "1216331",
    "final_x": "3678764.14075",
    "final_y": "523377.540027",
    "longitude": "-90.07699108580572",
    "latitude": "29.9331894098128",
    "geocoded_column": {
      "latitude": "29.9331894098128",
      "longitude": "-90.07699108580572"
    }
  },
  {
    "service_request": "2025-1216330",
    "request_type": "Trash/Recycling",
    "request_reason": "Request a Large Item Pick Up",
    "date_created": "2025-08-07T13:53:23.000",
    "date_modified": "2025-08-07T13:53:25.000",
    "request_status": "Pending",
    "responsible_agency": "Department of Sanitation",
    "final_address": "8720 Apricot St",
    "address_councildis": "A",
    "status": "Assigned to Contractor",
    "contractor": "IV Waste",
    "rowid": "1216330",
    "final_x": "3664104.46042",
    "final_y": "534139.060933",
    "longitude": "-90.12291205753277",
    "latitude": "29.963213951313396",
    "geocoded_column": {
      "latitude": "29.963213951313396",
      "longitude": "-90.12291205753277"
    }
  },
  {
    "service_request": "2025-1216329",
    "request_type": "Health Related Request",
    "request_reason": "Noise Ordinance Complaint",
    "date_created": "2025-08-07T13:52:00.000",
    "date_modified": "2025-08-07T13:52:02.000",
    "request_status": "Pending",
    "responsible_agency": "Health Department",
    "final_address": "1550 Alvar St",
    "address_councildis": "D",
    "status": "Pending",
    "rowid": "1216329",
    "final_x": "3691914.27517",
    "final_y": "537150.28852",
    "longitude": "-90.03498447278649",
    "latitude": "29.970656689972234",
    "geocoded_column": {
      "latitude": "29.970656689972234",
      "longitude": "-90.03498447278649"
    }
  },
  {
    "service_request": "2025-1216328",
    "request_type": "Drainage",
    "request_reason": "Catch Basin Frame and Cover Missing or Damaged",
    "date_created": "2025-08-07T13:51:46.000",
    "date_modified": "2025-08-07T13:51:47.000",
    "request_status": "Pending",
    "responsible_agency": "Sewerage & Water Board",
    "final_address": "3138 Elysian Fields Ave",
    "address_councildis": "D",
    "status": "Pending",
    "rowid": "1216328",
    "final_x": "3684202.53404",
    "final_y": "544319.251727",
    "longitude": "-90.05908726103894",
    "latitude": "29.990606835786053",
    "geocoded_column": {
      "latitude": "29.990606835786053",
      "longitude": "-90.05908726103894"
    }
  },
  {
    "service_request": "2025-1216327",
    "request_type": "Trash/Recycling",
    "request_reason": "Request a Large Item Pick Up",
    "date_created": "2025-08-07T13:51:21.000",
    "date_modified": "2025-08-07T13:51:23.000",
    "request_status": "Pending",
    "responsible_agency": "Department of Sanitation",
    "final_address": "2716 Ramsey Dr",
    "address_councildis": "C",
    "status": "Assigned to Contractor",
    "contractor": "Richards Disposal",
    "rowid": "1216327",
    "final_x": "3703169.8346",
    "final_y": "520815.213753",
    "longitude": "-90.000038607376",
    "latitude": "29.925385549796246",
    "geocoded_column": {
      "latitude": "29.925385549796246",
      "longitude": "-90.000038607376"
    }
  },