[
  {
    "service_request": "2023-987386",
    "request_type": "Health Related Request",
    "request_reason": "Noise Ordinance Complaint",
    "date_created": "2023-03-31T00:08:49.000",
    "date_modified": "2023-03-31T00:08:49.000",
    "request_status": "Pending",
    "responsible_agency": "Health Department",
    "final_address": "1009 N Claiborne Ave, New Orleans, Louisiana, 70116",
    "address_councildis": "D",
    "status": "Pending",
    "rowid": "987386",
    "final_x": "3680417.66101",
    "final_y": "535635.218886",
    "longitude": "-90.07134484150656",
    "latitude": "29.966843952035386",
    "geocoded_column": {
      "latitude": "29.966843952035386",
      "longitude": "-90.07134484150656"
    }
  },
  {
    "service_request": "2023-987385",
    "request_type": "Trash/Recycling",
    "request_reason": "Missed Trash Pick-Up",
    "date_created": "2023-03-30T23:52:31.000",
    "date_modified": "2023-03-30T23:52:31.000",
    "request_status": "Pending",
    "responsible_agency": "Department of Sanitation",
    "final_address": "8 Heritage Ln Unit 30",
    "address_councildis": "C",
    "status": "Assigned to Contractor",
    "contractor": "Richards Disposal",
    "rowid": "987385",
    "final_x": "3695937.23088",
    "final_y": "520157.260472",
    "longitude": "-90.0228933122088",
    "latitude": "29.923805827929314",
    "geocoded_column": {
      "latitude": "29.923805827929314",
      "longitude": "-90.0228933122088"
    }
  },
  {
    "service_request": "2023-987384",
    "request_type": "Property Maintenance",
    "request_reason": "Property Maintenance",
    "date_created": "2023-03-30T23:24:41.000",
    "date_modified": "2023-03-30T23:24:41.000",
    "request_status": "Pending",
    "responsible_agency": "Department of Code Enforcement",
    "final_address": "1911 Conti St",
    "address_councildis": "B",
    "status": "Pending",
    "rowid": "987384",
    "final_x": "3678444.69051",
    "final_y": "534276.138437",
    "longitude": "-90.07762251702918",
    "latitude": "29.96316654469363",
    "geocoded_column": {
      "latitude": "29.96316654469363",
      "longitude": "-90.07762251702918"
    }
  },
  {
    "service_request": "2023-987383",
    "request_type": "Safety & Permits",
    "request_reason": "Licenses & Permits",
    "date_created": "2023-03-30T23:23:31.000",
    "date_modified": "2023-03-30T23:23:31.000",
    "request_status": "Pending",
    "responsible_agency": "Safety and Permits",
    "final_address": "7979 Earhart Blvd",
    "address_councildis": "B",
    "status": "Pending",
    "rowid": "987383",
    "final_x": "3667067.36417",
    "final_y": "533204.433924",
    "longitude": "-90.11358693504131",
    "latitude": "29.960557640913034",
    "geocoded_column": {
      "latitude": "29.960557640913034",
      "longitude": "-90.11358693504131"
    }
  },
  {
    "service_request": "2023-987382",
    "request_type": "Trash/Recycling",
    "request_reason": "Missed Trash Pick-Up",
    "date_created": "2023-03-30T22:47:10.000",
    "date_modified": "2023-03-30T22:47:11.000",
    "request_status": "Pending",
    "responsible_agency": "Department of Sanitation",
    "final_address": "5 Heritage Ln",
    "address_councildis": "C",
    "status": "Assigned to Contractor",
    "contractor": "Richards Disposal",
    "rowid": "987382",
    "final_x": "3696024.27146",
    "final_y": "520270.514232",
    "longitude": "-90.02261446865282",
    "latitude": "29.92411449987183",
    "geocoded_column": {
      "latitude": "29.92411449987183",
      "longitude": "-90.02261446865282"
    }
  },
  {
    "service_request": "2023-987381",
    "request_type": "Trash/Recycling",
    "request_reason": "Missed Trash Pick-Up",
    "date_created": "2023-03-30T22:29:58.000",
    "date_modified": "2023-03-30T22:29:59.000",
    "request_status": "Pending",
    "responsible_agency": "Department of Sanitation",
    "final_address": "1614 Opelousas Ave",
    "address_councildis": "C",
    "status": "Assigned to Contractor",
    "contractor": "Richards Disposal",
    "rowid": "987381",
    "final_x": "3690405.86364",
    "final_y": "529085.611392",
    "longitude": "-90.04003566863395",
    "latitude": "29.94852854639118",
    "geocoded_column": {
      "latitude": "29.94852854639118",
      "longitude": "-90.04003566863395"
    }
  },
  {
    "service_request": "2023-987380",
    "request_type": "Trash/Recycling",
    "request_reason": "Repair Trash Cart",
    "date_created": "2023-03-30T22:06:14.000",
    "date_modified": "2023-03-30T22:06:15.000",
    "request_status": "Pending",
    "responsible_agency": "Department of Sanitation",
    "final_address": "6 Versailles Blvd",
    "address_councildis": "A",
    "status": "Assigned to Contractor",
    "contractor": "Richards Disposal",
    "rowid": "987380",
    "final_x": "3666880.78317",
    "final_y": "528948.648064",
    "longitude": "-90.11431909423497",
    "latitude": "29.948861080424685",
    "geocoded_column": {
      "latitude": "29.948861080424685",
      "longitude": "-90.11431909423497"
    }
  },
  {
    "service_request": "2023-987379",
    "request_type": "Trash/Recycling",
    "request_reason": "Missed Trash Pick-Up",
    "date_created": "2023-03-30T21:45:50.000",
    "date_modified": "2023-03-30T21:45:51.000",
    "request_status": "Pending",
    "responsible_agency": "Department of Sanitation",
    "final_address": "1131 Orange St",
    "address_councildis": "B",
    "status": "Assigned to Contractor",
    "contractor": "Richards Disposal",
    "rowid": "987379",
    "final_x": "3679856.47944",
    "final_y": "523577.759035",
    "longitude": "-90.07353569564594",
    "latitude": "29.933706968638734",
    "geocoded_column": {
      "latitude": "29.933706968638734",
      "longitude": "-90.07353569564594"
    }
  },
  {
    "service_request": "2023-987378",
    "request_type": "Traffic Signals/Signs/Striping/Streetlights",
    "request_reason": "Street Light Outage/Malfunction",
    "date_created": "2023-03-30T21:42:48.000",
    "date_modified": "2023-03-30T21:42:48.000",
    "request_status": "Pending",
    "responsible_agency": "Department of Public Works",
    "final_address": "9701 W Rockton Cir",
    "address_councildis": "E",
    "status": "Assigned to Contractor",
    "contractor": "Legacy Professional Services",
    "rowid": "987378",
    "final_x": "3708279.93963",
    "final_y": "562696.851616",
    "longitude": "-89.98234898949605",
    "latitude": "30.040379924531216",
    "geocoded_column": {
      "latitude": "30.040379924531216",
      "longitude": "-89.98234898949605"
    }
  },
  {
    "service_request": "2023-987377",
    "request_type": "Traffic Signals/Signs/Striping/Streetlights",
    "request_reason": "Additional signage",
    "date_created": "2023-03-30T21:34:46.000",
    "date_modified": "2023-03-30T21:34:46.000",
    "request_status": "Pending",
    "responsible_agency": "Department of Public Works",
    "final_address": "621 N Dorgenois St",
    "address_councildis": "D",
    "status": "Pending",
    "rowid": "987377",
    "final_x": "3676891.83317",
    "final_y": "536312.898887",
    "longitude": "-90.08245604718394",
    "latitude": "29.968813645922992",
    "geocoded_column": {
      "latitude": "29.968813645922992",
      "longitude": "-90.08245604718394"
    }
  },
  {
    "service_request": "2023-987376",
    "request_type": "Abandoned Vehicles",
    "request_reason": "Abandoned/Junk Vehicles",
    "date_created": "2023-03-30T21:33:50.000",
    "date_modified": "2023-03-30T21:33:50.000",
    "request_status": "Pending",
    "responsible_agency": "Department of Public Works",
    "final_address": "721 Pauline St",
    "address_councildis": "C",
    "status": "Pending",
    "rowid": "987376",
    "final_x": "3690931.05289",
    "final_y": "534146.147909",
    "longitude": "-90.03819683105473",
    "latitude": "29.962426955719184",
    "geocoded_column": {
      "latitude": "29.962426955719184",
      "longitude": "-90.03819683105473"
    }
  },
  {
    "service_request": "2023-987373",
    "request_type": "Traffic Signals/Signs/Striping/Streetlights",
    "request_reason": "Street Light Knocked Down/Leaning",
    "date_created": "2023-03-30T21:20:41.000",
    "date_modified": "2023-03-30T21:20:42.000",
    "request_status": "Pending",
    "responsible_agency": "Department of Public Works",
    "final_address": "6501 Berkley Dr",
    "address_councildis": "C",
    "status": "Pending",
    "contractor": "Legacy Professional Services",
    "rowid": "987373",
    "final_x": "3708009.63211",
    "final_y": "517985.49183",
    "longitude": "-89.98486613806749",
    "latitude": "29.917449066714372",
    "geocoded_column": {
      "latitude": "29.917449066714372",
      "longitude": "-89.98486613806749"
    }
  },
  {
    "service_request": "2023-987370",
    "request_type": "Trash/Recycling",
    "request_reason": "Repair Trash Cart",
    "date_created": "2023-03-30T21:00:06.000",
    "date_modified": "2023-03-30T21:00:06.000",
    "request_status": "Pending",
    "responsible_agency": "Department of Sanitation",
    "final_address": "3301 Hyman Pl",
    "address_councildis": "C",
    "status": "Assigned to Contractor",
    "contractor": "Richards Disposal",
    "rowid": "987370",
    "final_x": "3700920.61873",
    "final_y": "519033.163063",
    "longitude": "-90.00720373581021",
    "latitude": "29.920557294967235",
    "geocoded_column": {
      "latitude": "29.920557294967235",
      "longitude": "-90.00720373581021"
    }
  },
  {
    "service_request": "2023-987369",
    "request_type": "Health Related Request",
    "request_reason": "Noise Ordinance Complaint",
    "date_created": "2023-03-30T20:57:37.000",
    "date_modified": "2023-03-30T20:57:37.000",
    "request_status": "Pending",
    "responsible_agency": "Health Department",
    "final_address": "600 N Broad St",
    "address_councildis": "D",
    "status": "Pending",
    "rowid": "987369",
    "final_x": "3676514.68328",
    "final_y": "536431.051079",
    "longitude": "-90.0836430411453",
    "latitude": "29.969149839828454",
    "geocoded_column": {
      "latitude": "29.969149839828454",
      "longitude": "-90.0836430411453"
    }
  },
  {
    "service_request": "2023-987368",
    "request_type": "Health Related Request",
    "request_reason": "Noise Ordinance Complaint",
    "date_created": "2023-03-30T20:20:22.000",
    "date_modified": "2023-03-30T20:20:22.000",
    "request_status": "Pending",
    "responsible_agency": "Health Department",
    "final_address": "550 Baronne St, New Orleans, Louisiana, 70113",
    "address_councildis": "B",
    "status": "Pending",
    "rowid": "987368",
    "final_x": "3679871.27515",
    "final_y": "529133.143296",
    "longitude": "-90.07329612681656",
    "latitude": "29.948981981496516",
    "geocoded_column": {
      "latitude": "29.948981981496516",
      "longitude": "-90.07329612681656"
    }
  },
  {
    "service_request": "2023-987367",
    "request_type": "Property Maintenance",
    "request_reason": "Property Maintenance",
    "date_created": "2023-03-30T20:03:08.000",
    "date_modified": "2023-03-30T20:03:08.000",
    "request_status": "Pending",
    "responsible_agency": "Department of Code Enforcement",
    "final_address": "5904 Annunciation St",
    "address_councildis": "A",
    "status": "Pending",
    "rowid": "987367",
    "final_x": "3664847.81332",
    "final_y": "517637.226678",
    "longitude": "-90.12111592177729",
    "latitude": "29.91781757278294",
    "geocoded_column": {
      "latitude": "29.91781757278294",
      "longitude": "-90.12111592177729"
    }
  },
  {
    "service_request": "2023-987366",
    "request_type": "Trash/Recycling",
    "request_reason": "Request a Large Item Pick Up",
    "date_created": "2023-03-30T19:38:45.000",
    "date_modified": "2023-03-30T19:38:46.000",
    "request_status": "Pending",
    "responsible_agency": "Department of Sanitation",
    "final_address": "7311 Beau St",
    "address_councildis": "E",
    "status": "Assigned to Contractor",
    "contractor": "Waste Pro",
    "rowid": "987366",
    "final_x": "3695669.36074",
    "final_y": "557730.172187",
    "longitude": "-90.02238193489183",
    "latitude": "30.027126254214675",
    "geocoded_column": {
      "latitude": "30.027126254214675",
      "longitude": "-90.02238193489183"
    }
  },
  {
    "service_request": "2023-987365",
    "request_type": "Trash/Recycling",
    "request_reason": "MIssed Recycling Pick-Up",
    "date_created": "2023-03-30T19:12:36.000",
    "date_modified": "2023-03-30T19:12:37.000",
    "request_status": "Pending",
    "responsible_agency": "Department of Sanitation",
    "final_address": "2724 First St",
    "address_councildis": "B",
    "status": "Assigned to Contractor",
    "contractor": "Richards Disposal",
    "rowid": "987365",
    "final_x": "3674621.85211",
    "final_y": "526671.383934",
    "longitude": "-90.08995520062304",
    "latitude": "29.94237063785649",
    "geocoded_column": {
      "latitude": "29.94237063785649",
      "longitude": "-90.08995520062304"
    }
  },
  {
    "service_request": "2023-987364",
    "request_type": "Trash/Recycling",
    "request_reason": "MIssed Recycling Pick-Up",
    "date_created": "2023-03-30T18:46:12.000",
    "date_modified": "2023-03-30T18:46:12.000",
    "request_status": "Pending",
    "responsible_agency": "Department of Sanitation",
    "final_address": "6030 Hurst St",
    "address_councildis": "A",
    "status": "Assigned to Contractor",
    "contractor": "Richards Disposal",
    "rowid": "987364",
    "final_x": "3665256.5074",
    "final_y": "521786.983866",
    "longitude": "-90.11968715854152",
    "latitude": "29.92921620713637",
    "geocoded_column": {
      "latitude": "29.92921620713637",
      "longitude": "-90.11968715854152"
    }
  },
  {
    "service_request": "2023-987363",
    "request_type": "Traffic Signals/Signs/Striping/Streetlights",
    "request_reason": "Street Light Outage/Malfunction",
    "date_created": "2023-03-30T18:43:03.000",
    "date_modified": "2023-03-30T18:43:03.000",
    "request_status": "Pending",
    "responsible_agency": "Department of Public Works",
    "final_address": "601 Poydras St",
    "address_councildis": "B",
    "status": "Assigned to Contractor",
    "contractor": "Legacy Professional Services",
    "rowid": "987363",
    "final_x": "3680938.01679",
    "final_y": "529396.806657",
    "longitude": "-90.06991878324561",
    "latitude": "29.94967466888167",
    "geocoded_column": {
      "latitude": "29.94967466888167",
      "longitude": "-90.06991878324561"
    }
  },
  {
    "service_request": "2023-987362",
    "request_type": "Trash/Recycling",
    "request_reason": "Request a Large Item Pick Up",
    "date_created": "2023-03-30T18:37:47.000",
    "date_modified": "2023-03-30T18:39:04.000",
    "request_status": "Pending",
    "responsible_agency": "Department of Sanitation",
    "final_address": "7825 Ligustrum Dr",
    "address_councildis": "E",
    "status": "Assigned to Contractor",
    "contractor": "Waste Pro",
    "rowid": "987362",
    "final_x": "3701342.76151",
    "final_y": "561784.456735",
    "longitude": "-90.00430604144388",
    "latitude": "30.03809426674522",
    "geocoded_column": {
      "latitude": "30.03809426674522",
      "longitude": "-90.00430604144388"
    }
  },
  {
    "service_request": "2023-987361",
    "request_type": "Roads/Drainage",
    "request_reason": "Pothole",
    "date_created": "2023-03-30T18:35:30.000",
    "date_modified": "2023-03-30T18:35:30.000",
    "request_status": "Pending",
    "responsible_agency": "Department of Public Works",
    "final_address": "129 Burgundy St",
    "address_councildis": "C",
    "status": "Pending",
    "rowid": "987361",
    "final_x": "3680471.87599",
    "final_y": "531572.241091",
    "longitude": "-90.0713149488568",
    "latitude": "29.955670504386838",
    "geocoded_column": {
      "latitude": "29.955670504386838",
      "longitude": "-90.0713149488568"
    }
  },
  {
    "service_request": "2023-987360",
    "request_type": "Trash/Recycling",
    "request_reason": "Request a Large Item Pick Up",
    "date_created": "2023-03-30T18:26:01.000",
    "date_modified": "2023-03-30T18:26:02.000",
    "request_status": "Pending",
    "responsible_agency": "Department of Sanitation",
    "final_address": "6218 Erin Dr",
    "address_councildis": "E",
    "status": "Assigned to Contractor",
    "contractor": "Waste Pro",
    "rowid": "987360",
    "final_x": "3696273.13623",
    "final_y": "558637.263644",
    "longitude": "-90.02044122796349",
    "latitude": "30.029601401726907",
    "geocoded_column": {
      "latitude": "30.029601401726907",
      "longitude": "-90.02044122796349"
    }
  },
  {
    "service_request": "2023-987359",
    "request_type": "Trash/Recycling",
    "request_reason": "Request a Large Item Pick Up",
    "date_created": "2023-03-30T18:25:29.000",
    "date_modified": "2023-03-30T18:25:30.000",
    "request_status": "Pending",
    "responsible_agency": "Department of Sanitation",
    "final_address": "734 Dumaine St",
    "address_councildis": "C",
    "status": "Assigned to Contractor",
    "contractor": "Empire Services",
    "rowid": "987359",
    "final_x": "3682752.65698",
    "final_y": "533195.813636",
    "longitude": "-90.06405626959247",
    "latitude": "29.960065505729947",
    "geocoded_column": {
      "latitude": "29.960065505729947",
      "longitude": "-90.06405626959247"
    }
  },
  {
    "service_request": "2023-987358",
    "request_type": "Trash/Recycling",
    "request_reason": "Return Trash Cart",
    "date_created": "2023-03-30T18:20:22.000",
    "date_modified": "2023-03-30T18:20:22.000",
    "request_status": "Closed",
    "responsible_agency": "Department of Sanitation",
    "final_address": "15 Fontainebleau Dr",
    "address_councildis": "A",
    "status": "Resolved",
    "rowid": "987358",
    "final_x": "3665796.0281",
    "final_y": "531835.645251",
    "longitude": "-90.11764743460623",
    "latitude": "29.95683107122039",
    "geocoded_column": {
      "latitude": "29.95683107122039",
      "longitude": "-90.11764743460623"
    }
  },
  {
    "service_request": "2023-987357",
    "request_type": "Trash/Recycling",
    "request_reason": "Missed Trash Pick-Up",
    "date_created": "2023-03-30T18:12:18.000",
    "date_modified": "2023-03-30T18:12:19.000",
    "request_status": "Pending",
    "responsible_agency": "Department of Sanitation",
    "final_address": "1226 Napoleon Ave",
    "address_councildis": "B",
    "status": "Assigned to Contractor",
    "contractor": "Richards Disposal",
    "rowid": "987357",
    "final_x": "3670806.91867",
    "final_y": "520018.438328",
    "longitude": "-90.10222551244391",
    "latitude": "29.924190455578582",
    "geocoded_column": {
      "latitude": "29.924190455578582",
      "longitude": "-90.10222551244391"
    }
  },
  {
    "service_request": "2023-987356",
    "request_type": "Trash/Recycling",
    "request_reason": "Request a Large Item Pick Up",
    "date_created": "2023-03-30T17:49:04.000",
    "date_modified": "2023-03-30T17:49:05.000",
    "request_status": "Pending",
    "responsible_agency": "Department of Sanitation",
    "final_address": "310 Royal St Apt 9",
    "address_councildis": "C",
    "status": "Assigned to Contractor",
    "contractor": "Empire Services",
    "rowid": "987356",
    "final_x": "3681800.57749",
    "final_y": "531319.629634",
    "longitude": "-90.06712819840453",
    "latitude": "29.954935602587945",
    "geocoded_column": {
      "latitude": "29.954935602587945",
      "longitude": "-90.06712819840453"
    }
  },
  {
    "service_request": "2023-987355",
    "request_type": "Abandoned Vehicles",
    "request_reason": "Abandoned/Junk Vehicles",
    "date_created": "2023-03-30T17:44:53.000",
    "date_modified": "2023-03-30T17:46:21.000",
    "request_status": "Pending",
    "responsible_agency": "Department of Public Works",
    "final_address": "1500 De Battista Pl",
    "address_councildis": "C",
    "status": "Pending",
    "rowid": "987355",
    "final_x": "3699824.21629",
    "final_y": "525702.975869",
    "longitude": "-90.01042147678989",
    "latitude": "29.938931823245607",
    "geocoded_column": {
      "latitude": "29.938931823245607",
      "longitude": "-90.01042147678989"
    }
  },
  {
    "service_request": "2023-987354",
    "request_type": "Trash/Recycling",
    "request_reason": "Request a Large Item Pick Up",
    "date_created": "2023-03-30T17:41:07.000",
    "date_modified": "2023-03-30T17:41:08.000",
    "request_status": "Pending",
    "responsible_agency": "Department of Sanitation",
    "final_address": "4908 Pecan St",
    "address_councildis": "E",
    "status": "Assigned to Contractor",
    "contractor": "Waste Pro",
    "rowid": "987354",
    "final_x": "3701654.75191",
    "final_y": "555110.973529",
    "longitude": "-90.0035648305922",
    "latitude": "30.019734815594887",
    "geocoded_column": {
      "latitude": "30.019734815594887",
      "longitude": "-90.0035648305922"
    }
  },
  {
    "service_request": "2023-987353",
    "request_type": "Property Maintenance",
    "request_reason": "Property Maintenance",
    "date_created": "2023-03-30T17:40:48.000",
    "date_modified": "2023-03-30T17:40:48.000",
    "request_status": "Pending",
    "responsible_agency": "Department of Code Enforcement",
    "final_address": "2719 New Orleans St",
    "address_councildis": "D",
    "status": "Pending",
    "rowid": "987353",
    "final_x": "3681927.38191",
    "final_y": "542540.780365",
    "longitude": "-90.06633601224631",
    "latitude": "29.985786039302035",
    "geocoded_column": {
      "latitude": "29.985786039302035",
      "longitude": "-90.06633601224631"
    }
  },
  {
    "service_request": "2023-987352",
    "request_type": "Roads/Drainage",
    "request_reason": "Street Subsidence (Sinking)",
    "date_created": "2023-03-30T17:39:54.000",
    "date_modified": "2023-03-30T17:41:24.000",
    "request_status": "Pending",
    "responsible_agency": "Department of Public Works",
    "final_address": "HARRISON AVE & ENCAMPMENT ST",
    "address_councildis": "D",
    "status": "Pending",
    "rowid": "987352",
    "final_x": "3676522.2",
    "final_y": "547445.08",
    "longitude": "-90.0832398247009",
    "latitude": "29.999434379161627",
    "geocoded_column": {
      "latitude": "29.999434379161627",
      "longitude": "-90.0832398247009"
    }
  },
  {
    "service_request": "2023-987351",
    "request_type": "Trash/Recycling",
    "request_reason": "Missed Trash Pick-Up",
    "date_created": "2023-03-30T17:35:44.000",
    "date_modified": "2023-03-30T17:35:44.000",
    "request_status": "Pending",
    "responsible_agency": "Department of Sanitation",
    "final_address": "2721 New Orleans St",
    "address_councildis": "D",
    "status": "Assigned to Contractor",
    "contractor": "IV Waste",
    "rowid": "987351",
    "final_x": "3681923.07919",
    "final_y": "542563.217293",
    "longitude": "-90.06634881918167",
    "latitude": "29.985847863787388",
    "geocoded_column": {
      "latitude": "29.985847863787388",
      "longitude": "-90.06634881918167"
    }
  },
  {
    "service_request": "2023-987350",
    "request_type": "Trash/Recycling",
    "request_reason": "Request a Large Item Pick Up",
    "date_created": "2023-03-30T17:35:33.000",
    "date_modified": "2023-03-30T17:35:33.000",
    "request_status": "Pending",
    "responsible_agency": "Department of Sanitation",
    "final_address": "7046 Lake Willow Dr",
    "address_councildis": "E",
    "status": "Assigned to Contractor",
    "contractor": "Waste Pro",
    "rowid": "987350",
    "final_x": "3702245.72721",
    "final_y": "559069.97398",
    "longitude": "-90.00155216452771",
    "latitude": "30.030601668775283",
    "geocoded_column": {
      "latitude": "30.030601668775283",
      "longitude": "-90.00155216452771"
    }
  },
  {
    "service_request": "2023-987349",
    "request_type": "Safety & Permits",
    "request_reason": "Licenses & Permits",
    "date_created": "2023-03-30T17:33:18.000",
    "date_modified": "2023-03-30T17:33:18.000",
    "request_status": "Pending",
    "responsible_agency": "Safety and Permits",
    "final_address": "534 Pacific Ave",
    "address_councildis": "C",
    "status": "Pending",
    "rowid": "987349",
    "final_x": "3688527.95606",
    "final_y": "529598.504897",
    "longitude": "-90.04594679900325",
    "latitude": "29.949996975315276",
    "geocoded_column": {
      "latitude": "29.949996975315276",
      "longitude": "-90.04594679900325"
    }
  },
  {
    "service_request": "2023-987348",
    "request_type": "Trash/Recycling",
    "request_reason": "Order Recycling Cart",
    "date_created": "2023-03-30T17:30:46.000",
    "date_modified": "2023-03-30T17:30:46.000",
    "request_status": "Pending",
    "responsible_agency": "Department of Sanitation",
    "final_address": "2721 New Orleans St",
    "address_councildis": "D",
    "status": "Pending",
    "rowid": "987348",
    "final_x": "3681923.07919",
    "final_y": "542563.217293",
    "longitude": "-90.06634881918167",
    "latitude": "29.985847863787388",
    "geocoded_column": {
      "latitude": "29.985847863787388",
      "longitude": "-90.06634881918167"
    }
  },
  {
    "service_request": "2023-987347",
    "request_type": "Roads/Drainage",
    "request_reason": "Pothole",
    "date_created": "2023-03-30T17:30:07.000",
    "date_modified": "2023-03-30T17:30:07.000",
    "request_status": "Pending",
    "responsible_agency": "Department of Public Works",
    "final_address": "1637 Octavia St",
    "address_councildis": "A",
    "status": "Pending",
    "rowid": "987347",
    "final_x": "3667204.73345",
    "final_y": "522041.466362",
    "longitude": "-90.11352840768842",
    "latitude": "29.929859069461468",
    "geocoded_column": {
      "latitude": "29.929859069461468",
      "longitude": "-90.11352840768842"
    }
  },
  {
    "service_request": "2023-987346",
    "request_type": "Trash/Recycling",
    "request_reason": "Missed Trash Pick-Up",
    "date_created": "2023-03-30T17:28:47.000",
    "date_modified": "2023-03-30T17:28:48.000",
    "request_status": "Pending",
    "responsible_agency": "Department of Sanitation",
    "final_address": "2721 New Orleans St",
    "address_councildis": "D",
    "status": "Assigned to Contractor",
    "contractor": "IV Waste",
    "rowid": "987346",
    "final_x": "3681923.07919",
    "final_y": "542563.217293",
    "longitude": "-90.06634881918167",
    "latitude": "29.985847863787388",
    "geocoded_column": {
      "latitude": "29.985847863787388",
      "longitude": "-90.06634881918167"
    }
  },
  {
    "service_request": "2023-987345",
    "request_type": "Trash/Recycling",
    "request_reason": "Missed Trash Pick-Up",
    "date_created": "2023-03-30T17:25:40.000",
    "date_modified": "2023-03-30T17:25:40.000",
    "request_status": "Pending",
    "responsible_agency": "Department of Sanitation",
    "final_address": "2135 Flood St",
    "address_councildis": "E",
    "status": "Assigned to Contractor",
    "contractor": "Waste Pro",
    "rowid": "987345",
    "final_x": "3698835.92215",
    "final_y": "537876.671241",
    "longitude": "-90.01309878480016",
    "latitude": "29.972436512987052",
    "geocoded_column": {
      "latitude": "29.972436512987052",
      "longitude": "-90.01309878480016"
    }
  },
  {
    "service_request": "2023-987344",
    "request_type": "Trash/Recycling",
    "request_reason": "Request a Large Item Pick Up",
    "date_created": "2023-03-30T17:19:41.000",
    "date_modified": "2023-03-30T17:19:41.000",
    "request_status": "Pending",
    "responsible_agency": "Department of Sanitation",
    "final_address": "24 Yosemite Dr",
    "address_councildis": "C",
    "status": "Assigned to Contractor",
    "contractor": "Richards Disposal",
    "rowid": "987344",
    "final_x": "3699911.74276",
    "final_y": "517583.98047",
    "longitude": "-90.01044107953516",
    "latitude": "29.916604604388432",
    "geocoded_column": {
      "latitude": "29.916604604388432",
      "longitude": "-90.01044107953516"
    }
  },
  {
    "service_request": "2023-987343",
    "request_type": "Property Maintenance",
    "request_reason": "Property Maintenance",
    "date_created": "2023-03-30T17:18:59.000",
    "date_modified": "2023-03-30T17:18:59.000",
    "request_status": "Pending",
    "responsible_agency": "Department of Code Enforcement",
    "final_address": "1401 St Roch Ave",
    "address_councildis": "C",
    "status": "Pending",
    "rowid": "987343",
    "final_x": "3686471.89986",
    "final_y": "537563.756872",
    "longitude": "-90.05215750720372",
    "latitude": "29.971962025153253",
    "geocoded_column": {
      "latitude": "29.971962025153253",
      "longitude": "-90.05215750720372"
    }
  },
  {
    "service_request": "2023-987342",
    "request_type": "Abandoned Vehicles",
    "request_reason": "Abandoned/Junk Vehicles",
    "date_created": "2023-03-30T17:18:50.000",
    "date_modified": "2023-03-30T17:18:50.000",
    "request_status": "Pending",
    "responsible_agency": "Department of Public Works",
    "final_address": "4807 Carondelet St",
    "address_councildis": "B",
    "status": "Pending",
    "rowid": "987342",
    "final_x": "3669233.08615",
    "final_y": "521157.452217",
    "longitude": "-90.10715508955495",
    "latitude": "29.927368783411108",
    "geocoded_column": {
      "latitude": "29.927368783411108",
      "longitude": "-90.10715508955495"
    }
  },
  {
    "service_request": "2023-987341",
    "request_type": "Traffic Signals/Signs/Striping/Streetlights",
    "request_reason": "Street Light Outage/Malfunction",
    "date_created": "2023-03-30T17:17:04.000",
    "date_modified": "2023-03-30T17:17:05.000",
    "request_status": "Pending",
    "responsible_agency": "Department of Public Works",
    "final_address": "5415 Danneel St",
    "address_councildis": "A",
    "status": "Assigned to Contractor",
    "contractor": "Legacy Professional Services",
    "rowid": "987341",
    "final_x": "3667383.51591",
    "final_y": "522367.238202",
    "longitude": "-90.11295306698128",
    "latitude": "29.930749603921157",
    "geocoded_column": {
      "latitude": "29.930749603921157",
      "longitude": "-90.11295306698128"
    }
  },
  {
    "service_request": "2023-987340",
    "request_type": "Abandoned Vehicles",
    "request_reason": "Abandoned/Junk Vehicles",
    "date_created": "2023-03-30T17:15:45.000",
    "date_modified": "2023-03-30T17:15:45.000",
    "request_status": "Pending",
    "responsible_agency": "Department of Public Works",
    "final_address": "2029 Adams St",
    "address_councildis": "A",
    "status": "Pending",
    "rowid": "987340",
    "final_x": "3665141.1664",
    "final_y": "529612.995905",
    "longitude": "-90.11978961958538",
    "latitude": "29.950738595791478",
    "geocoded_column": {
      "latitude": "29.950738595791478",
      "longitude": "-90.11978961958538"
    }
  },
  {
    "service_request": "2023-987339",
    "request_type": "Trash/Recycling",
    "request_reason": "Request a Large Item Pick Up",
    "date_created": "2023-03-30T17:13:03.000",
    "date_modified": "2023-03-30T17:13:04.000",
    "request_status": "Pending",
    "responsible_agency": "Department of Sanitation",
    "final_address": "7620 Expedition Dr",
    "address_councildis": "E",
    "status": "Assigned to Contractor",
    "contractor": "Waste Pro",
    "rowid": "987339",
    "final_x": "3725915.3239",
    "final_y": "571264.32132",
    "longitude": "-89.92628374338888",
    "latitude": "30.063353363007153",
    "geocoded_column": {
      "latitude": "30.063353363007153",
      "longitude": "-89.92628374338888"
    }
  },
  {
    "service_request": "2023-987338",
    "request_type": "Trash/Recycling",
    "request_reason": "Request a Large Item Pick Up",
    "date_created": "2023-03-30T17:11:21.000",
    "date_modified": "2023-03-30T17:11:21.000",
    "request_status": "Pending",
    "responsible_agency": "Department of Sanitation",
    "final_address": "8727 Apricot St",
    "address_councildis": "A",
    "status": "Assigned to Contractor",
    "contractor": "Richards Disposal",
    "rowid": "987338",
    "final_x": "3664110.13172",
    "final_y": "534242.916101",
    "longitude": "-90.12289068360873",
    "latitude": "29.963499354241172",
    "geocoded_column": {
      "latitude": "29.963499354241172",
      "longitude": "-90.12289068360873"
    }
  },
  {
    "service_request": "2023-987337",
    "request_type": "Trash/Recycling",
    "request_reason": "Replace Trash Cart",
    "date_created": "2023-03-30T16:55:54.000",
    "date_modified": "2023-03-30T16:55:55.000",
    "request_status": "Pending",
    "responsible_agency": "Department of Sanitation",
    "final_address": "14 Winners Cir",
    "address_councildis": "E",
    "status": "Assigned to Contractor",
    "contractor": "Waste Pro",
    "rowid": "987337",
    "final_x": "3715774.22047",
    "final_y": "570367.028583",
    "longitude": "-89.95837400696394",
    "latitude": "30.061224685270144",
    "geocoded_column": {
      "latitude": "30.061224685270144",
      "longitude": "-89.95837400696394"
    }
  },
  {
    "service_request": "2023-987336",
    "request_type": "Traffic Signals/Signs/Striping/Streetlights",
    "request_reason": "Street Light Outage/Malfunction",
    "date_created": "2023-03-30T16:54:43.000",
    "date_modified": "2023-03-30T16:54:44.000",
    "request_status": "Pending",
    "responsible_agency": "Department of Public Works",
    "final_address": "519 S Cortez St",
    "address_councildis": "B",
    "status": "Assigned to Contractor",
    "contractor": "Legacy Professional Services",
    "rowid": "987336",
    "final_x": "3670971.35329",
    "final_y": "536215.415047",
    "longitude": "-90.1011566426498",
    "latitude": "29.968721985798698",
    "geocoded_column": {
      "latitude": "29.968721985798698",
      "longitude": "-90.1011566426498"
    }
  },
  {
    "service_request": "2023-987335",
    "request_type": "Roads/Drainage",
    "request_reason": "Road Shoulder Repair",
    "date_created": "2023-03-30T16:52:31.000",
    "date_modified": "2023-03-30T16:52:31.000",
    "request_status": "Pending",
    "responsible_agency": "Department of Public Works",
    "final_address": "519 S Cortez St",
    "address_councildis": "B",
    "status": "Pending",
    "rowid": "987335",
    "final_x": "3670971.35329",
    "final_y": "536215.415047",
    "longitude": "-90.1011566426498",
    "latitude": "29.968721985798698",
    "geocoded_column": {
      "latitude": "29.968721985798698",
      "longitude": "-90.1011566426498"
    }
  },
  {
    "service_request": "2023-987334",
    "request_type": "Trash/Recycling",
    "request_reason": "Missed Trash Pick-Up",
    "date_created": "2023-03-30T16:51:28.000",
    "date_modified": "2023-03-30T16:51:29.000",
    "request_status": "Pending",
    "responsible_agency": "Department of Sanitation",
    "final_address": "1107 Napoleon Ave",
    "address_councildis": "B",
    "status": "Assigned to Contractor",
    "contractor": "Richards Disposal",
    "rowid": "987334",
    "final_x": "3671051.84206",
    "final_y": "519633.057976",
    "longitude": "-90.10146545166515",
    "latitude": "29.9231235443977",
    "geocoded_column": {
      "latitude": "29.9231235443977",
      "longitude": "-90.10146545166515"
    }
  },
  {
    "service_request": "2023-987333",
    "request_type": "Traffic Signals/Signs/Striping/Streetlights",
    "request_reason": "Street Light Outage/Malfunction",
    "date_created": "2023-03-30T16:51:21.000",
    "date_modified": "2023-03-30T16:51:22.000",
    "request_status": "Pending",
    "responsible_agency": "Department of Public Works",
    "final_address": "6851 Louis Xiv St",
    "address_councildis": "A",
    "status": "Assigned to Contractor",
    "contractor": "Legacy Professional Services",
    "rowid": "987333",
    "final_x": "3668701.72935",
    "final_y": "553110.523991",
    "longitude": "-90.10775358144089",
    "latitude": "30.01524465148795",
    "geocoded_column": {
      "latitude": "30.01524465148795",
      "longitude": "-90.10775358144089"
    }
  },
  {
    "service_request": "2023-987332",
    "request_type": "Property Maintenance",
    "request_reason": "Property Maintenance",
    "date_created": "2023-03-30T16:49:19.000",
    "date_modified": "2023-03-30T16:49:19.000",
    "request_status": "Pending",
    "responsible_agency": "Department of Code Enforcement",
    "final_address": "916 Leontine St",
    "address_councildis": "B",
    "status": "Pending",
    "rowid": "987332",
    "final_x": "3667135.23489",
    "final_y": "518873.591671",
    "longitude": "-90.11385423494114",
    "latitude": "29.921150449809577",
    "geocoded_column": {
      "latitude": "29.921150449809577",
      "longitude": "-90.11385423494114"
    }
  },
  {
    "service_request": "2023-987331",
    "request_type": "Trash/Recycling",
    "request_reason": "Missed Trash Pick-Up",
    "date_created": "2023-03-30T16:47:36.000",
    "date_modified": "2023-03-30T16:47:37.000",
    "request_status": "Pending",
    "responsible_agency": "Department of Sanitation",
    "final_address": "6700 BLK Deanne St",
    "address_councildis": "D",
    "status": "Assigned to Contractor",
    "contractor": "Waste Pro",
    "rowid": "987331",
    "final_x": "3695912.95952",
    "final_y": "555600.713061",
    "longitude": "-90.02168921469158",
    "latitude": "30.021263384676573",
    "geocoded_column": {
      "latitude": "30.021263384676573",
      "longitude": "-90.02168921469158"
    }
  },
  {
    "service_request": "2023-987330",
    "request_type": "Trash/Recycling",
    "request_reason": "Request a Large Item Pick Up",
    "date_created": "2023-03-30T16:47:23.000",
    "date_modified": "2023-03-30T16:47:24.000",
    "request_status": "Pending",
    "responsible_agency": "Department of Sanitation",
    "final_address": "7111 Neptune Ct",
    "address_councildis": "E",
    "status": "Assigned to Contractor",
    "contractor": "Waste Pro",
    "rowid": "987330",
    "final_x": "3701808.37655",
    "final_y": "559336.056989",
    "longitude": "-90.0029244281839",
    "latitude": "30.031347263532464",
    "geocoded_column": {
      "latitude": "30.031347263532464",
      "longitude": "-90.0029244281839"
    }
  },
  {
    "service_request": "2023-987329",
    "request_type": "Trash/Recycling",
    "request_reason": "Missed Trash Pick-Up",
    "date_created": "2023-03-30T16:45:47.000",
    "date_modified": "2023-03-30T16:45:48.000",
    "request_status": "Pending",
    "responsible_agency": "Department of Sanitation",
    "final_address": "1100 BLK Jackson Ave",
    "address_councildis": "B",
    "status": "Assigned to Contractor",
    "contractor": "Richards Disposal",
    "rowid": "987329",
    "final_x": "3678752.39607",
    "final_y": "522234.430713",
    "longitude": "-90.07706772794418",
    "latitude": "29.93004658808095",
    "geocoded_column": {
      "latitude": "29.93004658808095",
      "longitude": "-90.07706772794418"
    }
  },
  {
    "service_request": "2023-987328",
    "request_type": "Traffic Signals/Signs/Striping/Streetlights",
    "request_reason": "Traffic Sign Missing/Damaged",
    "date_created": "2023-03-30T16:42:57.000",
    "date_modified": "2023-03-30T16:42:57.000",
    "request_status": "Pending",
    "responsible_agency": "Department of Public Works",
    "final_address": "LOUISA ST & CHEF MENTEUR HWY & LOUISA DR",
    "address_councildis": "D",
    "status": "Pending",
    "contractor": "Legacy Professional Services",
    "rowid": "987328",
    "final_x": "3691328.1",
    "final_y": "549777.98",
    "longitude": "-90.03638428836813",
    "latitude": "30.00539654090171",
    "geocoded_column": {
      "latitude": "30.00539654090171",
      "longitude": "-90.03638428836813"
    }
  },
  {
    "service_request": "2023-987327",
    "request_type": "Traffic Signals/Signs/Striping/Streetlights",
    "request_reason": "Traffic Sign Missing/Damaged",
    "date_created": "2023-03-30T16:39:51.000",
    "date_modified": "2023-03-30T16:39:52.000",
    "request_status": "Pending",
    "responsible_agency": "Department of Public Works",
    "final_address": "4831 Piety Dr",
    "address_councildis": "D",
    "status": "Pending",
    "contractor": "Legacy Professional Services",
    "rowid": "987327",
    "final_x": "3691687.88048",
    "final_y": "551491.399893",
    "longitude": "-90.03518634144994",
    "latitude": "30.01009661135948",
    "geocoded_column": {
      "latitude": "30.01009661135948",
      "longitude": "-90.03518634144994"
    }
  },
  {
    "service_request": "2023-987326",
    "request_type": "Roads/Drainage",
    "request_reason": "Catch Basin - Broken/Damage",
    "date_created": "2023-03-30T16:38:51.000",
    "date_modified": "2023-03-30T16:38:51.000",
    "request_status": "Pending",
    "responsible_agency": "Department of Public Works",
    "final_address": "2017 Audubon St",
    "address_councildis": "A",
    "status": "Pending",
    "rowid": "987326",
    "final_x": "3666146.94196",
    "final_y": "528819.427904",
    "longitude": "-90.11664048781174",
    "latitude": "29.948527213227106",
    "geocoded_column": {
      "latitude": "29.948527213227106",
      "longitude": "-90.11664048781174"
    }
  },
  {
    "service_request": "2023-987325",
    "request_type": "Trash/Recycling",
    "request_reason": "Replace Trash Cart",
    "date_created": "2023-03-30T16:36:43.000",
    "date_modified": "2023-03-30T16:37:04.000",
    "request_status": "Pending",
    "responsible_agency": "Department of Sanitation",
    "final_address": "1329 Egania St",
    "address_councildis": "E",
    "status": "Assigned to Contractor",
    "contractor": "Waste Pro",
    "rowid": "987325",
    "final_x": "3697102.82461",
    "final_y": "534992.23175",
    "longitude": "-90.01867669820331",
    "latitude": "29.964560128622633",
    "geocoded_column": {
      "latitude": "29.964560128622633",
      "longitude": "-90.01867669820331"
    }
  },
  {
    "service_request": "2023-987324",
    "request_type": "Trash/Recycling",
    "request_reason": "Request a Large Item Pick Up",
    "date_created": "2023-03-30T16:35:07.000",
    "date_modified": "2023-03-30T16:35:40.000",
    "request_status": "Pending",
    "responsible_agency": "Department of Sanitation",
    "final_address": "1408 New York St",
    "address_councildis": "D",
    "status": "Assigned to Contractor",
    "contractor": "IV Waste",
    "rowid": "987324",
    "final_x": "3677804.35054",
    "final_y": "555515.784089",
    "longitude": "-90.07891035376242",
    "latitude": "30.021587398625844",
    "geocoded_column": {
      "latitude": "30.021587398625844",
      "longitude": "-90.07891035376242"
    }
  },
  {
    "service_request": "2023-987323",
    "request_type": "Trash/Recycling",
    "request_reason": "Missed Trash Pick-Up",
    "date_created": "2023-03-30T16:32:20.000",
    "date_modified": "2023-03-30T16:32:21.000",
    "request_status": "Pending",
    "responsible_agency": "Department of Sanitation",
    "final_address": "3517 Fourth St",
    "address_councildis": "B",
    "status": "Assigned to Contractor",
    "contractor": "Richards Disposal",
    "rowid": "987323",
    "final_x": "3672403.64571",
    "final_y": "528495.111424",
    "longitude": "-90.096896459091",
    "latitude": "29.947451289966963",
    "geocoded_column": {
      "latitude": "29.947451289966963",
      "longitude": "-90.096896459091"
    }
  },
  {
    "service_request": "2023-987322",
    "request_type": "Traffic Signals/Signs/Striping/Streetlights",
    "request_reason": "Traffic Signal Malfunctioning/Damaged",
    "date_created": "2023-03-30T16:32:11.000",
    "date_modified": "2023-03-30T16:32:12.000",
    "request_status": "Pending",
    "responsible_agency": "Department of Public Works",
    "final_address": "POYDRAS ST & ST CHARLES AVE",
    "address_councildis": "B",
    "status": "Pending",
    "rowid": "987322",
    "final_x": "3680720.1",
    "final_y": "529331.08",
    "longitude": "-90.07060913253059",
    "latitude": "29.949500547686682",
    "geocoded_column": {
      "latitude": "29.949500547686682",
      "longitude": "-90.07060913253059"
    }
  },
  {
    "service_request": "2023-987321",
    "request_type": "Trash/Recycling",
    "request_reason": "Request a Large Item Pick Up",
    "date_created": "2023-03-30T16:29:36.000",
    "date_modified": "2023-03-30T16:29:37.000",
    "request_status": "Pending",
    "responsible_agency": "Department of Sanitation",
    "final_address": "1317 Lesseps St",
    "address_councildis": "D",
    "status": "Assigned to Contractor",
    "contractor": "IV Waste",
    "rowid": "987321",
    "final_x": "3692952.13059",
    "final_y": "535968.260871",
    "longitude": "-90.03174921870644",
    "latitude": "29.967374155943745",
    "geocoded_column": {
      "latitude": "29.967374155943745",
      "longitude": "-90.03174921870644"
    }
  },
  {
    "service_request": "2023-987319",
    "request_type": "Trash/Recycling",
    "request_reason": "Repair Trash Cart",
    "date_created": "2023-03-30T16:27:50.000",
    "date_modified": "2023-03-30T16:27:50.000",
    "request_status": "Pending",
    "responsible_agency": "Department of Sanitation",
    "final_address": "3700 Somerset Dr",
    "address_councildis": "C",
    "status": "Assigned to Contractor",
    "contractor": "Richards Disposal",
    "rowid": "987319",
    "final_x": "3702517.98308",
    "final_y": "516997.211189",
    "longitude": "-90.00223629182533",
    "latitude": "29.914908196429888",
    "geocoded_column": {
      "latitude": "29.914908196429888",
      "longitude": "-90.00223629182533"
    }
  },
  {
    "service_request": "2023-987318",
    "request_type": "Trash/Recycling",
    "request_reason": "Request a Large Item Pick Up",
    "date_created": "2023-03-30T16:26:56.000",
    "date_modified": "2023-03-30T16:26:57.000",
    "request_status": "Pending",
    "responsible_agency": "Department of Sanitation",
    "final_address": "2931 Calhoun St",
    "address_councildis": "A",
    "status": "Assigned to Contractor",
    "contractor": "Richards Disposal",
    "rowid": "987318",
    "final_x": "3666833.42113",
    "final_y": "527418.323263",
    "longitude": "-90.11452003329971",
    "latitude": "29.94465456799774",
    "geocoded_column": {
      "latitude": "29.94465456799774",
      "longitude": "-90.11452003329971"
    }
  },
  {
    "service_request": "2023-987317",
    "request_type": "Roads/Drainage",
    "request_reason": "Street Flooding / Drainage",
    "date_created": "2023-03-30T16:25:28.000",
    "date_modified": "2023-03-30T16:45:03.000",
    "request_status": "Pending",
    "responsible_agency": "Department of Public Works",
    "final_address": "New Orleans,LA",
    "address_councildis": "B",
    "rowid": "987317",
    "final_x": "3668632.3865",
    "final_y": "525959.016573",
    "longitude": "-90.10888938290474",
    "latitude": "29.94058920842743",
    "geocoded_column": {
      "latitude": "29.94058920842743",
      "longitude": "-90.10888938290474"
    }
  },
  {
    "service_request": "2023-987316",
    "request_type": "Traffic Signals/Signs/Striping/Streetlights",
    "request_reason": "Street Light Outage/Malfunction",
    "date_created": "2023-03-30T16:24:18.000",
    "date_modified": "2023-03-30T16:24:19.000",
    "request_status": "Pending",
    "responsible_agency": "Department of Public Works",
    "final_address": "4831 Piety Dr",
    "address_councildis": "D",
    "status": "Assigned to Contractor",
    "contractor": "Legacy Professional Services",
    "rowid": "987316",
    "final_x": "3691687.88048",
    "final_y": "551491.399893",
    "longitude": "-90.03518634144994",
    "latitude": "30.01009661135948",
    "geocoded_column": {
      "latitude": "30.01009661135948",
      "longitude": "-90.03518634144994"
    }
  },
  {
    "service_request": "2023-987315",
    "request_type": "Trash/Recycling",
    "request_reason": "MIssed Recycling Pick-Up",
    "date_created": "2023-03-30T16:22:51.000",
    "date_modified": "2023-03-30T16:22:52.000",
    "request_status": "Pending",
    "responsible_agency": "Department of Sanitation",
    "final_address": "2735 Octavia St",
    "address_councildis": "A",
    "status": "Assigned to Contractor",
    "contractor": "Richards Disposal",
    "rowid": "987315",
    "final_x": "3667995.9682",
    "final_y": "525657.812733",
    "longitude": "-90.11090881442182",
    "latitude": "29.939779679428753",
    "geocoded_column": {
      "latitude": "29.939779679428753",
      "longitude": "-90.11090881442182"
    }
  },
  {
    "service_request": "2023-987314",
    "request_type": "Abandoned Vehicles",
    "request_reason": "Abandoned/Junk Vehicles",
    "date_created": "2023-03-30T16:21:37.000",
    "date_modified": "2023-03-30T16:21:37.000",
    "request_status": "Pending",
    "responsible_agency": "Department of Public Works",
    "final_address": "1633 Monroe St",
    "address_councildis": "A",
    "status": "Pending",
    "rowid": "987314",
    "final_x": "3661552.43674",
    "final_y": "531035.86381",
    "longitude": "-90.13107391545456",
    "latitude": "29.954755045454966",
    "geocoded_column": {
      "latitude": "29.954755045454966",
      "longitude": "-90.13107391545456"
    }
  },
  {
    "service_request": "2023-987313",
    "request_type": "Trash/Recycling",
    "request_reason": "Illegal Dumping",
    "date_created": "2023-03-30T16:20:11.000",
    "date_modified": "2023-03-30T16:20:11.000",
    "request_status": "Pending",
    "responsible_agency": "Department of Sanitation",
    "final_address": "1400 Feliciana St",
    "address_councildis": "C",
    "status": "Pending",
    "rowid": "987313",
    "final_x": "3688996.40617",
    "final_y": "537223.112776",
    "longitude": "-90.044196837187",
    "latitude": "29.97094751834455",
    "geocoded_column": {
      "latitude": "29.97094751834455",
      "longitude": "-90.044196837187"
    }
  },
  {
    "service_request": "2023-987312",
    "request_type": "Trash/Recycling",
    "request_reason": "Request a Large Item Pick Up",
    "date_created": "2023-03-30T16:20:03.000",
    "date_modified": "2023-03-30T16:20:03.000",
    "request_status": "Pending",
    "responsible_agency": "Department of Sanitation",
    "final_address": "23 Park Island Dr",
    "address_councildis": "A",
    "status": "Assigned to Contractor",
    "contractor": "IV Waste",
    "rowid": "987312",
    "final_x": "3676225.92193",
    "final_y": "548385.645778",
    "longitude": "-90.08414338435787",
    "latitude": "30.00202948761263",
    "geocoded_column": {
      "latitude": "30.00202948761263",
      "longitude": "-90.08414338435787"
    }
  },
  {
    "service_request": "2023-987311",
    "request_type": "Abandoned Vehicles",
    "request_reason": "Abandoned/Junk Vehicles",
    "date_created": "2023-03-30T16:19:38.000",
    "date_modified": "2023-03-30T16:19:38.000",
    "request_status": "Pending",
    "responsible_agency": "Department of Public Works",
    "final_address": "1621 Monroe St",
    "address_councildis": "A",
    "status": "Pending",
    "rowid": "987311",
    "final_x": "3661494.45779",
    "final_y": "530968.621058",
    "longitude": "-90.1312592191754",
    "latitude": "29.95457182216671",
    "geocoded_column": {
      "latitude": "29.95457182216671",
      "longitude": "-90.1312592191754"
    }
  },
  {
    "service_request": "2023-987310",
    "request_type": "Trash/Recycling",
    "request_reason": "Illegal Dumping",
    "date_created": "2023-03-30T16:19:06.000",
    "date_modified": "2023-03-30T16:19:06.000",
    "request_status": "Pending",
    "responsible_agency": "Department of Sanitation",
    "final_address": "1401 Feliciana St",
    "address_councildis": "C",
    "status": "Pending",
    "rowid": "987310",
    "final_x": "3689043.06339",
    "final_y": "537202.697224",
    "longitude": "-90.04405021357874",
    "latitude": "29.97088993931938",
    "geocoded_column": {
      "latitude": "29.97088993931938",
      "longitude": "-90.04405021357874"
    }
  },
  {
    "service_request": "2023-987309",
    "request_type": "Trash/Recycling",
    "request_reason": "Illegal Dumping",
    "date_created": "2023-03-30T16:17:42.000",
    "date_modified": "2023-03-30T16:17:42.000",
    "request_status": "Pending",
    "responsible_agency": "Department of Sanitation",
    "final_address": "3055 N Villere St",
    "address_councildis": "C",
    "status": "Pending",
    "rowid": "987309",
    "final_x": "3689189.91427",
    "final_y": "537168.981064",
    "longitude": "-90.04358763978392",
    "latitude": "29.970792687538655",
    "geocoded_column": {
      "latitude": "29.970792687538655",
      "longitude": "-90.04358763978392"
    }
  },
  {
    "service_request": "2023-987308",
    "request_type": "Trash/Recycling",
    "request_reason": "Illegal Dumping",
    "date_created": "2023-03-30T16:16:20.000",
    "date_modified": "2023-03-30T16:16:20.000",
    "request_status": "Pending",
    "responsible_agency": "Department of Sanitation",
    "final_address": "6045 Pines Blvd",
    "address_councildis": "D",
    "status": "Pending",
    "rowid": "987308",
    "final_x": "3696148.54659",
    "final_y": "556164.707098",
    "longitude": "-90.0209244177289",
    "latitude": "30.02280673734054",
    "geocoded_column": {
      "latitude": "30.02280673734054",
      "longitude": "-90.0209244177289"
    }
  },
  {
    "service_request": "2023-987307",
    "request_type": "Trash/Recycling",
    "request_reason": "Request a Large Item Pick Up",
    "date_created": "2023-03-30T16:12:25.000",
    "date_modified": "2023-03-30T16:12:26.000",
    "request_status": "Pending",
    "responsible_agency": "Department of Sanitation",
    "final_address": "6220 Vermillion Blvd",
    "address_councildis": "D",
    "status": "Assigned to Contractor",
    "contractor": "IV Waste",
    "rowid": "987307",
    "final_x": "3682955.5661",
    "final_y": "555996.615641",
    "longitude": "-90.06261706028168",
    "latitude": "30.02275344085742",
    "geocoded_column": {
      "latitude": "30.02275344085742",
      "longitude": "-90.06261706028168"
    }
  },
  {
    "service_request": "2023-987306",
    "request_type": "Trash/Recycling",
    "request_reason": "Repair Trash Cart",
    "date_created": "2023-03-30T16:07:03.000",
    "date_modified": "2023-03-30T16:07:03.000",
    "request_status": "Pending",
    "responsible_agency": "Department of Sanitation",
    "final_address": "4819 Perelli Dr",
    "address_councildis": "E",
    "status": "Assigned to Contractor",
    "contractor": "Waste Pro",
    "rowid": "987306",
    "final_x": "3711755.14802",
    "final_y": "556488.242394",
    "longitude": "-89.97159948445834",
    "latitude": "30.0231955939426",
    "geocoded_column": {
      "latitude": "30.0231955939426",
      "longitude": "-89.97159948445834"
    }
  },
  {
    "service_request": "2023-987305",
    "request_type": "Abandoned Vehicles",
    "request_reason": "Abandoned/Junk Vehicles",
    "date_created": "2023-03-30T16:05:37.000",
    "date_modified": "2023-03-30T16:06:15.000",
    "request_status": "Pending",
    "responsible_agency": "Department of Public Works",
    "final_address": "4900 BLK Banks St",
    "address_councildis": "A",
    "status": "Pending",
    "rowid": "987305",
    "final_x": "3667564.15302",
    "final_y": "539540.177597",
    "longitude": "-90.11180488385213",
    "latitude": "29.977964275882467",
    "geocoded_column": {
      "latitude": "29.977964275882467",
      "longitude": "-90.11180488385213"
    }
  },
  {
    "service_request": "2023-987304",
    "request_type": "Abandoned Vehicles",
    "request_reason": "Abandoned/Junk Vehicles",
    "date_created": "2023-03-30T16:02:01.000",
    "date_modified": "2023-03-30T16:02:01.000",
    "request_status": "Pending",
    "responsible_agency": "Department of Public Works",
    "final_address": "3901 Toulouse St",
    "address_councildis": "A",
    "status": "Pending",
    "rowid": "987304",
    "final_x": "3672864.31918",
    "final_y": "539308.925066",
    "longitude": "-90.09507295971285",
    "latitude": "29.97717198271486",
    "geocoded_column": {
      "latitude": "29.97717198271486",
      "longitude": "-90.09507295971285"
    }
  },
  {
    "service_request": "2023-987303",
    "request_type": "Abandoned Vehicles",
    "request_reason": "Abandoned/Junk Vehicles",
    "date_created": "2023-03-30T15:59:10.000",
    "date_modified": "2023-03-30T15:59:10.000",
    "request_status": "Pending",
    "responsible_agency": "Department of Public Works",
    "final_address": "3901 Toulouse St",
    "address_councildis": "A",
    "status": "Pending",
    "rowid": "987303",
    "final_x": "3672864.31918",
    "final_y": "539308.925066",
    "longitude": "-90.09507295971285",
    "latitude": "29.97717198271486",
    "geocoded_column": {
      "latitude": "29.97717198271486",
      "longitude": "-90.09507295971285"
    }
  },
  {
    "service_request": "2023-987302",
    "request_type": "Abandoned Vehicles",
    "request_reason": "Abandoned/Junk Vehicles",
    "date_created": "2023-03-30T15:59:09.000",
    "date_modified": "2023-03-30T16:00:05.000",
    "request_status": "Pending",
    "responsible_agency": "Department of Public Works",
    "final_address": "2323 Dante St",
    "address_councildis": "A",
    "status": "Pending",
    "rowid": "987302",
    "final_x": "3664207.43591",
    "final_y": "531859.313603",
    "longitude": "-90.12266293649533",
    "latitude": "29.956942399455304",
    "geocoded_column": {
      "latitude": "29.956942399455304",
      "longitude": "-90.12266293649533"
    }
  },
  {
    "service_request": "2023-987301",
    "request_type": "Trash/Recycling",
    "request_reason": "Missed Trash Pick-Up",
    "date_created": "2023-03-30T15:50:10.000",
    "date_modified": "2023-03-30T15:50:10.000",
    "request_status": "Pending",
    "responsible_agency": "Department of Sanitation",
    "final_address": "2314 Delery St",
    "address_councildis": "E",
    "status": "Assigned to Contractor",
    "contractor": "Waste Pro",
    "rowid": "987301",
    "final_x": "3702208.70065",
    "final_y": "537434.866696",
    "longitude": "-90.00246323893724",
    "latitude": "29.971114425544155",
    "geocoded_column": {
      "latitude": "29.971114425544155",
      "longitude": "-90.00246323893724"
    }
  },
  {
    "service_request": "2023-987300",
    "request_type": "Trash/Recycling",
    "request_reason": "Missed Trash Pick-Up",
    "date_created": "2023-03-30T15:49:04.000",
    "date_modified": "2023-03-30T15:49:05.000",
    "request_status": "Pending",
    "responsible_agency": "Department of Sanitation",
    "final_address": "1941 Painters St",
    "address_councildis": "D",
    "status": "Assigned to Contractor",
    "contractor": "IV Waste",
    "rowid": "987300",
    "final_x": "3687345.15049",
    "final_y": "539784.41217",
    "longitude": "-90.04932105930935",
    "latitude": "29.97804117009275",
    "geocoded_column": {
      "latitude": "29.97804117009275",
      "longitude": "-90.04932105930935"
    }
  },
  {
    "service_request": "2023-987299",
    "request_type": "Roads/Drainage",
    "request_reason": "Debris in Roadway",
    "date_created": "2023-03-30T15:41:16.000",
    "date_modified": "2023-03-30T15:43:10.000",
    "request_status": "Pending",
    "responsible_agency": "Department of Public Works",
    "final_address": "3700 BLK dHemecourt St",
    "address_councildis": "B",
    "status": "Pending",
    "rowid": "987299",
    "final_x": "3671005.98997",
    "final_y": "535920.258",
    "longitude": "-90.10105728210125",
    "latitude": "29.96790937871701",
    "geocoded_column": {
      "latitude": "29.96790937871701",
      "longitude": "-90.10105728210125"
    }
  },
  {
    "service_request": "2023-987298",
    "request_type": "Property Maintenance",
    "request_reason": "Property Maintenance",
    "date_created": "2023-03-30T15:41:12.000",
    "date_modified": "2023-03-30T15:42:09.000",
    "request_status": "Pending",
    "responsible_agency": "Department of Code Enforcement",
    "final_address": "PONTCHARTRAIN BLVD & HAY PL",
    "address_councildis": "A",
    "status": "Pending",
    "rowid": "987298",
    "final_x": "3666445.9",
    "final_y": "554183.68",
    "longitude": "-90.11484491608374",
    "latitude": "30.018261603803175",
    "geocoded_column": {
      "latitude": "30.018261603803175",
      "longitude": "-90.11484491608374"
    }
  },
  {
    "service_request": "2023-987297",
    "request_type": "Trash/Recycling",
    "request_reason": "Missed Trash Pick-Up",
    "date_created": "2023-03-30T15:31:53.000",
    "date_modified": "2023-03-30T15:31:53.000",
    "request_status": "Pending",
    "responsible_agency": "Department of Sanitation",
    "final_address": "10410 Heritage Dr",
    "address_councildis": "E",
    "status": "Assigned to Contractor",
    "contractor": "Waste Pro",
    "rowid": "987297",
    "final_x": "3709802.65054",
    "final_y": "564379.425697",
    "longitude": "-89.97747384890134",
    "latitude": "30.044956877246463",
    "geocoded_column": {
      "latitude": "30.044956877246463",
      "longitude": "-89.97747384890134"
    }
  },
  {
    "service_request": "2023-987296",
    "request_type": "Parks & Parkways",
    "request_reason": "Request Tree Service (Right of Way/Public Property)",
    "date_created": "2023-03-30T15:28:46.000",
    "date_modified": "2023-03-30T15:28:46.000",
    "request_status": "Pending",
    "responsible_agency": "Department of Parks & Parkway",
    "final_address": "5212 Macarthur Blvd",
    "address_councildis": "C",
    "status": "Pending",
    "rowid": "987296",
    "final_x": "3703312.08049",
    "final_y": "519975.14732",
    "longitude": "-89.99962045106713",
    "latitude": "29.923071106051616",
    "geocoded_column": {
      "latitude": "29.923071106051616",
      "longitude": "-89.99962045106713"
    }
  },
  {
    "service_request": "2023-987294",
    "request_type": "Trash/Recycling",
    "request_reason": "Missed Trash Pick-Up",
    "date_created": "2023-03-30T15:27:25.000",
    "date_modified": "2023-03-30T15:27:26.000",
    "request_status": "Pending",
    "responsible_agency": "Department of Sanitation",
    "final_address": "13413 N Nemours St",
    "address_councildis": "E",
    "status": "Assigned to Contractor",
    "contractor": "Waste Pro",
    "rowid": "987294",
    "final_x": "3725226.45171",
    "final_y": "562714.411232",
    "longitude": "-89.92879256022596",
    "latitude": "30.039867929469775",
    "geocoded_column": {
      "latitude": "30.039867929469775",
      "longitude": "-89.92879256022596"
    }
  },
  {
    "service_request": "2023-987293",
    "request_type": "Abandoned Vehicles",
    "request_reason": "Abandoned/Junk Vehicles",
    "date_created": "2023-03-30T15:21:44.000",
    "date_modified": "2023-03-30T15:22:34.000",
    "request_status": "Pending",
    "responsible_agency": "Department of Public Works",
    "final_address": "8825 Hickory St",
    "address_councildis": "A",
    "status": "Pending",
    "rowid": "987293",
    "final_x": "3661416.83866",
    "final_y": "531777.657795",
    "longitude": "-90.13147751633196",
    "latitude": "29.956798650842366",
    "geocoded_column": {
      "latitude": "29.956798650842366",
      "longitude": "-90.13147751633196"
    }
  },
  {
    "service_request": "2023-987292",
    "request_type": "Trash/Recycling",
    "request_reason": "Missed Trash Pick-Up",
    "date_created": "2023-03-30T15:20:46.000",
    "date_modified": "2023-03-30T15:20:47.000",
    "request_status": "Pending",
    "responsible_agency": "Department of Sanitation",
    "final_address": "619 N Dorgenois St",
    "address_councildis": "D",
    "status": "Assigned to Contractor",
    "contractor": "Richards Disposal",
    "rowid": "987292",
    "final_x": "3676880.35349",
    "final_y": "536296.571399",
    "longitude": "-90.0824928636257",
    "latitude": "29.968769095471142",
    "geocoded_column": {
      "latitude": "29.968769095471142",
      "longitude": "-90.0824928636257"
    }
  },
  {
    "service_request": "2023-987291",
    "request_type": "Trash/Recycling",
    "request_reason": "Missed Trash Pick-Up",
    "date_created": "2023-03-30T15:18:28.000",
    "date_modified": "2023-03-30T15:18:29.000",
    "request_status": "Pending",
    "responsible_agency": "Department of Sanitation",
    "final_address": "2100 BLK S Liberty St",
    "address_councildis": "B",
    "status": "Assigned to Contractor",
    "contractor": "Richards Disposal",
    "rowid": "987291",
    "final_x": "3676157.59319",
    "final_y": "525915.408587",
    "longitude": "-90.08513251655165",
    "latitude": "29.94024604287547",
    "geocoded_column": {
      "latitude": "29.94024604287547",
      "longitude": "-90.08513251655165"
    }
  },
  {
    "service_request": "2023-987290",
    "request_type": "Trash/Recycling",
    "request_reason": "Order Trash Cart",
    "date_created": "2023-03-30T15:16:12.000",
    "date_modified": "2023-03-30T15:16:13.000",
    "request_status": "Pending",
    "responsible_agency": "Department of Sanitation",
    "final_address": "7073 W Tamaron Blvd",
    "address_councildis": "E",
    "status": "Assigned to Contractor",
    "contractor": "Waste Pro",
    "rowid": "987290",
    "final_x": "3718626.37765",
    "final_y": "568526.647973",
    "longitude": "-89.94942874334902",
    "latitude": "30.056069990656454",
    "geocoded_column": {
      "latitude": "30.056069990656454",
      "longitude": "-89.94942874334902"
    }
  },
  {
    "service_request": "2023-987289",
    "request_type": "Trash/Recycling",
    "request_reason": "MIssed Recycling Pick-Up",
    "date_created": "2023-03-30T15:15:34.000",
    "date_modified": "2023-03-30T15:15:34.000",
    "request_status": "Pending",
    "responsible_agency": "Department of Sanitation",
    "final_address": "4430 Lancelot Dr, New Orleans, Louisiana, 70127",
    "address_councildis": "E",
    "status": "Assigned to Contractor",
    "contractor": "Waste Pro",
    "rowid": "987289",
    "final_x": "3707544.13688",
    "final_y": "553760.070743",
    "longitude": "-89.98500668723098",
    "latitude": "30.01583111096896",
    "geocoded_column": {
      "latitude": "30.01583111096896",
      "longitude": "-89.98500668723098"
    }
  },
  {
    "service_request": "2023-987288",
    "request_type": "Traffic Signals/Signs/Striping/Streetlights",
    "request_reason": "Street Light Outage/Malfunction",
    "date_created": "2023-03-30T15:14:29.000",
    "date_modified": "2023-03-30T15:14:30.000",
    "request_status": "Pending",
    "responsible_agency": "Department of Public Works",
    "final_address": "4650 Galahad Dr",
    "address_councildis": "E",
    "status": "Assigned to Contractor",
    "contractor": "Legacy Professional Services",
    "rowid": "987288",
    "final_x": "3707205.58974",
    "final_y": "554798.039896",
    "longitude": "-89.98603777359891",
    "latitude": "30.018696074317223",
    "geocoded_column": {
      "latitude": "30.018696074317223",
      "longitude": "-89.98603777359891"
    }
  },
  {
    "service_request": "2023-987287",
    "request_type": "Trash/Recycling",
    "request_reason": "Request a Large Item Pick Up",
    "date_created": "2023-03-30T15:13:49.000",
    "date_modified": "2023-03-30T15:13:50.000",
    "request_status": "Pending",
    "responsible_agency": "Department of Sanitation",
    "final_address": "3113 Delachaise St, New Orleans, Louisiana, 70125",
    "address_councildis": "B",
    "status": "Assigned to Contractor",
    "contractor": "Richards Disposal",
    "rowid": "987287",
    "final_x": "3671777.02369",
    "final_y": "526532.717438",
    "longitude": "-90.09894169943657",
    "latitude": "29.942073925628176",
    "geocoded_column": {
      "latitude": "29.942073925628176",
      "longitude": "-90.09894169943657"
    }
  },
  {
    "service_request": "2023-987286",
    "request_type": "Trash/Recycling",
    "request_reason": "MIssed Recycling Pick-Up",
    "date_created": "2023-03-30T15:13:35.000",
    "date_modified": "2023-03-30T15:13:35.000",
    "request_status": "Pending",
    "responsible_agency": "Department of Sanitation",
    "final_address": "2316 Choctaw Ct",
    "address_councildis": "E",
    "status": "Assigned to Contractor",
    "contractor": "Waste Pro",
    "rowid": "987286",
    "final_x": "3698659.9192",
    "final_y": "538592.876681",
    "longitude": "-90.01362857866349",
    "latitude": "29.97441139441578",
    "geocoded_column": {
      "latitude": "29.97441139441578",
      "longitude": "-90.01362857866349"
    }
  },
  {
    "service_request": "2023-987285",
    "request_type": "Trash/Recycling",
    "request_reason": "Missed Trash Pick-Up",
    "date_created": "2023-03-30T15:11:25.000",
    "date_modified": "2023-03-30T15:11:26.000",
    "request_status": "Pending",
    "responsible_agency": "Department of Sanitation",
    "final_address": "12 Heritage Ln Unit 47",
    "address_councildis": "C",
    "status": "Assigned to Contractor",
    "contractor": "Richards Disposal",
    "rowid": "987285",
    "final_x": "3695804.59197",
    "final_y": "520219.76044",
    "longitude": "-90.02330974744068",
    "latitude": "29.92398185199321",
    "geocoded_column": {
      "latitude": "29.92398185199321",
      "longitude": "-90.02330974744068"
    }
  },
  {
    "service_request": "2023-987284",
    "request_type": "Trash/Recycling",
    "request_reason": "Order Trash Cart",
    "date_created": "2023-03-30T15:07:36.000",
    "date_modified": "2023-03-30T15:07:37.000",
    "request_status": "Pending",
    "responsible_agency": "Department of Sanitation",
    "final_address": "5927 Chamberlain Dr",
    "address_councildis": "D",
    "status": "Assigned to Contractor",
    "contractor": "IV Waste",
    "rowid": "987284",
    "final_x": "3679395.76386",
    "final_y": "554355.487448",
    "longitude": "-90.0739222096971",
    "latitude": "30.018349004240036",
    "geocoded_column": {
      "latitude": "30.018349004240036",
      "longitude": "-90.0739222096971"
    }
  },
  {
    "service_request": "2023-987283",
    "request_type": "Trash/Recycling",
    "request_reason": "Missed Trash Pick-Up",
    "date_created": "2023-03-30T15:07:31.000",
    "date_modified": "2023-03-30T15:07:32.000",
    "request_status": "Pending",
    "responsible_agency": "Department of Sanitation",
    "final_address": "1426 Touro St",
    "address_councildis": "C",
    "status": "Assigned to Contractor",
    "contractor": "IV Waste",
    "rowid": "987283",
    "final_x": "3684080.73289",
    "final_y": "537566.623368",
    "longitude": "-90.05970908564427",
    "latitude": "29.972043204799927",
    "geocoded_column": {
      "latitude": "29.972043204799927",
      "longitude": "-90.05970908564427"
    }
  },
  {
    "service_request": "2023-987282",
    "request_type": "Mayor's Request",
    "request_reason": "Entergy Bill Payment Assistance",
    "date_created": "2023-03-30T15:05:29.000",
    "date_modified": "2023-03-30T15:05:30.000",
    "request_status": "Pending",
    "responsible_agency": "Executive Office of the Mayor",
    "final_address": "3513 Palmyra St",
    "address_councildis": "B",
    "status": "Pending",
    "rowid": "987282",
    "final_x": "3672293.43489",
    "final_y": "536482.909831",
    "longitude": "-90.0969723080171",
    "latitude": "29.969418348313276",
    "geocoded_column": {
      "latitude": "29.969418348313276",
      "longitude": "-90.0969723080171"
    }
  },
  {
    "service_request": "2023-987281",
    "request_type": "Property Maintenance",
    "request_reason": "Property Maintenance",
    "date_created": "2023-03-30T15:04:29.000",
    "date_modified": "2023-03-30T15:04:29.000",
    "request_status": "Pending",
    "responsible_agency": "Department of Code Enforcement",
    "final_address": "3229 N Claiborne Ave",
    "address_councildis": "D",
    "status": "Pending",
    "rowid": "987281",
    "final_x": "3690229.63696",
    "final_y": "537714.372744",
    "longitude": "-90.04028464078587",
    "latitude": "29.97226010211065",
    "geocoded_column": {
      "latitude": "29.97226010211065",
      "longitude": "-90.04028464078587"
    }
  },
  {
    "service_request": "2023-987280",
    "request_type": "Property Maintenance",
    "request_reason": "Property Maintenance",
    "date_created": "2023-03-30T15:01:26.000",
    "date_modified": "2023-03-30T15:01:26.000",
    "request_status": "Pending",
    "responsible_agency": "Department of Code Enforcement",
    "final_address": "1540 Piety St",
    "address_councildis": "D",
    "status": "Pending",
    "rowid": "987280",
    "final_x": "3690253.92284",
    "final_y": "537621.487304",
    "longitude": "-90.04021125263198",
    "latitude": "29.972003946347012",
    "geocoded_column": {
      "latitude": "29.972003946347012",
      "longitude": "-90.04021125263198"
    }
  },
  {
    "service_request": "2023-987279",
    "request_type": "Trash/Recycling",
    "request_reason": "Order Trash Cart",
    "date_created": "2023-03-30T14:58:51.000",
    "date_modified": "2023-03-30T14:58:51.000",
    "request_status": "Pending",
    "responsible_agency": "Department of Sanitation",
    "final_address": "7251 Bunker Hill Rd",
    "address_councildis": "E",
    "status": "Assigned to Contractor",
    "contractor": "Waste Pro",
    "rowid": "987279",
    "final_x": "3705500.06705",
    "final_y": "561326.663518",
    "longitude": "-89.99118494744629",
    "latitude": "30.036702275360174",
    "geocoded_column": {
      "latitude": "30.036702275360174",
      "longitude": "-89.99118494744629"
    }
  },
  {
    "service_request": "2023-987278",
    "request_type": "Health Related Request",
    "request_reason": "Noise Ordinance Complaint",
    "date_created": "2023-03-30T14:58:47.000",
    "date_modified": "2023-03-30T14:58:48.000",
    "request_status": "Pending",
    "responsible_agency": "Health Department",
    "final_address": "8100 BLK Oak St",
    "address_councildis": "A",
    "status": "Pending",
    "rowid": "987278",
    "final_x": "3661845.44825",
    "final_y": "528480.632787",
    "longitude": "-90.13023340919166",
    "latitude": "29.94772052463341",
    "geocoded_column": {
      "latitude": "29.94772052463341",
      "longitude": "-90.13023340919166"
    }
  },
  {
    "service_request": "2023-987277",
    "request_type": "Safety & Permits",
    "request_reason": "Licenses & Permits",
    "date_created": "2023-03-30T14:56:39.000",
    "date_modified": "2023-03-30T14:56:39.000",
    "request_status": "Pending",
    "responsible_agency": "Safety and Permits",
    "final_address": "2107 Rousseau St",
    "address_councildis": "B",
    "status": "Pending",
    "rowid": "987277",
    "final_x": "3680448.45832",
    "final_y": "520508.942904",
    "longitude": "-90.07177351331663",
    "latitude": "29.925250822849257",
    "geocoded_column": {
      "latitude": "29.925250822849257",
      "longitude": "-90.07177351331663"
    }
  },
  {
    "service_request": "2023-987276",
    "request_type": "Trash/Recycling",
    "request_reason": "Repair Trash Cart",
    "date_created": "2023-03-30T14:55:28.000",
    "date_modified": "2023-03-30T14:55:29.000",
    "request_status": "Pending",
    "responsible_agency": "Department of Sanitation",
    "final_address": "414 Delaronde St",
    "address_councildis": "C",
    "status": "Assigned to Contractor",
    "contractor": "Richards Disposal",
    "rowid": "987276",
    "final_x": "3686658.76073",
    "final_y": "531097.757122",
    "longitude": "-90.05179576168031",
    "latitude": "29.9541770192208",
    "geocoded_column": {
      "latitude": "29.9541770192208",
      "longitude": "-90.05179576168031"
    }
  },
  {
    "service_request": "2023-987275",
    "request_type": "Trash/Recycling",
    "request_reason": "Replace Trash Cart",
    "date_created": "2023-03-30T14:52:44.000",
    "date_modified": "2023-03-30T14:52:45.000",
    "request_status": "Pending",
    "responsible_agency": "Department of Sanitation",
    "final_address": "2223 Pine St",
    "address_councildis": "A",
    "status": "Assigned to Contractor",
    "contractor": "Richards Disposal",
    "rowid": "987275",
    "final_x": "3666040.19104",
    "final_y": "529718.264897",
    "longitude": "-90.11694741920475",
    "latitude": "29.951001839909832",
    "geocoded_column": {
      "latitude": "29.951001839909832",
      "longitude": "-90.11694741920475"
    }
  },
  {
    "service_request": "2023-987274",
    "request_type": "Traffic Signals/Signs/Striping/Streetlights",
    "request_reason": "Street Light Outage/Malfunction",
    "date_created": "2023-03-30T14:52:38.000",
    "date_modified": "2023-03-30T14:52:39.000",
    "request_status": "Pending",
    "responsible_agency": "Department of Public Works",
    "final_address": "13527 N Nemours St",
    "address_councildis": "E",
    "status": "Assigned to Contractor",
    "contractor": "Legacy Professional Services",
    "rowid": "987274",
    "final_x": "3725710.12876",
    "final_y": "562884.148832",
    "longitude": "-89.92725743024339",
    "latitude": "30.040318326923884",
    "geocoded_column": {
      "latitude": "30.040318326923884",
      "longitude": "-89.92725743024339"
    }
  },
  {
    "service_request": "2023-987273",
    "request_type": "Trash/Recycling",
    "request_reason": "Replace Trash Cart",
    "date_created": "2023-03-30T14:51:22.000",
    "date_modified": "2023-03-30T14:51:22.000",
    "request_status": "Pending",
    "responsible_agency": "Department of Sanitation",
    "final_address": "5201 Berkley Dr",
    "address_councildis": "C",
    "status": "Assigned to Contractor",
    "contractor": "Richards Disposal",
    "rowid": "987273",
    "final_x": "3702958.95575",
    "final_y": "518140.346614",
    "longitude": "-90.0008024752833",
    "latitude": "29.918037333490084",
    "geocoded_column": {
      "latitude": "29.918037333490084",
      "longitude": "-90.0008024752833"
    }
  },
  {
    "service_request": "2023-987272",
    "request_type": "Trash/Recycling",
    "request_reason": "Request a Large Item Pick Up",
    "date_created": "2023-03-30T14:46:53.000",
    "date_modified": "2023-03-30T14:46:54.000",
    "request_status": "Pending",
    "responsible_agency": "Department of Sanitation",
    "final_address": "620 Olivier St",
    "address_councildis": "C",
    "status": "Assigned to Contractor",
    "contractor": "Richards Disposal",
    "rowid": "987272",
    "final_x": "3687342.23625",
    "final_y": "529308.242625",
    "longitude": "-90.04970092663805",
    "latitude": "29.94923543079633",
    "geocoded_column": {
      "latitude": "29.94923543079633",
      "longitude": "-90.04970092663805"
    }
  },
  {
    "service_request": "2023-987271",
    "request_type": "Trash/Recycling",
    "request_reason": "Request a Large Item Pick Up",
    "date_created": "2023-03-30T14:42:34.000",
    "date_modified": "2023-03-30T14:42:35.000",
    "request_status": "Pending",
    "responsible_agency": "Department of Sanitation",
    "final_address": "7301 Hurst St",
    "address_councildis": "A",
    "status": "Assigned to Contractor",
    "contractor": "Richards Disposal",
    "rowid": "987271",
    "final_x": "3661983.59603",
    "final_y": "523855.566075",
    "longitude": "-90.12995058531054",
    "latitude": "29.934999071979657",
    "geocoded_column": {
      "latitude": "29.934999071979657",
      "longitude": "-90.12995058531054"
    }
  },
  {
    "service_request": "2023-987270",
    "request_type": "Trash/Recycling",
    "request_reason": "Request a Large Item Pick Up",
    "date_created": "2023-03-30T14:42:10.000",
    "date_modified": "2023-03-30T14:42:45.000",
    "request_status": "Pending",
    "responsible_agency": "Department of Sanitation",
    "final_address": "1919 Robert St",
    "address_councildis": "B",
    "status": "Assigned to Contractor",
    "contractor": "Richards Disposal",
    "rowid": "987270",
    "final_x": "3668821.78279",
    "final_y": "522682.588602",
    "longitude": "-90.10840200757546",
    "latitude": "29.93157451805284",
    "geocoded_column": {
      "latitude": "29.93157451805284",
      "longitude": "-90.10840200757546"
    }
  },
  {
    "service_request": "2023-987269",
    "request_type": "Trash/Recycling",
    "request_reason": "Replace Trash Cart",
    "date_created": "2023-03-30T14:33:16.000",
    "date_modified": "2023-03-30T14:33:17.000",
    "request_status": "Pending",
    "responsible_agency": "Department of Sanitation",
    "final_address": "1412 Alvar St",
    "address_councildis": "D",
    "status": "Assigned to Contractor",
    "contractor": "IV Waste",
    "rowid": "987269",
    "final_x": "3691754.23702",
    "final_y": "536636.358215",
    "longitude": "-90.03550827380263",
    "latitude": "29.96924854847664",
    "geocoded_column": {
      "latitude": "29.96924854847664",
      "longitude": "-90.03550827380263"
    }
  },
  {
    "service_request": "2023-987268",
    "request_type": "Property Maintenance",
    "request_reason": "Property Maintenance",
    "date_created": "2023-03-30T14:33:06.000",
    "date_modified": "2023-03-30T14:33:06.000",
    "request_status": "Pending",
    "responsible_agency": "Department of Code Enforcement",
    "final_address": "1733 Monroe St",
    "address_councildis": "A",
    "status": "Pending",
    "rowid": "987268",
    "final_x": "3661756.3815",
    "final_y": "531254.570754",
    "longitude": "-90.1304226828988",
    "latitude": "29.95535053345636",
    "geocoded_column": {
      "latitude": "29.95535053345636",
      "longitude": "-90.1304226828988"
    }
  },
  {
    "service_request": "2023-987267",
    "request_type": "Property Maintenance",
    "request_reason": "Property Maintenance",
    "date_created": "2023-03-30T14:32:01.000",
    "date_modified": "2023-03-30T14:32:01.000",
    "request_status": "Pending",
    "responsible_agency": "Department of Code Enforcement",
    "final_address": "5812 Franklin Ave",
    "address_councildis": "D",
    "status": "Pending",
    "rowid": "987267",
    "final_x": "3686378.76809",
    "final_y": "554587.941144",
    "longitude": "-90.05185033478755",
    "latitude": "30.018775279414825",
    "geocoded_column": {
      "latitude": "30.018775279414825",
      "longitude": "-90.05185033478755"
    }
  },
  {
    "service_request": "2023-987266",
    "request_type": "Roads/Drainage",
    "request_reason": "Debris in Roadway",
    "date_created": "2023-03-30T14:31:39.000",
    "date_modified": "2023-03-30T14:31:40.000",
    "request_status": "Pending",
    "responsible_agency": "Department of Public Works",
    "final_address": "ADAMS ST & S CLAIBORNE AVE",
    "address_councildis": "A",
    "status": "Pending",
    "rowid": "987266",
    "final_x": "3665915.6",
    "final_y": "530520.88",
    "longitude": "-90.11731392194706",
    "latitude": "29.95321240676059",
    "geocoded_column": {
      "latitude": "29.95321240676059",
      "longitude": "-90.11731392194706"
    }
  },
  {
    "service_request": "2023-987265",
    "request_type": "Trash/Recycling",
    "request_reason": "Order Recycling Cart",
    "date_created": "2023-03-30T14:31:26.000",
    "date_modified": "2023-03-30T14:31:27.000",
    "request_status": "Pending",
    "responsible_agency": "Department of Sanitation",
    "final_address": "1412 Alvar St",
    "address_councildis": "D",
    "status": "Pending",
    "rowid": "987265",
    "final_x": "3691754.23702",
    "final_y": "536636.358215",
    "longitude": "-90.03550827380263",
    "latitude": "29.96924854847664",
    "geocoded_column": {
      "latitude": "29.96924854847664",
      "longitude": "-90.03550827380263"
    }
  },
  {
    "service_request": "2023-987264",
    "request_type": "Trash/Recycling",
    "request_reason": "Illegal Dumping",
    "date_created": "2023-03-30T14:31:24.000",
    "date_modified": "2023-03-30T14:31:24.000",
    "request_status": "Pending",
    "responsible_agency": "Department of Sanitation",
    "final_address": "1016 Pauline St",
    "address_councildis": "C",
    "status": "Pending",
    "rowid": "987264",
    "final_x": "3691106.30524",
    "final_y": "535168.248454",
    "longitude": "-90.03760691232867",
    "latitude": "29.96523192616618",
    "geocoded_column": {
      "latitude": "29.96523192616618",
      "longitude": "-90.03760691232867"
    }
  },
  {
    "service_request": "2023-987263",
    "request_type": "Trash/Recycling",
    "request_reason": "Replace Trash Cart",
    "date_created": "2023-03-30T14:29:36.000",
    "date_modified": "2023-03-30T14:29:36.000",
    "request_status": "Pending",
    "responsible_agency": "Department of Sanitation",
    "final_address": "4130 Iberville St",
    "address_councildis": "A",
    "status": "Assigned to Contractor",
    "contractor": "Richards Disposal",
    "rowid": "987263",
    "final_x": "3671091.5835",
    "final_y": "538828.983049",
    "longitude": "-90.10068815684232",
    "latitude": "29.975904861345192",
    "geocoded_column": {
      "latitude": "29.975904861345192",
      "longitude": "-90.10068815684232"
    }
  },
  {
    "service_request": "2023-987262",
    "request_type": "Property Maintenance",
    "request_reason": "Property Maintenance",
    "date_created": "2023-03-30T14:27:52.000",
    "date_modified": "2023-03-30T14:27:52.000",
    "request_status": "Pending",
    "responsible_agency": "Department of Code Enforcement",
    "final_address": "8832 Hickory St",
    "address_councildis": "A",
    "status": "Pending",
    "rowid": "987262",
    "final_x": "3661324.55866",
    "final_y": "531740.338307",
    "longitude": "-90.13177014442793",
    "latitude": "29.95669869542121",
    "geocoded_column": {
      "latitude": "29.95669869542121",
      "longitude": "-90.13177014442793"
    }
  },
  {
    "service_request": "2023-987261",
    "request_type": "Trash/Recycling",
    "request_reason": "Missed Trash Pick-Up",
    "date_created": "2023-03-30T14:26:40.000",
    "date_modified": "2023-03-30T14:26:41.000",
    "request_status": "Pending",
    "responsible_agency": "Department of Sanitation",
    "final_address": "2523 Broadway St",
    "address_councildis": "A",
    "status": "Assigned to Contractor",
    "contractor": "Richards Disposal",
    "rowid": "987261",
    "final_x": "3666959.88679",
    "final_y": "530534.84429",
    "longitude": "-90.1140160345171",
    "latitude": "29.953220289611963",
    "geocoded_column": {
      "latitude": "29.953220289611963",
      "longitude": "-90.1140160345171"
    }
  },
  {
    "service_request": "2023-987260",
    "request_type": "Trash/Recycling",
    "request_reason": "Request a Large Item Pick Up",
    "date_created": "2023-03-30T14:24:12.000",
    "date_modified": "2023-03-30T15:11:30.000",
    "case_close_date": "2023-03-30T10:11:30.000",
    "request_status": "Closed",
    "responsible_agency": "Department of Sanitation",
    "final_address": "2115 Independence St",
    "address_councildis": "D",
    "status": "Assigned to Contractor",
    "contractor": "IV Waste",
    "contractor_action": "Completed",
    "rowid": "987260",
    "final_x": "3691955.21622",
    "final_y": "539389.82721",
    "longitude": "-90.03477502280037",
    "latitude": "29.976813350524566",
    "geocoded_column": {
      "latitude": "29.976813350524566",
      "longitude": "-90.03477502280037"
    }
  },
  {
    "service_request": "2023-987259",
    "request_type": "Trash/Recycling",
    "request_reason": "Missed Trash Pick-Up",
    "date_created": "2023-03-30T14:20:00.000",
    "date_modified": "2023-03-30T14:20:01.000",
    "request_status": "Pending",
    "responsible_agency": "Department of Sanitation",
    "final_address": "7 Heritage Ln",
    "address_councildis": "C",
    "status": "Assigned to Contractor",
    "contractor": "Richards Disposal",
    "rowid": "987259",
    "final_x": "3695964.31709",
    "final_y": "520305.552696",
    "longitude": "-90.02280245746395",
    "latitude": "29.92421272936701",
    "geocoded_column": {
      "latitude": "29.92421272936701",
      "longitude": "-90.02280245746395"
    }
  },
  {
    "service_request": "2023-987258",
    "request_type": "Trash/Recycling",
    "request_reason": "Request a Large Item Pick Up",
    "date_created": "2023-03-30T14:19:41.000",
    "date_modified": "2023-03-30T14:19:49.000",
    "request_status": "Pending",
    "responsible_agency": "Department of Sanitation",
    "final_address": "15 Lakewood Pl",
    "address_councildis": "C",
    "status": "Assigned to Contractor",
    "contractor": "Richards Disposal",
    "rowid": "987258",
    "final_x": "3701374.83985",
    "final_y": "512636.485809",
    "longitude": "-90.00600387461766",
    "latitude": "29.902954145881534",
    "geocoded_column": {
      "latitude": "29.902954145881534",
      "longitude": "-90.00600387461766"
    }
  },
  {
    "service_request": "2023-987257",
    "request_type": "Trash/Recycling",
    "request_reason": "Request a Large Item Pick Up",
    "date_created": "2023-03-30T14:16:14.000",
    "date_modified": "2023-03-30T15:16:06.000",
    "case_close_date": "2023-03-30T10:16:06.000",
    "request_status": "Closed",
    "responsible_agency": "Department of Sanitation",
    "final_address": "6101 Louis Xiv St",
    "address_councildis": "A",
    "status": "Assigned to Contractor",
    "contractor": "IV Waste",
    "contractor_action": "Completed",
    "rowid": "987257",
    "final_x": "3668197.3385",
    "final_y": "548019.754578",
    "longitude": "-90.10951901556574",
    "latitude": "30.001261639383678",
    "geocoded_column": {
      "latitude": "30.001261639383678",
      "longitude": "-90.10951901556574"
    }
  },
  {
    "service_request": "2023-987256",
    "request_type": "Property Maintenance",
    "request_reason": "Property Maintenance",
    "date_created": "2023-03-30T14:15:03.000",
    "date_modified": "2023-03-30T14:15:04.000",
    "request_status": "Pending",
    "responsible_agency": "Department of Code Enforcement",
    "final_address": "2311 Gordon St",
    "address_councildis": "E",
    "status": "Pending",
    "rowid": "987256",
    "final_x": "3700954.60733",
    "final_y": "537801.185352",
    "longitude": "-90.00641041003831",
    "latitude": "29.972161661126968",
    "geocoded_column": {
      "latitude": "29.972161661126968",
      "longitude": "-90.00641041003831"
    }
  },
  {
    "service_request": "2023-987255",
    "request_type": "Trash/Recycling",
    "request_reason": "Order Trash Cart",
    "date_created": "2023-03-30T14:13:07.000",
    "date_modified": "2023-03-30T14:13:07.000",
    "request_status": "Pending",
    "responsible_agency": "Department of Sanitation",
    "final_address": "4601 Dryades St",
    "address_councildis": "B",
    "status": "Assigned to Contractor",
    "contractor": "Richards Disposal",
    "rowid": "987255",
    "final_x": "3669951.12974",
    "final_y": "521908.109754",
    "longitude": "-90.10486299383264",
    "latitude": "29.92941170412568",
    "geocoded_column": {
      "latitude": "29.92941170412568",
      "longitude": "-90.10486299383264"
    }
  },
  {
    "service_request": "2023-987254",
    "request_type": "Trash/Recycling",
    "request_reason": "Request a Large Item Pick Up",
    "date_created": "2023-03-30T14:12:47.000",
    "date_modified": "2023-03-30T15:21:32.000",
    "case_close_date": "2023-03-30T10:21:32.000",
    "request_status": "Closed",
    "responsible_agency": "Department of Sanitation",
    "final_address": "209 Crystal St",
    "address_councildis": "D",
    "status": "Assigned to Contractor",
    "contractor": "IV Waste",
    "contractor_action": "Completed",
    "rowid": "987254",
    "final_x": "3667198.901",
    "final_y": "556199.537242",
    "longitude": "-90.11239783722885",
    "latitude": "30.023782458111874",
    "geocoded_column": {
      "latitude": "30.023782458111874",
      "longitude": "-90.11239783722885"
    }
  },
  {
    "service_request": "2023-987253",
    "request_type": "Trash/Recycling",
    "request_reason": "Order Trash Cart",
    "date_created": "2023-03-30T14:11:34.000",
    "date_modified": "2023-03-30T14:11:34.000",
    "request_status": "Pending",
    "responsible_agency": "Department of Sanitation",
    "final_address": "917 Vallette St",
    "address_councildis": "C",
    "status": "Assigned to Contractor",
    "contractor": "Richards Disposal",
    "rowid": "987253",
    "final_x": "3687410.32502",
    "final_y": "528212.786688",
    "longitude": "-90.04952469390953",
    "latitude": "29.946221203113556",
    "geocoded_column": {
      "latitude": "29.946221203113556",
      "longitude": "-90.04952469390953"
    }
  },
  {
    "service_request": "2023-987252",
    "request_type": "Trash/Recycling",
    "request_reason": "Repair Trash Cart",
    "date_created": "2023-03-30T14:10:46.000",
    "date_modified": "2023-03-30T14:10:46.000",
    "request_status": "Pending",
    "responsible_agency": "Department of Sanitation",
    "final_address": "3907 Peach Tree Ct",
    "address_councildis": "C",
    "status": "Assigned to Contractor",
    "contractor": "Richards Disposal",
    "rowid": "987252",
    "final_x": "3704517.54391",
    "final_y": "512512.541297",
    "longitude": "-89.99609021210783",
    "latitude": "29.90251286536592",
    "geocoded_column": {
      "latitude": "29.90251286536592",
      "longitude": "-89.99609021210783"
    }
  },
  {
    "service_request": "2023-987251",
    "request_type": "Traffic Signals/Signs/Striping/Streetlights",
    "request_reason": "Traffic Sign Missing/Damaged",
    "date_created": "2023-03-30T14:08:59.000",
    "date_modified": "2023-03-30T14:08:59.000",
    "request_status": "Pending",
    "responsible_agency": "Department of Public Works",
    "final_address": "ROBERT ST & S LIBERTY ST",
    "address_councildis": "B",
    "status": "Pending",
    "rowid": "987251",
    "final_x": "3668791.3",
    "final_y": "523207.68",
    "longitude": "-90.10848051889442",
    "latitude": "29.933019247387957",
    "geocoded_column": {
      "latitude": "29.933019247387957",
      "longitude": "-90.10848051889442"
    }
  },
  {
    "service_request": "2023-987250",
    "request_type": "Mosquito, Termite & Rodent Control",
    "request_reason": "Rodent Complaint (Rats)",
    "date_created": "2023-03-30T14:08:10.000",
    "date_modified": "2023-03-30T14:08:10.000",
    "request_status": "Pending",
    "responsible_agency": "Mosquito, Termite & Rodent Control Board",
    "final_address": "2532 Conti St",
    "address_councildis": "B",
    "status": "Pending",
    "rowid": "987250",
    "final_x": "3676594.03976",
    "final_y": "535562.892294",
    "longitude": "-90.0834223347037",
    "latitude": "29.96676031817239",
    "geocoded_column": {
      "latitude": "29.96676031817239",
      "longitude": "-90.0834223347037"
    }
  },
  {
    "service_request": "2023-987249",
    "request_type": "Traffic Signals/Signs/Striping/Streetlights",
    "request_reason": "Street Light Knocked Down/Leaning",
    "date_created": "2023-03-30T14:06:15.000",
    "date_modified": "2023-03-30T14:06:16.000",
    "request_status": "Pending",
    "responsible_agency": "Department of Public Works",
    "final_address": "7820 Unity Dr",
    "address_councildis": "E",
    "status": "Pending",
    "contractor": "Legacy Professional Services",
    "rowid": "987249",
    "final_x": "3711672.29669",
    "final_y": "567487.888612",
    "longitude": "-89.97144817811154",
    "latitude": "30.053442928429444",
    "geocoded_column": {
      "latitude": "30.053442928429444",
      "longitude": "-89.97144817811154"
    }
  },
  {
    "service_request": "2023-987248",
    "request_type": "Roads/Drainage",
    "request_reason": "Catch Basin - Broken/Damage",
    "date_created": "2023-03-30T14:04:20.000",
    "date_modified": "2023-03-30T14:04:21.000",
    "request_status": "Pending",
    "responsible_agency": "Department of Public Works",
    "final_address": "2031 Robert St",
    "address_councildis": "B",
    "status": "Pending",
    "rowid": "987248",
    "final_x": "3668827.98606",
    "final_y": "523107.915451",
    "longitude": "-90.10836807023756",
    "latitude": "29.932743848465634",
    "geocoded_column": {
      "latitude": "29.932743848465634",
      "longitude": "-90.10836807023756"
    }
  },
  {
    "service_request": "2023-987247",
    "request_type": "Abandoned Vehicles",
    "request_reason": "Abandoned/Junk Vehicles",
    "date_created": "2023-03-30T14:03:50.000",
    "date_modified": "2023-03-30T14:04:38.000",
    "request_status": "Pending",
    "responsible_agency": "Department of Public Works",
    "final_address": "210 N Galvez St",
    "address_councildis": "B",
    "status": "Pending",
    "rowid": "987247",
    "final_x": "3677367.17429",
    "final_y": "534264.962501",
    "longitude": "-90.08102557439308",
    "latitude": "29.963168239618692",
    "geocoded_column": {
      "latitude": "29.963168239618692",
      "longitude": "-90.08102557439308"
    }
  },
  {
    "service_request": "2023-987245",
    "request_type": "Traffic Signals/Signs/Striping/Streetlights",
    "request_reason": "Street Light Outage/Malfunction",
    "date_created": "2023-03-30T13:58:59.000",
    "date_modified": "2023-03-30T13:59:00.000",
    "request_status": "Pending",
    "responsible_agency": "Department of Public Works",
    "final_address": "7646 Lafourche St",
    "address_councildis": "E",
    "status": "Assigned to Contractor",
    "contractor": "Legacy Professional Services",
    "rowid": "987245",
    "final_x": "3710100.12408",
    "final_y": "565628.094306",
    "longitude": "-89.9764869699961",
    "latitude": "30.048380531597676",
    "geocoded_column": {
      "latitude": "30.048380531597676",
      "longitude": "-89.9764869699961"
    }
  },
  {
    "service_request": "2023-987244",
    "request_type": "Trash/Recycling",
    "request_reason": "Return Trash Cart",
    "date_created": "2023-03-30T13:58:50.000",
    "date_modified": "2023-03-30T13:58:51.000",
    "request_status": "Pending",
    "responsible_agency": "Department of Sanitation",
    "final_address": "2601 Dumaine St",
    "address_councildis": "D",
    "status": "Assigned to Contractor",
    "contractor": "Richards Disposal",
    "rowid": "987244",
    "final_x": "3677583.62939",
    "final_y": "537249.257672",
    "longitude": "-90.08023897251466",
    "latitude": "29.97136752894056",
    "geocoded_column": {
      "latitude": "29.97136752894056",
      "longitude": "-90.08023897251466"
    }
  },
  {
    "service_request": "2023-987243",
    "request_type": "Roads/Drainage",
    "request_reason": "Debris in Roadway",
    "date_created": "2023-03-30T13:54:34.000",
    "date_modified": "2023-03-30T13:54:34.000",
    "request_status": "Pending",
    "responsible_agency": "Department of Public Works",
    "final_address": "4000 BLK Erato St",
    "address_councildis": "B",
    "status": "Pending",
    "rowid": "987243",
    "final_x": "3671556.14537",
    "final_y": "531070.787712",
    "longitude": "-90.09948478007914",
    "latitude": "29.95455867068475",
    "geocoded_column": {
      "latitude": "29.95455867068475",
      "longitude": "-90.09948478007914"
    }
  },