[
  {
    "service_request": "2024-1090918",
    "request_type": "Trash/Recycling",
    "request_reason": "Request a Large Item Pick Up",
    "date_created": "2024-05-06T23:26:14.000",
    "date_modified": "2024-05-06T23:26:15.000",
    "request_status": "Pending",
    "responsible_agency": "Department of Sanitation",
    "final_address": "7410 Maple St",
    "address_councildis": "A",
    "status": "Assigned to Contractor",
    "contractor": "IV Waste",
    "rowid": "1090918",
    "final_x": "3662786.42131",
    "final_y": "525674.200509",
    "longitude": "-90.12735563291128",
    "latitude": "29.939976532044156",
    "geocoded_column": {
      "latitude": "29.939976532044156",
      "longitude": "-90.12735563291128"
    }
  },
  {
    "service_request": "2024-1090917",
    "request_type": "Property Maintenance",
    "request_reason": "Property Maintenance",
    "date_created": "2024-05-06T22:48:25.000",
    "date_modified": "2024-05-06T22:48:25.000",
    "request_status": "Pending",
    "responsible_agency": "Department of Code Enforcement",
    "final_address": "2635 Comet St",
    "address_councildis": "C",
    "status": "Pending",
    "rowid": "1090917",
    "final_x": "3699782.61085",
    "final_y": "521160.676025",
    "longitude": "-90.01071835837112",
    "latitude": "29.926443391975415",
    "geocoded_column": {
      "latitude": "29.926443391975415",
      "longitude": "-90.01071835837112"
    }
  },
  {
    "service_request": "2024-1090916",
    "request_type": "Trash/Recycling",
    "request_reason": "Missed Trash Pick-Up",
    "date_created": "2024-05-06T22:41:17.000",
    "date_modified": "2024-05-06T22:41:18.000",
    "request_status": "Pending",
    "responsible_agency": "Department of Sanitation",
    "final_address": "902 Stewart Ct",
    "address_councildis": "A",
    "status": "Assigned to Contractor",
    "contractor": "IV Waste",
    "rowid": "1090916",
    "final_x": "3673066.12801",
    "final_y": "540708.791883",
    "longitude": "-90.09438777562833",
    "latitude": "29.981015140424745",
    "geocoded_column": {
      "latitude": "29.981015140424745",
      "longitude": "-90.09438777562833"
    }
  },
  {
    "service_request": "2024-1090915",
    "request_type": "Traffic Signals/Signs/Striping/Streetlights",
    "request_reason": "Request for Traffic Calming due to Speeding",
    "date_created": "2024-05-06T22:37:02.000",
    "date_modified": "2024-05-06T22:37:02.000",
    "request_status": "Pending",
    "responsible_agency": "Department of Public Works",
    "final_address": "WALMSLEY AVE & PINE ST",
    "address_councildis": "B",
    "status": "Pending",
    "rowid": "1090915",
    "final_x": "3667071.3",
    "final_y": "531489.28",
    "longitude": "-90.11363215885213",
    "latitude": "29.955841415443288",
    "geocoded_column": {
      "latitude": "29.955841415443288",
      "longitude": "-90.11363215885213"
    }
  },
  {
    "service_request": "2024-1090914",
    "request_type": "Traffic Signals/Signs/Striping/Streetlights",
    "request_reason": "Street Light Outage/Malfunction",
    "date_created": "2024-05-06T22:36:30.000",
    "date_modified": "2024-05-06T22:36:31.000",
    "request_status": "Pending",
    "responsible_agency": "Department of Public Works",
    "final_address": "1501 Mandeville St",
    "address_councildis": "C",
    "status": "Assigned to Contractor",
    "contractor": "Legacy Professional Services",
    "rowid": "1090914",
    "final_x": "3685693.2742",
    "final_y": "537873.872585",
    "longitude": "-90.05460559774029",
    "latitude": "29.972838650290722",
    "geocoded_column": {
      "latitude": "29.972838650290722",
      "longitude": "-90.05460559774029"
    }
  },
  {
    "service_request": "2024-1090912",
    "request_type": "Abandoned Vehicles",
    "request_reason": "Abandoned/Junk Vehicles",
    "date_created": "2024-05-06T22:25:37.000",
    "date_modified": "2024-05-06T22:25:37.000",
    "request_status": "Pending",
    "responsible_agency": "Department of Public Works",
    "final_address": "LONELY OAK DR & LOMBARD ST",
    "address_councildis": "E",
    "status": "Pending",
    "rowid": "1090912",
    "final_x": "3702480.9",
    "final_y": "552712.88",
    "longitude": "-90.0010425922995",
    "latitude": "30.013114586307676",
    "geocoded_column": {
      "latitude": "30.013114586307676",
      "longitude": "-90.0010425922995"
    }
  },
  {
    "service_request": "2024-1090911",
    "request_type": "Safety & Permits",
    "request_reason": "Licenses & Permits",
    "date_created": "2024-05-06T22:25:09.000",
    "date_modified": "2024-05-06T22:25:09.000",
    "request_status": "Pending",
    "responsible_agency": "Safety and Permits",
    "final_address": "5244 General Meyer Ave",
    "address_councildis": "C",
    "status": "Pending",
    "rowid": "1090911",
    "final_x": "3703361.71825",
    "final_y": "522881.544059",
    "longitude": "-89.99935695808965",
    "latitude": "29.93106109891176",
    "geocoded_column": {
      "latitude": "29.93106109891176",
      "longitude": "-89.99935695808965"
    }
  },
  {
    "service_request": "2024-1090910",
    "request_type": "Traffic Signals/Signs/Striping/Streetlights",
    "request_reason": "Street Light Outage/Malfunction",
    "date_created": "2024-05-06T22:18:44.000",
    "date_modified": "2024-05-06T22:18:44.000",
    "request_status": "Pending",
    "responsible_agency": "Department of Public Works",
    "final_address": "7500 Sardonyx St",
    "address_councildis": "D",
    "status": "Assigned to Contractor",
    "contractor": "Legacy Professional Services",
    "rowid": "1090910",
    "final_x": "3669574.13121",
    "final_y": "556349.072282",
    "longitude": "-90.10488749262676",
    "latitude": "30.024123821662496",
    "geocoded_column": {
      "latitude": "30.024123821662496",
      "longitude": "-90.10488749262676"
    }
  },
  {
    "service_request": "2024-1090909",
    "request_type": "Roads/Drainage",
    "request_reason": "Pothole",
    "date_created": "2024-05-06T21:33:55.000",
    "date_modified": "2024-05-06T21:33:55.000",
    "request_status": "Pending",
    "responsible_agency": "Department of Public Works",
    "final_address": "1221 Webster St",
    "address_councildis": "A",
    "status": "Pending",
    "rowid": "1090909",
    "final_x": "3664710.14048",
    "final_y": "520843.538105",
    "longitude": "-90.12144344135018",
    "latitude": "29.926637929593507",
    "geocoded_column": {
      "latitude": "29.926637929593507",
      "longitude": "-90.12144344135018"
    }
  },
  {
    "service_request": "2024-1090908",
    "request_type": "Roads/Drainage",
    "request_reason": "Pothole",
    "date_created": "2024-05-06T21:33:54.000",
    "date_modified": "2024-05-06T21:33:54.000",
    "request_status": "Pending",
    "responsible_agency": "Department of Public Works",
    "final_address": "1221 Webster St",
    "address_councildis": "A",
    "status": "Pending",
    "rowid": "1090908",
    "final_x": "3664710.14048",
    "final_y": "520843.538105",
    "longitude": "-90.12144344135018",
    "latitude": "29.926637929593507",
    "geocoded_column": {
      "latitude": "29.926637929593507",
      "longitude": "-90.12144344135018"
    }
  },
  {
    "service_request": "2024-1090907",
    "request_type": "Roads/Drainage",
    "request_reason": "Pothole",
    "date_created": "2024-05-06T21:32:52.000",
    "date_modified": "2024-05-06T21:32:52.000",
    "request_status": "Pending",
    "responsible_agency": "Department of Public Works",
    "final_address": "1469 Calhoun St",
    "address_councildis": "A",
    "status": "Pending",
    "rowid": "1090907",
    "final_x": "3664517.47636",
    "final_y": "522124.241786",
    "longitude": "-90.1220088932127",
    "latitude": "29.930165062765358",
    "geocoded_column": {
      "latitude": "29.930165062765358",
      "longitude": "-90.1220088932127"
    }
  },
  {
    "service_request": "2024-1090906",
    "request_type": "Trash/Recycling",
    "request_reason": "Repair Trash Cart",
    "date_created": "2024-05-06T21:10:58.000",
    "date_modified": "2024-05-06T21:10:58.000",
    "request_status": "Pending",
    "responsible_agency": "Department of Sanitation",
    "final_address": "1425 Farragut St",
    "address_councildis": "C",
    "status": "Assigned to Contractor",
    "contractor": "Richards Disposal",
    "rowid": "1090906",
    "final_x": "3692280.13526",
    "final_y": "525795.800893",
    "longitude": "-90.03423559674073",
    "latitude": "29.939424397376765",
    "geocoded_column": {
      "latitude": "29.939424397376765",
      "longitude": "-90.03423559674073"
    }
  },
  {
    "service_request": "2024-1090905",
    "request_type": "Roads/Drainage",
    "request_reason": "Pothole",
    "date_created": "2024-05-06T21:03:12.000",
    "date_modified": "2024-05-06T21:03:12.000",
    "request_status": "Pending",
    "responsible_agency": "Department of Public Works",
    "final_address": "2728 Valentine Ct",
    "address_councildis": "C",
    "status": "Pending",
    "rowid": "1090905",
    "final_x": "3699123.41104",
    "final_y": "520900.195961",
    "longitude": "-90.01280873151312",
    "latitude": "29.925748066911787",
    "geocoded_column": {
      "latitude": "29.925748066911787",
      "longitude": "-90.01280873151312"
    }
  },
  {
    "service_request": "2024-1090904",
    "request_type": "Trash/Recycling",
    "request_reason": "Illegal Dumping",
    "date_created": "2024-05-06T20:47:21.000",
    "date_modified": "2024-05-06T20:47:21.000",
    "request_status": "Pending",
    "responsible_agency": "Department of Sanitation",
    "final_address": "7623 Benjamin St",
    "address_councildis": "A",
    "status": "Pending",
    "rowid": "1090904",
    "final_x": "3661048.38918",
    "final_y": "524990.057725",
    "longitude": "-90.13286551784942",
    "latitude": "29.938145539690616",
    "geocoded_column": {
      "latitude": "29.938145539690616",
      "longitude": "-90.13286551784942"
    }
  },
  {
    "service_request": "2024-1090903",
    "request_type": "Trash/Recycling",
    "request_reason": "Order Recycling Cart",
    "date_created": "2024-05-06T20:42:56.000",
    "date_modified": "2024-05-06T20:42:56.000",
    "request_status": "Pending",
    "responsible_agency": "Department of Sanitation",
    "final_address": "5139 Mandeville St",
    "address_councildis": "D",
    "status": "Pending",
    "rowid": "1090903",
    "final_x": "3684686.65513",
    "final_y": "551714.520405",
    "longitude": "-90.05729790518102",
    "latitude": "30.01092635023131",
    "geocoded_column": {
      "latitude": "30.01092635023131",
      "longitude": "-90.05729790518102"
    }
  },
  {
    "service_request": "2024-1090902",
    "request_type": "Traffic Signals/Signs/Striping/Streetlights",
    "request_reason": "Street Light Outage/Malfunction",
    "date_created": "2024-05-06T20:42:14.000",
    "date_modified": "2024-05-06T20:42:15.000",
    "request_status": "Pending",
    "responsible_agency": "Department of Public Works",
    "final_address": "720 Brooklyn Ave",
    "address_councildis": "C",
    "status": "Assigned to Contractor",
    "contractor": "Legacy Professional Services",
    "rowid": "1090902",
    "final_x": "3686165.87446",
    "final_y": "528827.156032",
    "longitude": "-90.05343217989588",
    "latitude": "29.94794878971786",
    "geocoded_column": {
      "latitude": "29.94794878971786",
      "longitude": "-90.05343217989588"
    }
  },
  {
    "service_request": "2024-1090901",
    "request_type": "Traffic Signals/Signs/Striping/Streetlights",
    "request_reason": "Street Light Outage/Malfunction",
    "date_created": "2024-05-06T20:41:42.000",
    "date_modified": "2024-05-06T20:41:42.000",
    "request_status": "Pending",
    "responsible_agency": "Department of Public Works",
    "final_address": "720 Brooklyn Ave",
    "address_councildis": "C",
    "status": "Assigned to Contractor",
    "contractor": "Legacy Professional Services",
    "rowid": "1090901",
    "final_x": "3686165.87446",
    "final_y": "528827.156032",
    "longitude": "-90.05343217989588",
    "latitude": "29.94794878971786",
    "geocoded_column": {
      "latitude": "29.94794878971786",
      "longitude": "-90.05343217989588"
    }
  },
  {
    "service_request": "2024-1090900",
    "request_type": "Trash/Recycling",
    "request_reason": "Return Trash Cart",
    "date_created": "2024-05-06T20:39:34.000",
    "date_modified": "2024-05-06T20:39:35.000",
    "request_status": "Pending",
    "responsible_agency": "Department of Sanitation",
    "final_address": "3524 Annunciation St",
    "address_councildis": "B",
    "status": "Assigned to Contractor",
    "contractor": "IV Waste",
    "rowid": "1090900",
    "final_x": "3674608.25345",
    "final_y": "518254.373302",
    "longitude": "-90.09028642294602",
    "latitude": "29.91922699296415",
    "geocoded_column": {
      "latitude": "29.91922699296415",
      "longitude": "-90.09028642294602"
    }
  },
  {
    "service_request": "2024-1090899",
    "request_type": "Property Maintenance",
    "request_reason": "Property Maintenance",
    "date_created": "2024-05-06T20:38:11.000",
    "date_modified": "2024-05-06T20:38:11.000",
    "request_status": "Pending",
    "responsible_agency": "Department of Code Enforcement",
    "final_address": "6945 Virgilian St, New Orleans, Louisiana, 70126",
    "address_councildis": "D",
    "status": "Pending",
    "rowid": "1090899",
    "final_x": "3696956.27421",
    "final_y": "556761.926234",
    "longitude": "-90.01835054102796",
    "latitude": "30.024423400010118",
    "geocoded_column": {
      "latitude": "30.024423400010118",
      "longitude": "-90.01835054102796"
    }
  },
  {
    "service_request": "2024-1090898",
    "request_type": "Roads/Drainage",
    "request_reason": "Pothole",
    "date_created": "2024-05-06T20:37:23.000",
    "date_modified": "2024-05-06T20:37:23.000",
    "request_status": "Pending",
    "responsible_agency": "Department of Public Works",
    "final_address": "6030 Camp St",
    "address_councildis": "A",
    "status": "Pending",
    "rowid": "1090898",
    "final_x": "3664533.87975",
    "final_y": "519586.217464",
    "longitude": "-90.12204180816082",
    "latitude": "29.923185817259107",
    "geocoded_column": {
      "latitude": "29.923185817259107",
      "longitude": "-90.12204180816082"
    }
  },
  {
    "service_request": "2024-1090897",
    "request_type": "Roads/Drainage",
    "request_reason": "Pothole",
    "date_created": "2024-05-06T20:34:52.000",
    "date_modified": "2024-05-06T20:34:52.000",
    "request_status": "Pending",
    "responsible_agency": "Department of Public Works",
    "final_address": "1469 Calhoun St",
    "address_councildis": "A",
    "status": "Pending",
    "rowid": "1090897",
    "final_x": "3664517.47636",
    "final_y": "522124.241786",
    "longitude": "-90.1220088932127",
    "latitude": "29.930165062765358",
    "geocoded_column": {
      "latitude": "29.930165062765358",
      "longitude": "-90.1220088932127"
    }
  },
  {
    "service_request": "2024-1090896",
    "request_type": "Trash/Recycling",
    "request_reason": "Request a Large Item Pick Up",
    "date_created": "2024-05-06T20:30:49.000",
    "date_modified": "2024-05-06T20:30:50.000",
    "request_status": "Pending",
    "responsible_agency": "Department of Sanitation",
    "final_address": "625 Elmira Ave",
    "address_councildis": "C",
    "status": "Assigned to Contractor",
    "contractor": "Richards Disposal",
    "rowid": "1090896",
    "final_x": "3688130.8223",
    "final_y": "529262.247745",
    "longitude": "-90.04721264890767",
    "latitude": "29.949084646078944",
    "geocoded_column": {
      "latitude": "29.949084646078944",
      "longitude": "-90.04721264890767"
    }
  },
  {
    "service_request": "2024-1090895",
    "request_type": "Property Maintenance",
    "request_reason": "Property Maintenance",
    "date_created": "2024-05-06T20:26:56.000",
    "date_modified": "2024-05-06T20:26:56.000",
    "request_status": "Pending",
    "responsible_agency": "Department of Code Enforcement",
    "final_address": "6945 Virgilian St",
    "address_councildis": "D",
    "status": "Pending",
    "rowid": "1090895",
    "final_x": "3696956.27421",
    "final_y": "556761.926234",
    "longitude": "-90.01835054102796",
    "latitude": "30.024423400010118",
    "geocoded_column": {
      "latitude": "30.024423400010118",
      "longitude": "-90.01835054102796"
    }
  },
  {
    "service_request": "2024-1090894",
    "request_type": "Healthy Homes",
    "request_reason": "Healthy Homes",
    "date_created": "2024-05-06T20:26:39.000",
    "date_modified": "2024-05-06T20:26:39.000",
    "request_status": "Pending",
    "responsible_agency": "Department of Code Enforcement",
    "final_address": "2027 Barracks St",
    "address_councildis": "D",
    "status": "Pending",
    "rowid": "1090894",
    "final_x": "3680069.30299",
    "final_y": "537185.928008",
    "longitude": "-90.07239106485646",
    "latitude": "29.97111841501684",
    "geocoded_column": {
      "latitude": "29.97111841501684",
      "longitude": "-90.07239106485646"
    }
  },
  {
    "service_request": "2024-1090893",
    "request_type": "Property Maintenance",
    "request_reason": "Property Maintenance",
    "date_created": "2024-05-06T20:21:12.000",
    "date_modified": "2024-05-06T20:21:12.000",
    "request_status": "Pending",
    "responsible_agency": "Department of Code Enforcement",
    "final_address": "6945 Virgilian St",
    "address_councildis": "D",
    "status": "Pending",
    "rowid": "1090893",
    "final_x": "3696956.27421",
    "final_y": "556761.926234",
    "longitude": "-90.01835054102796",
    "latitude": "30.024423400010118",
    "geocoded_column": {
      "latitude": "30.024423400010118",
      "longitude": "-90.01835054102796"
    }
  },
  {
    "service_request": "2024-1090892",
    "request_type": "Property Maintenance",
    "request_reason": "Property Maintenance",
    "date_created": "2024-05-06T20:15:33.000",
    "date_modified": "2024-05-06T20:15:33.000",
    "request_status": "Pending",
    "responsible_agency": "Department of Code Enforcement",
    "final_address": "1907 Esplanade Ave",
    "address_councildis": "D",
    "status": "Pending",
    "rowid": "1090892",
    "final_x": "3680400.64546",
    "final_y": "537330.87284",
    "longitude": "-90.07133959964052",
    "latitude": "29.971506933261782",
    "geocoded_column": {
      "latitude": "29.971506933261782",
      "longitude": "-90.07133959964052"
    }
  },
  {
    "service_request": "2024-1090891",
    "request_type": "Abandoned Vehicles",
    "request_reason": "Abandoned/Junk Vehicles",
    "date_created": "2024-05-06T20:03:08.000",
    "date_modified": "2024-05-06T20:03:08.000",
    "request_status": "Pending",
    "responsible_agency": "Department of Public Works",
    "final_address": "3031 Baudin St",
    "address_councildis": "B",
    "status": "Pending",
    "rowid": "1090891",
    "final_x": "3673183.22696",
    "final_y": "534783.740038",
    "longitude": "-90.09422029719734",
    "latitude": "29.96471977439316",
    "geocoded_column": {
      "latitude": "29.96471977439316",
      "longitude": "-90.09422029719734"
    }
  },
  {
    "service_request": "2024-1090889",
    "request_type": "Traffic Signals/Signs/Striping/Streetlights",
    "request_reason": "Street Name Sign Damaged or Missing",
    "date_created": "2024-05-06T19:55:23.000",
    "date_modified": "2024-05-06T19:55:23.000",
    "request_status": "Pending",
    "responsible_agency": "Department of Public Works",
    "final_address": "4800 BLK Perrault Walk",
    "address_councildis": "E",
    "status": "Pending",
    "rowid": "1090889",
    "final_x": "3709836.37294",
    "final_y": "556532.47957",
    "longitude": "-89.97766068603516",
    "latitude": "30.02337978901836",
    "geocoded_column": {
      "latitude": "30.02337978901836",
      "longitude": "-89.97766068603516"
    }
  },
  {
    "service_request": "2024-1090888",
    "request_type": "Safety & Permits",
    "request_reason": "Licenses & Permits",
    "date_created": "2024-05-06T19:54:35.000",
    "date_modified": "2024-05-06T19:54:35.000",
    "request_status": "Pending",
    "responsible_agency": "Safety and Permits",
    "final_address": "600 Third St",
    "address_councildis": "B",
    "status": "Pending",
    "rowid": "1090888",
    "final_x": "3678531.61493",
    "final_y": "519644.089912",
    "longitude": "-90.07785429482416",
    "latitude": "29.9229306488898",
    "geocoded_column": {
      "latitude": "29.9229306488898",
      "longitude": "-90.07785429482416"
    }
  },
  {
    "service_request": "2024-1090887",
    "request_type": "Trash/Recycling",
    "request_reason": "Illegal Dumping",
    "date_created": "2024-05-06T19:52:40.000",
    "date_modified": "2024-05-06T19:52:40.000",
    "request_status": "Pending",
    "responsible_agency": "Department of Sanitation",
    "final_address": "600 Third St",
    "address_councildis": "B",
    "status": "Pending",
    "rowid": "1090887",
    "final_x": "3678531.61493",
    "final_y": "519644.089912",
    "longitude": "-90.07785429482416",
    "latitude": "29.9229306488898",
    "geocoded_column": {
      "latitude": "29.9229306488898",
      "longitude": "-90.07785429482416"
    }
  },
  {
    "service_request": "2024-1090886",
    "request_type": "Trash/Recycling",
    "request_reason": "Request a Large Item Pick Up",
    "date_created": "2024-05-06T19:49:13.000",
    "date_modified": "2024-05-06T19:49:14.000",
    "request_status": "Pending",
    "responsible_agency": "Department of Sanitation",
    "final_address": "7918 Lamb Rd, New Orleans, Louisiana, 70126",
    "address_councildis": "E",
    "status": "Assigned to Contractor",
    "contractor": "Waste Pro",
    "rowid": "1090886",
    "final_x": "3696616.32451",
    "final_y": "560144.163933",
    "longitude": "-90.01930215623013",
    "latitude": "30.033733982849935",
    "geocoded_column": {
      "latitude": "30.033733982849935",
      "longitude": "-90.01930215623013"
    }
  },
  {
    "service_request": "2024-1090885",
    "request_type": "Trash/Recycling",
    "request_reason": "Illegal Dumping",
    "date_created": "2024-05-06T19:42:22.000",
    "date_modified": "2024-05-06T19:42:22.000",
    "request_status": "Pending",
    "responsible_agency": "Department of Sanitation",
    "final_address": "341 S Norman C Francis Prkwy",
    "address_councildis": "B",
    "status": "Pending",
    "rowid": "1090885",
    "final_x": "3672406.15265",
    "final_y": "535918.338823",
    "longitude": "-90.09663557891685",
    "latitude": "29.96786262343055",
    "geocoded_column": {
      "latitude": "29.96786262343055",
      "longitude": "-90.09663557891685"
    }
  },
  {
    "service_request": "2024-1090884",
    "request_type": "Trash/Recycling",
    "request_reason": "Illegal Dumping",
    "date_created": "2024-05-06T19:40:55.000",
    "date_modified": "2024-05-06T19:40:55.000",
    "request_status": "Pending",
    "responsible_agency": "Department of Sanitation",
    "final_address": "3214 Banks St A",
    "address_councildis": "B",
    "status": "Pending",
    "rowid": "1090884",
    "final_x": "3673007.13704",
    "final_y": "535293.007814",
    "longitude": "-90.09475899429067",
    "latitude": "29.966125324550838",
    "geocoded_column": {
      "latitude": "29.966125324550838",
      "longitude": "-90.09475899429067"
    }
  },
  {
    "service_request": "2024-1090883",
    "request_type": "Roads/Drainage",
    "request_reason": "Debris in Roadway",
    "date_created": "2024-05-06T19:37:49.000",
    "date_modified": "2024-05-06T19:37:49.000",
    "request_status": "Pending",
    "responsible_agency": "Department of Public Works",
    "final_address": "6425 Memphis St",
    "address_councildis": "A",
    "status": "Pending",
    "rowid": "1090883",
    "final_x": "3669524.56807",
    "final_y": "550178.268948",
    "longitude": "-90.10525308399619",
    "latitude": "30.00715775656949",
    "geocoded_column": {
      "latitude": "30.00715775656949",
      "longitude": "-90.10525308399619"
    }
  },
  {
    "service_request": "2024-1090882",
    "request_type": "Trash/Recycling",
    "request_reason": "Request a Large Item Pick Up",
    "date_created": "2024-05-06T19:22:45.000",
    "date_modified": "2024-05-06T19:22:46.000",
    "request_status": "Pending",
    "responsible_agency": "Department of Sanitation",
    "final_address": "2156 Timoleon St",
    "address_councildis": "D",
    "status": "Assigned to Contractor",
    "contractor": "IV Waste",
    "rowid": "1090882",
    "final_x": "3683534.92828",
    "final_y": "551054.905941",
    "longitude": "-90.06095980129848",
    "latitude": "30.00914786619365",
    "geocoded_column": {
      "latitude": "30.00914786619365",
      "longitude": "-90.06095980129848"
    }
  },
  {
    "service_request": "2024-1090881",
    "request_type": "Trash/Recycling",
    "request_reason": "Request a Large Item Pick Up",
    "date_created": "2024-05-06T19:20:40.000",
    "date_modified": "2024-05-06T19:20:41.000",
    "request_status": "Pending",
    "responsible_agency": "Department of Sanitation",
    "final_address": "5941 Winchester Park Dr",
    "address_councildis": "E",
    "status": "Assigned to Contractor",
    "contractor": "Waste Pro",
    "rowid": "1090881",
    "final_x": "3714730.15858",
    "final_y": "562856.308064",
    "longitude": "-89.96195837966957",
    "latitude": "30.040607678670828",
    "geocoded_column": {
      "latitude": "30.040607678670828",
      "longitude": "-89.96195837966957"
    }
  },
  {
    "service_request": "2024-1090880",
    "request_type": "Trash/Recycling",
    "request_reason": "Request a Large Item Pick Up",
    "date_created": "2024-05-06T19:19:11.000",
    "date_modified": "2024-05-06T19:19:11.000",
    "request_status": "Pending",
    "responsible_agency": "Department of Sanitation",
    "final_address": "5941 Winchester Park Dr",
    "address_councildis": "E",
    "status": "Assigned to Contractor",
    "contractor": "Waste Pro",
    "rowid": "1090880",
    "final_x": "3714730.15858",
    "final_y": "562856.308064",
    "longitude": "-89.96195837966957",
    "latitude": "30.040607678670828",
    "geocoded_column": {
      "latitude": "30.040607678670828",
      "longitude": "-89.96195837966957"
    }
  },
  {
    "service_request": "2024-1090879",
    "request_type": "Trash/Recycling",
    "request_reason": "Request a Large Item Pick Up",
    "date_created": "2024-05-06T19:18:33.000",
    "date_modified": "2024-05-06T19:18:34.000",
    "request_status": "Pending",
    "responsible_agency": "Department of Sanitation",
    "final_address": "7705 Wales St",
    "address_councildis": "E",
    "status": "Assigned to Contractor",
    "contractor": "Waste Pro",
    "rowid": "1090879",
    "final_x": "3700924.6074",
    "final_y": "561811.202143",
    "longitude": "-90.00562652699891",
    "latitude": "30.03818113535046",
    "geocoded_column": {
      "latitude": "30.03818113535046",
      "longitude": "-90.00562652699891"
    }
  },
  {
    "service_request": "2024-1090878",
    "request_type": "Trash/Recycling",
    "request_reason": "Order Recycling Cart",
    "date_created": "2024-05-06T19:12:26.000",
    "date_modified": "2024-05-06T19:12:26.000",
    "request_status": "Pending",
    "responsible_agency": "Department of Sanitation",
    "final_address": "7707 Oak St",
    "address_councildis": "A",
    "status": "Pending",
    "rowid": "1090878",
    "final_x": "3663029.28333",
    "final_y": "527456.776511",
    "longitude": "-90.12652960475543",
    "latitude": "29.944871016700194",
    "geocoded_column": {
      "latitude": "29.944871016700194",
      "longitude": "-90.12652960475543"
    }
  },
  {
    "service_request": "2024-1090877",
    "request_type": "Trash/Recycling",
    "request_reason": "Request a Large Item Pick Up",
    "date_created": "2024-05-06T19:09:26.000",
    "date_modified": "2024-05-06T19:09:26.000",
    "request_status": "Pending",
    "responsible_agency": "Department of Sanitation",
    "final_address": "3213 Louisiana Avenue Prkwy",
    "address_councildis": "B",
    "status": "Assigned to Contractor",
    "contractor": "IV Waste",
    "rowid": "1090877",
    "final_x": "3671992.94651",
    "final_y": "527040.202942",
    "longitude": "-90.09824271272085",
    "latitude": "29.94346294735673",
    "geocoded_column": {
      "latitude": "29.94346294735673",
      "longitude": "-90.09824271272085"
    }
  },
  {
    "service_request": "2024-1090876",
    "request_type": "Roads/Drainage",
    "request_reason": "Pothole",
    "date_created": "2024-05-06T18:53:59.000",
    "date_modified": "2024-05-06T18:53:59.000",
    "request_status": "Pending",
    "responsible_agency": "Department of Public Works",
    "final_address": "1642 Horace St",
    "address_councildis": "C",
    "status": "Pending",
    "rowid": "1090876",
    "final_x": "3696266.09719",
    "final_y": "525365.747197",
    "longitude": "-90.02166699942428",
    "latitude": "29.938117036619715",
    "geocoded_column": {
      "latitude": "29.938117036619715",
      "longitude": "-90.02166699942428"
    }
  },
  {
    "service_request": "2024-1090875",
    "request_type": "Trash/Recycling",
    "request_reason": "Request a Large Item Pick Up",
    "date_created": "2024-05-06T18:53:12.000",
    "date_modified": "2024-05-06T18:53:13.000",
    "request_status": "Pending",
    "responsible_agency": "Department of Sanitation",
    "final_address": "6951 Boston Dr",
    "address_councildis": "E",
    "status": "Assigned to Contractor",
    "contractor": "Waste Pro",
    "rowid": "1090875",
    "final_x": "3706572.42782",
    "final_y": "560446.603294",
    "longitude": "-89.98782874760303",
    "latitude": "30.034247875518695",
    "geocoded_column": {
      "latitude": "30.034247875518695",
      "longitude": "-89.98782874760303"
    }
  },
  {
    "service_request": "2024-1090873",
    "request_type": "Property Maintenance",
    "request_reason": "Property Maintenance",
    "date_created": "2024-05-06T18:41:02.000",
    "date_modified": "2024-05-06T18:41:02.000",
    "request_status": "Pending",
    "responsible_agency": "Department of Code Enforcement",
    "final_address": "1627 Horace St",
    "address_councildis": "C",
    "status": "Pending",
    "rowid": "1090873",
    "final_x": "3696274.78672",
    "final_y": "525228.263037",
    "longitude": "-90.02164453467113",
    "latitude": "29.9377387291066",
    "geocoded_column": {
      "latitude": "29.9377387291066",
      "longitude": "-90.02164453467113"
    }
  },
  {
    "service_request": "2024-1090872",
    "request_type": "Trash/Recycling",
    "request_reason": "Request a Large Item Pick Up",
    "date_created": "2024-05-06T18:39:08.000",
    "date_modified": "2024-05-06T18:39:09.000",
    "request_status": "Pending",
    "responsible_agency": "Department of Sanitation",
    "final_address": "3904 Louisiana Avenue Prkwy",
    "address_councildis": "B",
    "status": "Assigned to Contractor",
    "contractor": "IV Waste",
    "rowid": "1090872",
    "final_x": "3671130.59956",
    "final_y": "529084.515584",
    "longitude": "-90.10089594990632",
    "latitude": "29.949109669006113",
    "geocoded_column": {
      "latitude": "29.949109669006113",
      "longitude": "-90.10089594990632"
    }
  },
  {
    "service_request": "2024-1090871",
    "request_type": "Trash/Recycling",
    "request_reason": "Replace Recycling Cart",
    "date_created": "2024-05-06T18:29:18.000",
    "date_modified": "2024-05-06T18:29:18.000",
    "request_status": "Pending",
    "responsible_agency": "Department of Sanitation",
    "final_address": "5351 Bellaire Dr",
    "address_councildis": "A",
    "status": "Pending",
    "rowid": "1090871",
    "final_x": "3664067.53632",
    "final_y": "543618.16315",
    "longitude": "-90.1227123973135",
    "latitude": "29.989279398674174",
    "geocoded_column": {
      "latitude": "29.989279398674174",
      "longitude": "-90.1227123973135"
    }
  },
  {
    "service_request": "2024-1090870",
    "request_type": "Trash/Recycling",
    "request_reason": "Replace Trash Cart",
    "date_created": "2024-05-06T18:24:25.000",
    "date_modified": "2024-05-06T18:24:25.000",
    "request_status": "Pending",
    "responsible_agency": "Department of Sanitation",
    "final_address": "2926 Dumaine St",
    "address_councildis": "A",
    "status": "Assigned to Contractor",
    "contractor": "IV Waste",
    "rowid": "1090870",
    "final_x": "3676221.82017",
    "final_y": "538183.591945",
    "longitude": "-90.08450760383235",
    "latitude": "29.97397750898155",
    "geocoded_column": {
      "latitude": "29.97397750898155",
      "longitude": "-90.08450760383235"
    }
  },
  {
    "service_request": "2024-1090868",
    "request_type": "Trash/Recycling",
    "request_reason": "Order Trash Cart",
    "date_created": "2024-05-06T18:16:43.000",
    "date_modified": "2024-05-06T18:16:44.000",
    "request_status": "Pending",
    "responsible_agency": "Department of Sanitation",
    "final_address": "6034 Prytania St",
    "address_councildis": "A",
    "status": "Assigned to Contractor",
    "contractor": "IV Waste",
    "rowid": "1090868",
    "final_x": "3664900.397",
    "final_y": "520908.313337",
    "longitude": "-90.12084068716838",
    "latitude": "29.92681050672348",
    "geocoded_column": {
      "latitude": "29.92681050672348",
      "longitude": "-90.12084068716838"
    }
  },
  {
    "service_request": "2024-1090867",
    "request_type": "Trash/Recycling",
    "request_reason": "Request a Large Item Pick Up",
    "date_created": "2024-05-06T18:07:35.000",
    "date_modified": "2024-05-06T18:07:37.000",
    "request_status": "Pending",
    "responsible_agency": "Department of Sanitation",
    "final_address": "911 Belleville St",
    "address_councildis": "C",
    "status": "Assigned to Contractor",
    "contractor": "Richards Disposal",
    "rowid": "1090867",
    "final_x": "3687733.87593",
    "final_y": "528251.899968",
    "longitude": "-90.04850174950909",
    "latitude": "29.94631877955785",
    "geocoded_column": {
      "latitude": "29.94631877955785",
      "longitude": "-90.04850174950909"
    }
  },
  {
    "service_request": "2024-1090866",
    "request_type": "Trash/Recycling",
    "request_reason": "Request a Large Item Pick Up",
    "date_created": "2024-05-06T17:45:28.000",
    "date_modified": "2024-05-06T17:45:28.000",
    "request_status": "Pending",
    "responsible_agency": "Department of Sanitation",
    "final_address": "1019 Opelousas Ave",
    "address_councildis": "C",
    "status": "Assigned to Contractor",
    "contractor": "Richards Disposal",
    "rowid": "1090866",
    "final_x": "3688631.01641",
    "final_y": "529013.955136",
    "longitude": "-90.04564213223962",
    "latitude": "29.94838647952265",
    "geocoded_column": {
      "latitude": "29.94838647952265",
      "longitude": "-90.04564213223962"
    }
  },
  {
    "service_request": "2024-1090865",
    "request_type": "Trash/Recycling",
    "request_reason": "Request a Large Item Pick Up",
    "date_created": "2024-05-06T17:44:03.000",
    "date_modified": "2024-05-06T17:44:03.000",
    "request_status": "Pending",
    "responsible_agency": "Department of Sanitation",
    "final_address": "6348 Carlson Dr",
    "address_councildis": "D",
    "status": "Assigned to Contractor",
    "contractor": "IV Waste",
    "rowid": "1090865",
    "final_x": "3679100.85512",
    "final_y": "557130.381402",
    "longitude": "-90.07475770964348",
    "latitude": "30.025987860498343",
    "geocoded_column": {
      "latitude": "30.025987860498343",
      "longitude": "-90.07475770964348"
    }
  },
  {
    "service_request": "2024-1090864",
    "request_type": "Trash/Recycling",
    "request_reason": "Missed Trash Pick-Up",
    "date_created": "2024-05-06T17:42:31.000",
    "date_modified": "2024-05-06T17:42:32.000",
    "request_status": "Pending",
    "responsible_agency": "Department of Sanitation",
    "final_address": "732 9th St, New Orleans, Louisiana, 70115",
    "status": "Assigned to Contractor",
    "rowid": "1090864",
    "longitude": "0.0",
    "latitude": "0.0",
    "geocoded_column": {
      "latitude": "0.0",
      "longitude": "0.0"
    }
  },
  {
    "service_request": "2024-1090863",
    "request_type": "Property Maintenance",
    "request_reason": "Property Maintenance",
    "date_created": "2024-05-06T17:39:50.000",
    "date_modified": "2024-05-06T17:39:50.000",
    "request_status": "Pending",
    "responsible_agency": "Department of Code Enforcement",
    "final_address": "1433 Forstall St",
    "address_councildis": "E",
    "status": "Pending",
    "rowid": "1090863",
    "final_x": "3696716.22218",
    "final_y": "535551.997318",
    "longitude": "-90.01987729096803",
    "latitude": "29.966111475443853",
    "geocoded_column": {
      "latitude": "29.966111475443853",
      "longitude": "-90.01987729096803"
    }
  },
  {
    "service_request": "2024-1090862",
    "request_type": "Trash/Recycling",
    "request_reason": "Request a Large Item Pick Up",
    "date_created": "2024-05-06T17:38:26.000",
    "date_modified": "2024-05-06T17:38:27.000",
    "request_status": "Pending",
    "responsible_agency": "Department of Sanitation",
    "final_address": "6222 Curie St",
    "address_councildis": "D",
    "status": "Assigned to Contractor",
    "contractor": "IV Waste",
    "rowid": "1090862",
    "final_x": "3682432.32239",
    "final_y": "555984.082009",
    "longitude": "-90.06427082677494",
    "latitude": "30.022734922838247",
    "geocoded_column": {
      "latitude": "30.022734922838247",
      "longitude": "-90.06427082677494"
    }
  },
  {
    "service_request": "2024-1090861",
    "request_type": "Traffic Signals/Signs/Striping/Streetlights",
    "request_reason": "Street Light Outage/Malfunction",
    "date_created": "2024-05-06T17:36:21.000",
    "date_modified": "2024-05-06T17:36:21.000",
    "request_status": "Pending",
    "responsible_agency": "Department of Public Works",
    "final_address": "HOWARD AVE & LOYOLA AVE",
    "address_councildis": "B",
    "status": "Assigned to Contractor",
    "contractor": "Legacy Professional Services",
    "rowid": "1090861",
    "final_x": "3678726.75",
    "final_y": "528082.41",
    "longitude": "-90.07694626669412",
    "latitude": "29.94612737303218",
    "geocoded_column": {
      "latitude": "29.94612737303218",
      "longitude": "-90.07694626669412"
    }
  },
  {
    "service_request": "2024-1090860",
    "request_type": "Trash/Recycling",
    "request_reason": "Missed Trash Pick-Up",
    "date_created": "2024-05-06T17:27:16.000",
    "date_modified": "2024-05-06T17:27:16.000",
    "request_status": "Pending",
    "responsible_agency": "Department of Sanitation",
    "final_address": "5691 New England Dr",
    "address_councildis": "E",
    "status": "Assigned to Contractor",
    "contractor": "Waste Pro",
    "rowid": "1090860",
    "final_x": "3723696.65791",
    "final_y": "564571.840033",
    "longitude": "-89.93355540753569",
    "latitude": "30.04502656336224",
    "geocoded_column": {
      "latitude": "30.04502656336224",
      "longitude": "-89.93355540753569"
    }
  },
  {
    "service_request": "2024-1090859",
    "request_type": "Trash/Recycling",
    "request_reason": "Request a Large Item Pick Up",
    "date_created": "2024-05-06T17:22:46.000",
    "date_modified": "2024-05-06T17:22:47.000",
    "request_status": "Pending",
    "responsible_agency": "Department of Sanitation",
    "final_address": "414 Delaronde St",
    "address_councildis": "C",
    "status": "Assigned to Contractor",
    "contractor": "Richards Disposal",
    "rowid": "1090859",
    "final_x": "3686658.76073",
    "final_y": "531097.757122",
    "longitude": "-90.05179576168031",
    "latitude": "29.9541770192208",
    "geocoded_column": {
      "latitude": "29.9541770192208",
      "longitude": "-90.05179576168031"
    }
  },
  {
    "service_request": "2024-1090858",
    "request_type": "Abandoned Vehicles",
    "request_reason": "Abandoned/Junk Vehicles",
    "date_created": "2024-05-06T17:17:04.000",
    "date_modified": "2024-05-06T17:17:04.000",
    "request_status": "Pending",
    "responsible_agency": "Department of Public Works",
    "final_address": "CONTI ST & N ROCHEBLAVE ST",
    "address_councildis": "B",
    "status": "Pending",
    "rowid": "1090858",
    "final_x": "3676844.6",
    "final_y": "535436.28",
    "longitude": "-90.08263543012484",
    "latitude": "29.966404659677153",
    "geocoded_column": {
      "latitude": "29.966404659677153",
      "longitude": "-90.08263543012484"
    }
  },
  {
    "service_request": "2024-1090857",
    "request_type": "Abandoned Vehicles",
    "request_reason": "Abandoned/Junk Vehicles",
    "date_created": "2024-05-06T17:15:47.000",
    "date_modified": "2024-05-06T17:15:47.000",
    "request_status": "Pending",
    "responsible_agency": "Department of Public Works",
    "final_address": "CONTI ST & N ROCHEBLAVE ST",
    "address_councildis": "B",
    "status": "Pending",
    "rowid": "1090857",
    "final_x": "3676844.6",
    "final_y": "535436.28",
    "longitude": "-90.08263543012484",
    "latitude": "29.966404659677153",
    "geocoded_column": {
      "latitude": "29.966404659677153",
      "longitude": "-90.08263543012484"
    }
  },
  {
    "service_request": "2024-1090856",
    "request_type": "Abandoned Vehicles",
    "request_reason": "Abandoned/Junk Vehicles",
    "date_created": "2024-05-06T17:08:03.000",
    "date_modified": "2024-05-06T17:08:03.000",
    "request_status": "Pending",
    "responsible_agency": "Department of Public Works",
    "final_address": "2021 Royal St",
    "address_councildis": "C",
    "status": "Pending",
    "rowid": "1090856",
    "final_x": "3684527.59791",
    "final_y": "534848.98311",
    "longitude": "-90.05839331258237",
    "latitude": "29.964556970942553",
    "geocoded_column": {
      "latitude": "29.964556970942553",
      "longitude": "-90.05839331258237"
    }
  },
  {
    "service_request": "2024-1090855",
    "request_type": "Health Related Request",
    "request_reason": "Noise Ordinance Complaint",
    "date_created": "2024-05-06T17:03:49.000",
    "date_modified": "2024-05-06T17:03:49.000",
    "request_status": "Pending",
    "responsible_agency": "Health Department",
    "final_address": "2034 Agriculture St",
    "address_councildis": "D",
    "status": "Pending",
    "rowid": "1090855",
    "final_x": "3683272.37564",
    "final_y": "543165.070989",
    "longitude": "-90.06206584487197",
    "latitude": "29.987461656626955",
    "geocoded_column": {
      "latitude": "29.987461656626955",
      "longitude": "-90.06206584487197"
    }
  },
  {
    "service_request": "2024-1090854",
    "request_type": "Trash/Recycling",
    "request_reason": "Return Trash Cart",
    "date_created": "2024-05-06T17:02:48.000",
    "date_modified": "2024-05-06T17:02:48.000",
    "request_status": "Pending",
    "responsible_agency": "Department of Sanitation",
    "final_address": "629 Louisa St",
    "address_councildis": "C",
    "status": "Assigned to Contractor",
    "contractor": "IV Waste",
    "rowid": "1090854",
    "final_x": "3689188.34742",
    "final_y": "534233.377733",
    "longitude": "-90.0436969324975",
    "latitude": "29.96272085418437",
    "geocoded_column": {
      "latitude": "29.96272085418437",
      "longitude": "-90.0436969324975"
    }
  },
  {
    "service_request": "2024-1090853",
    "request_type": "Trash/Recycling",
    "request_reason": "Request a Large Item Pick Up",
    "date_created": "2024-05-06T17:01:46.000",
    "date_modified": "2024-05-06T17:02:04.000",
    "request_status": "Pending",
    "responsible_agency": "Department of Sanitation",
    "final_address": "6977 Queensway Dr",
    "address_councildis": "E",
    "status": "Assigned to Contractor",
    "contractor": "Waste Pro",
    "rowid": "1090853",
    "final_x": "3719461.43026",
    "final_y": "569145.133926",
    "longitude": "-89.94676566545773",
    "latitude": "30.057742812460635",
    "geocoded_column": {
      "latitude": "30.057742812460635",
      "longitude": "-89.94676566545773"
    }
  },
  {
    "service_request": "2024-1090852",
    "request_type": "Trash/Recycling",
    "request_reason": "Repair Recycling Cart",
    "date_created": "2024-05-06T17:00:06.000",
    "date_modified": "2024-05-06T17:00:06.000",
    "request_status": "Pending",
    "responsible_agency": "Department of Sanitation",
    "final_address": "2200 Valentine Ct",
    "address_councildis": "C",
    "status": "Pending",
    "rowid": "1090852",
    "final_x": "3699635.62743",
    "final_y": "523035.378235",
    "longitude": "-90.01111405267416",
    "latitude": "29.931602841010037",
    "geocoded_column": {
      "latitude": "29.931602841010037",
      "longitude": "-90.01111405267416"
    }
  },
  {
    "service_request": "2024-1090851",
    "request_type": "Traffic Signals/Signs/Striping/Streetlights",
    "request_reason": "Traffic Sign Missing/Damaged",
    "date_created": "2024-05-06T16:53:02.000",
    "date_modified": "2024-05-06T16:53:02.000",
    "request_status": "Pending",
    "responsible_agency": "Department of Public Works",
    "final_address": "POYDRAS ST & CAMP ST",
    "address_councildis": "B",
    "status": "Pending",
    "rowid": "1090851",
    "final_x": "3681126.1",
    "final_y": "529304.08",
    "longitude": "-90.06932814891445",
    "latitude": "29.949413998119116",
    "geocoded_column": {
      "latitude": "29.949413998119116",
      "longitude": "-90.06932814891445"
    }
  },
  {
    "service_request": "2024-1090850",
    "request_type": "Trash/Recycling",
    "request_reason": "Request a Large Item Pick Up",
    "date_created": "2024-05-06T16:47:25.000",
    "date_modified": "2024-05-06T16:47:25.000",
    "request_status": "Pending",
    "responsible_agency": "Department of Sanitation",
    "final_address": "4053 St Ferdinand St",
    "address_councildis": "D",
    "status": "Assigned to Contractor",
    "contractor": "IV Waste",
    "rowid": "1090850",
    "final_x": "3689910.38403",
    "final_y": "548251.175506",
    "longitude": "-90.04091755503674",
    "latitude": "30.00124243327375",
    "geocoded_column": {
      "latitude": "30.00124243327375",
      "longitude": "-90.04091755503674"
    }
  },
  {
    "service_request": "2024-1090848",
    "request_type": "Abandoned Vehicles",
    "request_reason": "Abandoned/Junk Vehicles",
    "date_created": "2024-05-06T16:40:07.000",
    "date_modified": "2024-05-06T16:40:07.000",
    "request_status": "Pending",
    "responsible_agency": "Department of Public Works",
    "final_address": "1900 BLK Dublin St",
    "address_councildis": "A",
    "status": "Pending",
    "rowid": "1090848",
    "final_x": "3663474.81015",
    "final_y": "530558.450482",
    "longitude": "-90.12501966600193",
    "latitude": "29.95338671182171",
    "geocoded_column": {
      "latitude": "29.95338671182171",
      "longitude": "-90.12501966600193"
    }
  },
  {
    "service_request": "2024-1090847",
    "request_type": "Traffic Signals/Signs/Striping/Streetlights",
    "request_reason": "Street Light Outage/Malfunction",
    "date_created": "2024-05-06T16:33:29.000",
    "date_modified": "2024-05-06T16:33:29.000",
    "request_status": "Pending",
    "responsible_agency": "Department of Public Works",
    "final_address": "4710 Maid Marion Dr",
    "address_councildis": "E",
    "status": "Assigned to Contractor",
    "contractor": "Legacy Professional Services",
    "rowid": "1090847",
    "final_x": "3716904.76575",
    "final_y": "556861.263706",
    "longitude": "-89.95531382720445",
    "latitude": "30.024051974886348",
    "geocoded_column": {
      "latitude": "30.024051974886348",
      "longitude": "-89.95531382720445"
    }
  },
  {
    "service_request": "2024-1090846",
    "request_type": "Abandoned Vehicles",
    "request_reason": "Abandoned/Junk Vehicles",
    "date_created": "2024-05-06T16:33:13.000",
    "date_modified": "2024-05-06T16:33:14.000",
    "request_status": "Pending",
    "responsible_agency": "Department of Public Works",
    "final_address": "N GAYOSO ST & ST LOUIS ST",
    "address_councildis": "B",
    "status": "Pending",
    "rowid": "1090846",
    "final_x": "3675158.3",
    "final_y": "536929.48",
    "longitude": "-90.08790949365127",
    "latitude": "29.97056095658586",
    "geocoded_column": {
      "latitude": "29.97056095658586",
      "longitude": "-90.08790949365127"
    }
  },
  {
    "service_request": "2024-1090845",
    "request_type": "Trash/Recycling",
    "request_reason": "Request a Large Item Pick Up",
    "date_created": "2024-05-06T16:31:51.000",
    "date_modified": "2024-05-06T16:31:52.000",
    "request_status": "Pending",
    "responsible_agency": "Department of Sanitation",
    "final_address": "705 Patterson St",
    "address_councildis": "C",
    "status": "Assigned to Contractor",
    "contractor": "Richards Disposal",
    "rowid": "1090845",
    "final_x": "3687673.99535",
    "final_y": "531408.048899",
    "longitude": "-90.04857908142694",
    "latitude": "29.954998954409437",
    "geocoded_column": {
      "latitude": "29.954998954409437",
      "longitude": "-90.04857908142694"
    }
  },
  {
    "service_request": "2024-1090843",
    "request_type": "Trash/Recycling",
    "request_reason": "Repair Trash Cart",
    "date_created": "2024-05-06T16:28:05.000",
    "date_modified": "2024-05-06T16:28:05.000",
    "request_status": "Pending",
    "responsible_agency": "Department of Sanitation",
    "final_address": "14251 Dwyer Blvd",
    "address_councildis": "E",
    "status": "Assigned to Contractor",
    "contractor": "Waste Pro",
    "rowid": "1090843",
    "final_x": "3729377.31379",
    "final_y": "563316.282528",
    "longitude": "-89.91565122035415",
    "latitude": "30.041382270307285",
    "geocoded_column": {
      "latitude": "30.041382270307285",
      "longitude": "-89.91565122035415"
    }
  },
  {
    "service_request": "2024-1090842",
    "request_type": "Trash/Recycling",
    "request_reason": "Request a Large Item Pick Up",
    "date_created": "2024-05-06T16:26:34.000",
    "date_modified": "2024-05-06T16:26:35.000",
    "request_status": "Pending",
    "responsible_agency": "Department of Sanitation",
    "final_address": "1705 Patterson St",
    "address_councildis": "C",
    "status": "Assigned to Contractor",
    "contractor": "Richards Disposal",
    "rowid": "1090842",
    "final_x": "3690735.97987",
    "final_y": "530854.278722",
    "longitude": "-90.0389302723261",
    "latitude": "29.953381521734176",
    "geocoded_column": {
      "latitude": "29.953381521734176",
      "longitude": "-90.0389302723261"
    }
  },
  {
    "service_request": "2024-1090841",
    "request_type": "Trash/Recycling",
    "request_reason": "Request a Large Item Pick Up",
    "date_created": "2024-05-06T16:26:32.000",
    "date_modified": "2024-05-06T16:26:33.000",
    "request_status": "Pending",
    "responsible_agency": "Department of Sanitation",
    "final_address": "2020 Camp St",
    "address_councildis": "B",
    "status": "Assigned to Contractor",
    "contractor": "IV Waste",
    "rowid": "1090841",
    "final_x": "3679150.01717",
    "final_y": "522739.85721",
    "longitude": "-90.07579499293321",
    "latitude": "29.931424352313797",
    "geocoded_column": {
      "latitude": "29.931424352313797",
      "longitude": "-90.07579499293321"
    }
  },
  {
    "service_request": "2024-1090840",
    "request_type": "Traffic Signals/Signs/Striping/Streetlights",
    "request_reason": "Street Light Outage/Malfunction",
    "date_created": "2024-05-06T16:25:59.000",
    "date_modified": "2024-05-06T16:26:00.000",
    "request_status": "Pending",
    "responsible_agency": "Department of Public Works",
    "final_address": "3500 BLK Gentilly Blvd",
    "address_councildis": "D",
    "status": "Assigned to Contractor",
    "contractor": "Legacy Professional Services",
    "rowid": "1090840",
    "final_x": "3685634.23959",
    "final_y": "548698.401735",
    "longitude": "-90.05441047614967",
    "latitude": "30.002604070007145",
    "geocoded_column": {
      "latitude": "30.002604070007145",
      "longitude": "-90.05441047614967"
    }
  },
  {
    "service_request": "2024-1090839",
    "request_type": "Parks & Parkways",
    "request_reason": "Request Tree Service (Right of Way/Public Property)",
    "date_created": "2024-05-06T16:25:24.000",
    "date_modified": "2024-05-06T16:25:24.000",
    "request_status": "Pending",
    "responsible_agency": "Department of Parks & Parkway",
    "final_address": "6201 Berkley Dr",
    "address_councildis": "C",
    "status": "Pending",
    "rowid": "1090839",
    "final_x": "3707025.10321",
    "final_y": "518035.768886",
    "longitude": "-89.98797185070612",
    "latitude": "29.917619132934384",
    "geocoded_column": {
      "latitude": "29.917619132934384",
      "longitude": "-89.98797185070612"
    }
  },
  {
    "service_request": "2024-1090838",
    "request_type": "Parks & Parkways",
    "request_reason": "Request Tree Service (Right of Way/Public Property)",
    "date_created": "2024-05-06T16:24:51.000",
    "date_modified": "2024-05-06T16:24:51.000",
    "request_status": "Pending",
    "responsible_agency": "Department of Parks & Parkway",
    "final_address": "6201 Berkley Dr",
    "address_councildis": "C",
    "status": "Pending",
    "rowid": "1090838",
    "final_x": "3707025.10321",
    "final_y": "518035.768886",
    "longitude": "-89.98797185070612",
    "latitude": "29.917619132934384",
    "geocoded_column": {
      "latitude": "29.917619132934384",
      "longitude": "-89.98797185070612"
    }
  },
  {
    "service_request": "2024-1090837",
    "request_type": "Parks & Parkways",
    "request_reason": "Request Tree Service (Right of Way/Public Property)",
    "date_created": "2024-05-06T16:23:51.000",
    "date_modified": "2024-05-06T16:23:51.000",
    "request_status": "Pending",
    "responsible_agency": "Department of Parks & Parkway",
    "final_address": "6201 Berkley Dr",
    "address_councildis": "C",
    "status": "Pending",
    "rowid": "1090837",
    "final_x": "3707025.10321",
    "final_y": "518035.768886",
    "longitude": "-89.98797185070612",
    "latitude": "29.917619132934384",
    "geocoded_column": {
      "latitude": "29.917619132934384",
      "longitude": "-89.98797185070612"
    }
  },
  {
    "service_request": "2024-1090836",
    "request_type": "Abandoned Vehicles",
    "request_reason": "Abandoned/Junk Vehicles",
    "date_created": "2024-05-06T16:22:59.000",
    "date_modified": "2024-05-06T16:22:59.000",
    "request_status": "Pending",
    "responsible_agency": "Department of Public Works",
    "final_address": "1952 Evergreen Ave",
    "address_councildis": "C",
    "status": "Pending",
    "rowid": "1090836",
    "final_x": "3688192.59753",
    "final_y": "524562.044732",
    "longitude": "-90.04718417621564",
    "latitude": "29.9361587785345",
    "geocoded_column": {
      "latitude": "29.9361587785345",
      "longitude": "-90.04718417621564"
    }
  },
  {
    "service_request": "2024-1090835",
    "request_type": "Property Maintenance",
    "request_reason": "Property Maintenance",
    "date_created": "2024-05-06T16:22:54.000",
    "date_modified": "2024-05-06T16:22:54.000",
    "request_status": "Pending",
    "responsible_agency": "Department of Code Enforcement",
    "final_address": "4933 Sherwood Dr",
    "address_councildis": "E",
    "status": "Pending",
    "rowid": "1090835",
    "final_x": "3717968.01042",
    "final_y": "558030.620763",
    "longitude": "-89.95190967077201",
    "latitude": "30.027232037124858",
    "geocoded_column": {
      "latitude": "30.027232037124858",
      "longitude": "-89.95190967077201"
    }
  },
  {
    "service_request": "2024-1090834",
    "request_type": "Trash/Recycling",
    "request_reason": "Replace Recycling Cart",
    "date_created": "2024-05-06T16:21:57.000",
    "date_modified": "2024-05-06T16:21:57.000",
    "request_status": "Pending",
    "responsible_agency": "Department of Sanitation",
    "final_address": "218 30Th St",
    "address_councildis": "A",
    "status": "Pending",
    "rowid": "1090834",
    "final_x": "3665655.82061",
    "final_y": "550447.804692",
    "longitude": "-90.11746653619947",
    "latitude": "30.00801233068445",
    "geocoded_column": {
      "latitude": "30.00801233068445",
      "longitude": "-90.11746653619947"
    }
  },
  {
    "service_request": "2024-1090833",
    "request_type": "Abandoned Vehicles",
    "request_reason": "Vehicle Blocking Your Driveway",
    "date_created": "2024-05-06T16:21:53.000",
    "date_modified": "2024-05-06T16:23:39.000",
    "request_status": "Pending",
    "responsible_agency": "Department of Public Works",
    "final_address": "212 David St",
    "address_councildis": "A",
    "rowid": "1090833",
    "final_x": "3671268.22561",
    "final_y": "538936.073546",
    "longitude": "-90.10012662913783",
    "latitude": "29.976194097755297",
    "geocoded_column": {
      "latitude": "29.976194097755297",
      "longitude": "-90.10012662913783"
    }
  },
  {
    "service_request": "2024-1090832",
    "request_type": "Trash/Recycling",
    "request_reason": "Missed Trash Pick-Up",
    "date_created": "2024-05-06T16:11:10.000",
    "date_modified": "2024-05-06T16:11:10.000",
    "request_status": "Pending",
    "responsible_agency": "Department of Sanitation",
    "final_address": "615 Exposition Blvd",
    "address_councildis": "A",
    "status": "Assigned to Contractor",
    "contractor": "IV Waste",
    "rowid": "1090832",
    "final_x": "3662950.29107",
    "final_y": "519359.107447",
    "longitude": "-90.12704816381215",
    "latitude": "29.92260727140383",
    "geocoded_column": {
      "latitude": "29.92260727140383",
      "longitude": "-90.12704816381215"
    }
  },
  {
    "service_request": "2024-1090831",
    "request_type": "Property Maintenance",
    "request_reason": "Property Maintenance",
    "date_created": "2024-05-06T16:09:26.000",
    "date_modified": "2024-05-06T16:09:26.000",
    "request_status": "Pending",
    "responsible_agency": "Department of Code Enforcement",
    "final_address": "4762 Perrault Walk",
    "address_councildis": "E",
    "status": "Pending",
    "rowid": "1090831",
    "final_x": "3709865.02366",
    "final_y": "555866.241305",
    "longitude": "-89.97759506462184",
    "latitude": "30.021546962367218",
    "geocoded_column": {
      "latitude": "30.021546962367218",
      "longitude": "-89.97759506462184"
    }
  },
  {
    "service_request": "2024-1090830",
    "request_type": "Property Maintenance",
    "request_reason": "Property Maintenance",
    "date_created": "2024-05-06T16:07:45.000",
    "date_modified": "2024-05-06T16:07:45.000",
    "request_status": "Pending",
    "responsible_agency": "Department of Code Enforcement",
    "final_address": "13917 Intrepid St",
    "address_councildis": "E",
    "status": "Pending",
    "rowid": "1090830",
    "final_x": "3726046.00441",
    "final_y": "570461.927911",
    "longitude": "-89.92590181562716",
    "latitude": "30.061142708565548",
    "geocoded_column": {
      "latitude": "30.061142708565548",
      "longitude": "-89.92590181562716"
    }
  },
  {
    "service_request": "2024-1090829",
    "request_type": "Property Maintenance",
    "request_reason": "Property Maintenance",
    "date_created": "2024-05-06T16:04:27.000",
    "date_modified": "2024-05-06T16:04:27.000",
    "request_status": "Pending",
    "responsible_agency": "Department of Code Enforcement",
    "final_address": "4770 Perrault Walk",
    "address_councildis": "E",
    "status": "Pending",
    "rowid": "1090829",
    "final_x": "3709834.16171",
    "final_y": "555940.539801",
    "longitude": "-89.97768980167447",
    "latitude": "30.02175225819005",
    "geocoded_column": {
      "latitude": "30.02175225819005",
      "longitude": "-89.97768980167447"
    }
  },
  {
    "service_request": "2024-1090827",
    "request_type": "Trash/Recycling",
    "request_reason": "Request a Large Item Pick Up",
    "date_created": "2024-05-06T16:01:10.000",
    "date_modified": "2024-05-06T16:13:48.000",
    "case_close_date": "2024-05-06T11:13:48.000",
    "request_status": "Closed",
    "responsible_agency": "Department of Sanitation",
    "final_address": "1124 N Robertson St",
    "address_councildis": "C",
    "status": "Assigned to Contractor",
    "contractor": "IV Waste",
    "contractor_action": "Completed",
    "rowid": "1090827",
    "final_x": "3681112.77736",
    "final_y": "535681.666503",
    "longitude": "-90.06914804771814",
    "latitude": "29.96695059799113",
    "geocoded_column": {
      "latitude": "29.96695059799113",
      "longitude": "-90.06914804771814"
    }
  },
  {
    "service_request": "2024-1090826",
    "request_type": "Trash/Recycling",
    "request_reason": "Request a Large Item Pick Up",
    "date_created": "2024-05-06T16:00:21.000",
    "date_modified": "2024-05-06T16:00:22.000",
    "request_status": "Pending",
    "responsible_agency": "Department of Sanitation",
    "final_address": "7115 Walmsley Ave Apt 2",
    "address_councildis": "B",
    "status": "Assigned to Contractor",
    "contractor": "IV Waste",
    "rowid": "1090826",
    "final_x": "3667408.32781",
    "final_y": "531245.664642",
    "longitude": "-90.11257613444165",
    "latitude": "29.955161684191314",
    "geocoded_column": {
      "latitude": "29.955161684191314",
      "longitude": "-90.11257613444165"
    }
  },
  {
    "service_request": "2024-1090825",
    "request_type": "Trash/Recycling",
    "request_reason": "Order Recycling Cart",
    "date_created": "2024-05-06T15:56:41.000",
    "date_modified": "2024-05-06T15:56:42.000",
    "request_status": "Pending",
    "responsible_agency": "Department of Sanitation",
    "final_address": "825 Toledano St",
    "address_councildis": "B",
    "status": "Pending",
    "rowid": "1090825",
    "final_x": "3675784.15035",
    "final_y": "518992.844535",
    "longitude": "-90.0865493458154",
    "latitude": "29.921222422844917",
    "geocoded_column": {
      "latitude": "29.921222422844917",
      "longitude": "-90.0865493458154"
    }
  },
  {
    "service_request": "2024-1090824",
    "request_type": "Property Maintenance",
    "request_reason": "Property Maintenance",
    "date_created": "2024-05-06T15:56:15.000",
    "date_modified": "2024-05-06T15:56:15.000",
    "request_status": "Pending",
    "responsible_agency": "Department of Code Enforcement",
    "final_address": "1601 Mirabeau Ave",
    "address_councildis": "D",
    "status": "Pending",
    "rowid": "1090824",
    "final_x": "3679382.42645",
    "final_y": "550488.256404",
    "longitude": "-90.07409863330786",
    "latitude": "30.00771591708259",
    "geocoded_column": {
      "latitude": "30.00771591708259",
      "longitude": "-90.07409863330786"
    }
  },
  {
    "service_request": "2024-1090823",
    "request_type": "Trash/Recycling",
    "request_reason": "Repair Trash Cart",
    "date_created": "2024-05-06T15:55:38.000",
    "date_modified": "2024-05-06T15:55:39.000",
    "request_status": "Pending",
    "responsible_agency": "Department of Sanitation",
    "final_address": "825 Toledano St",
    "address_councildis": "B",
    "status": "Assigned to Contractor",
    "contractor": "IV Waste",
    "rowid": "1090823",
    "final_x": "3675784.15035",
    "final_y": "518992.844535",
    "longitude": "-90.0865493458154",
    "latitude": "29.921222422844917",
    "geocoded_column": {
      "latitude": "29.921222422844917",
      "longitude": "-90.0865493458154"
    }
  },
  {
    "service_request": "2024-1090822",
    "request_type": "Property Maintenance",
    "request_reason": "Property Maintenance",
    "date_created": "2024-05-06T15:55:34.000",
    "date_modified": "2024-05-06T15:55:34.000",
    "request_status": "Pending",
    "responsible_agency": "Department of Code Enforcement",
    "final_address": "1846 Egania St",
    "address_councildis": "E",
    "status": "Pending",
    "rowid": "1090822",
    "final_x": "3697593.41539",
    "final_y": "537009.806472",
    "longitude": "-90.01705426680083",
    "latitude": "29.97009225192305",
    "geocoded_column": {
      "latitude": "29.97009225192305",
      "longitude": "-90.01705426680083"
    }
  },
  {
    "service_request": "2024-1090821",
    "request_type": "Trash/Recycling",
    "request_reason": "Request a Large Item Pick Up",
    "date_created": "2024-05-06T15:49:08.000",
    "date_modified": "2024-05-06T15:49:08.000",
    "request_status": "Pending",
    "responsible_agency": "Department of Sanitation",
    "final_address": "7260 Voyageur Ct",
    "address_councildis": "E",
    "status": "Assigned to Contractor",
    "contractor": "Waste Pro",
    "rowid": "1090821",
    "final_x": "3726256.3936",
    "final_y": "568909.851365",
    "longitude": "-89.92529707527724",
    "latitude": "30.056868047199657",
    "geocoded_column": {
      "latitude": "30.056868047199657",
      "longitude": "-89.92529707527724"
    }
  },
  {
    "service_request": "2024-1090820",
    "request_type": "Property Maintenance",
    "request_reason": "Property Maintenance",
    "date_created": "2024-05-06T15:47:15.000",
    "date_modified": "2024-05-06T15:47:15.000",
    "request_status": "Pending",
    "responsible_agency": "Department of Code Enforcement",
    "final_address": "4929 Papania Dr",
    "address_councildis": "E",
    "status": "Pending",
    "rowid": "1090820",
    "final_x": "3715546.58892",
    "final_y": "557668.094043",
    "longitude": "-89.959574794081",
    "latitude": "30.026315279434666",
    "geocoded_column": {
      "latitude": "30.026315279434666",
      "longitude": "-89.959574794081"
    }
  },
  {
    "service_request": "2024-1090819",
    "request_type": "Trash/Recycling",
    "request_reason": "Replace Trash Cart",
    "date_created": "2024-05-06T15:45:21.000",
    "date_modified": "2024-05-06T15:45:21.000",
    "request_status": "Pending",
    "responsible_agency": "Department of Sanitation",
    "final_address": "1818 Fourth St",
    "address_councildis": "B",
    "status": "Assigned to Contractor",
    "contractor": "IV Waste",
    "rowid": "1090819",
    "final_x": "3675659.50657",
    "final_y": "523448.766523",
    "longitude": "-90.086789776108",
    "latitude": "29.933478494192265",
    "geocoded_column": {
      "latitude": "29.933478494192265",
      "longitude": "-90.086789776108"
    }
  },
  {
    "service_request": "2024-1090818",
    "request_type": "Roads/Drainage",
    "request_reason": "Pothole",
    "date_created": "2024-05-06T15:43:58.000",
    "date_modified": "2024-05-06T15:43:58.000",
    "request_status": "Pending",
    "responsible_agency": "Department of Public Works",
    "final_address": "SISTER ST & ST CLAUDE AVE",
    "address_councildis": "E",
    "status": "Pending",
    "rowid": "1090818",
    "final_x": "3694658.9",
    "final_y": "534585.98",
    "longitude": "-90.02640902894048",
    "latitude": "29.96351995360696",
    "geocoded_column": {
      "latitude": "29.96351995360696",
      "longitude": "-90.02640902894048"
    }
  },
  {
    "service_request": "2024-1090817",
    "request_type": "Trash/Recycling",
    "request_reason": "Return Recycling Cart",
    "date_created": "2024-05-06T15:43:01.000",
    "date_modified": "2024-05-06T15:43:01.000",
    "request_status": "Pending",
    "responsible_agency": "Department of Sanitation",
    "final_address": "1818 Fourth St",
    "address_councildis": "B",
    "status": "Pending",
    "rowid": "1090817",
    "final_x": "3675659.50657",
    "final_y": "523448.766523",
    "longitude": "-90.086789776108",
    "latitude": "29.933478494192265",
    "geocoded_column": {
      "latitude": "29.933478494192265",
      "longitude": "-90.086789776108"
    }
  },
  {
    "service_request": "2024-1090816",
    "request_type": "Property Maintenance",
    "request_reason": "Property Maintenance",
    "date_created": "2024-05-06T15:42:25.000",
    "date_modified": "2024-05-06T15:42:26.000",
    "request_status": "Pending",
    "responsible_agency": "Department of Code Enforcement",
    "final_address": "644 Bouny St",
    "address_councildis": "C",
    "status": "Pending",
    "rowid": "1090816",
    "final_x": "3686638.17558",
    "final_y": "529153.438912",
    "longitude": "-90.05192941831469",
    "latitude": "29.948831441916283",
    "geocoded_column": {
      "latitude": "29.948831441916283",
      "longitude": "-90.05192941831469"
    }
  },
  {
    "service_request": "2024-1090815",
    "request_type": "Trash/Recycling",
    "request_reason": "Order Trash Cart",
    "date_created": "2024-05-06T15:40:09.000",
    "date_modified": "2024-05-06T18:03:23.000",
    "case_close_date": "2024-05-06T13:03:23.000",
    "request_status": "Closed",
    "responsible_agency": "Department of Sanitation",
    "final_address": "11301 Curran Rd",
    "address_councildis": "E",
    "status": "Duplicate Request",
    "contractor": "Waste Pro",
    "contractor_action": "Duplicate",
    "rowid": "1090815",
    "final_x": "3711111.87832",
    "final_y": "566590.197347",
    "longitude": "-89.97325317692315",
    "latitude": "30.050992944568463",
    "geocoded_column": {
      "latitude": "30.050992944568463",
      "longitude": "-89.97325317692315"
    }
  },
  {
    "service_request": "2024-1090814",
    "request_type": "Trash/Recycling",
    "request_reason": "Request a Large Item Pick Up",
    "date_created": "2024-05-06T15:39:54.000",
    "date_modified": "2024-05-06T15:39:54.000",
    "request_status": "Pending",
    "responsible_agency": "Department of Sanitation",
    "final_address": "11301 Curran Rd",
    "address_councildis": "E",
    "status": "Assigned to Contractor",
    "contractor": "Waste Pro",
    "rowid": "1090814",
    "final_x": "3711111.87832",
    "final_y": "566590.197347",
    "longitude": "-89.97325317692315",
    "latitude": "30.050992944568463",
    "geocoded_column": {
      "latitude": "30.050992944568463",
      "longitude": "-89.97325317692315"
    }
  },
  {
    "service_request": "2024-1090813",
    "request_type": "Trash/Recycling",
    "request_reason": "Repair Trash Cart",
    "date_created": "2024-05-06T15:39:23.000",
    "date_modified": "2024-05-06T15:39:24.000",
    "request_status": "Pending",
    "responsible_agency": "Department of Sanitation",
    "final_address": "16 S Oak Ridge Ct",
    "address_councildis": "E",
    "status": "Assigned to Contractor",
    "contractor": "Waste Pro",
    "rowid": "1090813",
    "final_x": "3713525.83845",
    "final_y": "567683.985764",
    "longitude": "-89.96558227570326",
    "latitude": "30.053921410633002",
    "geocoded_column": {
      "latitude": "30.053921410633002",
      "longitude": "-89.96558227570326"
    }
  },
  {
    "service_request": "2024-1090812",
    "request_type": "Trash/Recycling",
    "request_reason": "Request a Large Item Pick Up",
    "date_created": "2024-05-06T15:39:13.000",
    "date_modified": "2024-05-06T15:39:14.000",
    "request_status": "Pending",
    "responsible_agency": "Department of Sanitation",
    "final_address": "3019 Laurel St",
    "address_councildis": "B",
    "status": "Assigned to Contractor",
    "contractor": "IV Waste",
    "rowid": "1090812",
    "final_x": "3676619.27048",
    "final_y": "519698.967224",
    "longitude": "-90.08388893595965",
    "latitude": "29.923139019897594",
    "geocoded_column": {
      "latitude": "29.923139019897594",
      "longitude": "-90.08388893595965"
    }
  },
  {
    "service_request": "2024-1090811",
    "request_type": "Trash/Recycling",
    "request_reason": "Request a Large Item Pick Up",
    "date_created": "2024-05-06T15:38:13.000",
    "date_modified": "2024-05-06T15:38:15.000",
    "request_status": "Pending",
    "responsible_agency": "Department of Sanitation",
    "final_address": "16 S Oak Ridge Ct",
    "address_councildis": "E",
    "status": "Assigned to Contractor",
    "contractor": "Waste Pro",
    "rowid": "1090811",
    "final_x": "3713525.83845",
    "final_y": "567683.985764",
    "longitude": "-89.96558227570326",
    "latitude": "30.053921410633002",
    "geocoded_column": {
      "latitude": "30.053921410633002",
      "longitude": "-89.96558227570326"
    }
  },
  {
    "service_request": "2024-1090810",
    "request_type": "Trash/Recycling",
    "request_reason": "Request a Large Item Pick Up",
    "date_created": "2024-05-06T15:37:02.000",
    "date_modified": "2024-05-06T15:37:03.000",
    "request_status": "Pending",
    "responsible_agency": "Department of Sanitation",
    "final_address": "10122 Hillwood St",
    "address_councildis": "E",
    "status": "Assigned to Contractor",
    "contractor": "Waste Pro",
    "rowid": "1090810",
    "final_x": "3712969.52466",
    "final_y": "556588.69001",
    "longitude": "-89.96775857557999",
    "latitude": "30.023432047225967",
    "geocoded_column": {
      "latitude": "30.023432047225967",
      "longitude": "-89.96775857557999"
    }
  },
  {
    "service_request": "2024-1090809",
    "request_type": "Property Maintenance",
    "request_reason": "Property Maintenance",
    "date_created": "2024-05-06T15:35:52.000",
    "date_modified": "2024-05-06T15:35:53.000",
    "request_status": "Pending",
    "responsible_agency": "Department of Code Enforcement",
    "final_address": "3200 Hyman Pl",
    "address_councildis": "C",
    "status": "Pending",
    "rowid": "1090809",
    "final_x": "3701026.88612",
    "final_y": "519472.425271",
    "longitude": "-90.00685225006544",
    "latitude": "29.921761733124942",
    "geocoded_column": {
      "latitude": "29.921761733124942",
      "longitude": "-90.00685225006544"
    }
  },
  {
    "service_request": "2024-1090808",
    "request_type": "Trash/Recycling",
    "request_reason": "Missed Trash Pick-Up",
    "date_created": "2024-05-06T15:30:37.000",
    "date_modified": "2024-05-06T15:40:41.000",
    "case_close_date": "2024-05-06T10:40:41.000",
    "request_status": "Closed",
    "responsible_agency": "Department of Sanitation",
    "final_address": "8125 St Charles Ave",
    "address_councildis": "A",
    "status": "Invalid Request",
    "contractor": "IV Waste",
    "contractor_action": "Invalid",
    "rowid": "1090808",
    "final_x": "3660479.97658",
    "final_y": "526999.853182",
    "longitude": "-90.13459367758568",
    "latitude": "29.94368820355176",
    "geocoded_column": {
      "latitude": "29.94368820355176",
      "longitude": "-90.13459367758568"
    }
  },
  {
    "service_request": "2024-1090807",
    "request_type": "Trash/Recycling",
    "request_reason": "Request a Large Item Pick Up",
    "date_created": "2024-05-06T15:29:58.000",
    "date_modified": "2024-05-06T15:29:58.000",
    "request_status": "Pending",
    "responsible_agency": "Department of Sanitation",
    "final_address": "6019 Franklin Ave",
    "address_councildis": "D",
    "status": "Assigned to Contractor",
    "contractor": "IV Waste",
    "rowid": "1090807",
    "final_x": "3686492.8141",
    "final_y": "555380.859033",
    "longitude": "-90.0514619632428",
    "latitude": "30.02095200290788",
    "geocoded_column": {
      "latitude": "30.02095200290788",
      "longitude": "-90.0514619632428"
    }
  },
  {
    "service_request": "2024-1090806",
    "request_type": "Roads/Drainage",
    "request_reason": "Catch Basin - Clogged",
    "date_created": "2024-05-06T15:28:32.000",
    "date_modified": "2024-05-06T15:28:32.000",
    "request_status": "Pending",
    "responsible_agency": "Department of Public Works",
    "final_address": "3515 Dumaine St",
    "address_councildis": "A",
    "status": "Pending",
    "rowid": "1090806",
    "final_x": "3674390.48065",
    "final_y": "539686.544074",
    "longitude": "-90.09023989871585",
    "latitude": "29.978164868734222",
    "geocoded_column": {
      "latitude": "29.978164868734222",
      "longitude": "-90.09023989871585"
    }
  },
  {
    "service_request": "2024-1090805",
    "request_type": "Property Maintenance",
    "request_reason": "Property Maintenance",
    "date_created": "2024-05-06T15:28:31.000",
    "date_modified": "2024-05-06T15:28:31.000",
    "request_status": "Pending",
    "responsible_agency": "Department of Code Enforcement",
    "final_address": "600 St Charles Ave",
    "address_councildis": "B",
    "status": "Pending",
    "rowid": "1090805",
    "final_x": "3680589.62594",
    "final_y": "528688.248768",
    "longitude": "-90.07104345753102",
    "latitude": "29.947736930515227",
    "geocoded_column": {
      "latitude": "29.947736930515227",
      "longitude": "-90.07104345753102"
    }
  },
  {
    "service_request": "2024-1090804",
    "request_type": "Traffic Signals/Signs/Striping/Streetlights",
    "request_reason": "Street Light Outage/Malfunction",
    "date_created": "2024-05-06T15:27:46.000",
    "date_modified": "2024-05-06T15:27:46.000",
    "request_status": "Pending",
    "responsible_agency": "Department of Public Works",
    "final_address": "3120 Johnny Jackson Jr Blvd",
    "address_councildis": "D",
    "status": "Assigned to Contractor",
    "contractor": "Legacy Professional Services",
    "rowid": "1090804",
    "final_x": "3691537.6431",
    "final_y": "543964.800206",
    "longitude": "-90.03593024095905",
    "latitude": "29.989405891617825",
    "geocoded_column": {
      "latitude": "29.989405891617825",
      "longitude": "-90.03593024095905"
    }
  },
  {
    "service_request": "2024-1090803",
    "request_type": "Trash/Recycling",
    "request_reason": "MIssed Recycling Pick-Up",
    "date_created": "2024-05-06T15:26:50.000",
    "date_modified": "2024-05-06T15:57:36.000",
    "case_close_date": "2024-05-06T10:57:36.000",
    "request_status": "Closed",
    "responsible_agency": "Department of Sanitation",
    "final_address": "1305 S Gayoso St",
    "address_councildis": "B",
    "status": "Invalid Request",
    "contractor": "IV Waste",
    "contractor_action": "Invalid",
    "rowid": "1090803",
    "final_x": "3671038.94177",
    "final_y": "531258.59661",
    "longitude": "-90.10111153411962",
    "latitude": "29.95509038667018",
    "geocoded_column": {
      "latitude": "29.95509038667018",
      "longitude": "-90.10111153411962"
    }
  },
  {
    "service_request": "2024-1090802",
    "request_type": "Trash/Recycling",
    "request_reason": "Request a Large Item Pick Up",
    "date_created": "2024-05-06T15:26:40.000",
    "date_modified": "2024-05-06T15:26:40.000",
    "request_status": "Pending",
    "responsible_agency": "Department of Sanitation",
    "final_address": "3120 Johnny Jackson Jr Blvd",
    "address_councildis": "D",
    "status": "Assigned to Contractor",
    "contractor": "IV Waste",
    "rowid": "1090802",
    "final_x": "3691537.6431",
    "final_y": "543964.800206",
    "longitude": "-90.03593024095905",
    "latitude": "29.989405891617825",
    "geocoded_column": {
      "latitude": "29.989405891617825",
      "longitude": "-90.03593024095905"
    }
  },
  {
    "service_request": "2024-1090801",
    "request_type": "Trash/Recycling",
    "request_reason": "Missed Trash Pick-Up",
    "date_created": "2024-05-06T15:23:47.000",
    "date_modified": "2024-05-06T15:23:48.000",
    "request_status": "Pending",
    "responsible_agency": "Department of Sanitation",
    "final_address": "7848 Chef Menteur Hwy",
    "address_councildis": "E",
    "status": "Assigned to Contractor",
    "contractor": "Waste Pro",
    "rowid": "1090801",
    "final_x": "3704492.44638",
    "final_y": "552569.03471",
    "longitude": "-89.99469254340046",
    "latitude": "30.012654603202897",
    "geocoded_column": {
      "latitude": "30.012654603202897",
      "longitude": "-89.99469254340046"
    }
  },
  {
    "service_request": "2024-1090800",
    "request_type": "Trash/Recycling",
    "request_reason": "Request a Large Item Pick Up",
    "date_created": "2024-05-06T15:23:24.000",
    "date_modified": "2024-05-06T15:23:26.000",
    "request_status": "Pending",
    "responsible_agency": "Department of Sanitation",
    "final_address": "230 S Solomon St",
    "address_councildis": "A",
    "status": "Assigned to Contractor",
    "contractor": "IV Waste",
    "rowid": "1090800",
    "final_x": "3670198.18388",
    "final_y": "538156.233417",
    "longitude": "-90.1035325800464",
    "latitude": "29.97408142300583",
    "geocoded_column": {
      "latitude": "29.97408142300583",
      "longitude": "-90.1035325800464"
    }
  },
  {
    "service_request": "2024-1090799",
    "request_type": "Trash/Recycling",
    "request_reason": "Request a Large Item Pick Up",
    "date_created": "2024-05-06T15:18:53.000",
    "date_modified": "2024-05-06T15:18:53.000",
    "request_status": "Pending",
    "responsible_agency": "Department of Sanitation",
    "final_address": "3005 Constance St",
    "address_councildis": "B",
    "status": "Assigned to Contractor",
    "contractor": "IV Waste",
    "rowid": "1090799",
    "final_x": "3676478.81313",
    "final_y": "520060.79884",
    "longitude": "-90.08431985624402",
    "latitude": "29.92413815050092",
    "geocoded_column": {
      "latitude": "29.92413815050092",
      "longitude": "-90.08431985624402"
    }
  },
  {
    "service_request": "2024-1090798",
    "request_type": "Parks & Parkways",
    "request_reason": "Request Tree Service (Right of Way/Public Property)",
    "date_created": "2024-05-06T15:15:17.000",
    "date_modified": "2024-05-06T15:15:17.000",
    "request_status": "Pending",
    "responsible_agency": "Department of Parks & Parkway",
    "final_address": "5612 Durbridge Dr",
    "address_councildis": "C",
    "status": "Pending",
    "rowid": "1090798",
    "final_x": "3704525.38065",
    "final_y": "521886.481658",
    "longitude": "-89.99572012980083",
    "latitude": "29.928287723181768",
    "geocoded_column": {
      "latitude": "29.928287723181768",
      "longitude": "-89.99572012980083"
    }
  },
  {
    "service_request": "2024-1090797",
    "request_type": "Trash/Recycling",
    "request_reason": "Repair Trash Cart",
    "date_created": "2024-05-06T15:13:37.000",
    "date_modified": "2024-05-06T15:13:38.000",
    "request_status": "Pending",
    "responsible_agency": "Department of Sanitation",
    "final_address": "467 Aurora Oaks Dr",
    "address_councildis": "C",
    "status": "Assigned to Contractor",
    "contractor": "Richards Disposal",
    "rowid": "1090797",
    "final_x": "3701267.6833",
    "final_y": "521698.028153",
    "longitude": "-90.00601078197307",
    "latitude": "29.927873706841073",
    "geocoded_column": {
      "latitude": "29.927873706841073",
      "longitude": "-90.00601078197307"
    }
  },
  {
    "service_request": "2024-1090796",
    "request_type": "Roads/Drainage",
    "request_reason": "Pothole",
    "date_created": "2024-05-06T15:11:28.000",
    "date_modified": "2024-05-06T15:43:47.000",
    "case_close_date": "2024-05-06T10:43:47.000",
    "request_status": "Closed",
    "responsible_agency": "Department of Public Works",
    "final_address": "3001 Touro St",
    "address_councildis": "D",
    "status": "Duplicate Request",
    "rowid": "1090796",
    "final_x": "3683686.44636",
    "final_y": "543644.768078",
    "longitude": "-90.06074111344086",
    "latitude": "29.988768015596175",
    "geocoded_column": {
      "latitude": "29.988768015596175",
      "longitude": "-90.06074111344086"
    }
  },
  {
    "service_request": "2024-1090795",
    "request_type": "Trash/Recycling",
    "request_reason": "MIssed Recycling Pick-Up",
    "date_created": "2024-05-06T15:07:22.000",
    "date_modified": "2024-05-06T15:07:22.000",
    "request_status": "Pending",
    "responsible_agency": "Department of Sanitation",
    "final_address": "13220 St Helena Pl",
    "address_councildis": "E",
    "status": "Assigned to Contractor",
    "contractor": "Waste Pro",
    "rowid": "1090795",
    "final_x": "3726755.30784",
    "final_y": "564399.097185",
    "longitude": "-89.92389548294817",
    "latitude": "30.044448498567743",
    "geocoded_column": {
      "latitude": "30.044448498567743",
      "longitude": "-89.92389548294817"
    }
  },
  {
    "service_request": "2024-1090794",
    "request_type": "Trash/Recycling",
    "request_reason": "Request a Large Item Pick Up",
    "date_created": "2024-05-06T15:05:11.000",
    "date_modified": "2024-05-06T15:05:12.000",
    "request_status": "Pending",
    "responsible_agency": "Department of Sanitation",
    "final_address": "2223 Fern St",
    "address_councildis": "A",
    "status": "Assigned to Contractor",
    "contractor": "IV Waste",
    "rowid": "1090794",
    "final_x": "3665046.95444",
    "final_y": "530551.281026",
    "longitude": "-90.1200557241837",
    "latitude": "29.953321318855615",
    "geocoded_column": {
      "latitude": "29.953321318855615",
      "longitude": "-90.1200557241837"
    }
  },
  {
    "service_request": "2024-1090793",
    "request_type": "Parks & Parkways",
    "request_reason": "Request Tree Service (Right of Way/Public Property)",
    "date_created": "2024-05-06T15:04:24.000",
    "date_modified": "2024-05-06T15:04:25.000",
    "request_status": "Pending",
    "responsible_agency": "Department of Parks & Parkway",
    "final_address": "3426 Piedmont Dr",
    "address_councildis": "D",
    "status": "Pending",
    "rowid": "1090793",
    "final_x": "3686296.05807",
    "final_y": "545423.661072",
    "longitude": "-90.05243535634186",
    "latitude": "29.993579384987463",
    "geocoded_column": {
      "latitude": "29.993579384987463",
      "longitude": "-90.05243535634186"
    }
  },
  {
    "service_request": "2024-1090792",
    "request_type": "Trash/Recycling",
    "request_reason": "Request a Large Item Pick Up",
    "date_created": "2024-05-06T14:59:08.000",
    "date_modified": "2024-05-06T14:59:08.000",
    "request_status": "Pending",
    "responsible_agency": "Department of Sanitation",
    "final_address": "Delaronde St, New Orleans, Louisiana, 70114",
    "address_councildis": "C",
    "status": "Assigned to Contractor",
    "contractor": "Richards Disposal",
    "rowid": "1090792",
    "final_x": "3685987.44566",
    "final_y": "530607.170882",
    "longitude": "-90.05393279688215",
    "latitude": "29.95284870271816",
    "geocoded_column": {
      "latitude": "29.95284870271816",
      "longitude": "-90.05393279688215"
    }
  },
  {
    "service_request": "2024-1090791",
    "request_type": "Trash/Recycling",
    "request_reason": "Request a Large Item Pick Up",
    "date_created": "2024-05-06T14:56:54.000",
    "date_modified": "2024-05-06T14:56:55.000",
    "request_status": "Pending",
    "responsible_agency": "Department of Sanitation",
    "final_address": "4761 Flake Ave",
    "address_councildis": "E",
    "status": "Assigned to Contractor",
    "contractor": "Waste Pro",
    "rowid": "1090791",
    "final_x": "3706178.98129",
    "final_y": "555616.755033",
    "longitude": "-89.98925111636584",
    "latitude": "30.020980375104553",
    "geocoded_column": {
      "latitude": "30.020980375104553",
      "longitude": "-89.98925111636584"
    }
  },
  {
    "service_request": "2024-1090790",
    "request_type": "Roads/Drainage",
    "request_reason": "Debris in Roadway",
    "date_created": "2024-05-06T14:55:56.000",
    "date_modified": "2024-05-06T14:55:56.000",
    "request_status": "Pending",
    "responsible_agency": "Department of Public Works",
    "final_address": "7311 Poitevent Ave",
    "address_councildis": "E",
    "status": "Pending",
    "rowid": "1090790",
    "final_x": "3707573.23499",
    "final_y": "563133.882464",
    "longitude": "-89.98456613051509",
    "latitude": "30.041604477318266",
    "geocoded_column": {
      "latitude": "30.041604477318266",
      "longitude": "-89.98456613051509"
    }
  },
  {
    "service_request": "2024-1090789",
    "request_type": "Trash/Recycling",
    "request_reason": "Request a Large Item Pick Up",
    "date_created": "2024-05-06T14:52:20.000",
    "date_modified": "2024-05-06T14:52:21.000",
    "request_status": "Pending",
    "responsible_agency": "Department of Sanitation",
    "final_address": "7501 Endeavors Ct",
    "address_councildis": "E",
    "status": "Assigned to Contractor",
    "contractor": "Waste Pro",
    "rowid": "1090789",
    "final_x": "3726247.47097",
    "final_y": "570886.861479",
    "longitude": "-89.92524848605618",
    "latitude": "30.06230428991181",
    "geocoded_column": {
      "latitude": "30.06230428991181",
      "longitude": "-89.92524848605618"
    }
  },
  {
    "service_request": "2024-1090788",
    "request_type": "Trash/Recycling",
    "request_reason": "Request a Large Item Pick Up",
    "date_created": "2024-05-06T14:45:30.000",
    "date_modified": "2024-05-06T14:45:31.000",
    "request_status": "Pending",
    "responsible_agency": "Department of Sanitation",
    "final_address": "614 Esplanade Ave, New Orleans, Louisiana, 70116",
    "address_councildis": "C",
    "status": "Assigned to Contractor",
    "contractor": "Empire Services",
    "rowid": "1090788",
    "final_x": "3684193.25231",
    "final_y": "534226.798277",
    "longitude": "-90.05947099322388",
    "latitude": "29.962856401929088",
    "geocoded_column": {
      "latitude": "29.962856401929088",
      "longitude": "-90.05947099322388"
    }
  },
  {
    "service_request": "2024-1090787",
    "request_type": "Roads/Drainage",
    "request_reason": "Catch Basin - Clogged",
    "date_created": "2024-05-06T14:42:19.000",
    "date_modified": "2024-05-06T14:42:19.000",
    "request_status": "Pending",
    "responsible_agency": "Department of Public Works",
    "final_address": "614 S Carrollton Ave",
    "address_councildis": "A",
    "status": "Pending",
    "rowid": "1090787",
    "final_x": "3660662.00544",
    "final_y": "526960.794302",
    "longitude": "-90.13402025158781",
    "latitude": "29.94357556651368",
    "geocoded_column": {
      "latitude": "29.94357556651368",
      "longitude": "-90.13402025158781"
    }
  },
  {
    "service_request": "2024-1090786",
    "request_type": "Parks & Parkways",
    "request_reason": "Request Tree Service (Right of Way/Public Property)",
    "date_created": "2024-05-06T14:41:19.000",
    "date_modified": "2024-05-06T14:41:19.000",
    "request_status": "Pending",
    "responsible_agency": "Department of Parks & Parkway",
    "final_address": "908 Washington Ave",
    "address_councildis": "B",
    "status": "Pending",
    "rowid": "1090786",
    "final_x": "3677364.13493",
    "final_y": "520255.685624",
    "longitude": "-90.08151848452383",
    "latitude": "29.924647460912386",
    "geocoded_column": {
      "latitude": "29.924647460912386",
      "longitude": "-90.08151848452383"
    }
  },
  {
    "service_request": "2024-1090785",
    "request_type": "Property Maintenance",
    "request_reason": "Property Maintenance",
    "date_created": "2024-05-06T14:40:45.000",
    "date_modified": "2024-05-06T14:52:09.000",
    "case_close_date": "2024-05-06T09:52:09.000",
    "request_status": "Closed",
    "responsible_agency": "Department of Code Enforcement",
    "final_address": "514 Dumaine St",
    "address_councildis": "C",
    "status": "Referred to Code Enforcement",
    "rowid": "1090785",
    "final_x": "3683484.27772",
    "final_y": "532641.149316",
    "longitude": "-90.0617654089032",
    "latitude": "29.95851806416516",
    "geocoded_column": {
      "latitude": "29.95851806416516",
      "longitude": "-90.0617654089032"
    }
  },
  {
    "service_request": "2024-1090784",
    "request_type": "Trash/Recycling",
    "request_reason": "Request a Large Item Pick Up",
    "date_created": "2024-05-06T14:37:25.000",
    "date_modified": "2024-05-06T14:37:25.000",
    "request_status": "Pending",
    "responsible_agency": "Department of Sanitation",
    "final_address": "1917 Leonidas St",
    "address_councildis": "A",
    "status": "Assigned to Contractor",
    "contractor": "IV Waste",
    "rowid": "1090784",
    "final_x": "3662467.90407",
    "final_y": "531511.979139",
    "longitude": "-90.12816739411406",
    "latitude": "29.95603776509286",
    "geocoded_column": {
      "latitude": "29.95603776509286",
      "longitude": "-90.12816739411406"
    }
  },
  {
    "service_request": "2024-1090783",
    "request_type": "Trash/Recycling",
    "request_reason": "Order Trash Cart",
    "date_created": "2024-05-06T14:34:23.000",
    "date_modified": "2024-05-06T14:34:23.000",
    "request_status": "Pending",
    "responsible_agency": "Department of Sanitation",
    "final_address": "2316 Mandeville St",
    "address_councildis": "D",
    "status": "Assigned to Contractor",
    "contractor": "IV Waste",
    "rowid": "1090783",
    "final_x": "3685375.14588",
    "final_y": "540923.505931",
    "longitude": "-90.0555028976433",
    "latitude": "29.98123383025839",
    "geocoded_column": {
      "latitude": "29.98123383025839",
      "longitude": "-90.0555028976433"
    }
  },
  {
    "service_request": "2024-1090782",
    "request_type": "Trash/Recycling",
    "request_reason": "Repair Trash Cart",
    "date_created": "2024-05-06T14:33:14.000",
    "date_modified": "2024-05-06T14:33:14.000",
    "request_status": "Pending",
    "responsible_agency": "Department of Sanitation",
    "final_address": "10111 Chevy Chase Dr",
    "address_councildis": "E",
    "status": "Assigned to Contractor",
    "contractor": "Waste Pro",
    "rowid": "1090782",
    "final_x": "3709741.726",
    "final_y": "563110.792288",
    "longitude": "-89.97771383260023",
    "latitude": "30.04147062548357",
    "geocoded_column": {
      "latitude": "30.04147062548357",
      "longitude": "-89.97771383260023"
    }
  },
  {
    "service_request": "2024-1090781",
    "request_type": "Traffic Signals/Signs/Striping/Streetlights",
    "request_reason": "Street Light Outage/Malfunction",
    "date_created": "2024-05-06T14:32:41.000",
    "date_modified": "2024-05-06T14:32:42.000",
    "request_status": "Pending",
    "responsible_agency": "Department of Public Works",
    "final_address": "6140 Marshal Foch St",
    "address_councildis": "A",
    "status": "Assigned to Contractor",
    "contractor": "Legacy Professional Services",
    "rowid": "1090781",
    "final_x": "3669854.29882",
    "final_y": "548240.131026",
    "longitude": "-90.10427704886993",
    "latitude": "30.0018188329213",
    "geocoded_column": {
      "latitude": "30.0018188329213",
      "longitude": "-90.10427704886993"
    }
  },
  {
    "service_request": "2024-1090780",
    "request_type": "Traffic Signals/Signs/Striping/Streetlights",
    "request_reason": "Street Light Outage/Malfunction",
    "date_created": "2024-05-06T14:31:58.000",
    "date_modified": "2024-05-06T14:31:59.000",
    "request_status": "Pending",
    "responsible_agency": "Department of Public Works",
    "final_address": "6120 Marshal Foch St",
    "address_councildis": "A",
    "status": "Assigned to Contractor",
    "contractor": "Legacy Professional Services",
    "rowid": "1090780",
    "final_x": "3669828.75918",
    "final_y": "548027.661778",
    "longitude": "-90.10436493061914",
    "latitude": "30.00123536965024",
    "geocoded_column": {
      "latitude": "30.00123536965024",
      "longitude": "-90.10436493061914"
    }
  },
  {
    "service_request": "2024-1090779",
    "request_type": "Trash/Recycling",
    "request_reason": "Request a Large Item Pick Up",
    "date_created": "2024-05-06T14:31:57.000",
    "date_modified": "2024-05-06T14:31:58.000",
    "request_status": "Pending",
    "responsible_agency": "Department of Sanitation",
    "final_address": "VIRGILIAN ST & WARFIELD ST",
    "address_councildis": "D",
    "status": "Assigned to Contractor",
    "contractor": "Waste Pro",
    "rowid": "1090779",
    "final_x": "3697611.4",
    "final_y": "552371.68",
    "longitude": "-90.01643990431452",
    "latitude": "30.012331196222462",
    "geocoded_column": {
      "latitude": "30.012331196222462",
      "longitude": "-90.01643990431452"
    }
  },
  {
    "service_request": "2024-1090778",
    "request_type": "Trash/Recycling",
    "request_reason": "Replace Trash Cart",
    "date_created": "2024-05-06T14:31:19.000",
    "date_modified": "2024-05-06T14:31:19.000",
    "request_status": "Pending",
    "responsible_agency": "Department of Sanitation",
    "final_address": "2668 Jasmine St",
    "address_councildis": "D",
    "status": "Assigned to Contractor",
    "contractor": "IV Waste",
    "rowid": "1090778",
    "final_x": "3687542.52796",
    "final_y": "548093.769874",
    "longitude": "-90.04840337795252",
    "latitude": "30.000882848419607",
    "geocoded_column": {
      "latitude": "30.000882848419607",
      "longitude": "-90.04840337795252"
    }
  },
  {
    "service_request": "2024-1090777",
    "request_type": "Trash/Recycling",
    "request_reason": "Request a Large Item Pick Up",
    "date_created": "2024-05-06T14:28:59.000",
    "date_modified": "2024-05-06T14:29:00.000",
    "request_status": "Pending",
    "responsible_agency": "Department of Sanitation",
    "final_address": "7862 Trapier Ave",
    "address_councildis": "E",
    "status": "Assigned to Contractor",
    "contractor": "Waste Pro",
    "rowid": "1090777",
    "final_x": "3706154.39806",
    "final_y": "564181.231393",
    "longitude": "-89.98901130430217",
    "latitude": "30.044530116237212",
    "geocoded_column": {
      "latitude": "30.044530116237212",
      "longitude": "-89.98901130430217"
    }
  },
  {
    "service_request": "2024-1090776",
    "request_type": "Trash/Recycling",
    "request_reason": "Illegal Dumping",
    "date_created": "2024-05-06T14:28:09.000",
    "date_modified": "2024-05-06T14:28:50.000",
    "case_close_date": "2024-05-06T09:28:50.000",
    "request_status": "Closed",
    "responsible_agency": "Department of Sanitation",
    "final_address": "1100 BLK Florida Ave",
    "address_councildis": "D",
    "status": "Resolved",
    "rowid": "1090776",
    "final_x": "3676416.17502",
    "final_y": "544674.385504",
    "longitude": "-90.0836702189645",
    "latitude": "29.991819121697393",
    "geocoded_column": {
      "latitude": "29.991819121697393",
      "longitude": "-90.0836702189645"
    }
  },
  {
    "service_request": "2024-1090775",
    "request_type": "Trash/Recycling",
    "request_reason": "Missed Trash Pick-Up",
    "date_created": "2024-05-06T14:26:30.000",
    "date_modified": "2024-05-06T15:22:31.000",
    "case_close_date": "2024-05-06T10:22:30.000",
    "request_status": "Closed",
    "responsible_agency": "Department of Sanitation",
    "final_address": "4720 Touro St",
    "address_councildis": "D",
    "status": "Invalid Request",
    "contractor": "IV Waste",
    "contractor_action": "Invalid",
    "rowid": "1090775",
    "final_x": "3683085.84264",
    "final_y": "550054.273172",
    "longitude": "-90.06241367740945",
    "latitude": "30.006410192097633",
    "geocoded_column": {
      "latitude": "30.006410192097633",
      "longitude": "-90.06241367740945"
    }
  },