[
  {
    "service_request": "2025-1219491",
    "request_type": "Trash/Recycling",
    "request_reason": "Request a Large Item Pick Up",
    "date_created": "2025-08-18T23:45:03.000",
    "date_modified": "2025-08-18T23:45:05.000",
    "request_status": "Pending",
    "responsible_agency": "Department of Sanitation",
    "final_address": "8610 Marks St",
    "address_councildis": "A",
    "status": "Assigned to Contractor",
    "contractor": "IV Waste",
    "rowid": "1219491",
    "final_x": "3667457.17556",
    "final_y": "537244.988552",
    "longitude": "-90.11222000966372",
    "latitude": "29.97165641049133",
    "geocoded_column": {
      "latitude": "29.97165641049133",
      "longitude": "-90.11222000966372"
    }
  },
  {
    "service_request": "2025-1219490",
    "request_type": "Streetlights",
    "request_reason": "New Streetlight Request",
    "date_created": "2025-08-18T22:40:44.000",
    "date_modified": "2025-08-18T22:40:46.000",
    "request_status": "Pending",
    "responsible_agency": "Department of Public Works",
    "final_address": "1521 Richland Rd",
    "address_councildis": "C",
    "status": "Pending",
    "contractor": "Legacy Professional Services",
    "rowid": "1219490",
    "final_x": "3697856.14691",
    "final_y": "525564.373757",
    "longitude": "-90.0166398923209",
    "latitude": "29.93861304671705",
    "geocoded_column": {
      "latitude": "29.93861304671705",
      "longitude": "-90.0166398923209"
    }
  },
  {
    "service_request": "2025-1219489",
    "request_type": "Safety & Permits",
    "request_reason": "Licenses & Permits",
    "date_created": "2025-08-18T21:55:10.000",
    "date_modified": "2025-08-18T21:55:11.000",
    "request_status": "Pending",
    "responsible_agency": "Safety and Permits",
    "final_address": "1613 Prytania St",
    "address_councildis": "B",
    "status": "Pending",
    "rowid": "1219489",
    "final_x": "3679370.2829",
    "final_y": "524921.37798",
    "longitude": "-90.07502401321526",
    "latitude": "29.937416166981176",
    "geocoded_column": {
      "latitude": "29.937416166981176",
      "longitude": "-90.07502401321526"
    }
  },
  {
    "service_request": "2025-1219488",
    "request_type": "Abandoned Vehicles",
    "request_reason": "Abandoned/Junk Vehicles",
    "date_created": "2025-08-18T21:53:28.000",
    "date_modified": "2025-08-18T21:53:30.000",
    "request_status": "Pending",
    "responsible_agency": "Department of Public Works",
    "final_address": "1107 Cadiz St",
    "address_councildis": "B",
    "status": "Pending",
    "rowid": "1219488",
    "final_x": "3670262.79918",
    "final_y": "519515.805943",
    "longitude": "-90.10396013468197",
    "latitude": "29.922824440022673",
    "geocoded_column": {
      "latitude": "29.922824440022673",
      "longitude": "-90.10396013468197"
    }
  },
  {
    "service_request": "2025-1219487",
    "request_type": "Trash/Recycling",
    "request_reason": "Order Trash Cart",
    "date_created": "2025-08-18T21:16:26.000",
    "date_modified": "2025-08-18T21:16:27.000",
    "request_status": "Pending",
    "responsible_agency": "Department of Sanitation",
    "final_address": "7722 Alabama St",
    "address_councildis": "D",
    "status": "Assigned to Contractor",
    "contractor": "Waste Pro",
    "rowid": "1219487",
    "final_x": "3694755.19421",
    "final_y": "558892.14166",
    "longitude": "-90.02522868647165",
    "latitude": "30.0303499544198",
    "geocoded_column": {
      "latitude": "30.0303499544198",
      "longitude": "-90.02522868647165"
    }
  },
  {
    "service_request": "2025-1219486",
    "request_type": "Property Maintenance",
    "request_reason": "Property Maintenance",
    "date_created": "2025-08-18T21:14:30.000",
    "date_modified": "2025-08-18T21:14:32.000",
    "request_status": "Pending",
    "responsible_agency": "Department of Code Enforcement",
    "final_address": "7611 Afton Dr",
    "address_councildis": "E",
    "status": "Pending",
    "rowid": "1219486",
    "final_x": "3704850.48862",
    "final_y": "562802.123296",
    "longitude": "-89.99318320163188",
    "latitude": "30.040780113274735",
    "geocoded_column": {
      "latitude": "30.040780113274735",
      "longitude": "-89.99318320163188"
    }
  },
  {
    "service_request": "2025-1219485",
    "request_type": "Streetlights",
    "request_reason": "Streetlight Outage/Malfunction",
    "date_created": "2025-08-18T21:13:40.000",
    "date_modified": "2025-08-18T21:14:27.000",
    "request_status": "Pending",
    "responsible_agency": "Department of Public Works",
    "final_address": "1237 Delery St",
    "address_councildis": "E",
    "status": "Pending",
    "contractor": "Legacy Professional Services",
    "rowid": "1219485",
    "final_x": "3700700.75863",
    "final_y": "533511.911876",
    "longitude": "-90.00736885789401",
    "latitude": "29.96037578259133",
    "geocoded_column": {
      "latitude": "29.96037578259133",
      "longitude": "-90.00736885789401"
    }
  },
  {
    "service_request": "2025-1219484",
    "request_type": "Property Maintenance",
    "request_reason": "Property Maintenance",
    "date_created": "2025-08-18T21:10:52.000",
    "date_modified": "2025-08-18T21:10:54.000",
    "request_status": "Pending",
    "responsible_agency": "Department of Code Enforcement",
    "final_address": "7432 Dartmoor Dr",
    "address_councildis": "E",
    "status": "Pending",
    "rowid": "1219484",
    "final_x": "3704833.43281",
    "final_y": "562091.487839",
    "longitude": "-89.99326336870699",
    "latitude": "30.038826694607152",
    "geocoded_column": {
      "latitude": "30.038826694607152",
      "longitude": "-89.99326336870699"
    }
  },
  {
    "service_request": "2025-1219483",
    "request_type": "Roads and Streets",
    "request_reason": "Pothole",
    "date_created": "2025-08-18T21:09:01.000",
    "date_modified": "2025-08-18T21:09:03.000",
    "request_status": "Pending",
    "responsible_agency": "Department of Public Works",
    "final_address": "1137 Allen Toussaint Blvd",
    "address_councildis": "D",
    "status": "Pending",
    "rowid": "1219483",
    "final_x": "3675071.41397",
    "final_y": "554975.497688",
    "longitude": "-90.08756427350598",
    "latitude": "30.02018378951573",
    "geocoded_column": {
      "latitude": "30.02018378951573",
      "longitude": "-90.08756427350598"
    }
  },
  {
    "service_request": "2025-1219482",
    "request_type": "Streetlights",
    "request_reason": "Streetlight Outage/Malfunction",
    "date_created": "2025-08-18T20:56:26.000",
    "date_modified": "2025-08-18T20:56:28.000",
    "request_status": "Pending",
    "responsible_agency": "Department of Public Works",
    "final_address": "1137 Allen Toussaint Blvd",
    "address_councildis": "D",
    "status": "Pending",
    "contractor": "Legacy Professional Services",
    "rowid": "1219482",
    "final_x": "3675071.41397",
    "final_y": "554975.497688",
    "longitude": "-90.08756427350598",
    "latitude": "30.02018378951573",
    "geocoded_column": {
      "latitude": "30.02018378951573",
      "longitude": "-90.08756427350598"
    }
  },
  {
    "service_request": "2025-1219481",
    "request_type": "Abandoned Vehicles",
    "request_reason": "Abandoned/Junk Vehicles",
    "date_created": "2025-08-18T20:55:06.000",
    "date_modified": "2025-08-18T20:55:07.000",
    "request_status": "Pending",
    "responsible_agency": "Department of Public Works",
    "final_address": "2303 Milan St",
    "address_councildis": "B",
    "status": "Pending",
    "rowid": "1219481",
    "final_x": "3671458.18567",
    "final_y": "523490.678971",
    "longitude": "-90.10005171510102",
    "latitude": "29.933718746661434",
    "geocoded_column": {
      "latitude": "29.933718746661434",
      "longitude": "-90.10005171510102"
    }
  },
  {
    "service_request": "2025-1219480",
    "request_type": "Streetlights",
    "request_reason": "Streetlight Outage/Malfunction",
    "date_created": "2025-08-18T20:54:25.000",
    "date_modified": "2025-08-18T20:54:28.000",
    "request_status": "Pending",
    "responsible_agency": "Department of Public Works",
    "final_address": "1137 Allen Toussaint Blvd",
    "address_councildis": "D",
    "status": "Pending",
    "contractor": "Legacy Professional Services",
    "rowid": "1219480",
    "final_x": "3675071.41397",
    "final_y": "554975.497688",
    "longitude": "-90.08756427350598",
    "latitude": "30.02018378951573",
    "geocoded_column": {
      "latitude": "30.02018378951573",
      "longitude": "-90.08756427350598"
    }
  },
  {
    "service_request": "2025-1219479",
    "request_type": "Trash/Recycling",
    "request_reason": "Order Recycling Cart",
    "date_created": "2025-08-18T20:40:08.000",
    "date_modified": "2025-08-18T20:40:10.000",
    "request_status": "Pending",
    "responsible_agency": "Department of Sanitation",
    "final_address": "721 Burgundy St",
    "address_councildis": "C",
    "status": "Pending",
    "rowid": "1219479",
    "final_x": "3681786.55471",
    "final_y": "533300.400772",
    "longitude": "-90.06710336034469",
    "latitude": "29.96038247552622",
    "geocoded_column": {
      "latitude": "29.96038247552622",
      "longitude": "-90.06710336034469"
    }
  },
  {
    "service_request": "2025-1219478",
    "request_type": "Trash/Recycling",
    "request_reason": "Request a Large Item Pick Up",
    "date_created": "2025-08-18T20:36:07.000",
    "date_modified": "2025-08-18T20:36:10.000",
    "request_status": "Pending",
    "responsible_agency": "Department of Sanitation",
    "final_address": "7519 Maple St, New Orleans, Louisiana, 70118",
    "address_councildis": "A",
    "status": "Assigned to Contractor",
    "contractor": "IV Waste",
    "rowid": "1219478",
    "final_x": "3662501.50298",
    "final_y": "526036.325374",
    "longitude": "-90.12824314294673",
    "latitude": "29.940980502718016",
    "geocoded_column": {
      "latitude": "29.940980502718016",
      "longitude": "-90.12824314294673"
    }
  },
  {
    "service_request": "2025-1219477",
    "request_type": "Trash/Recycling",
    "request_reason": "Missed Trash Pick-Up",
    "date_created": "2025-08-18T20:34:58.000",
    "date_modified": "2025-08-18T20:35:00.000",
    "request_status": "Pending",
    "responsible_agency": "Department of Sanitation",
    "final_address": "7519 Maple St, New Orleans, Louisiana, 70118",
    "address_councildis": "A",
    "status": "Assigned to Contractor",
    "contractor": "IV Waste",
    "rowid": "1219477",
    "final_x": "3662501.50298",
    "final_y": "526036.325374",
    "longitude": "-90.12824314294673",
    "latitude": "29.940980502718016",
    "geocoded_column": {
      "latitude": "29.940980502718016",
      "longitude": "-90.12824314294673"
    }
  },
  {
    "service_request": "2025-1219476",
    "request_type": "Trash/Recycling",
    "request_reason": "Missed Trash Pick-Up",
    "date_created": "2025-08-18T20:31:36.000",
    "date_modified": "2025-08-18T20:31:37.000",
    "request_status": "Pending",
    "responsible_agency": "Department of Sanitation",
    "final_address": "5200 Michoud Blvd",
    "address_councildis": "E",
    "status": "Assigned to Contractor",
    "contractor": "Waste Pro",
    "rowid": "1219476",
    "final_x": "3724723.63859",
    "final_y": "562402.693215",
    "longitude": "-89.93039364488453",
    "latitude": "30.03902777072548",
    "geocoded_column": {
      "latitude": "30.03902777072548",
      "longitude": "-89.93039364488453"
    }
  },
  {
    "service_request": "2025-1219475",
    "request_type": "Trash/Recycling",
    "request_reason": "Request a Large Item Pick Up",
    "date_created": "2025-08-18T20:25:24.000",
    "date_modified": "2025-08-18T20:25:26.000",
    "request_status": "Pending",
    "responsible_agency": "Department of Sanitation",
    "final_address": "5231 Norgate Dr",
    "address_councildis": "E",
    "status": "Assigned to Contractor",
    "contractor": "Waste Pro",
    "rowid": "1219475",
    "final_x": "3707491.90846",
    "final_y": "557455.820379",
    "longitude": "-89.98503430348735",
    "latitude": "30.025994676648963",
    "geocoded_column": {
      "latitude": "30.025994676648963",
      "longitude": "-89.98503430348735"
    }
  },
  {
    "service_request": "2025-1219474",
    "request_type": "Trash/Recycling",
    "request_reason": "Missed Trash Pick-Up",
    "date_created": "2025-08-18T20:24:39.000",
    "date_modified": "2025-08-18T20:24:40.000",
    "request_status": "Pending",
    "responsible_agency": "Department of Sanitation",
    "final_address": "5200 Michoud Blvd",
    "address_councildis": "E",
    "status": "Assigned to Contractor",
    "contractor": "Waste Pro",
    "rowid": "1219474",
    "final_x": "3724723.63859",
    "final_y": "562402.693215",
    "longitude": "-89.93039364488453",
    "latitude": "30.03902777072548",
    "geocoded_column": {
      "latitude": "30.03902777072548",
      "longitude": "-89.93039364488453"
    }
  },
  {
    "service_request": "2025-1219473",
    "request_type": "Trash/Recycling",
    "request_reason": "Request a Large Item Pick Up",
    "date_created": "2025-08-18T20:02:01.000",
    "date_modified": "2025-08-18T20:02:04.000",
    "request_status": "Pending",
    "responsible_agency": "Department of Sanitation",
    "final_address": "7 Richmond Pl",
    "address_councildis": "A",
    "status": "Assigned to Contractor",
    "contractor": "IV Waste",
    "rowid": "1219473",
    "final_x": "3666562.78925",
    "final_y": "523565.468667",
    "longitude": "-90.11550379053458",
    "latitude": "29.934068366285565",
    "geocoded_column": {
      "latitude": "29.934068366285565",
      "longitude": "-90.11550379053458"
    }
  },
  {
    "service_request": "2025-1219472",
    "request_type": "Trash/Recycling",
    "request_reason": "Request a Large Item Pick Up",
    "date_created": "2025-08-18T19:59:50.000",
    "date_modified": "2025-08-18T19:59:53.000",
    "request_status": "Pending",
    "responsible_agency": "Department of Sanitation",
    "final_address": "3310 Lancaster St",
    "address_councildis": "C",
    "status": "Assigned to Contractor",
    "contractor": "Richards Disposal",
    "rowid": "1219472",
    "final_x": "3709994.41662",
    "final_y": "518538.588151",
    "longitude": "-89.97858071125493",
    "latitude": "29.9189055129541",
    "geocoded_column": {
      "latitude": "29.9189055129541",
      "longitude": "-89.97858071125493"
    }
  },
  {
    "service_request": "2025-1219471",
    "request_type": "Property Maintenance",
    "request_reason": "Property Maintenance",
    "date_created": "2025-08-18T19:48:24.000",
    "date_modified": "2025-08-18T19:48:25.000",
    "request_status": "Pending",
    "responsible_agency": "Department of Code Enforcement",
    "final_address": "235 S Telemachus St",
    "address_councildis": "A",
    "status": "Pending",
    "rowid": "1219471",
    "final_x": "3671820.31521",
    "final_y": "536858.030664",
    "longitude": "-90.09845369416995",
    "latitude": "29.970463832712998",
    "geocoded_column": {
      "latitude": "29.970463832712998",
      "longitude": "-90.09845369416995"
    }
  },
  {
    "service_request": "2025-1219470",
    "request_type": "Utility Poles",
    "request_reason": "Wires Sagging/Hanging Low",
    "date_created": "2025-08-18T19:48:03.000",
    "date_modified": "2025-08-18T19:48:12.000",
    "request_status": "Pending",
    "responsible_agency": "Utility Company Collective",
    "final_address": "3408 W St Roch Ave",
    "address_councildis": "D",
    "status": "Pending",
    "rowid": "1219470",
    "final_x": "3685552.46959",
    "final_y": "545327.550032",
    "longitude": "-90.05478762043407",
    "latitude": "29.99333794902259",
    "geocoded_column": {
      "latitude": "29.99333794902259",
      "longitude": "-90.05478762043407"
    }
  },
  {
    "service_request": "2025-1219469",
    "request_type": "Trash/Recycling",
    "request_reason": "Replace Trash Cart",
    "date_created": "2025-08-18T19:46:17.000",
    "date_modified": "2025-08-18T19:46:19.000",
    "request_status": "Pending",
    "responsible_agency": "Department of Sanitation",
    "final_address": "212 S Cortez St",
    "address_councildis": "A",
    "status": "Assigned to Contractor",
    "contractor": "IV Waste",
    "rowid": "1219469",
    "final_x": "3671767.62209",
    "final_y": "537122.067144",
    "longitude": "-90.09861112000515",
    "latitude": "29.971191405413634",
    "geocoded_column": {
      "latitude": "29.971191405413634",
      "longitude": "-90.09861112000515"
    }
  },
  {
    "service_request": "2025-1219468",
    "request_type": "Property Maintenance",
    "request_reason": "Property Maintenance",
    "date_created": "2025-08-18T19:45:16.000",
    "date_modified": "2025-08-18T19:45:19.000",
    "request_status": "Pending",
    "responsible_agency": "Department of Code Enforcement",
    "final_address": "3408 W St Roch Ave",
    "address_councildis": "D",
    "status": "Pending",
    "rowid": "1219468",
    "final_x": "3685552.46959",
    "final_y": "545327.550032",
    "longitude": "-90.05478762043407",
    "latitude": "29.99333794902259",
    "geocoded_column": {
      "latitude": "29.99333794902259",
      "longitude": "-90.05478762043407"
    }
  },
  {
    "service_request": "2025-1219467",
    "request_type": "Mosquito, Termite & Rodent Control",
    "request_reason": "Non-Rodent Complaint (Possums & Snakes)",
    "date_created": "2025-08-18T19:42:18.000",
    "date_modified": "2025-08-18T19:42:19.000",
    "request_status": "Pending",
    "responsible_agency": "Mosquito, Termite & Rodent Control Board",
    "final_address": "3408 W St Roch Ave",
    "address_councildis": "D",
    "status": "Pending",
    "rowid": "1219467",
    "final_x": "3685552.46959",
    "final_y": "545327.550032",
    "longitude": "-90.05478762043407",
    "latitude": "29.99333794902259",
    "geocoded_column": {
      "latitude": "29.99333794902259",
      "longitude": "-90.05478762043407"
    }
  },
  {
    "service_request": "2025-1219466",
    "request_type": "Parks & Parkways",
    "request_reason": "Request Tree Service (Right of Way/Public Property)",
    "date_created": "2025-08-18T19:39:11.000",
    "date_modified": "2025-08-18T19:39:13.000",
    "request_status": "Pending",
    "responsible_agency": "Department of Parks & Parkway",
    "final_address": "3408 W St Roch Ave",
    "address_councildis": "D",
    "status": "Pending",
    "rowid": "1219466",
    "final_x": "3685552.46959",
    "final_y": "545327.550032",
    "longitude": "-90.05478762043407",
    "latitude": "29.99333794902259",
    "geocoded_column": {
      "latitude": "29.99333794902259",
      "longitude": "-90.05478762043407"
    }
  },
  {
    "service_request": "2025-1219465",
    "request_type": "Abandoned Vehicles",
    "request_reason": "Abandoned/Junk Vehicles",
    "date_created": "2025-08-18T19:29:41.000",
    "date_modified": "2025-08-18T19:29:44.000",
    "request_status": "Pending",
    "responsible_agency": "Department of Public Works",
    "final_address": "2101 Duels St",
    "address_councildis": "D",
    "status": "Pending",
    "rowid": "1219465",
    "final_x": "3683770.40386",
    "final_y": "542541.302093",
    "longitude": "-90.06051463545137",
    "latitude": "29.985731310131087",
    "geocoded_column": {
      "latitude": "29.985731310131087",
      "longitude": "-90.06051463545137"
    }
  },
  {
    "service_request": "2025-1219464",
    "request_type": "General Services",
    "request_reason": "General Service Request",
    "date_created": "2025-08-18T19:22:21.000",
    "date_modified": "2025-08-18T19:22:23.000",
    "request_status": "Pending",
    "responsible_agency": "Orleans Parish Communication District",
    "final_address": "3328 Vincennes Pl, New Orleans, Louisiana, 70125",
    "address_councildis": "A",
    "status": "Pending",
    "rowid": "1219464",
    "final_x": "3667881.42829",
    "final_y": "528404.954944",
    "longitude": "-90.11117792673241",
    "latitude": "29.947336791641188",
    "geocoded_column": {
      "latitude": "29.947336791641188",
      "longitude": "-90.11117792673241"
    }
  },
  {
    "service_request": "2025-1219463",
    "request_type": "Safety & Permits",
    "request_reason": "Zoning Enforcement",
    "date_created": "2025-08-18T19:21:20.000",
    "date_modified": "2025-08-18T19:21:22.000",
    "request_status": "Pending",
    "responsible_agency": "Safety and Permits",
    "final_address": "1119 Touro St",
    "address_councildis": "C",
    "status": "Pending",
    "rowid": "1219463",
    "final_x": "3684250.62185",
    "final_y": "536403.101767",
    "longitude": "-90.05921340902616",
    "latitude": "29.96883873098377",
    "geocoded_column": {
      "latitude": "29.96883873098377",
      "longitude": "-90.05921340902616"
    }
  },
  {
    "service_request": "2025-1219462",
    "request_type": "Roads and Streets",
    "request_reason": "Sidewalk Damaged or Missing",
    "date_created": "2025-08-18T19:04:50.000",
    "date_modified": "2025-08-18T19:04:52.000",
    "request_status": "Pending",
    "responsible_agency": "Department of Public Works",
    "final_address": "135 Stafford Pl",
    "address_councildis": "A",
    "status": "Pending",
    "rowid": "1219462",
    "final_x": "3666044.13088",
    "final_y": "553989.279192",
    "longitude": "-90.11612088662257",
    "latitude": "30.017738811504117",
    "geocoded_column": {
      "latitude": "30.017738811504117",
      "longitude": "-90.11612088662257"
    }
  },
  {
    "service_request": "2025-1219461",
    "request_type": "Trash/Recycling",
    "request_reason": "Request a Large Item Pick Up",
    "date_created": "2025-08-18T19:00:05.000",
    "date_modified": "2025-08-18T19:00:07.000",
    "request_status": "Pending",
    "responsible_agency": "Department of Sanitation",
    "final_address": "2410 Octavia St",
    "address_councildis": "A",
    "status": "Assigned to Contractor",
    "contractor": "IV Waste",
    "rowid": "1219461",
    "final_x": "3667641.17831",
    "final_y": "524516.435388",
    "longitude": "-90.11206734757236",
    "latitude": "29.93665166115158",
    "geocoded_column": {
      "latitude": "29.93665166115158",
      "longitude": "-90.11206734757236"
    }
  },
  {
    "service_request": "2025-1219460",
    "request_type": "Trash/Recycling",
    "request_reason": "Request a Large Item Pick Up",
    "date_created": "2025-08-18T18:50:26.000",
    "date_modified": "2025-08-18T18:50:29.000",
    "request_status": "Pending",
    "responsible_agency": "Department of Sanitation",
    "final_address": "3901 Third St",
    "address_councildis": "B",
    "status": "Assigned to Contractor",
    "contractor": "IV Waste",
    "rowid": "1219460",
    "final_x": "3672005.28807",
    "final_y": "529642.533953",
    "longitude": "-90.09811517591974",
    "latitude": "29.950618138221646",
    "geocoded_column": {
      "latitude": "29.950618138221646",
      "longitude": "-90.09811517591974"
    }
  },
  {
    "service_request": "2025-1219459",
    "request_type": "Roads and Streets",
    "request_reason": "Pothole",
    "date_created": "2025-08-18T18:37:33.000",
    "date_modified": "2025-08-18T18:37:35.000",
    "request_status": "Pending",
    "responsible_agency": "Department of Public Works",
    "final_address": "2216 Columbus St",
    "address_councildis": "D",
    "status": "Pending",
    "rowid": "1219459",
    "final_x": "3679881.65768",
    "final_y": "538545.293193",
    "longitude": "-90.0729364512242",
    "latitude": "29.97486187744565",
    "geocoded_column": {
      "latitude": "29.97486187744565",
      "longitude": "-90.0729364512242"
    }
  },
  {
    "service_request": "2025-1219458",
    "request_type": "Trash/Recycling",
    "request_reason": "Request a Large Item Pick Up",
    "date_created": "2025-08-18T18:33:19.000",
    "date_modified": "2025-08-18T18:33:21.000",
    "request_status": "Pending",
    "responsible_agency": "Department of Sanitation",
    "final_address": "614 Verret St",
    "address_councildis": "C",
    "status": "Assigned to Contractor",
    "contractor": "Richards Disposal",
    "rowid": "1219458",
    "final_x": "3687091.40508",
    "final_y": "529358.703873",
    "longitude": "-90.05049112577544",
    "latitude": "29.94938190602061",
    "geocoded_column": {
      "latitude": "29.94938190602061",
      "longitude": "-90.05049112577544"
    }
  },
  {
    "service_request": "2025-1219457",
    "request_type": "Trash/Recycling",
    "request_reason": "Repair Trash Cart",
    "date_created": "2025-08-18T18:25:26.000",
    "date_modified": "2025-08-18T18:25:29.000",
    "request_status": "Pending",
    "responsible_agency": "Department of Sanitation",
    "final_address": "1400 Teche St",
    "address_councildis": "C",
    "status": "Assigned to Contractor",
    "contractor": "Richards Disposal",
    "rowid": "1219457",
    "final_x": "3686723.16924",
    "final_y": "526345.814974",
    "longitude": "-90.0517602071847",
    "latitude": "29.941108815451663",
    "geocoded_column": {
      "latitude": "29.941108815451663",
      "longitude": "-90.0517602071847"
    }
  },
  {
    "service_request": "2025-1219456",
    "request_type": "Trash/Recycling",
    "request_reason": "Order Trash Cart",
    "date_created": "2025-08-18T18:22:41.000",
    "date_modified": "2025-08-18T18:22:43.000",
    "request_status": "Pending",
    "responsible_agency": "Department of Sanitation",
    "final_address": "413 Socrates St",
    "address_councildis": "C",
    "status": "Assigned to Contractor",
    "contractor": "Richards Disposal",
    "rowid": "1219456",
    "final_x": "3686767.01327",
    "final_y": "526357.592638",
    "longitude": "-90.05162136786676",
    "latitude": "29.941139851601054",
    "geocoded_column": {
      "latitude": "29.941139851601054",
      "longitude": "-90.05162136786676"
    }
  },
  {
    "service_request": "2025-1219455",
    "request_type": "Trash/Recycling",
    "request_reason": "Order Trash Cart",
    "date_created": "2025-08-18T18:18:41.000",
    "date_modified": "2025-08-18T18:18:42.000",
    "request_status": "Pending",
    "responsible_agency": "Department of Sanitation",
    "final_address": "4820 Elysian Fields Ave",
    "address_councildis": "D",
    "status": "Assigned to Contractor",
    "contractor": "IV Waste",
    "rowid": "1219455",
    "final_x": "3683763.29026",
    "final_y": "550454.15842",
    "longitude": "-90.06025941664535",
    "latitude": "30.007489053719247",
    "geocoded_column": {
      "latitude": "30.007489053719247",
      "longitude": "-90.06025941664535"
    }
  },
  {
    "service_request": "2025-1219454",
    "request_type": "Streetlights",
    "request_reason": "Streetlight Outage/Malfunction",
    "date_created": "2025-08-18T18:16:21.000",
    "date_modified": "2025-08-18T18:16:23.000",
    "request_status": "Pending",
    "responsible_agency": "Department of Public Works",
    "final_address": "2700 S Carrollton Ave",
    "address_councildis": "A",
    "status": "Pending",
    "contractor": "Legacy Professional Services",
    "rowid": "1219454",
    "final_x": "3665599.58292",
    "final_y": "532405.253699",
    "longitude": "-90.11824867516845",
    "latitude": "29.958403037653916",
    "geocoded_column": {
      "latitude": "29.958403037653916",
      "longitude": "-90.11824867516845"
    }
  },
  {
    "service_request": "2025-1219453",
    "request_type": "Trash/Recycling",
    "request_reason": "Replace Trash Cart",
    "date_created": "2025-08-18T18:12:37.000",
    "date_modified": "2025-08-18T18:12:39.000",
    "request_status": "Pending",
    "responsible_agency": "Department of Sanitation",
    "final_address": "2030 Valentine Ct",
    "address_councildis": "C",
    "status": "Assigned to Contractor",
    "contractor": "Richards Disposal",
    "rowid": "1219453",
    "final_x": "3699798.12752",
    "final_y": "523790.419003",
    "longitude": "-90.01057354602824",
    "latitude": "29.933673784731518",
    "geocoded_column": {
      "latitude": "29.933673784731518",
      "longitude": "-90.01057354602824"
    }
  },
  {
    "service_request": "2025-1219452",
    "request_type": "Trash/Recycling",
    "request_reason": "Replace Recycling Cart",
    "date_created": "2025-08-18T18:07:31.000",
    "date_modified": "2025-08-18T18:07:33.000",
    "request_status": "Pending",
    "responsible_agency": "Department of Sanitation",
    "final_address": "441 Audubon St, New Orleans, Louisiana, 70118",
    "address_councildis": "A",
    "status": "Pending",
    "rowid": "1219452",
    "final_x": "3662365.72871",
    "final_y": "523172.159099",
    "longitude": "-90.1287668705638",
    "latitude": "29.93310887776141",
    "geocoded_column": {
      "latitude": "29.93310887776141",
      "longitude": "-90.1287668705638"
    }
  },
  {
    "service_request": "2025-1219451",
    "request_type": "Abandoned Vehicles",
    "request_reason": "Abandoned/Junk Vehicles",
    "date_created": "2025-08-18T18:00:24.000",
    "date_modified": "2025-08-18T18:00:27.000",
    "request_status": "Pending",
    "responsible_agency": "Department of Public Works",
    "final_address": "1 St Maurice Ave",
    "address_councildis": "E",
    "status": "Pending",
    "rowid": "1219451",
    "final_x": "3700147.36484",
    "final_y": "533716.706565",
    "longitude": "-90.00910887653636",
    "latitude": "29.960956491674477",
    "geocoded_column": {
      "latitude": "29.960956491674477",
      "longitude": "-90.00910887653636"
    }
  },
  {
    "service_request": "2025-1219450",
    "request_type": "Trash/Recycling",
    "request_reason": "Illegal Dumping",
    "date_created": "2025-08-18T17:47:06.000",
    "date_modified": "2025-08-18T17:47:08.000",
    "request_status": "Pending",
    "responsible_agency": "Department of Sanitation",
    "final_address": "3313 Camp St",
    "address_councildis": "B",
    "status": "Pending",
    "rowid": "1219450",
    "final_x": "3675111.24366",
    "final_y": "520117.95052",
    "longitude": "-90.08863483730508",
    "latitude": "29.924336217978798",
    "geocoded_column": {
      "latitude": "29.924336217978798",
      "longitude": "-90.08863483730508"
    }
  },
  {
    "service_request": "2025-1219449",
    "request_type": "Trash/Recycling",
    "request_reason": "Replace Trash Cart",
    "date_created": "2025-08-18T17:46:21.000",
    "date_modified": "2025-08-18T17:46:23.000",
    "request_status": "Pending",
    "responsible_agency": "Department of Sanitation",
    "final_address": "910 N Dorgenois St",
    "address_councildis": "D",
    "status": "Assigned to Contractor",
    "contractor": "IV Waste",
    "rowid": "1219449",
    "final_x": "3677672.50261",
    "final_y": "537229.082312",
    "longitude": "-90.07995899508245",
    "latitude": "29.971309380855804",
    "geocoded_column": {
      "latitude": "29.971309380855804",
      "longitude": "-90.07995899508245"
    }
  },
  {
    "service_request": "2025-1219448",
    "request_type": "Trash/Recycling",
    "request_reason": "Order Second Trash Cart",
    "date_created": "2025-08-18T17:44:11.000",
    "date_modified": "2025-08-18T17:44:13.000",
    "request_status": "Pending",
    "responsible_agency": "Department of Sanitation",
    "final_address": "6128 Magnolia St",
    "address_councildis": "A",
    "status": "Assigned to Contractor",
    "contractor": "IV Waste",
    "rowid": "1219448",
    "final_x": "3666340.62567",
    "final_y": "525149.214717",
    "longitude": "-90.11615204395488",
    "latitude": "29.938429652736477",
    "geocoded_column": {
      "latitude": "29.938429652736477",
      "longitude": "-90.11615204395488"
    }
  },
  {
    "service_request": "2025-1219447",
    "request_type": "Trash/Recycling",
    "request_reason": "Replace Trash Cart",
    "date_created": "2025-08-18T17:39:31.000",
    "date_modified": "2025-08-18T17:39:33.000",
    "request_status": "Pending",
    "responsible_agency": "Department of Sanitation",
    "final_address": "910 N Dorgenois St",
    "address_councildis": "D",
    "status": "Assigned to Contractor",
    "contractor": "IV Waste",
    "rowid": "1219447",
    "final_x": "3677672.50261",
    "final_y": "537229.082312",
    "longitude": "-90.07995899508245",
    "latitude": "29.971309380855804",
    "geocoded_column": {
      "latitude": "29.971309380855804",
      "longitude": "-90.07995899508245"
    }
  },
  {
    "service_request": "2025-1219446",
    "request_type": "Trash/Recycling",
    "request_reason": "Order Recycling Cart",
    "date_created": "2025-08-18T17:31:41.000",
    "date_modified": "2025-08-18T17:31:43.000",
    "request_status": "Pending",
    "responsible_agency": "Department of Sanitation",
    "final_address": "5344 Bellaire Dr",
    "address_councildis": "A",
    "status": "Pending",
    "rowid": "1219446",
    "final_x": "3663922.65056",
    "final_y": "543450.61083",
    "longitude": "-90.12317564094901",
    "latitude": "29.98882289471987",
    "geocoded_column": {
      "latitude": "29.98882289471987",
      "longitude": "-90.12317564094901"
    }
  },
  {
    "service_request": "2025-1219445",
    "request_type": "Parks & Parkways",
    "request_reason": "Request Tree Service (Right of Way/Public Property)",
    "date_created": "2025-08-18T17:29:01.000",
    "date_modified": "2025-08-18T17:29:03.000",
    "request_status": "Pending",
    "responsible_agency": "Department of Parks & Parkway",
    "final_address": "1731 W Homestead Dr",
    "address_councildis": "C",
    "status": "Pending",
    "rowid": "1219445",
    "final_x": "3696870.74083",
    "final_y": "525510.521341",
    "longitude": "-90.01975285565081",
    "latitude": "29.938496069880262",
    "geocoded_column": {
      "latitude": "29.938496069880262",
      "longitude": "-90.01975285565081"
    }
  },
  {
    "service_request": "2025-1219444",
    "request_type": "Roads and Streets",
    "request_reason": "Street Subsidence (Sinking)",
    "date_created": "2025-08-18T17:19:48.000",
    "date_modified": "2025-08-18T17:19:51.000",
    "request_status": "Pending",
    "responsible_agency": "Sewerage & Water Board",
    "final_address": "1200 BLK Shirley Dr",
    "address_councildis": "C",
    "status": "Pending",
    "rowid": "1219444",
    "final_x": "3693086.23387",
    "final_y": "526566.490946",
    "longitude": "-90.03166300765442",
    "latitude": "29.94151837626807",
    "geocoded_column": {
      "latitude": "29.94151837626807",
      "longitude": "-90.03166300765442"
    }
  },
  {
    "service_request": "2025-1219443",
    "request_type": "Property Maintenance",
    "request_reason": "Property Maintenance",
    "date_created": "2025-08-18T17:10:54.000",
    "date_modified": "2025-08-18T17:10:56.000",
    "request_status": "Pending",
    "responsible_agency": "Department of Code Enforcement",
    "final_address": "1831 N Claiborne Ave",
    "address_councildis": "D",
    "status": "Pending",
    "rowid": "1219443",
    "final_x": "3683620.65378",
    "final_y": "538077.636425",
    "longitude": "-90.06114417059125",
    "latitude": "29.9734623664347",
    "geocoded_column": {
      "latitude": "29.9734623664347",
      "longitude": "-90.06114417059125"
    }
  },
  {
    "service_request": "2025-1219441",
    "request_type": "Trash/Recycling",
    "request_reason": "Request a Large Item Pick Up",
    "date_created": "2025-08-18T16:57:23.000",
    "date_modified": "2025-08-18T16:57:25.000",
    "request_status": "Pending",
    "responsible_agency": "Department of Sanitation",
    "final_address": "4731 Banks St",
    "address_councildis": "A",
    "status": "Assigned to Contractor",
    "contractor": "IV Waste",
    "rowid": "1219441",
    "final_x": "3668224.23809",
    "final_y": "539092.403658",
    "longitude": "-90.1097351986732",
    "latitude": "29.976713682841627",
    "geocoded_column": {
      "latitude": "29.976713682841627",
      "longitude": "-90.1097351986732"
    }
  },
  {
    "service_request": "2025-1219440",
    "request_type": "Trash/Recycling",
    "request_reason": "Request a Large Item Pick Up",
    "date_created": "2025-08-18T16:56:44.000",
    "date_modified": "2025-08-18T16:56:45.000",
    "request_status": "Pending",
    "responsible_agency": "Department of Sanitation",
    "final_address": "8111 Freret St",
    "address_councildis": "A",
    "status": "Assigned to Contractor",
    "contractor": "IV Waste",
    "rowid": "1219440",
    "final_x": "3661403.0809",
    "final_y": "527992.966335",
    "longitude": "-90.13164629255597",
    "latitude": "29.94639236176137",
    "geocoded_column": {
      "latitude": "29.94639236176137",
      "longitude": "-90.13164629255597"
    }
  },
  {
    "service_request": "2025-1219439",
    "request_type": "Abandoned Vehicles",
    "request_reason": "Abandoned/Junk Vehicles",
    "date_created": "2025-08-18T16:56:29.000",
    "date_modified": "2025-08-18T16:56:32.000",
    "request_status": "Pending",
    "responsible_agency": "Department of Public Works",
    "final_address": "1449 N Claiborne Ave",
    "address_councildis": "D",
    "status": "Pending",
    "rowid": "1219439",
    "final_x": "3681427.3764",
    "final_y": "537013.162568",
    "longitude": "-90.06810811416693",
    "latitude": "29.970602206312922",
    "geocoded_column": {
      "latitude": "29.970602206312922",
      "longitude": "-90.06810811416693"
    }
  },
  {
    "service_request": "2025-1219438",
    "request_type": "Roads and Streets",
    "request_reason": "Curb Damage",
    "date_created": "2025-08-18T16:50:51.000",
    "date_modified": "2025-08-18T16:50:53.000",
    "request_status": "Pending",
    "responsible_agency": "Department of Public Works",
    "final_address": "500 BLK Eliza St",
    "address_councildis": "C",
    "status": "Pending",
    "rowid": "1219438",
    "final_x": "3687114.61983",
    "final_y": "529913.384843",
    "longitude": "-90.05039821744181",
    "latitude": "29.950906374444134",
    "geocoded_column": {
      "latitude": "29.950906374444134",
      "longitude": "-90.05039821744181"
    }
  },
  {
    "service_request": "2025-1219437",
    "request_type": "Trash/Recycling",
    "request_reason": "Request a Large Item Pick Up",
    "date_created": "2025-08-18T16:48:38.000",
    "date_modified": "2025-08-18T16:48:49.000",
    "request_status": "Pending",
    "responsible_agency": "Department of Sanitation",
    "final_address": "3119 N Johnson St",
    "address_councildis": "D",
    "status": "Assigned to Contractor",
    "contractor": "IV Waste",
    "rowid": "1219437",
    "final_x": "3690015.33334",
    "final_y": "539427.198346",
    "longitude": "-90.04090043153111",
    "latitude": "29.976976414470403",
    "geocoded_column": {
      "latitude": "29.976976414470403",
      "longitude": "-90.04090043153111"
    }
  },
  {
    "service_request": "2025-1219436",
    "request_type": "Property Maintenance",
    "request_reason": "Property Maintenance",
    "date_created": "2025-08-18T16:43:36.000",
    "date_modified": "2025-08-18T16:43:38.000",
    "request_status": "Pending",
    "responsible_agency": "Department of Code Enforcement",
    "final_address": "5501 Edenboro Rd",
    "address_councildis": "E",
    "status": "Pending",
    "rowid": "1219436",
    "final_x": "3708222.78052",
    "final_y": "558086.456859",
    "longitude": "-89.98270137350146",
    "latitude": "30.027705012642564",
    "geocoded_column": {
      "latitude": "30.027705012642564",
      "longitude": "-89.98270137350146"
    }
  },
  {
    "service_request": "2025-1219435",
    "request_type": "Roads and Streets",
    "request_reason": "Sidewalk Damaged or Missing",
    "date_created": "2025-08-18T16:43:03.000",
    "date_modified": "2025-08-18T16:43:04.000",
    "request_status": "Pending",
    "responsible_agency": "Department of Public Works",
    "final_address": "500 BLK Eliza St",
    "address_councildis": "C",
    "status": "Pending",
    "rowid": "1219435",
    "final_x": "3687114.61983",
    "final_y": "529913.384843",
    "longitude": "-90.05039821744181",
    "latitude": "29.950906374444134",
    "geocoded_column": {
      "latitude": "29.950906374444134",
      "longitude": "-90.05039821744181"
    }
  },
  {
    "service_request": "2025-1219434",
    "request_type": "Streetlights",
    "request_reason": "Streetlight Outage/Malfunction",
    "date_created": "2025-08-18T16:30:38.000",
    "date_modified": "2025-08-18T16:30:40.000",
    "request_status": "Pending",
    "responsible_agency": "Department of Public Works",
    "final_address": "1238 Third St",
    "address_councildis": "B",
    "status": "Pending",
    "contractor": "Legacy Professional Services",
    "rowid": "1219434",
    "final_x": "3677139.57621",
    "final_y": "521698.769209",
    "longitude": "-90.08217760126199",
    "latitude": "29.928622215928",
    "geocoded_column": {
      "latitude": "29.928622215928",
      "longitude": "-90.08217760126199"
    }
  },
  {
    "service_request": "2025-1219433",
    "request_type": "Trash/Recycling",
    "request_reason": "Illegal Dumping",
    "date_created": "2025-08-18T16:30:08.000",
    "date_modified": "2025-08-18T16:30:09.000",
    "request_status": "Pending",
    "responsible_agency": "Department of Sanitation",
    "final_address": "LAKE FOREST BLVD & SIX FLAGS PKWY",
    "address_councildis": "E",
    "status": "Pending",
    "rowid": "1219433",
    "final_x": "3721925.43",
    "final_y": "563937.4",
    "longitude": "-89.93917764980728",
    "latitude": "30.043341490755523",
    "geocoded_column": {
      "latitude": "30.043341490755523",
      "longitude": "-89.93917764980728"
    }
  },
  {
    "service_request": "2025-1219432",
    "request_type": "Parks & Parkways",
    "request_reason": "Request Tree Service (Right of Way/Public Property)",
    "date_created": "2025-08-18T16:29:37.000",
    "date_modified": "2025-08-18T16:29:38.000",
    "request_status": "Pending",
    "responsible_agency": "Department of Parks & Parkway",
    "final_address": "4938 Paris Ave",
    "address_councildis": "D",
    "status": "Pending",
    "rowid": "1219432",
    "final_x": "3679110.67464",
    "final_y": "550705.052629",
    "longitude": "-90.0749496549921",
    "latitude": "30.00832023786959",
    "geocoded_column": {
      "latitude": "30.00832023786959",
      "longitude": "-90.0749496549921"
    }
  },
  {
    "service_request": "2025-1219431",
    "request_type": "Road Striping",
    "request_reason": "Crosswalks",
    "date_created": "2025-08-18T16:29:35.000",
    "date_modified": "2025-08-18T16:29:37.000",
    "request_status": "Pending",
    "responsible_agency": "Department of Public Works",
    "final_address": "503 Olivier St",
    "address_councildis": "C",
    "status": "Pending",
    "rowid": "1219431",
    "final_x": "3687221.91004",
    "final_y": "529878.073345",
    "longitude": "-90.05006069868841",
    "latitude": "29.95080597638288",
    "geocoded_column": {
      "latitude": "29.95080597638288",
      "longitude": "-90.05006069868841"
    }
  },
  {
    "service_request": "2025-1219430",
    "request_type": "Trash/Recycling",
    "request_reason": "Request a Large Item Pick Up",
    "date_created": "2025-08-18T16:29:26.000",
    "date_modified": "2025-08-18T16:29:28.000",
    "request_status": "Pending",
    "responsible_agency": "Department of Sanitation",
    "final_address": "411 Belleville St",
    "address_councildis": "C",
    "status": "Assigned to Contractor",
    "contractor": "Richards Disposal",
    "rowid": "1219430",
    "final_x": "3687827.08559",
    "final_y": "530230.007105",
    "longitude": "-90.04813740333445",
    "latitude": "29.951755023582834",
    "geocoded_column": {
      "latitude": "29.951755023582834",
      "longitude": "-90.04813740333445"
    }
  },
  {
    "service_request": "2025-1219429",
    "request_type": "Trash/Recycling",
    "request_reason": "Repair Recycling Cart",
    "date_created": "2025-08-18T16:26:06.000",
    "date_modified": "2025-08-18T16:26:08.000",
    "request_status": "Pending",
    "responsible_agency": "Department of Sanitation",
    "final_address": "6336 Vicksburg St",
    "address_councildis": "A",
    "status": "Pending",
    "contractor": "IV Waste",
    "rowid": "1219429",
    "final_x": "3669012.43694",
    "final_y": "549600.369427",
    "longitude": "-90.10689059395837",
    "latitude": "30.005583817319103",
    "geocoded_column": {
      "latitude": "30.005583817319103",
      "longitude": "-90.10689059395837"
    }
  },
  {
    "service_request": "2025-1219428",
    "request_type": "Trash/Recycling",
    "request_reason": "Request a Large Item Pick Up",
    "date_created": "2025-08-18T16:25:41.000",
    "date_modified": "2025-08-18T16:25:43.000",
    "request_status": "Pending",
    "responsible_agency": "Department of Sanitation",
    "final_address": "5319 Laurel St",
    "address_councildis": "B",
    "status": "Assigned to Contractor",
    "contractor": "IV Waste",
    "rowid": "1219428",
    "final_x": "3667224.00602",
    "final_y": "517928.163574",
    "longitude": "-90.11360579045395",
    "latitude": "29.918548221536962",
    "geocoded_column": {
      "latitude": "29.918548221536962",
      "longitude": "-90.11360579045395"
    }
  },
  {
    "service_request": "2025-1219427",
    "request_type": "Trash/Recycling",
    "request_reason": "Request a Large Item Pick Up",
    "date_created": "2025-08-18T16:25:34.000",
    "date_modified": "2025-08-18T16:25:36.000",
    "request_status": "Pending",
    "responsible_agency": "Department of Sanitation",
    "final_address": "4151 De Ment St",
    "address_councildis": "D",
    "status": "Assigned to Contractor",
    "contractor": "IV Waste",
    "rowid": "1219427",
    "final_x": "3689596.48495",
    "final_y": "550072.327124",
    "longitude": "-90.04184434208247",
    "latitude": "30.006259666211065",
    "geocoded_column": {
      "latitude": "30.006259666211065",
      "longitude": "-90.04184434208247"
    }
  },
  {
    "service_request": "2025-1219426",
    "request_type": "Trash/Recycling",
    "request_reason": "Order Recycling Cart",
    "date_created": "2025-08-18T16:25:33.000",
    "date_modified": "2025-08-18T16:25:35.000",
    "request_status": "Pending",
    "responsible_agency": "Department of Sanitation",
    "final_address": "6338 Vicksburg St",
    "address_councildis": "A",
    "status": "Pending",
    "contractor": "IV Waste",
    "rowid": "1219426",
    "final_x": "3669015.30113",
    "final_y": "549611.111251",
    "longitude": "-90.10688118207534",
    "latitude": "30.00561326929045",
    "geocoded_column": {
      "latitude": "30.00561326929045",
      "longitude": "-90.10688118207534"
    }
  },
  {
    "service_request": "2025-1219425",
    "request_type": "Trash/Recycling",
    "request_reason": "Order Trash Cart",
    "date_created": "2025-08-18T16:25:13.000",
    "date_modified": "2025-08-18T16:25:14.000",
    "request_status": "Pending",
    "responsible_agency": "Department of Sanitation",
    "final_address": "6338 Vicksburg St",
    "address_councildis": "A",
    "status": "Assigned to Contractor",
    "contractor": "IV Waste",
    "rowid": "1219425",
    "final_x": "3669015.30113",
    "final_y": "549611.111251",
    "longitude": "-90.10688118207534",
    "latitude": "30.00561326929045",
    "geocoded_column": {
      "latitude": "30.00561326929045",
      "longitude": "-90.10688118207534"
    }
  },
  {
    "service_request": "2025-1219424",
    "request_type": "Trash/Recycling",
    "request_reason": "Request a Large Item Pick Up",
    "date_created": "2025-08-18T16:24:38.000",
    "date_modified": "2025-08-18T16:24:40.000",
    "request_status": "Pending",
    "responsible_agency": "Department of Sanitation",
    "final_address": "6338 Vicksburg St",
    "address_councildis": "A",
    "status": "Assigned to Contractor",
    "contractor": "IV Waste",
    "rowid": "1219424",
    "final_x": "3669015.30113",
    "final_y": "549611.111251",
    "longitude": "-90.10688118207534",
    "latitude": "30.00561326929045",
    "geocoded_column": {
      "latitude": "30.00561326929045",
      "longitude": "-90.10688118207534"
    }
  },
  {
    "service_request": "2025-1219423",
    "request_type": "Drainage",
    "request_reason": "Catch Basin Not Draining",
    "date_created": "2025-08-18T16:24:28.000",
    "date_modified": "2025-08-18T16:24:30.000",
    "request_status": "Pending",
    "responsible_agency": "Sewerage & Water Board",
    "final_address": "1843 Franklin Ave",
    "address_councildis": "D",
    "status": "Pending",
    "rowid": "1219423",
    "final_x": "3687766.31868",
    "final_y": "539454.269322",
    "longitude": "-90.04800256121659",
    "latitude": "29.97712040997242",
    "geocoded_column": {
      "latitude": "29.97712040997242",
      "longitude": "-90.04800256121659"
    }
  },
  {
    "service_request": "2025-1219422",
    "request_type": "Trash/Recycling",
    "request_reason": "Order Trash Cart",
    "date_created": "2025-08-18T16:22:46.000",
    "date_modified": "2025-08-18T16:22:47.000",
    "request_status": "Pending",
    "responsible_agency": "Department of Sanitation",
    "final_address": "5516 Warrington Dr",
    "address_councildis": "D",
    "status": "Assigned to Contractor",
    "contractor": "IV Waste",
    "rowid": "1219422",
    "final_x": "3680766.99637",
    "final_y": "553149.665559",
    "longitude": "-90.06963164289868",
    "latitude": "30.01499192009183",
    "geocoded_column": {
      "latitude": "30.01499192009183",
      "longitude": "-90.06963164289868"
    }
  },
  {
    "service_request": "2025-1219421",
    "request_type": "Trash/Recycling",
    "request_reason": "Request a Large Item Pick Up",
    "date_created": "2025-08-18T16:22:35.000",
    "date_modified": "2025-08-18T16:22:36.000",
    "request_status": "Pending",
    "responsible_agency": "Department of Sanitation",
    "final_address": "4631 Laine Ave",
    "address_councildis": "E",
    "status": "Assigned to Contractor",
    "contractor": "Waste Pro",
    "rowid": "1219421",
    "final_x": "3705846.21047",
    "final_y": "554718.001816",
    "longitude": "-89.99033585216779",
    "latitude": "30.018519879890718",
    "geocoded_column": {
      "latitude": "30.018519879890718",
      "longitude": "-89.99033585216779"
    }
  },
  {
    "service_request": "2025-1219420",
    "request_type": "Trash/Recycling",
    "request_reason": "Order Second Trash Cart",
    "date_created": "2025-08-18T16:21:17.000",
    "date_modified": "2025-08-18T16:21:20.000",
    "request_status": "Pending",
    "responsible_agency": "Department of Sanitation",
    "final_address": "13725 N Cavelier Dr",
    "address_councildis": "E",
    "status": "Assigned to Contractor",
    "contractor": "Waste Pro",
    "rowid": "1219420",
    "final_x": "3723861.21139",
    "final_y": "570399.272231",
    "longitude": "-89.9328102383295",
    "latitude": "30.06104403847609",
    "geocoded_column": {
      "latitude": "30.06104403847609",
      "longitude": "-89.9328102383295"
    }
  },
  {
    "service_request": "2025-1219419",
    "request_type": "Abandoned Vehicles",
    "request_reason": "Abandoned/Junk Vehicles",
    "date_created": "2025-08-18T16:20:23.000",
    "date_modified": "2025-08-18T16:20:24.000",
    "request_status": "Pending",
    "responsible_agency": "Department of Public Works",
    "final_address": "2015 Congress St",
    "address_councildis": "D",
    "status": "Pending",
    "rowid": "1219419",
    "final_x": "3691633.67958",
    "final_y": "539124.420746",
    "longitude": "-90.035800024838",
    "latitude": "29.976093592770017",
    "geocoded_column": {
      "latitude": "29.976093592770017",
      "longitude": "-90.035800024838"
    }
  },
  {
    "service_request": "2025-1219418",
    "request_type": "Trash/Recycling",
    "request_reason": "Order Trash Cart",
    "date_created": "2025-08-18T16:20:02.000",
    "date_modified": "2025-08-18T16:20:05.000",
    "request_status": "Pending",
    "responsible_agency": "Department of Sanitation",
    "final_address": "5507 Warrington Dr",
    "address_councildis": "D",
    "status": "Assigned to Contractor",
    "contractor": "IV Waste",
    "rowid": "1219418",
    "final_x": "3680942.58779",
    "final_y": "553030.145175",
    "longitude": "-90.06908102447935",
    "latitude": "30.014657956482456",
    "geocoded_column": {
      "latitude": "30.014657956482456",
      "longitude": "-90.06908102447935"
    }
  },
  {
    "service_request": "2025-1219417",
    "request_type": "Trash/Recycling",
    "request_reason": "Request a Large Item Pick Up",
    "date_created": "2025-08-18T16:18:56.000",
    "date_modified": "2025-08-18T16:18:57.000",
    "request_status": "Pending",
    "responsible_agency": "Department of Sanitation",
    "final_address": "5000 Sierra Madre Dr",
    "address_councildis": "E",
    "status": "Assigned to Contractor",
    "contractor": "Waste Pro",
    "rowid": "1219417",
    "final_x": "3713711.18002",
    "final_y": "557682.218843",
    "longitude": "-89.96537387409685",
    "latitude": "30.026414494462117",
    "geocoded_column": {
      "latitude": "30.026414494462117",
      "longitude": "-89.96537387409685"
    }
  },
  {
    "service_request": "2025-1219416",
    "request_type": "Trash/Recycling",
    "request_reason": "Request a Large Item Pick Up",
    "date_created": "2025-08-18T16:17:55.000",
    "date_modified": "2025-08-18T16:17:56.000",
    "request_status": "Pending",
    "responsible_agency": "Department of Sanitation",
    "final_address": "1520 Mithra St",
    "address_councildis": "D",
    "status": "Assigned to Contractor",
    "contractor": "IV Waste",
    "rowid": "1219416",
    "final_x": "3678830.21794",
    "final_y": "552109.705366",
    "longitude": "-90.07578700173181",
    "latitude": "30.012190994474526",
    "geocoded_column": {
      "latitude": "30.012190994474526",
      "longitude": "-90.07578700173181"
    }
  },
  {
    "service_request": "2025-1219415",
    "request_type": "Streetlights",
    "request_reason": "Streetlight Outage/Malfunction",
    "date_created": "2025-08-18T16:17:12.000",
    "date_modified": "2025-08-18T16:17:13.000",
    "request_status": "Pending",
    "responsible_agency": "Department of Public Works",
    "final_address": "1241 Esplanade Ave",
    "address_councildis": "C",
    "status": "Pending",
    "contractor": "Legacy Professional Services",
    "rowid": "1219415",
    "final_x": "3682365.62588",
    "final_y": "535823.315591",
    "longitude": "-90.06518660214338",
    "latitude": "29.967302017720563",
    "geocoded_column": {
      "latitude": "29.967302017720563",
      "longitude": "-90.06518660214338"
    }
  },
  {
    "service_request": "2025-1219414",
    "request_type": "Trash/Recycling",
    "request_reason": "Request a Large Item Pick Up",
    "date_created": "2025-08-18T16:14:19.000",
    "date_modified": "2025-08-18T16:15:18.000",
    "request_status": "Pending",
    "responsible_agency": "Department of Sanitation",
    "final_address": "13175 Chateau Ct",
    "address_councildis": "E",
    "status": "Assigned to Contractor",
    "contractor": "Waste Pro",
    "rowid": "1219414",
    "final_x": "3724480.68435",
    "final_y": "561972.145055",
    "longitude": "-89.93117808857504",
    "latitude": "30.03785211752069",
    "geocoded_column": {
      "latitude": "30.03785211752069",
      "longitude": "-89.93117808857504"
    }
  },
  {
    "service_request": "2025-1219413",
    "request_type": "Trash/Recycling",
    "request_reason": "Repair Trash Cart",
    "date_created": "2025-08-18T16:11:25.000",
    "date_modified": "2025-08-18T16:11:27.000",
    "request_status": "Pending",
    "responsible_agency": "Department of Sanitation",
    "final_address": "1206 Owens Blvd",
    "address_councildis": "D",
    "status": "Assigned to Contractor",
    "contractor": "IV Waste",
    "rowid": "1219413",
    "final_x": "3676938.75355",
    "final_y": "548804.547539",
    "longitude": "-90.0818770138341",
    "latitude": "30.003159931596365",
    "geocoded_column": {
      "latitude": "30.003159931596365",
      "longitude": "-90.0818770138341"
    }
  },
  {
    "service_request": "2025-1219412",
    "request_type": "Trash/Recycling",
    "request_reason": "Request a Large Item Pick Up",
    "date_created": "2025-08-18T16:09:37.000",
    "date_modified": "2025-08-18T16:09:40.000",
    "request_status": "Pending",
    "responsible_agency": "Department of Sanitation",
    "final_address": "4925 Elysian Fields Ave",
    "address_councildis": "D",
    "status": "Assigned to Contractor",
    "contractor": "IV Waste",
    "rowid": "1219412",
    "final_x": "3683952.35426",
    "final_y": "550909.846805",
    "longitude": "-90.05964610750593",
    "latitude": "30.008736254421557",
    "geocoded_column": {
      "latitude": "30.008736254421557",
      "longitude": "-90.05964610750593"
    }
  },
  {
    "service_request": "2025-1219411",
    "request_type": "Property Maintenance",
    "request_reason": "Property Maintenance",
    "date_created": "2025-08-18T16:07:35.000",
    "date_modified": "2025-08-18T16:07:37.000",
    "request_status": "Pending",
    "responsible_agency": "Department of Code Enforcement",
    "final_address": "5601 Edenboro Rd",
    "address_councildis": "E",
    "status": "Pending",
    "rowid": "1219411",
    "final_x": "3708119.08491",
    "final_y": "558288.730076",
    "longitude": "-89.98302150877993",
    "latitude": "30.028264545096892",
    "geocoded_column": {
      "latitude": "30.028264545096892",
      "longitude": "-89.98302150877993"
    }
  },
  {
    "service_request": "2025-1219410",
    "request_type": "Trash/Recycling",
    "request_reason": "Request a Large Item Pick Up",
    "date_created": "2025-08-18T16:01:05.000",
    "date_modified": "2025-08-18T16:01:07.000",
    "request_status": "Pending",
    "responsible_agency": "Department of Sanitation",
    "final_address": "6330 Burgundy St",
    "address_councildis": "E",
    "status": "Assigned to Contractor",
    "contractor": "Waste Pro",
    "rowid": "1219410",
    "final_x": "3700052.14256",
    "final_y": "532165.413507",
    "longitude": "-90.00946616651437",
    "latitude": "29.956694013963464",
    "geocoded_column": {
      "latitude": "29.956694013963464",
      "longitude": "-90.00946616651437"
    }
  },
  {
    "service_request": "2025-1219409",
    "request_type": "Abandoned Vehicles",
    "request_reason": "Abandoned/Junk Vehicles",
    "date_created": "2025-08-18T16:00:53.000",
    "date_modified": "2025-08-18T16:00:54.000",
    "request_status": "Pending",
    "responsible_agency": "Department of Public Works",
    "final_address": "237 Leboeuf St",
    "address_councildis": "C",
    "status": "Pending",
    "rowid": "1219409",
    "final_x": "3689859.44387",
    "final_y": "530840.10989",
    "longitude": "-90.0416984940153",
    "latitude": "29.95336975988102",
    "geocoded_column": {
      "latitude": "29.95336975988102",
      "longitude": "-90.0416984940153"
    }
  },
  {
    "service_request": "2025-1219408",
    "request_type": "Drainage",
    "request_reason": "Catch Basin Frame and Cover Missing or Damaged",
    "date_created": "2025-08-18T15:59:44.000",
    "date_modified": "2025-08-18T15:59:45.000",
    "request_status": "Pending",
    "responsible_agency": "Sewerage & Water Board",
    "final_address": "5130 Constance St",
    "address_councildis": "B",
    "status": "Pending",
    "rowid": "1219408",
    "final_x": "3668063.40973",
    "final_y": "518192.31263",
    "longitude": "-90.11094733316617",
    "latitude": "29.919249952427737",
    "geocoded_column": {
      "latitude": "29.919249952427737",
      "longitude": "-90.11094733316617"
    }
  },
  {
    "service_request": "2025-1219407",
    "request_type": "Streetlights",
    "request_reason": "Streetlight Outage/Malfunction",
    "date_created": "2025-08-18T15:59:18.000",
    "date_modified": "2025-08-18T15:59:19.000",
    "request_status": "Pending",
    "responsible_agency": "Department of Public Works",
    "final_address": "3610 Live Oak St",
    "address_councildis": "A",
    "status": "Pending",
    "contractor": "Legacy Professional Services",
    "rowid": "1219407",
    "final_x": "3664384.84372",
    "final_y": "537944.873545",
    "longitude": "-90.12189957248366",
    "latitude": "29.97367053261257",
    "geocoded_column": {
      "latitude": "29.97367053261257",
      "longitude": "-90.12189957248366"
    }
  },
  {
    "service_request": "2025-1219406",
    "request_type": "Trash/Recycling",
    "request_reason": "Repair Trash Cart",
    "date_created": "2025-08-18T15:58:27.000",
    "date_modified": "2025-08-18T15:58:28.000",
    "request_status": "Pending",
    "responsible_agency": "Department of Sanitation",
    "final_address": "11021 Dreux Ave",
    "address_councildis": "E",
    "status": "Assigned to Contractor",
    "contractor": "Waste Pro",
    "rowid": "1219406",
    "final_x": "3716074.64063",
    "final_y": "556359.116954",
    "longitude": "-89.95795588000402",
    "latitude": "30.02269869503725",
    "geocoded_column": {
      "latitude": "30.02269869503725",
      "longitude": "-89.95795588000402"
    }
  },
  {
    "service_request": "2025-1219405",
    "request_type": "Property Maintenance",
    "request_reason": "Property Maintenance",
    "date_created": "2025-08-18T15:56:56.000",
    "date_modified": "2025-08-18T15:56:58.000",
    "request_status": "Pending",
    "responsible_agency": "Department of Code Enforcement",
    "final_address": "4418 Eastern St",
    "address_councildis": "D",
    "status": "Pending",
    "rowid": "1219405",
    "final_x": "3688063.16041",
    "final_y": "549294.714259",
    "longitude": "-90.04671606476582",
    "latitude": "30.004168945329827",
    "geocoded_column": {
      "latitude": "30.004168945329827",
      "longitude": "-90.04671606476582"
    }
  },
  {
    "service_request": "2025-1219404",
    "request_type": "Trash/Recycling",
    "request_reason": "Request a Large Item Pick Up",
    "date_created": "2025-08-18T15:54:40.000",
    "date_modified": "2025-08-18T15:54:42.000",
    "request_status": "Pending",
    "responsible_agency": "Department of Sanitation",
    "final_address": "5021 S Prieur St",
    "address_councildis": "B",
    "status": "Assigned to Contractor",
    "contractor": "IV Waste",
    "rowid": "1219404",
    "final_x": "3668737.03777",
    "final_y": "526642.634686",
    "longitude": "-90.10853590997316",
    "latitude": "29.94246586184346",
    "geocoded_column": {
      "latitude": "29.94246586184346",
      "longitude": "-90.10853590997316"
    }
  },
  {
    "service_request": "2025-1219403",
    "request_type": "Trash/Recycling",
    "request_reason": "Repair Trash Cart",
    "date_created": "2025-08-18T15:51:59.000",
    "date_modified": "2025-08-18T15:52:01.000",
    "request_status": "Pending",
    "responsible_agency": "Department of Sanitation",
    "final_address": "4160 Orleans Ave",
    "address_councildis": "A",
    "status": "Assigned to Contractor",
    "contractor": "IV Waste",
    "rowid": "1219403",
    "final_x": "3672234.37767",
    "final_y": "540343.425995",
    "longitude": "-90.09702727195818",
    "latitude": "29.980035211287138",
    "geocoded_column": {
      "latitude": "29.980035211287138",
      "longitude": "-90.09702727195818"
    }
  },
  {
    "service_request": "2025-1219402",
    "request_type": "Safety & Permits",
    "request_reason": "Licenses & Permits",
    "date_created": "2025-08-18T15:51:28.000",
    "date_modified": "2025-08-18T15:51:30.000",
    "request_status": "Pending",
    "responsible_agency": "Safety and Permits",
    "final_address": "GIROD ST & MAGAZINE ST",
    "address_councildis": "B",
    "status": "Pending",
    "rowid": "1219402",
    "final_x": "3681315.7",
    "final_y": "528356.38",
    "longitude": "-90.06876252096752",
    "latitude": "29.946802389304505",
    "geocoded_column": {
      "latitude": "29.946802389304505",
      "longitude": "-90.06876252096752"
    }
  },
  {
    "service_request": "2025-1219401",
    "request_type": "Trash/Recycling",
    "request_reason": "Replace Trash Cart",
    "date_created": "2025-08-18T15:50:02.000",
    "date_modified": "2025-08-18T15:50:04.000",
    "request_status": "Pending",
    "responsible_agency": "Department of Sanitation",
    "final_address": "3117 Marais St",
    "address_councildis": "C",
    "status": "Assigned to Contractor",
    "contractor": "IV Waste",
    "rowid": "1219401",
    "final_x": "3689249.4175",
    "final_y": "536350.087943",
    "longitude": "-90.04342883494456",
    "latitude": "29.968539177258577",
    "geocoded_column": {
      "latitude": "29.968539177258577",
      "longitude": "-90.04342883494456"
    }
  },
  {
    "service_request": "2025-1219400",
    "request_type": "Trash/Recycling",
    "request_reason": "Return Trash Cart",
    "date_created": "2025-08-18T15:47:36.000",
    "date_modified": "2025-08-18T15:47:38.000",
    "request_status": "Pending",
    "responsible_agency": "Department of Sanitation",
    "final_address": "2415 Magnolia St",
    "address_councildis": "B",
    "status": "Assigned to Contractor",
    "contractor": "IV Waste",
    "rowid": "1219400",
    "final_x": "3674638.72289",
    "final_y": "526462.09715",
    "longitude": "-90.08990910609505",
    "latitude": "29.941794664525467",
    "geocoded_column": {
      "latitude": "29.941794664525467",
      "longitude": "-90.08990910609505"
    }
  },
  {
    "service_request": "2025-1219399",
    "request_type": "Trash/Recycling",
    "request_reason": "Order Trash Cart",
    "date_created": "2025-08-18T15:44:56.000",
    "date_modified": "2025-08-18T15:45:03.000",
    "request_status": "Pending",
    "responsible_agency": "Department of Sanitation",
    "final_address": "8611 Birch St",
    "address_councildis": "A",
    "status": "Assigned to Contractor",
    "contractor": "IV Waste",
    "rowid": "1219399",
    "final_x": "3661530.68973",
    "final_y": "530715.862786",
    "longitude": "-90.13115318577623",
    "latitude": "29.953875773182574",
    "geocoded_column": {
      "latitude": "29.953875773182574",
      "longitude": "-90.13115318577623"
    }
  },
  {
    "service_request": "2025-1219398",
    "request_type": "Trash/Recycling",
    "request_reason": "Request a Large Item Pick Up",
    "date_created": "2025-08-18T15:44:52.000",
    "date_modified": "2025-08-18T15:44:54.000",
    "request_status": "Pending",
    "responsible_agency": "Department of Sanitation",
    "final_address": "7616 Kingsport Blvd",
    "address_councildis": "E",
    "status": "Assigned to Contractor",
    "contractor": "Waste Pro",
    "rowid": "1219398",
    "final_x": "3719930.09062",
    "final_y": "572871.757417",
    "longitude": "-89.94514159878175",
    "latitude": "30.06797386425145",
    "geocoded_column": {
      "latitude": "30.06797386425145",
      "longitude": "-89.94514159878175"
    }
  },
  {
    "service_request": "2025-1219397",
    "request_type": "Trash/Recycling",
    "request_reason": "Request a Large Item Pick Up",
    "date_created": "2025-08-18T15:41:53.000",
    "date_modified": "2025-08-18T15:41:54.000",
    "request_status": "Pending",
    "responsible_agency": "Department of Sanitation",
    "final_address": "7021 Wayside Dr",
    "address_councildis": "E",
    "status": "Assigned to Contractor",
    "contractor": "Waste Pro",
    "rowid": "1219397",
    "final_x": "3717762.22629",
    "final_y": "567773.500324",
    "longitude": "-89.95218883564827",
    "latitude": "30.05402781490846",
    "geocoded_column": {
      "latitude": "30.05402781490846",
      "longitude": "-89.95218883564827"
    }
  },
  {
    "service_request": "2025-1219396",
    "request_type": "Streetlights",
    "request_reason": "Streetlight Outage/Malfunction",
    "date_created": "2025-08-18T15:41:28.000",
    "date_modified": "2025-08-18T15:41:30.000",
    "request_status": "Pending",
    "responsible_agency": "Department of Public Works",
    "final_address": "8611 Birch St",
    "address_councildis": "A",
    "status": "Pending",
    "contractor": "Legacy Professional Services",
    "rowid": "1219396",
    "final_x": "3661530.68973",
    "final_y": "530715.862786",
    "longitude": "-90.13115318577623",
    "latitude": "29.953875773182574",
    "geocoded_column": {
      "latitude": "29.953875773182574",
      "longitude": "-90.13115318577623"
    }
  },
  {
    "service_request": "2025-1219395",
    "request_type": "Trash/Recycling",
    "request_reason": "Request a Large Item Pick Up",
    "date_created": "2025-08-18T15:36:31.000",
    "date_modified": "2025-08-18T15:38:10.000",
    "request_status": "Pending",
    "responsible_agency": "Department of Sanitation",
    "final_address": "7119 Barrington Ct",
    "address_councildis": "E",
    "status": "Assigned to Contractor",
    "contractor": "Waste Pro",
    "rowid": "1219395",
    "final_x": "3713966.74565",
    "final_y": "565276.820386",
    "longitude": "-89.96427959622314",
    "latitude": "30.04728820867743",
    "geocoded_column": {
      "latitude": "30.04728820867743",
      "longitude": "-89.96427959622314"
    }
  },
  {
    "service_request": "2025-1219394",
    "request_type": "Trash/Recycling",
    "request_reason": "Request a Large Item Pick Up",
    "date_created": "2025-08-18T15:35:46.000",
    "date_modified": "2025-08-18T15:35:47.000",
    "request_status": "Pending",
    "responsible_agency": "Department of Sanitation",
    "final_address": "814 Louisiana Ave",
    "address_councildis": "B",
    "status": "Assigned to Contractor",
    "contractor": "IV Waste",
    "rowid": "1219394",
    "final_x": "3675358.50536",
    "final_y": "518706.674935",
    "longitude": "-90.08790273776151",
    "latitude": "29.920448276422082",
    "geocoded_column": {
      "latitude": "29.920448276422082",
      "longitude": "-90.08790273776151"
    }
  },
  {
    "service_request": "2025-1219393",
    "request_type": "Roads and Streets",
    "request_reason": "Sidewalk Damaged or Missing",
    "date_created": "2025-08-18T15:35:39.000",
    "date_modified": "2025-08-18T15:35:42.000",
    "request_status": "Pending",
    "responsible_agency": "Department of Public Works",
    "final_address": "2600 BLK Orleans Ave",
    "address_councildis": "D",
    "status": "Pending",
    "rowid": "1219393",
    "final_x": "3676926.52636",
    "final_y": "536928.540432",
    "longitude": "-90.08232525708554",
    "latitude": "29.970505408932876",
    "geocoded_column": {
      "latitude": "29.970505408932876",
      "longitude": "-90.08232525708554"
    }
  },
  {
    "service_request": "2025-1219392",
    "request_type": "Trash/Recycling",
    "request_reason": "Request a Large Item Pick Up",
    "date_created": "2025-08-18T15:33:33.000",
    "date_modified": "2025-08-18T15:33:35.000",
    "request_status": "Pending",
    "responsible_agency": "Department of Sanitation",
    "final_address": "13051 Ashland Dr",
    "address_councildis": "E",
    "status": "Assigned to Contractor",
    "contractor": "Waste Pro",
    "rowid": "1219392",
    "final_x": "3717786.62258",
    "final_y": "567540.085412",
    "longitude": "-89.95212061889477",
    "latitude": "30.05338521162476",
    "geocoded_column": {
      "latitude": "30.05338521162476",
      "longitude": "-89.95212061889477"
    }
  },
  {
    "service_request": "2025-1219391",
    "request_type": "Roads and Streets",
    "request_reason": "Pothole",
    "date_created": "2025-08-18T15:31:01.000",
    "date_modified": "2025-08-18T15:31:03.000",
    "request_status": "Pending",
    "responsible_agency": "Department of Public Works",
    "final_address": "6215 Hurst St",
    "address_councildis": "A",
    "status": "Pending",
    "rowid": "1219391",
    "final_x": "3664668.32039",
    "final_y": "522243.373626",
    "longitude": "-90.12152872358996",
    "latitude": "29.93048825206563",
    "geocoded_column": {
      "latitude": "29.93048825206563",
      "longitude": "-90.12152872358996"
    }
  },
  {
    "service_request": "2025-1219390",
    "request_type": "Trash/Recycling",
    "request_reason": "Missed Trash Pick-Up",
    "date_created": "2025-08-18T15:30:47.000",
    "date_modified": "2025-08-18T16:14:44.000",
    "case_close_date": "2025-08-18T11:14:43.000",
    "request_status": "Closed",
    "responsible_agency": "Department of Sanitation",
    "final_address": "226 S Dupre St",
    "address_councildis": "B",
    "status": "Invalid Request",
    "contractor": "IV Waste",
    "contractor_action": "Invalid Request",
    "rowid": "1219390",
    "final_x": "3674247.29608",
    "final_y": "535080.799942",
    "longitude": "-90.09084986232318",
    "latitude": "29.96550490623715",
    "geocoded_column": {
      "latitude": "29.96550490623715",
      "longitude": "-90.09084986232318"
    }
  },
  {
    "service_request": "2025-1219389",
    "request_type": "Trash/Recycling",
    "request_reason": "Request a Large Item Pick Up",
    "date_created": "2025-08-18T15:29:34.000",
    "date_modified": "2025-08-18T15:29:39.000",
    "request_status": "Pending",
    "responsible_agency": "Department of Sanitation",
    "final_address": "8410 Edinburgh St",
    "address_councildis": "A",
    "status": "Assigned to Contractor",
    "contractor": "IV Waste",
    "rowid": "1219389",
    "final_x": "3666586.29063",
    "final_y": "535197.328198",
    "longitude": "-90.11503916381375",
    "latitude": "29.966051515131124",
    "geocoded_column": {
      "latitude": "29.966051515131124",
      "longitude": "-90.11503916381375"
    }
  },
  {
    "service_request": "2025-1219388",
    "request_type": "Drainage",
    "request_reason": "Drainage Manhole Cover Missing or Damaged",
    "date_created": "2025-08-18T15:27:48.000",
    "date_modified": "2025-08-18T15:27:50.000",
    "request_status": "Pending",
    "responsible_agency": "Sewerage & Water Board",
    "final_address": "14342 Peltier Dr",
    "address_councildis": "E",
    "status": "Pending",
    "rowid": "1219388",
    "final_x": "3730148.08486",
    "final_y": "562234.706143",
    "longitude": "-89.91325770866871",
    "latitude": "30.03838214332048",
    "geocoded_column": {
      "latitude": "30.03838214332048",
      "longitude": "-89.91325770866871"
    }
  },
  {
    "service_request": "2025-1219387",
    "request_type": "Drainage",
    "request_reason": "Catch Basin Frame and Cover Missing or Damaged",
    "date_created": "2025-08-18T15:27:31.000",
    "date_modified": "2025-08-18T15:27:33.000",
    "request_status": "Pending",
    "responsible_agency": "Sewerage & Water Board",
    "final_address": "7434 Jade St",
    "address_councildis": "D",
    "status": "Pending",
    "rowid": "1219387",
    "final_x": "3670934.43073",
    "final_y": "555807.344345",
    "longitude": "-90.10060760559317",
    "latitude": "30.02259409401163",
    "geocoded_column": {
      "latitude": "30.02259409401163",
      "longitude": "-90.10060760559317"
    }
  },
  {
    "service_request": "2025-1219386",
    "request_type": "Trash/Recycling",
    "request_reason": "Request a Large Item Pick Up",
    "date_created": "2025-08-18T15:24:20.000",
    "date_modified": "2025-08-18T15:24:22.000",
    "request_status": "Pending",
    "responsible_agency": "Department of Sanitation",
    "final_address": "1008 Lamanche St",
    "address_councildis": "E",
    "status": "Assigned to Contractor",
    "contractor": "Waste Pro",
    "rowid": "1219386",
    "final_x": "3698220.54576",
    "final_y": "533344.11546",
    "longitude": "-90.01520690922585",
    "latitude": "29.959993086769913",
    "geocoded_column": {
      "latitude": "29.959993086769913",
      "longitude": "-90.01520690922585"
    }
  },
  {
    "service_request": "2025-1219385",
    "request_type": "Street and Traffic Signs",
    "request_reason": "Additional Signage Request",
    "date_created": "2025-08-18T15:21:17.000",
    "date_modified": "2025-08-18T15:21:20.000",
    "request_status": "Pending",
    "responsible_agency": "Department of Public Works",
    "final_address": "2619 S Carrollton Ave",
    "address_councildis": "A",
    "status": "Pending",
    "rowid": "1219385",
    "final_x": "3665607.4016",
    "final_y": "532126.433795",
    "longitude": "-90.11823332234601",
    "latitude": "29.957636146114666",
    "geocoded_column": {
      "latitude": "29.957636146114666",
      "longitude": "-90.11823332234601"
    }
  },
  {
    "service_request": "2025-1219384",
    "request_type": "Trash/Recycling",
    "request_reason": "Request a Large Item Pick Up",
    "date_created": "2025-08-18T15:18:57.000",
    "date_modified": "2025-08-18T15:19:00.000",
    "request_status": "Pending",
    "responsible_agency": "Department of Sanitation",
    "final_address": "1925 Lombard St",
    "address_councildis": "D",
    "status": "Assigned to Contractor",
    "contractor": "IV Waste",
    "rowid": "1219384",
    "final_x": "3681947.48655",
    "final_y": "549076.179475",
    "longitude": "-90.06604420346072",
    "latitude": "30.0037554544129",
    "geocoded_column": {
      "latitude": "30.0037554544129",
      "longitude": "-90.06604420346072"
    }
  },
  {
    "service_request": "2025-1219383",
    "request_type": "Trash/Recycling",
    "request_reason": "Repair Trash Cart",
    "date_created": "2025-08-18T15:16:33.000",
    "date_modified": "2025-08-18T15:16:36.000",
    "request_status": "Pending",
    "responsible_agency": "Department of Sanitation",
    "final_address": "2052 St Denis St",
    "address_councildis": "D",
    "status": "Assigned to Contractor",
    "contractor": "IV Waste",
    "rowid": "1219383",
    "final_x": "3683202.22146",
    "final_y": "546104.353104",
    "longitude": "-90.06218444246346",
    "latitude": "29.99554577937637",
    "geocoded_column": {
      "latitude": "29.99554577937637",
      "longitude": "-90.06218444246346"
    }
  },
  {
    "service_request": "2025-1219382",
    "request_type": "Trash/Recycling",
    "request_reason": "Order Recycling Cart",
    "date_created": "2025-08-18T15:13:38.000",
    "date_modified": "2025-08-18T15:13:40.000",
    "request_status": "Pending",
    "responsible_agency": "Department of Sanitation",
    "final_address": "7031 Edgefield Dr",
    "address_councildis": "E",
    "status": "Pending",
    "rowid": "1219382",
    "final_x": "3718876.86277",
    "final_y": "569139.788198",
    "longitude": "-89.94861359310913",
    "latitude": "30.057747551091882",
    "geocoded_column": {
      "latitude": "30.057747551091882",
      "longitude": "-89.94861359310913"
    }
  },
  {
    "service_request": "2025-1219381",
    "request_type": "Trash/Recycling",
    "request_reason": "Replace Trash Cart",
    "date_created": "2025-08-18T15:11:03.000",
    "date_modified": "2025-08-18T15:11:05.000",
    "request_status": "Pending",
    "responsible_agency": "Department of Sanitation",
    "final_address": "7031 Edgefield Dr",
    "address_councildis": "E",
    "status": "Assigned to Contractor",
    "contractor": "Waste Pro",
    "rowid": "1219381",
    "final_x": "3718876.86277",
    "final_y": "569139.788198",
    "longitude": "-89.94861359310913",
    "latitude": "30.057747551091882",
    "geocoded_column": {
      "latitude": "30.057747551091882",
      "longitude": "-89.94861359310913"
    }
  },
  {
    "service_request": "2025-1219380",
    "request_type": "Trash/Recycling",
    "request_reason": "Illegal Dumping",
    "date_created": "2025-08-18T15:07:28.000",
    "date_modified": "2025-08-18T15:07:31.000",
    "request_status": "Pending",
    "responsible_agency": "Department of Sanitation",
    "final_address": "1500 BLK N Viller St",
    "address_councildis": "C",
    "status": "Pending",
    "rowid": "1219380",
    "final_x": "3682389.47902",
    "final_y": "536903.334446",
    "longitude": "-90.06507352260878",
    "latitude": "29.97027097106168",
    "geocoded_column": {
      "latitude": "29.97027097106168",
      "longitude": "-90.06507352260878"
    }
  },
  {
    "service_request": "2025-1219379",
    "request_type": "Trash/Recycling",
    "request_reason": "Repair Trash Cart",
    "date_created": "2025-08-18T15:03:32.000",
    "date_modified": "2025-08-18T15:05:05.000",
    "request_status": "Pending",
    "responsible_agency": "Department of Sanitation",
    "final_address": "533 Audubon St",
    "address_councildis": "A",
    "status": "Assigned to Contractor",
    "contractor": "IV Waste",
    "rowid": "1219379",
    "final_x": "3662867.04141",
    "final_y": "523907.024124",
    "longitude": "-90.12715983218942",
    "latitude": "29.93511502400341",
    "geocoded_column": {
      "latitude": "29.93511502400341",
      "longitude": "-90.12715983218942"
    }
  },
  {
    "service_request": "2025-1219378",
    "request_type": "Trash/Recycling",
    "request_reason": "Request a Large Item Pick Up",
    "date_created": "2025-08-18T15:02:31.000",
    "date_modified": "2025-08-18T15:02:41.000",
    "request_status": "Pending",
    "responsible_agency": "Department of Sanitation",
    "final_address": "7507 Kingsport Blvd",
    "address_councildis": "E",
    "status": "Assigned to Contractor",
    "contractor": "Waste Pro",
    "rowid": "1219378",
    "final_x": "3720635.67154",
    "final_y": "572614.548713",
    "longitude": "-89.94292101015238",
    "latitude": "30.067243125897118",
    "geocoded_column": {
      "latitude": "30.067243125897118",
      "longitude": "-89.94292101015238"
    }
  },
  {
    "service_request": "2025-1219377",
    "request_type": "Drainage",
    "request_reason": "Catch Basin Not Draining",
    "date_created": "2025-08-18T15:01:54.000",
    "date_modified": "2025-08-18T15:01:57.000",
    "request_status": "Pending",
    "responsible_agency": "Sewerage & Water Board",
    "final_address": "2301 Joliet St",
    "address_councildis": "A",
    "status": "Pending",
    "rowid": "1219377",
    "final_x": "3663554.08666",
    "final_y": "532184.262083",
    "longitude": "-90.12471519460678",
    "latitude": "29.95785486730381",
    "geocoded_column": {
      "latitude": "29.95785486730381",
      "longitude": "-90.12471519460678"
    }
  },
  {
    "service_request": "2025-1219376",
    "request_type": "Drainage",
    "request_reason": "Catch Basin Not Draining",
    "date_created": "2025-08-18T15:01:10.000",
    "date_modified": "2025-08-18T15:01:12.000",
    "request_status": "Pending",
    "responsible_agency": "Sewerage & Water Board",
    "final_address": "1729 Amelia St",
    "address_councildis": "B",
    "status": "Pending",
    "rowid": "1219376",
    "final_x": "3673024.64001",
    "final_y": "521787.11833",
    "longitude": "-90.09516460037656",
    "latitude": "29.92898805299322",
    "geocoded_column": {
      "latitude": "29.92898805299322",
      "longitude": "-90.09516460037656"
    }
  },
  {
    "service_request": "2025-1219375",
    "request_type": "Streetlights",
    "request_reason": "Streetlight Outage/Malfunction",
    "date_created": "2025-08-18T14:59:59.000",
    "date_modified": "2025-08-18T15:00:01.000",
    "request_status": "Pending",
    "responsible_agency": "Department of Public Works",
    "final_address": "10 Tennyson Pl",
    "address_councildis": "C",
    "status": "Pending",
    "contractor": "Legacy Professional Services",
    "rowid": "1219375",
    "final_x": "3704784.35198",
    "final_y": "517460.99839",
    "longitude": "-89.99506578431738",
    "latitude": "29.9161108639139",
    "geocoded_column": {
      "latitude": "29.9161108639139",
      "longitude": "-89.99506578431738"
    }
  },
  {
    "service_request": "2025-1219374",
    "request_type": "Trash/Recycling",
    "request_reason": "Repair Trash Cart",
    "date_created": "2025-08-18T14:59:45.000",
    "date_modified": "2025-08-18T14:59:47.000",
    "request_status": "Pending",
    "responsible_agency": "Department of Sanitation",
    "final_address": "721 Cadiz St",
    "address_councildis": "B",
    "status": "Assigned to Contractor",
    "contractor": "IV Waste",
    "rowid": "1219374",
    "final_x": "3670401.2283",
    "final_y": "518207.832694",
    "longitude": "-90.10356747892436",
    "latitude": "29.91922384393412",
    "geocoded_column": {
      "latitude": "29.91922384393412",
      "longitude": "-90.10356747892436"
    }
  },
  {
    "service_request": "2025-1219373",
    "request_type": "Trash/Recycling",
    "request_reason": "Request a Large Item Pick Up",
    "date_created": "2025-08-18T14:57:20.000",
    "date_modified": "2025-08-18T14:57:21.000",
    "request_status": "Pending",
    "responsible_agency": "Department of Sanitation",
    "final_address": "4313 Palmyra St",
    "address_councildis": "A",
    "status": "Assigned to Contractor",
    "contractor": "IV Waste",
    "rowid": "1219373",
    "final_x": "3669735.89473",
    "final_y": "538435.030473",
    "longitude": "-90.1049831596672",
    "latitude": "29.974861655695168",
    "geocoded_column": {
      "latitude": "29.974861655695168",
      "longitude": "-90.1049831596672"
    }
  },
  {
    "service_request": "2025-1219372",
    "request_type": "Trash/Recycling",
    "request_reason": "Replace Trash Cart",
    "date_created": "2025-08-18T14:56:49.000",
    "date_modified": "2025-08-18T14:56:51.000",
    "request_status": "Pending",
    "responsible_agency": "Department of Sanitation",
    "final_address": "8006 Bass St",
    "address_councildis": "E",
    "status": "Assigned to Contractor",
    "contractor": "Waste Pro",
    "rowid": "1219372",
    "final_x": "3719362.21401",
    "final_y": "574375.162283",
    "longitude": "-89.9468792436874",
    "latitude": "30.072126498183582",
    "geocoded_column": {
      "latitude": "30.072126498183582",
      "longitude": "-89.9468792436874"
    }
  },
  {
    "service_request": "2025-1219371",
    "request_type": "Roads and Streets",
    "request_reason": "Pothole",
    "date_created": "2025-08-18T14:56:11.000",
    "date_modified": "2025-08-18T14:56:13.000",
    "request_status": "Pending",
    "responsible_agency": "Department of Public Works",
    "final_address": "5550 Pasteur Blvd",
    "address_councildis": "D",
    "status": "Pending",
    "rowid": "1219371",
    "final_x": "3682740.41557",
    "final_y": "553618.968663",
    "longitude": "-90.06338015133964",
    "latitude": "30.016222341591778",
    "geocoded_column": {
      "latitude": "30.016222341591778",
      "longitude": "-90.06338015133964"
    }
  },
  {
    "service_request": "2025-1219370",
    "request_type": "Roads and Streets",
    "request_reason": "Debris in Driving Lanes",
    "date_created": "2025-08-18T14:55:49.000",
    "date_modified": "2025-08-18T14:55:52.000",
    "request_status": "Pending",
    "responsible_agency": "Department of Public Works",
    "final_address": "1850 Industry St",
    "address_councildis": "D",
    "status": "Pending",
    "rowid": "1219370",
    "final_x": "3681989.72565",
    "final_y": "542699.435277",
    "longitude": "-90.06613355153333",
    "latitude": "29.986220388892217",
    "geocoded_column": {
      "latitude": "29.986220388892217",
      "longitude": "-90.06613355153333"
    }
  },
  {
    "service_request": "2025-1219369",
    "request_type": "Property Maintenance",
    "request_reason": "Property Maintenance",
    "date_created": "2025-08-18T14:54:50.000",
    "date_modified": "2025-08-18T14:54:52.000",
    "request_status": "Pending",
    "responsible_agency": "Department of Code Enforcement",
    "final_address": "2600 BLK S Derbigny St",
    "address_councildis": "B",
    "status": "Pending",
    "rowid": "1219369",
    "final_x": "3673327.49616",
    "final_y": "527301.922874",
    "longitude": "-90.0940202488466",
    "latitude": "29.944142969938163",
    "geocoded_column": {
      "latitude": "29.944142969938163",
      "longitude": "-90.0940202488466"
    }
  },
  {
    "service_request": "2025-1219368",
    "request_type": "Drainage",
    "request_reason": "Catch Basin Not Draining",
    "date_created": "2025-08-18T14:53:06.000",
    "date_modified": "2025-08-18T14:53:08.000",
    "request_status": "Pending",
    "responsible_agency": "Sewerage & Water Board",
    "final_address": "243 Stafford Pl",
    "address_councildis": "A",
    "status": "Pending",
    "rowid": "1219368",
    "final_x": "3665664.07508",
    "final_y": "554018.661912",
    "longitude": "-90.11732073455657",
    "latitude": "30.017830699267385",
    "geocoded_column": {
      "latitude": "30.017830699267385",
      "longitude": "-90.11732073455657"
    }
  },
  {
    "service_request": "2025-1219367",
    "request_type": "Trash/Recycling",
    "request_reason": "Request a Large Item Pick Up",
    "date_created": "2025-08-18T14:51:59.000",
    "date_modified": "2025-08-18T14:52:02.000",
    "request_status": "Pending",
    "responsible_agency": "Department of Sanitation",
    "final_address": "1536 Hillary St",
    "address_councildis": "A",
    "status": "Assigned to Contractor",
    "contractor": "IV Waste",
    "rowid": "1219367",
    "final_x": "3664127.23143",
    "final_y": "528201.674496",
    "longitude": "-90.12303819190568",
    "latitude": "29.946887405035664",
    "geocoded_column": {
      "latitude": "29.946887405035664",
      "longitude": "-90.12303819190568"
    }
  },
  {
    "service_request": "2025-1219366",
    "request_type": "Roads and Streets",
    "request_reason": "Street Subsidence (Sinking)",
    "date_created": "2025-08-18T14:50:52.000",
    "date_modified": "2025-08-18T14:50:54.000",
    "request_status": "Pending",
    "responsible_agency": "Sewerage & Water Board",
    "final_address": "1117 Adams St",
    "address_councildis": "A",
    "status": "Pending",
    "rowid": "1219366",
    "final_x": "3662951.21139",
    "final_y": "527221.184383",
    "longitude": "-90.12678393524352",
    "latitude": "29.944225474390272",
    "geocoded_column": {
      "latitude": "29.944225474390272",
      "longitude": "-90.12678393524352"
    }
  },
  {
    "service_request": "2025-1219365",
    "request_type": "Streetlights",
    "request_reason": "Streetlight Outage/Malfunction",
    "date_created": "2025-08-18T14:50:41.000",
    "date_modified": "2025-08-18T14:50:43.000",
    "request_status": "Pending",
    "responsible_agency": "Department of Public Works",
    "final_address": "CLEMATIS AVE & BAY ST",
    "address_councildis": "D",
    "status": "Pending",
    "contractor": "Legacy Professional Services",
    "rowid": "1219365",
    "final_x": "3686894.8",
    "final_y": "545164.28",
    "longitude": "-90.05055320025066",
    "latitude": "29.992847762717435",
    "geocoded_column": {
      "latitude": "29.992847762717435",
      "longitude": "-90.05055320025066"
    }
  },
  {
    "service_request": "2025-1219364",
    "request_type": "Trash/Recycling",
    "request_reason": "Request a Large Item Pick Up",
    "date_created": "2025-08-18T14:49:57.000",
    "date_modified": "2025-08-18T14:49:59.000",
    "request_status": "Pending",
    "responsible_agency": "Department of Sanitation",
    "final_address": "9730 W Rockton Cir",
    "address_councildis": "E",
    "status": "Assigned to Contractor",
    "contractor": "Waste Pro",
    "rowid": "1219364",
    "final_x": "3707941.23499",
    "final_y": "562389.991583",
    "longitude": "-89.98343082243048",
    "latitude": "30.039547157464636",
    "geocoded_column": {
      "latitude": "30.039547157464636",
      "longitude": "-89.98343082243048"
    }
  },
  {
    "service_request": "2025-1219363",
    "request_type": "Trash/Recycling",
    "request_reason": "Request a Large Item Pick Up",
    "date_created": "2025-08-18T14:47:16.000",
    "date_modified": "2025-08-18T14:47:18.000",
    "request_status": "Pending",
    "responsible_agency": "Department of Sanitation",
    "final_address": "2424 Tulane Ave",
    "address_councildis": "B",
    "status": "Assigned to Contractor",
    "contractor": "IV Waste",
    "rowid": "1219363",
    "final_x": "3675255.82997",
    "final_y": "533201.61498",
    "longitude": "-90.0877294629103",
    "latitude": "29.96030767169834",
    "geocoded_column": {
      "latitude": "29.96030767169834",
      "longitude": "-90.0877294629103"
    }
  },
  {
    "service_request": "2025-1219362",
    "request_type": "Property Maintenance",
    "request_reason": "Property Maintenance",
    "date_created": "2025-08-18T14:45:12.000",
    "date_modified": "2025-08-18T14:45:14.000",
    "request_status": "Pending",
    "responsible_agency": "Department of Code Enforcement",
    "final_address": "3519 S Tonti St",
    "address_councildis": "B",
    "status": "Pending",
    "rowid": "1219362",
    "final_x": "3671041.34023",
    "final_y": "528295.336512",
    "longitude": "-90.10120457569839",
    "latitude": "29.946942324617794",
    "geocoded_column": {
      "latitude": "29.946942324617794",
      "longitude": "-90.10120457569839"
    }
  },
  {
    "service_request": "2025-1219361",
    "request_type": "Trash/Recycling",
    "request_reason": "Request a Large Item Pick Up",
    "date_created": "2025-08-18T14:44:50.000",
    "date_modified": "2025-08-18T14:44:52.000",
    "request_status": "Pending",
    "responsible_agency": "Department of Sanitation",
    "final_address": "2508 Burgundy St",
    "address_councildis": "C",
    "status": "Assigned to Contractor",
    "contractor": "IV Waste",
    "rowid": "1219361",
    "final_x": "3686643.19311",
    "final_y": "535681.161031",
    "longitude": "-90.05168303903038",
    "latitude": "29.966780275883714",
    "geocoded_column": {
      "latitude": "29.966780275883714",
      "longitude": "-90.05168303903038"
    }
  },
  {
    "service_request": "2025-1219360",
    "request_type": "Property Maintenance",
    "request_reason": "Property Maintenance",
    "date_created": "2025-08-18T14:44:39.000",
    "date_modified": "2025-08-18T14:44:42.000",
    "request_status": "Pending",
    "responsible_agency": "Department of Code Enforcement",
    "final_address": "5700 E Louis Prima Dr",
    "address_councildis": "E",
    "status": "Pending",
    "rowid": "1219360",
    "final_x": "3716335.15768",
    "final_y": "561893.531743",
    "longitude": "-89.95692265359399",
    "latitude": "30.03790751799672",
    "geocoded_column": {
      "latitude": "30.03790751799672",
      "longitude": "-89.95692265359399"
    }
  },
  {
    "service_request": "2025-1219359",
    "request_type": "Trash/Recycling",
    "request_reason": "Repair Trash Cart",
    "date_created": "2025-08-18T14:41:01.000",
    "date_modified": "2025-08-18T14:41:03.000",
    "request_status": "Pending",
    "responsible_agency": "Department of Sanitation",
    "final_address": "2427 Onzaga St",
    "address_councildis": "D",
    "status": "Assigned to Contractor",
    "contractor": "IV Waste",
    "rowid": "1219359",
    "final_x": "3680029.67855",
    "final_y": "539960.114122",
    "longitude": "-90.07241979296738",
    "latitude": "29.97874766737351",
    "geocoded_column": {
      "latitude": "29.97874766737351",
      "longitude": "-90.07241979296738"
    }
  },
  {
    "service_request": "2025-1219358",
    "request_type": "Streetlights",
    "request_reason": "Streetlight Outage/Malfunction",
    "date_created": "2025-08-18T14:41:01.000",
    "date_modified": "2025-08-18T14:41:03.000",
    "request_status": "Pending",
    "responsible_agency": "Department of Public Works",
    "final_address": "8020 Berg Rd",
    "address_councildis": "E",
    "status": "Pending",
    "contractor": "Legacy Professional Services",
    "rowid": "1219358",
    "final_x": "3711158.88133",
    "final_y": "567849.530468",
    "longitude": "-89.9730573656488",
    "latitude": "30.054454065098465",
    "geocoded_column": {
      "latitude": "30.054454065098465",
      "longitude": "-89.9730573656488"
    }
  },
  {
    "service_request": "2025-1219357",
    "request_type": "Property Maintenance",
    "request_reason": "Property Maintenance",
    "date_created": "2025-08-18T14:40:26.000",
    "date_modified": "2025-08-18T14:40:30.000",
    "request_status": "Pending",
    "responsible_agency": "Department of Code Enforcement",
    "final_address": "1120 Independence St",
    "address_councildis": "C",
    "status": "Pending",
    "rowid": "1219357",
    "final_x": "3690981.18115",
    "final_y": "535761.177479",
    "longitude": "-90.03798087870047",
    "latitude": "29.96686616268025",
    "geocoded_column": {
      "latitude": "29.96686616268025",
      "longitude": "-90.03798087870047"
    }
  },
  {
    "service_request": "2025-1219356",
    "request_type": "Property Maintenance",
    "request_reason": "Property Maintenance",
    "date_created": "2025-08-18T14:38:19.000",
    "date_modified": "2025-08-18T14:38:21.000",
    "request_status": "Pending",
    "responsible_agency": "Department of Code Enforcement",
    "final_address": "3001 Clouet St",
    "address_councildis": "D",
    "status": "Pending",
    "rowid": "1219356",
    "final_x": "3690964.75894",
    "final_y": "543559.06459",
    "longitude": "-90.0377543020033",
    "latitude": "29.9883080883185",
    "geocoded_column": {
      "latitude": "29.9883080883185",
      "longitude": "-90.0377543020033"
    }
  },
  {
    "service_request": "2025-1219355",
    "request_type": "Trash/Recycling",
    "request_reason": "Request a Large Item Pick Up",
    "date_created": "2025-08-18T14:37:58.000",
    "date_modified": "2025-08-18T14:38:00.000",
    "request_status": "Pending",
    "responsible_agency": "Department of Sanitation",
    "final_address": "4020 Palmyra St",
    "address_councildis": "A",
    "status": "Assigned to Contractor",
    "contractor": "IV Waste",
    "rowid": "1219355",
    "final_x": "3670793.7675",
    "final_y": "537467.830536",
    "longitude": "-90.10167495606161",
    "latitude": "29.97217095723327",
    "geocoded_column": {
      "latitude": "29.97217095723327",
      "longitude": "-90.10167495606161"
    }
  },
  {
    "service_request": "2025-1219354",
    "request_type": "Drainage",
    "request_reason": "Catch Basin Not Draining",
    "date_created": "2025-08-18T14:35:56.000",
    "date_modified": "2025-08-18T14:38:26.000",
    "request_status": "Pending",
    "responsible_agency": "Sewerage & Water Board",
    "final_address": "338 36Th St",
    "address_councildis": "A",
    "status": "Pending",
    "rowid": "1219354",
    "final_x": "3665085.3552",
    "final_y": "551877.471382",
    "longitude": "-90.11922095778962",
    "latitude": "30.01196004896911",
    "geocoded_column": {
      "latitude": "30.01196004896911",
      "longitude": "-90.11922095778962"
    }
  },
  {
    "service_request": "2025-1219353",
    "request_type": "Trash/Recycling",
    "request_reason": "Illegal Dumping",
    "date_created": "2025-08-18T14:34:58.000",
    "date_modified": "2025-08-18T14:35:00.000",
    "request_status": "Pending",
    "responsible_agency": "Department of Sanitation",
    "final_address": "2616 Joliet St",
    "address_councildis": "A",
    "status": "Pending",
    "rowid": "1219353",
    "final_x": "3664376.36564",
    "final_y": "533208.103172",
    "longitude": "-90.12208448534943",
    "latitude": "29.960646221732194",
    "geocoded_column": {
      "latitude": "29.960646221732194",
      "longitude": "-90.12208448534943"
    }
  },