[
  {
    "service_request": "2024-1107400",
    "request_type": "Roads/Drainage",
    "request_reason": "Road Shoulder Repair",
    "date_created": "2024-06-26T23:51:26.000",
    "date_modified": "2024-06-26T23:51:26.000",
    "request_status": "Pending",
    "responsible_agency": "Department of Public Works",
    "final_address": "3600 BLK Coliseum St",
    "address_councildis": "B",
    "status": "Pending",
    "rowid": "1107400",
    "final_x": "3673468.18157",
    "final_y": "520161.500475",
    "longitude": "-90.09381993812887",
    "latitude": "29.924504940839263",
    "geocoded_column": {
      "latitude": "29.924504940839263",
      "longitude": "-90.09381993812887"
    }
  },
  {
    "service_request": "2024-1107399",
    "request_type": "Roads/Drainage",
    "request_reason": "Pothole",
    "date_created": "2024-06-26T23:30:15.000",
    "date_modified": "2024-06-26T23:30:15.000",
    "request_status": "Pending",
    "responsible_agency": "Department of Public Works",
    "final_address": "3900 BLK Pitt St",
    "address_councildis": "B",
    "status": "Pending",
    "rowid": "1107399",
    "final_x": "3672519.83603",
    "final_y": "520734.901231",
    "longitude": "-90.09679401515201",
    "latitude": "29.926109783282126",
    "geocoded_column": {
      "latitude": "29.926109783282126",
      "longitude": "-90.09679401515201"
    }
  },
  {
    "service_request": "2024-1107398",
    "request_type": "Trash/Recycling",
    "request_reason": "Order Recycling Cart",
    "date_created": "2024-06-26T22:50:27.000",
    "date_modified": "2024-06-26T22:50:27.000",
    "request_status": "Pending",
    "responsible_agency": "Department of Sanitation",
    "final_address": "4136 Toulouse St",
    "address_councildis": "A",
    "status": "Pending",
    "rowid": "1107398",
    "final_x": "3672001.42132",
    "final_y": "539864.375114",
    "longitude": "-90.0977793618108",
    "latitude": "29.978724893700036",
    "geocoded_column": {
      "latitude": "29.978724893700036",
      "longitude": "-90.0977793618108"
    }
  },
  {
    "service_request": "2024-1107397",
    "request_type": "Trash/Recycling",
    "request_reason": "Request a Large Item Pick Up",
    "date_created": "2024-06-26T22:50:15.000",
    "date_modified": "2024-06-26T22:50:15.000",
    "request_status": "Pending",
    "responsible_agency": "Department of Sanitation",
    "final_address": "1359 Magazine St",
    "address_councildis": "B",
    "status": "Assigned to Contractor",
    "contractor": "IV Waste",
    "rowid": "1107397",
    "final_x": "3680379.00667",
    "final_y": "524761.252028",
    "longitude": "-90.07184497036754",
    "latitude": "29.93694537608828",
    "geocoded_column": {
      "latitude": "29.93694537608828",
      "longitude": "-90.07184497036754"
    }
  },
  {
    "service_request": "2024-1107396",
    "request_type": "Traffic Signals/Signs/Striping/Streetlights",
    "request_reason": "Street Name Sign Damaged or Missing",
    "date_created": "2024-06-26T22:33:58.000",
    "date_modified": "2024-06-26T22:33:58.000",
    "request_status": "Pending",
    "responsible_agency": "Department of Public Works",
    "final_address": "N CLAIBORNE AVE & TUPELO ST",
    "address_councildis": "E",
    "status": "Pending",
    "rowid": "1107396",
    "final_x": "3700137.3",
    "final_y": "535072.18",
    "longitude": "-90.00909119174081",
    "latitude": "29.964683878363545",
    "geocoded_column": {
      "latitude": "29.964683878363545",
      "longitude": "-90.00909119174081"
    }
  },
  {
    "service_request": "2024-1107395",
    "request_type": "Trash/Recycling",
    "request_reason": "Replace Trash Cart",
    "date_created": "2024-06-26T22:25:52.000",
    "date_modified": "2024-06-26T22:25:53.000",
    "request_status": "Pending",
    "responsible_agency": "Department of Sanitation",
    "final_address": "6800 Lake Willow Dr",
    "address_councildis": "E",
    "status": "Assigned to Contractor",
    "contractor": "Waste Pro",
    "rowid": "1107395",
    "final_x": "3703749.17604",
    "final_y": "559078.689116",
    "longitude": "-89.99680095414168",
    "latitude": "30.03057749880043",
    "geocoded_column": {
      "latitude": "30.03057749880043",
      "longitude": "-89.99680095414168"
    }
  },
  {
    "service_request": "2024-1107394",
    "request_type": "Traffic Signals/Signs/Striping/Streetlights",
    "request_reason": "Street Light Outage/Malfunction",
    "date_created": "2024-06-26T22:25:39.000",
    "date_modified": "2024-06-26T22:25:39.000",
    "request_status": "Pending",
    "responsible_agency": "Department of Public Works",
    "final_address": "5661 Catina St",
    "address_councildis": "A",
    "status": "Assigned to Contractor",
    "contractor": "Legacy Professional Services",
    "rowid": "1107394",
    "final_x": "3666704.69473",
    "final_y": "545226.211919",
    "longitude": "-90.11432831278773",
    "latitude": "29.993624108255926",
    "geocoded_column": {
      "latitude": "29.993624108255926",
      "longitude": "-90.11432831278773"
    }
  },
  {
    "service_request": "2024-1107393",
    "request_type": "Roads/Drainage",
    "request_reason": "Pothole",
    "date_created": "2024-06-26T22:16:00.000",
    "date_modified": "2024-06-26T22:16:00.000",
    "request_status": "Pending",
    "responsible_agency": "Department of Public Works",
    "final_address": "1400 BLK Valence St",
    "address_councildis": "B",
    "status": "Pending",
    "rowid": "1107393",
    "final_x": "3669784.65285",
    "final_y": "520336.257015",
    "longitude": "-90.1054417057675",
    "latitude": "29.925094517046503",
    "geocoded_column": {
      "latitude": "29.925094517046503",
      "longitude": "-90.1054417057675"
    }
  },
  {
    "service_request": "2024-1107392",
    "request_type": "Roads/Drainage",
    "request_reason": "Damaged Sidewalk",
    "date_created": "2024-06-26T21:50:57.000",
    "date_modified": "2024-06-26T21:50:57.000",
    "request_status": "Pending",
    "responsible_agency": "Department of Public Works",
    "final_address": "1725 Dufossat St",
    "address_councildis": "B",
    "status": "Pending",
    "rowid": "1107392",
    "final_x": "3668192.68743",
    "final_y": "522036.060218",
    "longitude": "-90.11040977787289",
    "latitude": "29.92981524824353",
    "geocoded_column": {
      "latitude": "29.92981524824353",
      "longitude": "-90.11040977787289"
    }
  },
  {
    "service_request": "2024-1107391",
    "request_type": "Traffic Signals/Signs/Striping/Streetlights",
    "request_reason": "Street Light Outage/Malfunction",
    "date_created": "2024-06-26T21:50:18.000",
    "date_modified": "2024-06-26T21:50:19.000",
    "request_status": "Pending",
    "responsible_agency": "Department of Public Works",
    "final_address": "3600 Octavia St",
    "address_councildis": "A",
    "status": "Assigned to Contractor",
    "contractor": "Legacy Professional Services",
    "rowid": "1107391",
    "final_x": "3668581.2091",
    "final_y": "528741.315392",
    "longitude": "-90.10895709645666",
    "latitude": "29.948241131648793",
    "geocoded_column": {
      "latitude": "29.948241131648793",
      "longitude": "-90.10895709645666"
    }
  },
  {
    "service_request": "2024-1107390",
    "request_type": "Traffic Signals/Signs/Striping/Streetlights",
    "request_reason": "Street Light Outage/Malfunction",
    "date_created": "2024-06-26T21:44:27.000",
    "date_modified": "2024-06-26T21:44:28.000",
    "request_status": "Pending",
    "responsible_agency": "Department of Public Works",
    "final_address": "5717 Wickfield Dr",
    "address_councildis": "D",
    "status": "Assigned to Contractor",
    "contractor": "Legacy Professional Services",
    "rowid": "1107390",
    "final_x": "3681089.49077",
    "final_y": "553883.522519",
    "longitude": "-90.06858712236067",
    "latitude": "30.016999976526424",
    "geocoded_column": {
      "latitude": "30.016999976526424",
      "longitude": "-90.06858712236067"
    }
  },
  {
    "service_request": "2024-1107389",
    "request_type": "Trash/Recycling",
    "request_reason": "Request a Large Item Pick Up",
    "date_created": "2024-06-26T21:33:41.000",
    "date_modified": "2024-06-26T21:33:42.000",
    "request_status": "Pending",
    "responsible_agency": "Department of Sanitation",
    "final_address": "1031 Congress St",
    "address_councildis": "C",
    "status": "Assigned to Contractor",
    "contractor": "IV Waste",
    "rowid": "1107389",
    "final_x": "3690702.97174",
    "final_y": "535385.953158",
    "longitude": "-90.03887284734326",
    "latitude": "29.96584307256384",
    "geocoded_column": {
      "latitude": "29.96584307256384",
      "longitude": "-90.03887284734326"
    }
  },
  {
    "service_request": "2024-1107387",
    "request_type": "Traffic Signals/Signs/Striping/Streetlights",
    "request_reason": "Street Light Outage/Malfunction",
    "date_created": "2024-06-26T20:49:16.000",
    "date_modified": "2024-06-26T20:49:16.000",
    "request_status": "Pending",
    "responsible_agency": "Department of Public Works",
    "final_address": "2428 St Philip St",
    "address_councildis": "D",
    "status": "Assigned to Contractor",
    "contractor": "Legacy Professional Services",
    "rowid": "1107387",
    "final_x": "3678268.9972",
    "final_y": "537137.54804",
    "longitude": "-90.07807834773604",
    "latitude": "29.97103973868065",
    "geocoded_column": {
      "latitude": "29.97103973868065",
      "longitude": "-90.07807834773604"
    }
  },
  {
    "service_request": "2024-1107386",
    "request_type": "Trash/Recycling",
    "request_reason": "Request a Large Item Pick Up",
    "date_created": "2024-06-26T20:48:54.000",
    "date_modified": "2024-06-26T20:48:55.000",
    "request_status": "Pending",
    "responsible_agency": "Department of Sanitation",
    "final_address": "6841 Milne Blvd",
    "address_councildis": "A",
    "status": "Assigned to Contractor",
    "contractor": "IV Waste",
    "rowid": "1107386",
    "final_x": "3667672.09025",
    "final_y": "553092.140247",
    "longitude": "-90.11100738949334",
    "latitude": "30.01522434405509",
    "geocoded_column": {
      "latitude": "30.01522434405509",
      "longitude": "-90.11100738949334"
    }
  },
  {
    "service_request": "2024-1107385",
    "request_type": "Trash/Recycling",
    "request_reason": "Replace Trash Cart",
    "date_created": "2024-06-26T20:42:27.000",
    "date_modified": "2024-06-26T20:42:28.000",
    "request_status": "Pending",
    "responsible_agency": "Department of Sanitation",
    "final_address": "3418 Third St",
    "address_councildis": "B",
    "status": "Assigned to Contractor",
    "contractor": "IV Waste",
    "rowid": "1107385",
    "final_x": "3672801.54811",
    "final_y": "528312.663744",
    "longitude": "-90.09564634777988",
    "latitude": "29.94693780677625",
    "geocoded_column": {
      "latitude": "29.94693780677625",
      "longitude": "-90.09564634777988"
    }
  },
  {
    "service_request": "2024-1107384",
    "request_type": "Traffic Signals/Signs/Striping/Streetlights",
    "request_reason": "Street Light Outage/Malfunction",
    "date_created": "2024-06-26T20:41:09.000",
    "date_modified": "2024-06-26T20:41:10.000",
    "request_status": "Pending",
    "responsible_agency": "Department of Public Works",
    "final_address": "2436 St Louis St",
    "address_councildis": "B",
    "status": "Assigned to Contractor",
    "contractor": "Legacy Professional Services",
    "rowid": "1107384",
    "final_x": "3677055.17474",
    "final_y": "535631.978694",
    "longitude": "-90.08196368848705",
    "latitude": "29.966936442976856",
    "geocoded_column": {
      "latitude": "29.966936442976856",
      "longitude": "-90.08196368848705"
    }
  },
  {
    "service_request": "2024-1107383",
    "request_type": "Property Maintenance",
    "request_reason": "Property Maintenance",
    "date_created": "2024-06-26T20:33:41.000",
    "date_modified": "2024-06-26T20:33:41.000",
    "request_status": "Pending",
    "responsible_agency": "Department of Code Enforcement",
    "final_address": "5060 Press Dr",
    "address_councildis": "D",
    "status": "Pending",
    "rowid": "1107383",
    "final_x": "3689309.23612",
    "final_y": "551994.54607",
    "longitude": "-90.04268342701977",
    "latitude": "30.011553961306074",
    "geocoded_column": {
      "latitude": "30.011553961306074",
      "longitude": "-90.04268342701977"
    }
  },
  {
    "service_request": "2024-1107381",
    "request_type": "Trash/Recycling",
    "request_reason": "Request a Large Item Pick Up",
    "date_created": "2024-06-26T20:05:10.000",
    "date_modified": "2024-06-26T20:05:11.000",
    "request_status": "Pending",
    "responsible_agency": "Department of Sanitation",
    "final_address": "5430 Norgate Dr, New Orleans, Louisiana, 70127",
    "address_councildis": "E",
    "status": "Assigned to Contractor",
    "contractor": "Waste Pro",
    "rowid": "1107381",
    "final_x": "3707138.88017",
    "final_y": "557812.371547",
    "longitude": "-89.9861365716032",
    "latitude": "30.026986470451586",
    "geocoded_column": {
      "latitude": "30.026986470451586",
      "longitude": "-89.9861365716032"
    }
  },
  {
    "service_request": "2024-1107380",
    "request_type": "Mosquito, Termite & Rodent Control",
    "request_reason": "Mosquito Complaint",
    "date_created": "2024-06-26T19:58:20.000",
    "date_modified": "2024-06-26T19:58:20.000",
    "request_status": "Pending",
    "responsible_agency": "Mosquito, Termite & Rodent Control Board",
    "final_address": "2626 Lavender St",
    "address_councildis": "D",
    "status": "Pending",
    "rowid": "1107380",
    "final_x": "3687322.62223",
    "final_y": "546900.063505",
    "longitude": "-90.04914033859578",
    "latitude": "29.997607366275663",
    "geocoded_column": {
      "latitude": "29.997607366275663",
      "longitude": "-90.04914033859578"
    }
  },
  {
    "service_request": "2024-1107379",
    "request_type": "Property Maintenance",
    "request_reason": "Property Maintenance",
    "date_created": "2024-06-26T19:49:51.000",
    "date_modified": "2024-06-26T19:49:51.000",
    "request_status": "Pending",
    "responsible_agency": "Department of Code Enforcement",
    "final_address": "4917 Nottingham Dr",
    "address_councildis": "E",
    "status": "Pending",
    "rowid": "1107379",
    "final_x": "3716395.26584",
    "final_y": "557671.827611",
    "longitude": "-89.95689296480201",
    "latitude": "30.026297540908427",
    "geocoded_column": {
      "latitude": "30.026297540908427",
      "longitude": "-89.95689296480201"
    }
  },
  {
    "service_request": "2024-1107378",
    "request_type": "Trash/Recycling",
    "request_reason": "Request a Large Item Pick Up",
    "date_created": "2024-06-26T19:48:00.000",
    "date_modified": "2024-06-26T19:48:00.000",
    "request_status": "Pending",
    "responsible_agency": "Department of Sanitation",
    "final_address": "1515 Mandeville St",
    "address_councildis": "C",
    "status": "Assigned to Contractor",
    "contractor": "IV Waste",
    "rowid": "1107378",
    "final_x": "3685680.94108",
    "final_y": "537978.927689",
    "longitude": "-90.05464084546837",
    "latitude": "29.97312789355846",
    "geocoded_column": {
      "latitude": "29.97312789355846",
      "longitude": "-90.05464084546837"
    }
  },
  {
    "service_request": "2024-1107377",
    "request_type": "Trash/Recycling",
    "request_reason": "Request a Large Item Pick Up",
    "date_created": "2024-06-26T19:46:09.000",
    "date_modified": "2024-06-26T19:46:09.000",
    "request_status": "Pending",
    "responsible_agency": "Department of Sanitation",
    "final_address": "6027 Chestnut St",
    "address_councildis": "A",
    "status": "Assigned to Contractor",
    "contractor": "IV Waste",
    "rowid": "1107377",
    "final_x": "3664701.0041",
    "final_y": "520032.408568",
    "longitude": "-90.1214993624185",
    "latitude": "29.924407843937658",
    "geocoded_column": {
      "latitude": "29.924407843937658",
      "longitude": "-90.1214993624185"
    }
  },
  {
    "service_request": "2024-1107376",
    "request_type": "Trash/Recycling",
    "request_reason": "Missed Trash Pick-Up",
    "date_created": "2024-06-26T19:17:22.000",
    "date_modified": "2024-06-26T19:17:23.000",
    "request_status": "Pending",
    "responsible_agency": "Department of Sanitation",
    "final_address": "3816 Vincennes Pl",
    "address_councildis": "A",
    "status": "Assigned to Contractor",
    "contractor": "IV Waste",
    "rowid": "1107376",
    "final_x": "3668240.00961",
    "final_y": "529607.054657",
    "longitude": "-90.11000522328568",
    "latitude": "29.950631652988392",
    "geocoded_column": {
      "latitude": "29.950631652988392",
      "longitude": "-90.11000522328568"
    }
  },
  {
    "service_request": "2024-1107375",
    "request_type": "Trash/Recycling",
    "request_reason": "Missed Trash Pick-Up",
    "date_created": "2024-06-26T19:14:25.000",
    "date_modified": "2024-06-26T19:14:26.000",
    "request_status": "Pending",
    "responsible_agency": "Department of Sanitation",
    "final_address": "3816 Vincennes Pl",
    "address_councildis": "A",
    "status": "Assigned to Contractor",
    "contractor": "IV Waste",
    "rowid": "1107375",
    "final_x": "3668240.00961",
    "final_y": "529607.054657",
    "longitude": "-90.11000522328568",
    "latitude": "29.950631652988392",
    "geocoded_column": {
      "latitude": "29.950631652988392",
      "longitude": "-90.11000522328568"
    }
  },
  {
    "service_request": "2024-1107374",
    "request_type": "Trash/Recycling",
    "request_reason": "Missed Trash Pick-Up",
    "date_created": "2024-06-26T19:13:20.000",
    "date_modified": "2024-06-26T19:13:20.000",
    "request_status": "Pending",
    "responsible_agency": "Department of Sanitation",
    "final_address": "3816 Vincennes Pl",
    "address_councildis": "A",
    "status": "Assigned to Contractor",
    "contractor": "IV Waste",
    "rowid": "1107374",
    "final_x": "3668240.00961",
    "final_y": "529607.054657",
    "longitude": "-90.11000522328568",
    "latitude": "29.950631652988392",
    "geocoded_column": {
      "latitude": "29.950631652988392",
      "longitude": "-90.11000522328568"
    }
  },
  {
    "service_request": "2024-1107373",
    "request_type": "Trash/Recycling",
    "request_reason": "Request a Large Item Pick Up",
    "date_created": "2024-06-26T18:56:29.000",
    "date_modified": "2024-06-26T18:56:29.000",
    "request_status": "Pending",
    "responsible_agency": "Department of Sanitation",
    "final_address": "4217 St Charles Ave",
    "address_councildis": "B",
    "status": "Assigned to Contractor",
    "contractor": "IV Waste",
    "rowid": "1107373",
    "final_x": "3671448.10414",
    "final_y": "520991.677817",
    "longitude": "-90.10016844674985",
    "latitude": "29.926847594992772",
    "geocoded_column": {
      "latitude": "29.926847594992772",
      "longitude": "-90.10016844674985"
    }
  },
  {
    "service_request": "2024-1107372",
    "request_type": "Roads/Drainage",
    "request_reason": "Catch Basin - Clogged",
    "date_created": "2024-06-26T18:55:04.000",
    "date_modified": "2024-06-26T18:55:04.000",
    "request_status": "Pending",
    "responsible_agency": "Department of Public Works",
    "final_address": "1614 Euterpe St",
    "address_councildis": "B",
    "status": "Pending",
    "rowid": "1107372",
    "final_x": "3678722.17435",
    "final_y": "525082.476349",
    "longitude": "-90.07706456010625",
    "latitude": "29.937878688443377",
    "geocoded_column": {
      "latitude": "29.937878688443377",
      "longitude": "-90.07706456010625"
    }
  },
  {
    "service_request": "2024-1107371",
    "request_type": "Mosquito, Termite & Rodent Control",
    "request_reason": "Non-Rodent Complaint (Mice, Possums, Snakes)",
    "date_created": "2024-06-26T18:52:03.000",
    "date_modified": "2024-06-26T18:52:03.000",
    "request_status": "Pending",
    "responsible_agency": "Mosquito, Termite & Rodent Control Board",
    "final_address": "2921 Hamilton St",
    "address_councildis": "A",
    "status": "Pending",
    "rowid": "1107371",
    "final_x": "3663615.45344",
    "final_y": "535378.168134",
    "longitude": "-90.12441500836007",
    "latitude": "29.96663528438573",
    "geocoded_column": {
      "latitude": "29.96663528438573",
      "longitude": "-90.12441500836007"
    }
  },
  {
    "service_request": "2024-1107370",
    "request_type": "Abandoned Vehicles",
    "request_reason": "Abandoned/Junk Vehicles",
    "date_created": "2024-06-26T18:42:11.000",
    "date_modified": "2024-06-26T18:42:11.000",
    "request_status": "Pending",
    "responsible_agency": "Department of Public Works",
    "final_address": "4221 St Charles Ave",
    "address_councildis": "B",
    "status": "Pending",
    "rowid": "1107370",
    "final_x": "3671403.00283",
    "final_y": "520993.912185",
    "longitude": "-90.10031074400827",
    "latitude": "29.92685507336311",
    "geocoded_column": {
      "latitude": "29.92685507336311",
      "longitude": "-90.10031074400827"
    }
  },
  {
    "service_request": "2024-1107369",
    "request_type": "Trash/Recycling",
    "request_reason": "Request a Large Item Pick Up",
    "date_created": "2024-06-26T18:35:08.000",
    "date_modified": "2024-06-26T18:35:09.000",
    "request_status": "Pending",
    "responsible_agency": "Department of Sanitation",
    "final_address": "3031 Chippewa St",
    "address_councildis": "B",
    "status": "Assigned to Contractor",
    "contractor": "IV Waste",
    "rowid": "1107369",
    "final_x": "3676963.07765",
    "final_y": "519014.525047",
    "longitude": "-90.08282724658535",
    "latitude": "29.9212467121667",
    "geocoded_column": {
      "latitude": "29.9212467121667",
      "longitude": "-90.08282724658535"
    }
  },
  {
    "service_request": "2024-1107368",
    "request_type": "Trash/Recycling",
    "request_reason": "Replace Trash Cart",
    "date_created": "2024-06-26T18:30:50.000",
    "date_modified": "2024-06-26T18:30:51.000",
    "request_status": "Pending",
    "responsible_agency": "Department of Sanitation",
    "final_address": "5919 Memphis St",
    "address_councildis": "A",
    "status": "Assigned to Contractor",
    "contractor": "IV Waste",
    "rowid": "1107368",
    "final_x": "3669228.96007",
    "final_y": "546729.853521",
    "longitude": "-90.10630365829512",
    "latitude": "29.99768452200366",
    "geocoded_column": {
      "latitude": "29.99768452200366",
      "longitude": "-90.10630365829512"
    }
  },
  {
    "service_request": "2024-1107367",
    "request_type": "Trash/Recycling",
    "request_reason": "Stop Trash Service",
    "date_created": "2024-06-26T18:23:36.000",
    "date_modified": "2024-06-26T18:23:37.000",
    "request_status": "Pending",
    "responsible_agency": "Department of Sanitation",
    "final_address": "424 Fern St",
    "address_councildis": "A",
    "status": "Assigned to Contractor",
    "contractor": "IV Waste",
    "rowid": "1107367",
    "final_x": "3660764.7849",
    "final_y": "525972.910141",
    "longitude": "-90.13372840169654",
    "latitude": "29.94085624001353",
    "geocoded_column": {
      "latitude": "29.94085624001353",
      "longitude": "-90.13372840169654"
    }
  },
  {
    "service_request": "2024-1107366",
    "request_type": "Trash/Recycling",
    "request_reason": "Request a Large Item Pick Up",
    "date_created": "2024-06-26T18:18:42.000",
    "date_modified": "2024-06-26T18:18:42.000",
    "request_status": "Pending",
    "responsible_agency": "Department of Sanitation",
    "final_address": "214 Rhodes Ave, New Orleans, Louisiana, 70131",
    "address_councildis": "C",
    "status": "Assigned to Contractor",
    "contractor": "Richards Disposal",
    "rowid": "1107366",
    "final_x": "3706672.12254",
    "final_y": "519472.681591",
    "longitude": "-89.98903279338515",
    "latitude": "29.921581534548103",
    "geocoded_column": {
      "latitude": "29.921581534548103",
      "longitude": "-89.98903279338515"
    }
  },
  {
    "service_request": "2024-1107365",
    "request_type": "Trash/Recycling",
    "request_reason": "Order Trash Cart",
    "date_created": "2024-06-26T18:16:36.000",
    "date_modified": "2024-06-26T18:16:37.000",
    "request_status": "Pending",
    "responsible_agency": "Department of Sanitation",
    "final_address": "322 S Telemachus St 70119",
    "status": "Assigned to Contractor",
    "rowid": "1107365",
    "longitude": "0.0",
    "latitude": "0.0",
    "geocoded_column": {
      "latitude": "0.0",
      "longitude": "0.0"
    }
  },
  {
    "service_request": "2024-1107364",
    "request_type": "Trash/Recycling",
    "request_reason": "Missed Trash Pick-Up",
    "date_created": "2024-06-26T18:15:11.000",
    "date_modified": "2024-06-26T18:15:11.000",
    "request_status": "Pending",
    "responsible_agency": "Department of Sanitation",
    "final_address": "NEW",
    "address_councildis": "B",
    "status": "Assigned to Contractor",
    "contractor": "IV Waste",
    "rowid": "1107364",
    "final_x": "3672187.92769",
    "final_y": "534175.720965",
    "longitude": "-90.09738410181727",
    "latitude": "29.963077482958436",
    "geocoded_column": {
      "latitude": "29.963077482958436",
      "longitude": "-90.09738410181727"
    }
  },
  {
    "service_request": "2024-1107363",
    "request_type": "Trash/Recycling",
    "request_reason": "Illegal Dumping",
    "date_created": "2024-06-26T18:07:52.000",
    "date_modified": "2024-06-26T18:07:52.000",
    "request_status": "Pending",
    "responsible_agency": "Department of Sanitation",
    "final_address": "1335 Mandeville St",
    "address_councildis": "C",
    "status": "Pending",
    "rowid": "1107363",
    "final_x": "3685728.6198",
    "final_y": "537400.226888",
    "longitude": "-90.05451066454557",
    "latitude": "29.971535205357178",
    "geocoded_column": {
      "latitude": "29.971535205357178",
      "longitude": "-90.05451066454557"
    }
  },
  {
    "service_request": "2024-1107362",
    "request_type": "Trash/Recycling",
    "request_reason": "Replace Trash Cart",
    "date_created": "2024-06-26T18:07:07.000",
    "date_modified": "2024-06-26T18:07:07.000",
    "request_status": "Pending",
    "responsible_agency": "Department of Sanitation",
    "final_address": "620 Webster St",
    "address_councildis": "A",
    "status": "Assigned to Contractor",
    "contractor": "IV Waste",
    "rowid": "1107362",
    "final_x": "3663904.01523",
    "final_y": "518957.941303",
    "longitude": "-90.12405098917937",
    "latitude": "29.921476547629297",
    "geocoded_column": {
      "latitude": "29.921476547629297",
      "longitude": "-90.12405098917937"
    }
  },
  {
    "service_request": "2024-1107361",
    "request_type": "Trash/Recycling",
    "request_reason": "Missed Trash Pick-Up",
    "date_created": "2024-06-26T17:58:37.000",
    "date_modified": "2024-06-26T17:58:38.000",
    "request_status": "Pending",
    "responsible_agency": "Department of Sanitation",
    "final_address": "5325 Wilton Dr",
    "address_councildis": "D",
    "status": "Assigned to Contractor",
    "contractor": "IV Waste",
    "rowid": "1107361",
    "final_x": "3681932.01608",
    "final_y": "552847.434327",
    "longitude": "-90.06596130059354",
    "latitude": "30.014125513797037",
    "geocoded_column": {
      "latitude": "30.014125513797037",
      "longitude": "-90.06596130059354"
    }
  },
  {
    "service_request": "2024-1107360",
    "request_type": "Trash/Recycling",
    "request_reason": "Missed Trash Pick-Up",
    "date_created": "2024-06-26T17:29:26.000",
    "date_modified": "2024-06-26T17:29:27.000",
    "request_status": "Pending",
    "responsible_agency": "Department of Sanitation",
    "final_address": "7575 Kingsport Blvd, New Orleans, Louisiana, 70128",
    "address_councildis": "E",
    "status": "Assigned to Contractor",
    "contractor": "Waste Pro",
    "rowid": "1107360",
    "final_x": "3720287.45132",
    "final_y": "572893.451945",
    "longitude": "-89.94401109237407",
    "latitude": "30.068021605962954",
    "geocoded_column": {
      "latitude": "30.068021605962954",
      "longitude": "-89.94401109237407"
    }
  },
  {
    "service_request": "2024-1107359",
    "request_type": "Trash/Recycling",
    "request_reason": "Missed Trash Pick-Up",
    "date_created": "2024-06-26T17:17:27.000",
    "date_modified": "2024-06-26T17:17:27.000",
    "request_status": "Pending",
    "responsible_agency": "Department of Sanitation",
    "final_address": "3821 Banks St",
    "address_councildis": "A",
    "status": "Assigned to Contractor",
    "contractor": "IV Waste",
    "rowid": "1107359",
    "final_x": "3671254.26932",
    "final_y": "536802.103112",
    "longitude": "-90.10024323639051",
    "latitude": "29.97032681240039",
    "geocoded_column": {
      "latitude": "29.97032681240039",
      "longitude": "-90.10024323639051"
    }
  },
  {
    "service_request": "2024-1107358",
    "request_type": "Trash/Recycling",
    "request_reason": "Illegal Dumping",
    "date_created": "2024-06-26T17:13:04.000",
    "date_modified": "2024-06-26T17:13:04.000",
    "request_status": "Pending",
    "responsible_agency": "Department of Sanitation",
    "final_address": "1722 Painters St",
    "address_councildis": "D",
    "status": "Pending",
    "rowid": "1107358",
    "final_x": "3687327.30274",
    "final_y": "538922.075082",
    "longitude": "-90.04940794646116",
    "latitude": "29.97567059688179",
    "geocoded_column": {
      "latitude": "29.97567059688179",
      "longitude": "-90.04940794646116"
    }
  },
  {
    "service_request": "2024-1107357",
    "request_type": "Trash/Recycling",
    "request_reason": "Request a Large Item Pick Up",
    "date_created": "2024-06-26T17:08:04.000",
    "date_modified": "2024-06-26T17:08:05.000",
    "request_status": "Pending",
    "responsible_agency": "Department of Sanitation",
    "final_address": "4583 Feliciana Dr",
    "address_councildis": "D",
    "status": "Assigned to Contractor",
    "contractor": "IV Waste",
    "rowid": "1107357",
    "final_x": "3690252.88291",
    "final_y": "550697.161428",
    "longitude": "-90.03974834055155",
    "latitude": "30.00795737191403",
    "geocoded_column": {
      "latitude": "30.00795737191403",
      "longitude": "-90.03974834055155"
    }
  },
  {
    "service_request": "2024-1107356",
    "request_type": "Property Maintenance",
    "request_reason": "Property Maintenance",
    "date_created": "2024-06-26T17:07:08.000",
    "date_modified": "2024-06-26T17:07:08.000",
    "request_status": "Pending",
    "responsible_agency": "Department of Code Enforcement",
    "final_address": "2530 Memorial Park Dr",
    "address_councildis": "C",
    "status": "Pending",
    "rowid": "1107356",
    "final_x": "3692912.43568",
    "final_y": "521272.282681",
    "longitude": "-90.03240149278898",
    "latitude": "29.92696653552121",
    "geocoded_column": {
      "latitude": "29.92696653552121",
      "longitude": "-90.03240149278898"
    }
  },
  {
    "service_request": "2024-1107355",
    "request_type": "Property Maintenance",
    "request_reason": "Property Maintenance",
    "date_created": "2024-06-26T17:06:16.000",
    "date_modified": "2024-06-26T17:06:16.000",
    "request_status": "Pending",
    "responsible_agency": "Department of Code Enforcement",
    "final_address": "2605 Memorial Park Dr",
    "address_councildis": "C",
    "status": "Pending",
    "rowid": "1107355",
    "final_x": "3692837.01699",
    "final_y": "521008.039161",
    "longitude": "-90.03264903748617",
    "latitude": "29.926242309385856",
    "geocoded_column": {
      "latitude": "29.926242309385856",
      "longitude": "-90.03264903748617"
    }
  },
  {
    "service_request": "2024-1107354",
    "request_type": "Mosquito, Termite & Rodent Control",
    "request_reason": "Non-Rodent Complaint (Mice, Possums, Snakes)",
    "date_created": "2024-06-26T17:06:01.000",
    "date_modified": "2024-06-26T17:06:01.000",
    "request_status": "Pending",
    "responsible_agency": "Mosquito, Termite & Rodent Control Board",
    "final_address": "4583 Feliciana Dr",
    "address_councildis": "D",
    "status": "Pending",
    "rowid": "1107354",
    "final_x": "3690252.88291",
    "final_y": "550697.161428",
    "longitude": "-90.03974834055155",
    "latitude": "30.00795737191403",
    "geocoded_column": {
      "latitude": "30.00795737191403",
      "longitude": "-90.03974834055155"
    }
  },
  {
    "service_request": "2024-1107353",
    "request_type": "Property Maintenance",
    "request_reason": "Property Maintenance",
    "date_created": "2024-06-26T17:04:53.000",
    "date_modified": "2024-06-26T17:04:53.000",
    "request_status": "Pending",
    "responsible_agency": "Department of Code Enforcement",
    "final_address": "2600 Behrman Hwy",
    "address_councildis": "C",
    "status": "Pending",
    "rowid": "1107353",
    "final_x": "3692749.28867",
    "final_y": "520880.119097",
    "longitude": "-90.03293055235815",
    "latitude": "29.92589331033643",
    "geocoded_column": {
      "latitude": "29.92589331033643",
      "longitude": "-90.03293055235815"
    }
  },
  {
    "service_request": "2024-1107352",
    "request_type": "Property Maintenance",
    "request_reason": "Property Maintenance",
    "date_created": "2024-06-26T17:02:39.000",
    "date_modified": "2024-06-26T17:02:39.000",
    "request_status": "Pending",
    "responsible_agency": "Department of Code Enforcement",
    "final_address": "2525 Memorial Park Dr",
    "address_councildis": "C",
    "status": "Pending",
    "rowid": "1107352",
    "final_x": "3692766.18371",
    "final_y": "521079.566969",
    "longitude": "-90.03287007438414",
    "latitude": "29.92644119738659",
    "geocoded_column": {
      "latitude": "29.92644119738659",
      "longitude": "-90.03287007438414"
    }
  },
  {
    "service_request": "2024-1107351",
    "request_type": "Property Maintenance",
    "request_reason": "Property Maintenance",
    "date_created": "2024-06-26T17:01:50.000",
    "date_modified": "2024-06-26T17:01:50.000",
    "request_status": "Pending",
    "responsible_agency": "Department of Code Enforcement",
    "final_address": "2535 Memorial Park Dr",
    "address_councildis": "C",
    "status": "Pending",
    "rowid": "1107351",
    "final_x": "3692796.73923",
    "final_y": "521052.483641",
    "longitude": "-90.03277458992366",
    "latitude": "29.92636577379837",
    "geocoded_column": {
      "latitude": "29.92636577379837",
      "longitude": "-90.03277458992366"
    }
  },
  {
    "service_request": "2024-1107350",
    "request_type": "Property Maintenance",
    "request_reason": "Property Maintenance",
    "date_created": "2024-06-26T17:01:11.000",
    "date_modified": "2024-06-26T17:01:11.000",
    "request_status": "Pending",
    "responsible_agency": "Department of Code Enforcement",
    "final_address": "2610 Behrman Hwy",
    "address_councildis": "C",
    "status": "Pending",
    "rowid": "1107350",
    "final_x": "3692767.65027",
    "final_y": "520833.639737",
    "longitude": "-90.03287425567028",
    "latitude": "29.92576493478977",
    "geocoded_column": {
      "latitude": "29.92576493478977",
      "longitude": "-90.03287425567028"
    }
  },
  {
    "service_request": "2024-1107349",
    "request_type": "Trash/Recycling",
    "request_reason": "Request a Large Item Pick Up",
    "date_created": "2024-06-26T16:56:15.000",
    "date_modified": "2024-06-26T16:56:16.000",
    "request_status": "Pending",
    "responsible_agency": "Department of Sanitation",
    "final_address": "427 Lowerline St",
    "address_councildis": "A",
    "status": "Assigned to Contractor",
    "contractor": "IV Waste",
    "rowid": "1107349",
    "final_x": "3661905.48512",
    "final_y": "524024.569212",
    "longitude": "-90.1301915798136",
    "latitude": "29.935466032709975",
    "geocoded_column": {
      "latitude": "29.935466032709975",
      "longitude": "-90.1301915798136"
    }
  },
  {
    "service_request": "2024-1107348",
    "request_type": "Trash/Recycling",
    "request_reason": "Repair Trash Cart",
    "date_created": "2024-06-26T16:54:47.000",
    "date_modified": "2024-06-26T16:54:47.000",
    "request_status": "Pending",
    "responsible_agency": "Department of Sanitation",
    "final_address": "226 12Th St",
    "address_councildis": "A",
    "status": "Assigned to Contractor",
    "contractor": "IV Waste",
    "rowid": "1107348",
    "final_x": "3665437.40666",
    "final_y": "547771.905682",
    "longitude": "-90.11824622362913",
    "latitude": "30.00066090408143",
    "geocoded_column": {
      "latitude": "30.00066090408143",
      "longitude": "-90.11824622362913"
    }
  },
  {
    "service_request": "2024-1107347",
    "request_type": "Trash/Recycling",
    "request_reason": "Missed Trash Pick-Up",
    "date_created": "2024-06-26T16:52:32.000",
    "date_modified": "2024-06-26T16:52:33.000",
    "request_status": "Pending",
    "responsible_agency": "Department of Sanitation",
    "final_address": "6120 Law St",
    "address_councildis": "E",
    "status": "Assigned to Contractor",
    "contractor": "Waste Pro",
    "rowid": "1107347",
    "final_x": "3701816.47895",
    "final_y": "538559.798473",
    "longitude": "-90.0036606924821",
    "latitude": "29.974220099732527",
    "geocoded_column": {
      "latitude": "29.974220099732527",
      "longitude": "-90.0036606924821"
    }
  },
  {
    "service_request": "2024-1107346",
    "request_type": "Roads/Drainage",
    "request_reason": "Street Flooding / Drainage",
    "date_created": "2024-06-26T16:43:08.000",
    "date_modified": "2024-06-26T16:43:08.000",
    "request_status": "Pending",
    "responsible_agency": "Department of Public Works",
    "final_address": "1431 Independence St",
    "address_councildis": "D",
    "status": "Pending",
    "rowid": "1107346",
    "final_x": "3691337.26844",
    "final_y": "536888.272968",
    "longitude": "-90.03681608518369",
    "latitude": "29.969954204496286",
    "geocoded_column": {
      "latitude": "29.969954204496286",
      "longitude": "-90.03681608518369"
    }
  },
  {
    "service_request": "2024-1107345",
    "request_type": "Trash/Recycling",
    "request_reason": "Request a Large Item Pick Up",
    "date_created": "2024-06-26T16:40:48.000",
    "date_modified": "2024-06-26T16:40:50.000",
    "request_status": "Pending",
    "responsible_agency": "Department of Sanitation",
    "final_address": "4730 Good Dr",
    "address_councildis": "E",
    "status": "Assigned to Contractor",
    "contractor": "Waste Pro",
    "rowid": "1107345",
    "final_x": "3714720.22123",
    "final_y": "556779.33961",
    "longitude": "-89.96221959411702",
    "latitude": "30.02389877311798",
    "geocoded_column": {
      "latitude": "30.02389877311798",
      "longitude": "-89.96221959411702"
    }
  },
  {
    "service_request": "2024-1107344",
    "request_type": "Parks & Parkways",
    "request_reason": "Request Tree Service (Right of Way/Public Property)",
    "date_created": "2024-06-26T16:34:32.000",
    "date_modified": "2024-06-26T16:34:33.000",
    "request_status": "Pending",
    "responsible_agency": "Department of Parks & Parkway",
    "final_address": "1819 Audubon St",
    "address_councildis": "A",
    "status": "Pending",
    "rowid": "1107344",
    "final_x": "3665735.00839",
    "final_y": "528236.248384",
    "longitude": "-90.1179606708989",
    "latitude": "29.946935678800724",
    "geocoded_column": {
      "latitude": "29.946935678800724",
      "longitude": "-90.1179606708989"
    }
  },
  {
    "service_request": "2024-1107343",
    "request_type": "Trash/Recycling",
    "request_reason": "Request a Large Item Pick Up",
    "date_created": "2024-06-26T16:29:56.000",
    "date_modified": "2024-06-26T16:29:56.000",
    "request_status": "Pending",
    "responsible_agency": "Department of Sanitation",
    "final_address": "2053 Chippewa St",
    "address_councildis": "B",
    "status": "Assigned to Contractor",
    "contractor": "IV Waste",
    "rowid": "1107343",
    "final_x": "3680131.4141",
    "final_y": "521261.502649",
    "longitude": "-90.07274818635328",
    "latitude": "29.927329710260626",
    "geocoded_column": {
      "latitude": "29.927329710260626",
      "longitude": "-90.07274818635328"
    }
  },
  {
    "service_request": "2024-1107342",
    "request_type": "Trash/Recycling",
    "request_reason": "Order Trash Cart",
    "date_created": "2024-06-26T16:27:01.000",
    "date_modified": "2024-06-26T16:27:02.000",
    "request_status": "Pending",
    "responsible_agency": "Department of Sanitation",
    "final_address": "8335 Birch St Apt B",
    "address_councildis": "A",
    "status": "Assigned to Contractor",
    "contractor": "IV Waste",
    "rowid": "1107342",
    "final_x": "3662198.04333",
    "final_y": "530161.721217",
    "longitude": "-90.12906433678273",
    "latitude": "29.952332793392475",
    "geocoded_column": {
      "latitude": "29.952332793392475",
      "longitude": "-90.12906433678273"
    }
  },
  {
    "service_request": "2024-1107341",
    "request_type": "Trash/Recycling",
    "request_reason": "Repair Trash Cart",
    "date_created": "2024-06-26T16:23:39.000",
    "date_modified": "2024-06-26T16:23:39.000",
    "request_status": "Pending",
    "responsible_agency": "Department of Sanitation",
    "final_address": "405 New Orleans-Hammond Hwy",
    "address_councildis": "A",
    "status": "Assigned to Contractor",
    "contractor": "IV Waste",
    "rowid": "1107341",
    "final_x": "3665493.51642",
    "final_y": "554730.85372",
    "longitude": "-90.11783576570065",
    "latitude": "30.019793951976666",
    "geocoded_column": {
      "latitude": "30.019793951976666",
      "longitude": "-90.11783576570065"
    }
  },
  {
    "service_request": "2024-1107340",
    "request_type": "Trash/Recycling",
    "request_reason": "Request a Large Item Pick Up",
    "date_created": "2024-06-26T16:21:26.000",
    "date_modified": "2024-06-26T16:21:27.000",
    "request_status": "Pending",
    "responsible_agency": "Department of Sanitation",
    "final_address": "1019 Mazant St",
    "address_councildis": "C",
    "status": "Assigned to Contractor",
    "contractor": "IV Waste",
    "rowid": "1107340",
    "final_x": "3692071.17494",
    "final_y": "534938.485062",
    "longitude": "-90.03456814020805",
    "latitude": "29.964570121339495",
    "geocoded_column": {
      "latitude": "29.964570121339495",
      "longitude": "-90.03456814020805"
    }
  },
  {
    "service_request": "2024-1107339",
    "request_type": "Trash/Recycling",
    "request_reason": "Request a Large Item Pick Up",
    "date_created": "2024-06-26T16:21:21.000",
    "date_modified": "2024-06-26T16:21:22.000",
    "request_status": "Pending",
    "responsible_agency": "Department of Sanitation",
    "final_address": "2122 S Liberty St",
    "address_councildis": "B",
    "status": "Assigned to Contractor",
    "contractor": "IV Waste",
    "rowid": "1107339",
    "final_x": "3676219.38657",
    "final_y": "525836.686653",
    "longitude": "-90.08494013276274",
    "latitude": "29.94002773240536",
    "geocoded_column": {
      "latitude": "29.94002773240536",
      "longitude": "-90.08494013276274"
    }
  },
  {
    "service_request": "2024-1107336",
    "request_type": "Trash/Recycling",
    "request_reason": "Repair Trash Cart",
    "date_created": "2024-06-26T16:11:09.000",
    "date_modified": "2024-06-26T16:11:10.000",
    "request_status": "Pending",
    "responsible_agency": "Department of Sanitation",
    "final_address": "1526 Dante St",
    "address_councildis": "A",
    "status": "Assigned to Contractor",
    "contractor": "IV Waste",
    "rowid": "1107336",
    "final_x": "3662250.21991",
    "final_y": "529834.998849",
    "longitude": "-90.12891043017046",
    "latitude": "29.951432904135945",
    "geocoded_column": {
      "latitude": "29.951432904135945",
      "longitude": "-90.12891043017046"
    }
  },
  {
    "service_request": "2024-1107335",
    "request_type": "Trash/Recycling",
    "request_reason": "Return Trash Cart",
    "date_created": "2024-06-26T16:05:55.000",
    "date_modified": "2024-06-26T16:05:56.000",
    "request_status": "Pending",
    "responsible_agency": "Department of Sanitation",
    "final_address": "2424 Calhoun St",
    "address_councildis": "A",
    "status": "Assigned to Contractor",
    "contractor": "IV Waste",
    "rowid": "1107335",
    "final_x": "3666075.44135",
    "final_y": "525917.771965",
    "longitude": "-90.11696350296958",
    "latitude": "29.94055068194443",
    "geocoded_column": {
      "latitude": "29.94055068194443",
      "longitude": "-90.11696350296958"
    }
  },
  {
    "service_request": "2024-1107334",
    "request_type": "Trash/Recycling",
    "request_reason": "Order Recycling Cart",
    "date_created": "2024-06-26T16:03:07.000",
    "date_modified": "2024-06-26T16:03:08.000",
    "request_status": "Pending",
    "responsible_agency": "Department of Sanitation",
    "final_address": "82 English Turn Dr",
    "address_councildis": "C",
    "status": "Pending",
    "rowid": "1107334",
    "final_x": "3722730.28761",
    "final_y": "512539.475313",
    "longitude": "-89.9386112024502",
    "latitude": "29.9019899204692",
    "geocoded_column": {
      "latitude": "29.9019899204692",
      "longitude": "-89.9386112024502"
    }
  },
  {
    "service_request": "2024-1107333",
    "request_type": "Trash/Recycling",
    "request_reason": "Repair Trash Cart",
    "date_created": "2024-06-26T16:02:15.000",
    "date_modified": "2024-06-26T16:02:15.000",
    "request_status": "Pending",
    "responsible_agency": "Department of Sanitation",
    "final_address": "82 English Turn Dr",
    "address_councildis": "C",
    "status": "Assigned to Contractor",
    "contractor": "Richards Disposal",
    "rowid": "1107333",
    "final_x": "3722730.28761",
    "final_y": "512539.475313",
    "longitude": "-89.9386112024502",
    "latitude": "29.9019899204692",
    "geocoded_column": {
      "latitude": "29.9019899204692",
      "longitude": "-89.9386112024502"
    }
  },
  {
    "service_request": "2024-1107332",
    "request_type": "Roads/Drainage",
    "request_reason": "Street Subsidence (Sinking)",
    "date_created": "2024-06-26T16:00:33.000",
    "date_modified": "2024-06-26T16:00:33.000",
    "request_status": "Pending",
    "responsible_agency": "Department of Public Works",
    "final_address": "1012 Richard St",
    "address_councildis": "B",
    "status": "Pending",
    "rowid": "1107332",
    "final_x": "3680266.51432",
    "final_y": "523033.936699",
    "longitude": "-90.0722601309253",
    "latitude": "29.932199234201327",
    "geocoded_column": {
      "latitude": "29.932199234201327",
      "longitude": "-90.0722601309253"
    }
  },
  {
    "service_request": "2024-1107331",
    "request_type": "Trash/Recycling",
    "request_reason": "Request a Large Item Pick Up",
    "date_created": "2024-06-26T16:00:10.000",
    "date_modified": "2024-06-26T16:00:24.000",
    "request_status": "Pending",
    "responsible_agency": "Department of Sanitation",
    "final_address": "360 Leslie Ln",
    "address_councildis": "A",
    "status": "Assigned to Contractor",
    "contractor": "IV Waste",
    "rowid": "1107331",
    "final_x": "3664659.42522",
    "final_y": "547336.598545",
    "longitude": "-90.1207184848632",
    "latitude": "29.999486620435047",
    "geocoded_column": {
      "latitude": "29.999486620435047",
      "longitude": "-90.1207184848632"
    }
  },
  {
    "service_request": "2024-1107330",
    "request_type": "Trash/Recycling",
    "request_reason": "Missed Trash Pick-Up",
    "date_created": "2024-06-26T15:59:19.000",
    "date_modified": "2024-06-26T15:59:20.000",
    "request_status": "Pending",
    "responsible_agency": "Department of Sanitation",
    "final_address": "4801 Cerise Ave",
    "address_councildis": "E",
    "status": "Assigned to Contractor",
    "contractor": "Waste Pro",
    "rowid": "1107330",
    "final_x": "3708647.0243",
    "final_y": "556064.749145",
    "longitude": "-89.9814361793956",
    "latitude": "30.02213235059053",
    "geocoded_column": {
      "latitude": "30.02213235059053",
      "longitude": "-89.9814361793956"
    }
  },
  {
    "service_request": "2024-1107329",
    "request_type": "Trash/Recycling",
    "request_reason": "Repair Trash Cart",
    "date_created": "2024-06-26T15:58:48.000",
    "date_modified": "2024-06-26T15:58:49.000",
    "request_status": "Pending",
    "responsible_agency": "Department of Sanitation",
    "final_address": "4801 Cerise Ave",
    "address_councildis": "E",
    "status": "Assigned to Contractor",
    "contractor": "Waste Pro",
    "rowid": "1107329",
    "final_x": "3708647.0243",
    "final_y": "556064.749145",
    "longitude": "-89.9814361793956",
    "latitude": "30.02213235059053",
    "geocoded_column": {
      "latitude": "30.02213235059053",
      "longitude": "-89.9814361793956"
    }
  },
  {
    "service_request": "2024-1107328",
    "request_type": "Trash/Recycling",
    "request_reason": "Order Recycling Cart",
    "date_created": "2024-06-26T15:58:06.000",
    "date_modified": "2024-06-26T15:58:06.000",
    "request_status": "Pending",
    "responsible_agency": "Department of Sanitation",
    "final_address": "4976 Lafon Dr",
    "address_councildis": "E",
    "status": "Pending",
    "rowid": "1107328",
    "final_x": "3700941.54346",
    "final_y": "555622.145433",
    "longitude": "-90.00579960900114",
    "latitude": "30.021163082004477",
    "geocoded_column": {
      "latitude": "30.021163082004477",
      "longitude": "-90.00579960900114"
    }
  },
  {
    "service_request": "2024-1107327",
    "request_type": "Abandoned Vehicles",
    "request_reason": "Abandoned/Junk Vehicles",
    "date_created": "2024-06-26T15:56:37.000",
    "date_modified": "2024-06-26T15:56:37.000",
    "request_status": "Pending",
    "responsible_agency": "Department of Public Works",
    "final_address": "1715 Pauger St",
    "address_councildis": "C",
    "status": "Pending",
    "rowid": "1107327",
    "final_x": "3683933.11868",
    "final_y": "535989.968903",
    "longitude": "-90.06023059837126",
    "latitude": "29.967712462387034",
    "geocoded_column": {
      "latitude": "29.967712462387034",
      "longitude": "-90.06023059837126"
    }
  },
  {
    "service_request": "2024-1107326",
    "request_type": "Utility Poles",
    "request_reason": "Utility Pole Leaning",
    "date_created": "2024-06-26T15:54:46.000",
    "date_modified": "2024-06-26T15:54:51.000",
    "request_status": "Pending",
    "responsible_agency": "Utility Company Collective",
    "final_address": "1000 BLK Dublin St",
    "address_councildis": "A",
    "status": "Pending",
    "rowid": "1107326",
    "final_x": "3661349.09393",
    "final_y": "528219.438099",
    "longitude": "-90.13180925130564",
    "latitude": "29.947016643501925",
    "geocoded_column": {
      "latitude": "29.947016643501925",
      "longitude": "-90.13180925130564"
    }
  },
  {
    "service_request": "2024-1107325",
    "request_type": "Parks & Parkways",
    "request_reason": "Request Tree Service (Right of Way/Public Property)",
    "date_created": "2024-06-26T15:54:04.000",
    "date_modified": "2024-06-26T15:54:05.000",
    "request_status": "Pending",
    "responsible_agency": "Department of Parks & Parkway",
    "final_address": "7421 Sheffield St",
    "address_councildis": "E",
    "status": "Pending",
    "rowid": "1107325",
    "final_x": "3699493.3537",
    "final_y": "559711.864925",
    "longitude": "-90.01022623807616",
    "latitude": "30.032454294719255",
    "geocoded_column": {
      "latitude": "30.032454294719255",
      "longitude": "-90.01022623807616"
    }
  },
  {
    "service_request": "2024-1107324",
    "request_type": "Trash/Recycling",
    "request_reason": "Order Recycling Cart",
    "date_created": "2024-06-26T15:52:45.000",
    "date_modified": "2024-06-26T15:52:45.000",
    "request_status": "Pending",
    "responsible_agency": "Department of Sanitation",
    "final_address": "1125 Bordeaux St",
    "address_councildis": "B",
    "status": "Pending",
    "rowid": "1107324",
    "final_x": "3669531.28436",
    "final_y": "519597.768632",
    "longitude": "-90.10626647513386",
    "latitude": "29.923071371798347",
    "geocoded_column": {
      "latitude": "29.923071371798347",
      "longitude": "-90.10626647513386"
    }
  },
  {
    "service_request": "2024-1107323",
    "request_type": "Trash/Recycling",
    "request_reason": "Replace Trash Cart",
    "date_created": "2024-06-26T15:52:37.000",
    "date_modified": "2024-06-26T15:52:37.000",
    "request_status": "Pending",
    "responsible_agency": "Department of Sanitation",
    "final_address": "7038 Prytania St",
    "address_councildis": "A",
    "status": "Assigned to Contractor",
    "contractor": "IV Waste",
    "rowid": "1107323",
    "final_x": "3661948.55584",
    "final_y": "522533.462714",
    "longitude": "-90.13010503664674",
    "latitude": "29.931364715746383",
    "geocoded_column": {
      "latitude": "29.931364715746383",
      "longitude": "-90.13010503664674"
    }
  },
  {
    "service_request": "2024-1107322",
    "request_type": "Trash/Recycling",
    "request_reason": "Missed Trash Pick-Up",
    "date_created": "2024-06-26T15:51:20.000",
    "date_modified": "2024-06-26T17:13:23.000",
    "case_close_date": "2024-06-26T12:13:23.000",
    "request_status": "Closed",
    "responsible_agency": "Department of Sanitation",
    "final_address": "4426 Bienville Ave",
    "address_councildis": "A",
    "status": "Invalid Request",
    "contractor": "IV Waste",
    "contractor_action": "Invalid Request",
    "rowid": "1107322",
    "final_x": "3670238.59207",
    "final_y": "539894.78177",
    "longitude": "-90.103346021831",
    "latitude": "29.978860650765572",
    "geocoded_column": {
      "latitude": "29.978860650765572",
      "longitude": "-90.103346021831"
    }
  },
  {
    "service_request": "2024-1107321",
    "request_type": "Trash/Recycling",
    "request_reason": "Replace Trash Cart",
    "date_created": "2024-06-26T15:50:29.000",
    "date_modified": "2024-06-26T15:50:30.000",
    "request_status": "Pending",
    "responsible_agency": "Department of Sanitation",
    "final_address": "137 Stafford Pl",
    "address_councildis": "A",
    "status": "Assigned to Contractor",
    "contractor": "IV Waste",
    "rowid": "1107321",
    "final_x": "3666017.6144",
    "final_y": "553988.704216",
    "longitude": "-90.11620468799984",
    "latitude": "30.017738005018384",
    "geocoded_column": {
      "latitude": "30.017738005018384",
      "longitude": "-90.11620468799984"
    }
  },
  {
    "service_request": "2024-1107320",
    "request_type": "Parks & Parkways",
    "request_reason": "Request Tree Service (Right of Way/Public Property)",
    "date_created": "2024-06-26T15:48:21.000",
    "date_modified": "2024-06-26T15:48:22.000",
    "request_status": "Pending",
    "responsible_agency": "Department of Parks & Parkway",
    "final_address": "1531 Exposition Blvd",
    "address_councildis": "A",
    "status": "Pending",
    "rowid": "1107320",
    "final_x": "3664443.73972",
    "final_y": "522589.555898",
    "longitude": "-90.12222614297379",
    "latitude": "29.931446672758078",
    "geocoded_column": {
      "latitude": "29.931446672758078",
      "longitude": "-90.12222614297379"
    }
  },
  {
    "service_request": "2024-1107319",
    "request_type": "Parks & Parkways",
    "request_reason": "Request Grass Cutting Service (City Owned Property)",
    "date_created": "2024-06-26T15:48:19.000",
    "date_modified": "2024-06-26T15:48:20.000",
    "request_status": "Pending",
    "responsible_agency": "Department of Parks & Parkway",
    "final_address": "LENNOX CT & GENERAL MEYER AVE",
    "address_councildis": "C",
    "status": "Pending",
    "rowid": "1107319",
    "final_x": "3706608.6",
    "final_y": "521008.18",
    "longitude": "-89.9891764471738",
    "latitude": "29.925805668350158",
    "geocoded_column": {
      "latitude": "29.925805668350158",
      "longitude": "-89.9891764471738"
    }
  },
  {
    "service_request": "2024-1107318",
    "request_type": "Traffic Signals/Signs/Striping/Streetlights",
    "request_reason": "Street Light Outage/Malfunction",
    "date_created": "2024-06-26T15:46:29.000",
    "date_modified": "2024-06-26T15:48:19.000",
    "request_status": "Pending",
    "responsible_agency": "Department of Public Works",
    "final_address": "760 St Mary St",
    "address_councildis": "B",
    "status": "Assigned to Contractor",
    "contractor": "Legacy Professional Services",
    "rowid": "1107318",
    "final_x": "3680521.82952",
    "final_y": "521913.522746",
    "longitude": "-90.07149307705107",
    "latitude": "29.92911073564516",
    "geocoded_column": {
      "latitude": "29.92911073564516",
      "longitude": "-90.07149307705107"
    }
  },
  {
    "service_request": "2024-1107316",
    "request_type": "Abandoned Vehicles",
    "request_reason": "Abandoned/Junk Vehicles",
    "date_created": "2024-06-26T15:44:40.000",
    "date_modified": "2024-06-26T15:44:40.000",
    "request_status": "Pending",
    "responsible_agency": "Department of Public Works",
    "final_address": "1310 S Gayoso St",
    "address_councildis": "B",
    "status": "Pending",
    "rowid": "1107316",
    "final_x": "3671126.94715",
    "final_y": "531158.34637",
    "longitude": "-90.10083705020541",
    "latitude": "29.954812129051376",
    "geocoded_column": {
      "latitude": "29.954812129051376",
      "longitude": "-90.10083705020541"
    }
  },
  {
    "service_request": "2024-1107315",
    "request_type": "Traffic Signals/Signs/Striping/Streetlights",
    "request_reason": "Street Light Outage/Malfunction",
    "date_created": "2024-06-26T15:42:27.000",
    "date_modified": "2024-06-26T15:42:28.000",
    "request_status": "Pending",
    "responsible_agency": "Department of Public Works",
    "final_address": "2110 Royal St",
    "address_councildis": "C",
    "status": "Assigned to Contractor",
    "contractor": "Legacy Professional Services",
    "rowid": "1107315",
    "final_x": "3684809.73826",
    "final_y": "534800.66823",
    "longitude": "-90.05750403441212",
    "latitude": "29.96441548673089",
    "geocoded_column": {
      "latitude": "29.96441548673089",
      "longitude": "-90.05750403441212"
    }
  },
  {
    "service_request": "2024-1107314",
    "request_type": "Roads/Drainage",
    "request_reason": "Pothole",
    "date_created": "2024-06-26T15:40:16.000",
    "date_modified": "2024-06-26T15:40:16.000",
    "request_status": "Pending",
    "responsible_agency": "Department of Public Works",
    "final_address": "4216 Chestnut St",
    "address_councildis": "B",
    "status": "Pending",
    "rowid": "1107314",
    "final_x": "3671574.31393",
    "final_y": "519539.203703",
    "longitude": "-90.09981939416457",
    "latitude": "29.922850019854593",
    "geocoded_column": {
      "latitude": "29.922850019854593",
      "longitude": "-90.09981939416457"
    }
  },
  {
    "service_request": "2024-1107313",
    "request_type": "Roads/Drainage",
    "request_reason": "Pothole",
    "date_created": "2024-06-26T15:39:31.000",
    "date_modified": "2024-06-26T15:39:31.000",
    "request_status": "Pending",
    "responsible_agency": "Department of Public Works",
    "final_address": "1312 Milan St",
    "address_councildis": "B",
    "status": "Pending",
    "rowid": "1107313",
    "final_x": "3671625.82823",
    "final_y": "520286.919608",
    "longitude": "-90.09963137110304",
    "latitude": "29.92490447494246",
    "geocoded_column": {
      "latitude": "29.92490447494246",
      "longitude": "-90.09963137110304"
    }
  },
  {
    "service_request": "2024-1107312",
    "request_type": "Trash/Recycling",
    "request_reason": "Request a Large Item Pick Up",
    "date_created": "2024-06-26T15:39:10.000",
    "date_modified": "2024-06-26T15:39:11.000",
    "request_status": "Pending",
    "responsible_agency": "Department of Sanitation",
    "final_address": "1550 De Battista Pl",
    "address_councildis": "C",
    "status": "Assigned to Contractor",
    "contractor": "Richards Disposal",
    "rowid": "1107312",
    "final_x": "3699815.89284",
    "final_y": "525406.097789",
    "longitude": "-90.01045857559104",
    "latitude": "29.938115776180844",
    "geocoded_column": {
      "latitude": "29.938115776180844",
      "longitude": "-90.01045857559104"
    }
  },
  {
    "service_request": "2024-1107311",
    "request_type": "Parks & Parkways",
    "request_reason": "Request Tree Service (Right of Way/Public Property)",
    "date_created": "2024-06-26T15:37:14.000",
    "date_modified": "2024-06-26T15:37:14.000",
    "request_status": "Pending",
    "responsible_agency": "Department of Parks & Parkway",
    "final_address": "CALLIOPE ST & ANNUNCIATION ST & TCHOUPITOULAS EXIT",
    "address_councildis": "B",
    "status": "Pending",
    "rowid": "1107311",
    "final_x": "3681443.2",
    "final_y": "525519.78",
    "longitude": "-90.06845882301015",
    "latitude": "29.938998817801245",
    "geocoded_column": {
      "latitude": "29.938998817801245",
      "longitude": "-90.06845882301015"
    }
  },
  {
    "service_request": "2024-1107310",
    "request_type": "Trash/Recycling",
    "request_reason": "Stop Trash Service",
    "date_created": "2024-06-26T15:35:03.000",
    "date_modified": "2024-06-26T15:35:04.000",
    "request_status": "Pending",
    "responsible_agency": "Department of Sanitation",
    "final_address": "5133 Desire Dr",
    "address_councildis": "D",
    "status": "Assigned to Contractor",
    "contractor": "IV Waste",
    "rowid": "1107310",
    "final_x": "3691524.3551",
    "final_y": "552806.390294",
    "longitude": "-90.035655925849",
    "latitude": "30.013717440702777",
    "geocoded_column": {
      "latitude": "30.013717440702777",
      "longitude": "-90.035655925849"
    }
  },
  {
    "service_request": "2024-1107309",
    "request_type": "Roads/Drainage",
    "request_reason": "Street Subsidence (Sinking)",
    "date_created": "2024-06-26T15:31:41.000",
    "date_modified": "2024-06-26T15:31:41.000",
    "request_status": "Pending",
    "responsible_agency": "Department of Public Works",
    "final_address": "1239 Eleonore St",
    "address_councildis": "A",
    "status": "Pending",
    "rowid": "1107309",
    "final_x": "3665602.50362",
    "final_y": "520568.733816",
    "longitude": "-90.11863567920368",
    "latitude": "29.925856322761145",
    "geocoded_column": {
      "latitude": "29.925856322761145",
      "longitude": "-90.11863567920368"
    }
  },
  {
    "service_request": "2024-1107308",
    "request_type": "Parks & Parkways",
    "request_reason": "Request Grass Cutting Service (City Owned Property)",
    "date_created": "2024-06-26T15:31:17.000",
    "date_modified": "2024-06-26T15:31:18.000",
    "request_status": "Pending",
    "responsible_agency": "Department of Parks & Parkway",
    "final_address": "3801 Lennox Blvd",
    "address_councildis": "C",
    "status": "Pending",
    "rowid": "1107308",
    "final_x": "3700470.44983",
    "final_y": "517502.984438",
    "longitude": "-90.0086805382105",
    "latitude": "29.916364144708886",
    "geocoded_column": {
      "latitude": "29.916364144708886",
      "longitude": "-90.0086805382105"
    }
  },
  {
    "service_request": "2024-1107307",
    "request_type": "Trash/Recycling",
    "request_reason": "Repair Trash Cart",
    "date_created": "2024-06-26T15:27:04.000",
    "date_modified": "2024-06-26T15:27:04.000",
    "request_status": "Pending",
    "responsible_agency": "Department of Sanitation",
    "final_address": "810 Brooklyn Ave",
    "address_councildis": "C",
    "status": "Assigned to Contractor",
    "contractor": "Richards Disposal",
    "rowid": "1107307",
    "final_x": "3686181.69129",
    "final_y": "528555.8912",
    "longitude": "-90.05339180721477",
    "latitude": "29.947202417860662",
    "geocoded_column": {
      "latitude": "29.947202417860662",
      "longitude": "-90.05339180721477"
    }
  },
  {
    "service_request": "2024-1107306",
    "request_type": "Trash/Recycling",
    "request_reason": "Illegal Dumping",
    "date_created": "2024-06-26T15:26:25.000",
    "date_modified": "2024-06-26T15:26:26.000",
    "request_status": "Pending",
    "responsible_agency": "Department of Sanitation",
    "final_address": "1700 BLK Annette St",
    "address_councildis": "D",
    "status": "Pending",
    "rowid": "1107306",
    "final_x": "3682954.08648",
    "final_y": "538545.654324",
    "longitude": "-90.06323294280534",
    "latitude": "29.97476958545411",
    "geocoded_column": {
      "latitude": "29.97476958545411",
      "longitude": "-90.06323294280534"
    }
  },
  {
    "service_request": "2024-1107305",
    "request_type": "Trash/Recycling",
    "request_reason": "Order Trash Cart",
    "date_created": "2024-06-26T15:24:20.000",
    "date_modified": "2024-06-26T15:24:20.000",
    "request_status": "Pending",
    "responsible_agency": "Department of Sanitation",
    "final_address": "7812 Swift St",
    "address_councildis": "E",
    "status": "Assigned to Contractor",
    "contractor": "Waste Pro",
    "rowid": "1107305",
    "final_x": "3695219.6143",
    "final_y": "559266.135452",
    "longitude": "-90.0237476144385",
    "latitude": "30.031363708111975",
    "geocoded_column": {
      "latitude": "30.031363708111975",
      "longitude": "-90.0237476144385"
    }
  },
  {
    "service_request": "2024-1107304",
    "request_type": "Roads/Drainage",
    "request_reason": "Road Shoulder Repair",
    "date_created": "2024-06-26T15:23:25.000",
    "date_modified": "2024-06-26T15:23:25.000",
    "request_status": "Pending",
    "responsible_agency": "Department of Public Works",
    "final_address": "7103 Plum St",
    "address_councildis": "A",
    "status": "Pending",
    "rowid": "1107304",
    "final_x": "3664524.01204",
    "final_y": "526721.67923",
    "longitude": "-90.12183481080008",
    "latitude": "29.94280636351811",
    "geocoded_column": {
      "latitude": "29.94280636351811",
      "longitude": "-90.12183481080008"
    }
  },
  {
    "service_request": "2024-1107303",
    "request_type": "Roads/Drainage",
    "request_reason": "Pothole",
    "date_created": "2024-06-26T15:23:07.000",
    "date_modified": "2024-06-26T15:23:07.000",
    "request_status": "Pending",
    "responsible_agency": "Department of Public Works",
    "final_address": "5815 Hurst St",
    "address_councildis": "A",
    "status": "Pending",
    "rowid": "1107303",
    "final_x": "3665949.78439",
    "final_y": "521779.196794",
    "longitude": "-90.11749886798262",
    "latitude": "29.929174586020036",
    "geocoded_column": {
      "latitude": "29.929174586020036",
      "longitude": "-90.11749886798262"
    }
  },
  {
    "service_request": "2024-1107302",
    "request_type": "Property Maintenance",
    "request_reason": "Property Maintenance",
    "date_created": "2024-06-26T15:22:22.000",
    "date_modified": "2024-06-26T15:22:22.000",
    "request_status": "Pending",
    "responsible_agency": "Department of Code Enforcement",
    "final_address": "PEARL ST & CHEROKEE ST",
    "address_councildis": "A",
    "status": "Pending",
    "rowid": "1107302",
    "final_x": "3661880.3",
    "final_y": "525113.78",
    "longitude": "-90.13023498499078",
    "latitude": "29.938461745177378",
    "geocoded_column": {
      "latitude": "29.938461745177378",
      "longitude": "-90.13023498499078"
    }
  },
  {
    "service_request": "2024-1107301",
    "request_type": "Traffic Signals/Signs/Striping/Streetlights",
    "request_reason": "Crosswalks and Signage",
    "date_created": "2024-06-26T15:20:41.000",
    "date_modified": "2024-06-26T15:20:41.000",
    "request_status": "Pending",
    "responsible_agency": "Department of Public Works",
    "final_address": "7000 BLK Willow St",
    "address_councildis": "A",
    "status": "Pending",
    "rowid": "1107301",
    "final_x": "3664987.9902",
    "final_y": "526791.383213",
    "longitude": "-90.12036758528053",
    "latitude": "29.942984530038853",
    "geocoded_column": {
      "latitude": "29.942984530038853",
      "longitude": "-90.12036758528053"
    }
  },
  {
    "service_request": "2024-1107300",
    "request_type": "Trash/Recycling",
    "request_reason": "Return Trash Cart",
    "date_created": "2024-06-26T15:20:37.000",
    "date_modified": "2024-06-26T15:20:38.000",
    "request_status": "Pending",
    "responsible_agency": "Department of Sanitation",
    "final_address": "1523 Freret St",
    "address_councildis": "B",
    "status": "Assigned to Contractor",
    "contractor": "IV Waste",
    "rowid": "1107300",
    "final_x": "3676236.66657",
    "final_y": "527124.218111",
    "longitude": "-90.08484128621357",
    "latitude": "29.94356750194635",
    "geocoded_column": {
      "latitude": "29.94356750194635",
      "longitude": "-90.08484128621357"
    }
  },
  {
    "service_request": "2024-1107299",
    "request_type": "Trash/Recycling",
    "request_reason": "Illegal Dumping",
    "date_created": "2024-06-26T15:19:07.000",
    "date_modified": "2024-06-26T15:19:07.000",
    "request_status": "Pending",
    "responsible_agency": "Department of Sanitation",
    "final_address": "2226 Terpsichore St",
    "address_councildis": "B",
    "status": "Pending",
    "rowid": "1107299",
    "final_x": "3676583.88513",
    "final_y": "526783.825534",
    "longitude": "-90.08375674525203",
    "latitude": "29.94262112755531",
    "geocoded_column": {
      "latitude": "29.94262112755531",
      "longitude": "-90.08375674525203"
    }
  },
  {
    "service_request": "2024-1107298",
    "request_type": "Traffic Signals/Signs/Striping/Streetlights",
    "request_reason": "Crosswalks and Signage",
    "date_created": "2024-06-26T15:18:58.000",
    "date_modified": "2024-06-26T15:18:58.000",
    "request_status": "Pending",
    "responsible_agency": "Department of Public Works",
    "final_address": "7000 BLK Freret St",
    "address_councildis": "A",
    "status": "Pending",
    "rowid": "1107298",
    "final_x": "3664079.9159",
    "final_y": "525690.504181",
    "longitude": "-90.12327131593288",
    "latitude": "29.93998386503219",
    "geocoded_column": {
      "latitude": "29.93998386503219",
      "longitude": "-90.12327131593288"
    }
  },
  {
    "service_request": "2024-1107297",
    "request_type": "Roads/Drainage",
    "request_reason": "Pothole",
    "date_created": "2024-06-26T15:16:57.000",
    "date_modified": "2024-06-26T15:16:57.000",
    "request_status": "Pending",
    "responsible_agency": "Department of Public Works",
    "final_address": "5823 Perrier St",
    "address_councildis": "A",
    "status": "Pending",
    "rowid": "1107297",
    "final_x": "3665601.07367",
    "final_y": "520421.208184",
    "longitude": "-90.11864512991228",
    "latitude": "29.92545071542357",
    "geocoded_column": {
      "latitude": "29.92545071542357",
      "longitude": "-90.11864512991228"
    }
  },
  {
    "service_request": "2024-1107296",
    "request_type": "Parks & Parkways",
    "request_reason": "Request Tree Service (Right of Way/Public Property)",
    "date_created": "2024-06-26T15:16:27.000",
    "date_modified": "2024-06-26T15:16:27.000",
    "request_status": "Pending",
    "responsible_agency": "Department of Parks & Parkway",
    "final_address": "7025 Freret St",
    "address_councildis": "A",
    "status": "Pending",
    "rowid": "1107296",
    "final_x": "3664289.14055",
    "final_y": "525683.664445",
    "longitude": "-90.1226109877473",
    "latitude": "29.939958980848516",
    "geocoded_column": {
      "latitude": "29.939958980848516",
      "longitude": "-90.1226109877473"
    }
  },
  {
    "service_request": "2024-1107295",
    "request_type": "Trash/Recycling",
    "request_reason": "Request a Large Item Pick Up",
    "date_created": "2024-06-26T15:15:53.000",
    "date_modified": "2024-06-26T15:15:53.000",
    "request_status": "Pending",
    "responsible_agency": "Department of Sanitation",
    "final_address": "4420 Majestic Oaks Dr",
    "address_councildis": "D",
    "status": "Assigned to Contractor",
    "contractor": "Waste Pro",
    "rowid": "1107295",
    "final_x": "3697793.89271",
    "final_y": "552668.73391",
    "longitude": "-90.01585254193024",
    "latitude": "30.01314221446364",
    "geocoded_column": {
      "latitude": "30.01314221446364",
      "longitude": "-90.01585254193024"
    }
  },
  {
    "service_request": "2024-1107294",
    "request_type": "Property Maintenance",
    "request_reason": "Property Maintenance",
    "date_created": "2024-06-26T15:13:19.000",
    "date_modified": "2024-06-26T15:13:19.000",
    "request_status": "Pending",
    "responsible_agency": "Department of Code Enforcement",
    "final_address": "4000 BLK Lennox Blvd",
    "address_councildis": "C",
    "status": "Pending",
    "rowid": "1107294",
    "final_x": "3700852.14813",
    "final_y": "515231.659613",
    "longitude": "-90.00755870289056",
    "latitude": "29.91010663534438",
    "geocoded_column": {
      "latitude": "29.91010663534438",
      "longitude": "-90.00755870289056"
    }
  },
  {
    "service_request": "2024-1107293",
    "request_type": "Trash/Recycling",
    "request_reason": "Repair Trash Cart",
    "date_created": "2024-06-26T15:10:51.000",
    "date_modified": "2024-06-26T15:10:52.000",
    "request_status": "Pending",
    "responsible_agency": "Department of Sanitation",
    "final_address": "4901 Virgilian St",
    "address_councildis": "D",
    "status": "Assigned to Contractor",
    "contractor": "Waste Pro",
    "rowid": "1107293",
    "final_x": "3697486.91005",
    "final_y": "554537.354712",
    "longitude": "-90.01675460195506",
    "latitude": "30.018289918270977",
    "geocoded_column": {
      "latitude": "30.018289918270977",
      "longitude": "-90.01675460195506"
    }
  },
  {
    "service_request": "2024-1107292",
    "request_type": "Traffic Signals/Signs/Striping/Streetlights",
    "request_reason": "Street Light Outage/Malfunction",
    "date_created": "2024-06-26T15:10:46.000",
    "date_modified": "2024-06-26T15:17:14.000",
    "request_status": "Pending",
    "responsible_agency": "Department of Public Works",
    "final_address": "3728 Somerset Dr",
    "address_councildis": "C",
    "status": "Assigned to Contractor",
    "contractor": "Legacy Professional Services",
    "rowid": "1107292",
    "final_x": "3702505.20791",
    "final_y": "516814.968309",
    "longitude": "-90.00228329650868",
    "latitude": "29.91440749892746",
    "geocoded_column": {
      "latitude": "29.91440749892746",
      "longitude": "-90.00228329650868"
    }
  },
  {
    "service_request": "2024-1107291",
    "request_type": "Trash/Recycling",
    "request_reason": "Repair Trash Cart",
    "date_created": "2024-06-26T15:09:53.000",
    "date_modified": "2024-06-26T15:09:53.000",
    "request_status": "Pending",
    "responsible_agency": "Department of Sanitation",
    "final_address": "10701 Harrow Rd",
    "address_councildis": "E",
    "status": "Assigned to Contractor",
    "contractor": "Waste Pro",
    "rowid": "1107291",
    "final_x": "3711150.9411",
    "final_y": "563538.936544",
    "longitude": "-89.97324418589007",
    "latitude": "30.042601933158046",
    "geocoded_column": {
      "latitude": "30.042601933158046",
      "longitude": "-89.97324418589007"
    }
  },
  {
    "service_request": "2024-1107290",
    "request_type": "Abandoned Vehicles",
    "request_reason": "Abandoned/Junk Vehicles",
    "date_created": "2024-06-26T15:09:43.000",
    "date_modified": "2024-06-26T15:11:12.000",
    "request_status": "Pending",
    "responsible_agency": "Department of Public Works",
    "final_address": "6034 Music St",
    "address_councildis": "D",
    "status": "Pending",
    "rowid": "1107290",
    "final_x": "3685284.15209",
    "final_y": "555387.703705",
    "longitude": "-90.0552807392476",
    "latitude": "30.021007947049725",
    "geocoded_column": {
      "latitude": "30.021007947049725",
      "longitude": "-90.0552807392476"
    }
  },
  {
    "service_request": "2024-1107289",
    "request_type": "Trash/Recycling",
    "request_reason": "MIssed Recycling Pick-Up",
    "date_created": "2024-06-26T15:03:53.000",
    "date_modified": "2024-06-26T17:12:26.000",
    "case_close_date": "2024-06-26T12:12:26.000",
    "request_status": "Closed",
    "responsible_agency": "Department of Sanitation",
    "final_address": "2057 Brutus St",
    "address_councildis": "D",
    "status": "Invalid Request",
    "contractor": "IV Waste",
    "contractor_action": "Invalid Request",
    "rowid": "1107289",
    "final_x": "3682900.93896",
    "final_y": "550264.312724",
    "longitude": "-90.06299047733982",
    "latitude": "30.006993362922863",
    "geocoded_column": {
      "latitude": "30.006993362922863",
      "longitude": "-90.06299047733982"
    }
  },
  {
    "service_request": "2024-1107288",
    "request_type": "Traffic Signals/Signs/Striping/Streetlights",
    "request_reason": "Street Light Outage/Malfunction",
    "date_created": "2024-06-26T15:03:17.000",
    "date_modified": "2024-06-26T15:03:17.000",
    "request_status": "Pending",
    "responsible_agency": "Department of Public Works",
    "final_address": "7300 BLK Stroelitz St",
    "address_councildis": "B",
    "status": "Assigned to Contractor",
    "contractor": "Legacy Professional Services",
    "rowid": "1107288",
    "final_x": "3668814.69711",
    "final_y": "534166.226731",
    "longitude": "-90.10803671226112",
    "latitude": "29.963150992318322",
    "geocoded_column": {
      "latitude": "29.963150992318322",
      "longitude": "-90.10803671226112"
    }
  },
  {
    "service_request": "2024-1107287",
    "request_type": "Trash/Recycling",
    "request_reason": "Replace Trash Cart",
    "date_created": "2024-06-26T15:02:04.000",
    "date_modified": "2024-06-26T15:02:05.000",
    "request_status": "Pending",
    "responsible_agency": "Department of Sanitation",
    "final_address": "2007 Baronne St Apt 1A",
    "address_councildis": "B",
    "status": "Assigned to Contractor",
    "contractor": "IV Waste",
    "rowid": "1107287",
    "final_x": "3677487.10914",
    "final_y": "524870.279292",
    "longitude": "-90.08097108701438",
    "latitude": "29.937332391641345",
    "geocoded_column": {
      "latitude": "29.937332391641345",
      "longitude": "-90.08097108701438"
    }
  },
  {
    "service_request": "2024-1107286",
    "request_type": "Trash/Recycling",
    "request_reason": "Repair Trash Cart",
    "date_created": "2024-06-26T15:00:51.000",
    "date_modified": "2024-06-26T15:00:52.000",
    "request_status": "Pending",
    "responsible_agency": "Department of Sanitation",
    "final_address": "50 Pratt Dr",
    "address_councildis": "D",
    "status": "Assigned to Contractor",
    "contractor": "IV Waste",
    "rowid": "1107286",
    "final_x": "3680445.87311",
    "final_y": "549771.744148",
    "longitude": "-90.07076383765836",
    "latitude": "30.005713587978825",
    "geocoded_column": {
      "latitude": "30.005713587978825",
      "longitude": "-90.07076383765836"
    }
  },
  {
    "service_request": "2024-1107285",
    "request_type": "Trash/Recycling",
    "request_reason": "Request a Large Item Pick Up",
    "date_created": "2024-06-26T15:00:29.000",
    "date_modified": "2024-06-26T15:00:30.000",
    "request_status": "Pending",
    "responsible_agency": "Department of Sanitation",
    "final_address": "1433 Lesseps St",
    "address_councildis": "D",
    "status": "Assigned to Contractor",
    "contractor": "IV Waste",
    "rowid": "1107285",
    "final_x": "3693080.78051",
    "final_y": "536457.707847",
    "longitude": "-90.03132537855474",
    "latitude": "29.96871594310104",
    "geocoded_column": {
      "latitude": "29.96871594310104",
      "longitude": "-90.03132537855474"
    }
  },
  {
    "service_request": "2024-1107284",
    "request_type": "Abandoned Vehicles",
    "request_reason": "Abandoned/Junk Vehicles",
    "date_created": "2024-06-26T14:57:01.000",
    "date_modified": "2024-06-26T14:57:01.000",
    "request_status": "Pending",
    "responsible_agency": "Department of Public Works",
    "final_address": "4200 BLK Hamilton St",
    "address_councildis": "A",
    "status": "Pending",
    "rowid": "1107284",
    "final_x": "3666643.13321",
    "final_y": "538750.365856",
    "longitude": "-90.11474032746743",
    "latitude": "29.975819523964553",
    "geocoded_column": {
      "latitude": "29.975819523964553",
      "longitude": "-90.11474032746743"
    }
  },
  {
    "service_request": "2024-1107283",
    "request_type": "Abandoned Vehicles",
    "request_reason": "Abandoned/Junk Vehicles",
    "date_created": "2024-06-26T14:54:44.000",
    "date_modified": "2024-06-26T14:59:43.000",
    "request_status": "Pending",
    "responsible_agency": "Department of Public Works",
    "final_address": "1627 Steeple Chase Ln",
    "address_councildis": "C",
    "status": "Pending",
    "rowid": "1107283",
    "final_x": "3699908.02845",
    "final_y": "524723.912444",
    "longitude": "-90.01019256672579",
    "latitude": "29.93623707869219",
    "geocoded_column": {
      "latitude": "29.93623707869219",
      "longitude": "-90.01019256672579"
    }
  },
  {
    "service_request": "2024-1107282",
    "request_type": "Abandoned Vehicles",
    "request_reason": "Abandoned/Junk Vehicles",
    "date_created": "2024-06-26T14:53:47.000",
    "date_modified": "2024-06-26T14:53:47.000",
    "request_status": "Pending",
    "responsible_agency": "Department of Public Works",
    "final_address": "4200 BLK Hamilton St",
    "address_councildis": "A",
    "status": "Pending",
    "rowid": "1107282",
    "final_x": "3666643.13321",
    "final_y": "538750.365856",
    "longitude": "-90.11474032746743",
    "latitude": "29.975819523964553",
    "geocoded_column": {
      "latitude": "29.975819523964553",
      "longitude": "-90.11474032746743"
    }
  },
  {
    "service_request": "2024-1107281",
    "request_type": "Roads/Drainage",
    "request_reason": "Accessibility Ramps, Curbs and Sidewalk Repair",
    "date_created": "2024-06-26T14:53:08.000",
    "date_modified": "2024-06-26T14:53:08.000",
    "request_status": "Pending",
    "responsible_agency": "Department of Public Works",
    "final_address": "81 Neron Pl",
    "address_councildis": "A",
    "status": "Pending",
    "rowid": "1107281",
    "final_x": "3666098.25524",
    "final_y": "529983.516417",
    "longitude": "-90.1167551885446",
    "latitude": "29.95172950042253",
    "geocoded_column": {
      "latitude": "29.95172950042253",
      "longitude": "-90.1167551885446"
    }
  },
  {
    "service_request": "2024-1107280",
    "request_type": "Abandoned Vehicles",
    "request_reason": "Abandoned/Junk Vehicles",
    "date_created": "2024-06-26T14:53:06.000",
    "date_modified": "2024-06-26T14:53:06.000",
    "request_status": "Pending",
    "responsible_agency": "Department of Public Works",
    "final_address": "2411 Orleans Ave",
    "address_councildis": "D",
    "status": "Pending",
    "rowid": "1107280",
    "final_x": "3677827.86658",
    "final_y": "536308.060999",
    "longitude": "-90.0795001621989",
    "latitude": "29.968772213139705",
    "geocoded_column": {
      "latitude": "29.968772213139705",
      "longitude": "-90.0795001621989"
    }
  },
  {
    "service_request": "2024-1107279",
    "request_type": "Trash/Recycling",
    "request_reason": "Replace Recycling Cart",
    "date_created": "2024-06-26T14:48:54.000",
    "date_modified": "2024-06-26T14:48:54.000",
    "request_status": "Pending",
    "responsible_agency": "Department of Sanitation",
    "final_address": "1430 N Roman St",
    "address_councildis": "D",
    "status": "Pending",
    "rowid": "1107279",
    "final_x": "3680904.90664",
    "final_y": "537230.160008",
    "longitude": "-90.06975057722227",
    "latitude": "29.97121472707846",
    "geocoded_column": {
      "latitude": "29.97121472707846",
      "longitude": "-90.06975057722227"
    }
  },
  {
    "service_request": "2024-1107278",
    "request_type": "Trash/Recycling",
    "request_reason": "Return Trash Cart",
    "date_created": "2024-06-26T14:48:53.000",
    "date_modified": "2024-06-26T14:48:55.000",
    "request_status": "Pending",
    "responsible_agency": "Department of Sanitation",
    "final_address": "5133 Desire Dr",
    "address_councildis": "D",
    "status": "Assigned to Contractor",
    "contractor": "IV Waste",
    "rowid": "1107278",
    "final_x": "3691524.3551",
    "final_y": "552806.390294",
    "longitude": "-90.035655925849",
    "latitude": "30.013717440702777",
    "geocoded_column": {
      "latitude": "30.013717440702777",
      "longitude": "-90.035655925849"
    }
  },
  {
    "service_request": "2024-1107277",
    "request_type": "Trash/Recycling",
    "request_reason": "Return Recycling Cart",
    "date_created": "2024-06-26T14:48:51.000",
    "date_modified": "2024-06-26T14:48:51.000",
    "request_status": "Pending",
    "responsible_agency": "Department of Sanitation",
    "final_address": "5133 Desire Dr",
    "address_councildis": "D",
    "status": "Pending",
    "rowid": "1107277",
    "final_x": "3691524.3551",
    "final_y": "552806.390294",
    "longitude": "-90.035655925849",
    "latitude": "30.013717440702777",
    "geocoded_column": {
      "latitude": "30.013717440702777",
      "longitude": "-90.035655925849"
    }
  },
  {
    "service_request": "2024-1107276",
    "request_type": "Parks & Parkways",
    "request_reason": "Request Tree Service (Right of Way/Public Property)",
    "date_created": "2024-06-26T14:45:49.000",
    "date_modified": "2024-06-26T14:45:49.000",
    "request_status": "Pending",
    "responsible_agency": "Department of Parks & Parkway",
    "final_address": "5470 Stillwater Dr",
    "address_councildis": "E",
    "status": "Pending",
    "rowid": "1107276",
    "final_x": "3716601.62776",
    "final_y": "560582.610014",
    "longitude": "-89.956130344825",
    "latitude": "30.034294208137506",
    "geocoded_column": {
      "latitude": "30.034294208137506",
      "longitude": "-89.956130344825"
    }
  },
  {
    "service_request": "2024-1107275",
    "request_type": "Roads/Drainage",
    "request_reason": "Damaged Sidewalk",
    "date_created": "2024-06-26T14:45:20.000",
    "date_modified": "2024-06-26T14:53:59.000",
    "request_status": "Pending",
    "responsible_agency": "Department of Public Works",
    "final_address": "8923 Dixon St",
    "address_councildis": "A",
    "status": "Pending",
    "rowid": "1107275",
    "final_x": "3666207.43373",
    "final_y": "537533.173",
    "longitude": "-90.11615723082947",
    "latitude": "29.972485383650817",
    "geocoded_column": {
      "latitude": "29.972485383650817",
      "longitude": "-90.11615723082947"
    }
  },
  {
    "service_request": "2024-1107274",
    "request_type": "Traffic Signals/Signs/Striping/Streetlights",
    "request_reason": "Street Light Outage/Malfunction",
    "date_created": "2024-06-26T14:43:00.000",
    "date_modified": "2024-06-26T14:43:01.000",
    "request_status": "Pending",
    "responsible_agency": "Department of Public Works",
    "final_address": "5 Jay St",
    "address_councildis": "D",
    "status": "Assigned to Contractor",
    "contractor": "Legacy Professional Services",
    "rowid": "1107274",
    "final_x": "3675906.50657",
    "final_y": "555630.815065",
    "longitude": "-90.08490307893389",
    "latitude": "30.021960684522877",
    "geocoded_column": {
      "latitude": "30.021960684522877",
      "longitude": "-90.08490307893389"
    }
  },
  {
    "service_request": "2024-1107273",
    "request_type": "Roads/Drainage",
    "request_reason": "Catch Basin - Clogged",
    "date_created": "2024-06-26T14:41:38.000",
    "date_modified": "2024-06-26T14:41:38.000",
    "request_status": "Pending",
    "responsible_agency": "Department of Public Works",
    "final_address": "2538 Poydras St",
    "address_councildis": "B",
    "status": "Pending",
    "rowid": "1107273",
    "final_x": "3673973.22267",
    "final_y": "532103.594179",
    "longitude": "-90.09181724496466",
    "latitude": "29.957326756990938",
    "geocoded_column": {
      "latitude": "29.957326756990938",
      "longitude": "-90.09181724496466"
    }
  },
  {
    "service_request": "2024-1107272",
    "request_type": "Trash/Recycling",
    "request_reason": "Repair Trash Cart",
    "date_created": "2024-06-26T14:39:04.000",
    "date_modified": "2024-06-26T14:39:48.000",
    "request_status": "Pending",
    "responsible_agency": "Department of Sanitation",
    "final_address": "4942 Coronado Dr",
    "address_councildis": "E",
    "status": "Assigned to Contractor",
    "contractor": "Waste Pro",
    "rowid": "1107272",
    "final_x": "3713943.13823",
    "final_y": "557624.703323",
    "longitude": "-89.96464309165337",
    "latitude": "30.02624873321765",
    "geocoded_column": {
      "latitude": "30.02624873321765",
      "longitude": "-89.96464309165337"
    }
  },
  {
    "service_request": "2024-1107271",
    "request_type": "Trash/Recycling",
    "request_reason": "Request a Large Item Pick Up",
    "date_created": "2024-06-26T14:36:10.000",
    "date_modified": "2024-06-26T15:37:55.000",
    "request_status": "Pending",
    "responsible_agency": "Department of Sanitation",
    "final_address": "7021 Coventry St",
    "address_councildis": "E",
    "status": "Assigned to Contractor",
    "contractor": "Waste Pro",
    "rowid": "1107271",
    "final_x": "3699243.22909",
    "final_y": "559796.101597",
    "longitude": "-90.01101357422247",
    "latitude": "30.032693852120445",
    "geocoded_column": {
      "latitude": "30.032693852120445",
      "longitude": "-90.01101357422247"
    }
  },
  {
    "service_request": "2024-1107270",
    "request_type": "Roads/Drainage",
    "request_reason": "Catch Basin - Clogged",
    "date_created": "2024-06-26T14:35:40.000",
    "date_modified": "2024-06-26T14:35:40.000",
    "request_status": "Pending",
    "responsible_agency": "Department of Public Works",
    "final_address": "2601 S Galvez St",
    "address_councildis": "B",
    "status": "Pending",
    "rowid": "1107270",
    "final_x": "3672658.62881",
    "final_y": "528521.610752",
    "longitude": "-90.09609047416747",
    "latitude": "29.947516586414242",
    "geocoded_column": {
      "latitude": "29.947516586414242",
      "longitude": "-90.09609047416747"
    }
  },
  {
    "service_request": "2024-1107269",
    "request_type": "Trash/Recycling",
    "request_reason": "Illegal Dumping",
    "date_created": "2024-06-26T14:35:24.000",
    "date_modified": "2024-06-26T14:35:24.000",
    "request_status": "Pending",
    "responsible_agency": "Department of Sanitation",
    "final_address": "HICKORY ST & HAMILTON ST",
    "address_councildis": "A",
    "status": "Pending",
    "rowid": "1107269",
    "final_x": "3660769.2",
    "final_y": "532316.08",
    "longitude": "-90.13350476109919",
    "latitude": "29.958297800580272",
    "geocoded_column": {
      "latitude": "29.958297800580272",
      "longitude": "-90.13350476109919"
    }
  },
  {
    "service_request": "2024-1107268",
    "request_type": "Roads/Drainage",
    "request_reason": "Catch Basin - Clogged",
    "date_created": "2024-06-26T14:34:52.000",
    "date_modified": "2024-06-26T14:34:52.000",
    "request_status": "Pending",
    "responsible_agency": "Department of Public Works",
    "final_address": "2430 St Philip St",
    "address_councildis": "D",
    "status": "Pending",
    "rowid": "1107268",
    "final_x": "3678251.4621",
    "final_y": "537150.815496",
    "longitude": "-90.07813326691537",
    "latitude": "29.97107674782507",
    "geocoded_column": {
      "latitude": "29.97107674782507",
      "longitude": "-90.07813326691537"
    }
  },
  {
    "service_request": "2024-1107266",
    "request_type": "Trash/Recycling",
    "request_reason": "Request a Large Item Pick Up",
    "date_created": "2024-06-26T14:33:58.000",
    "date_modified": "2024-06-26T14:33:58.000",
    "request_status": "Pending",
    "responsible_agency": "Department of Sanitation",
    "final_address": "7600 Crestmont Rd",
    "address_councildis": "E",
    "status": "Assigned to Contractor",
    "contractor": "Waste Pro",
    "rowid": "1107266",
    "final_x": "3699611.60644",
    "final_y": "560175.156317",
    "longitude": "-90.00983564245122",
    "latitude": "30.03372441175211",
    "geocoded_column": {
      "latitude": "30.03372441175211",
      "longitude": "-90.00983564245122"
    }
  },
  {
    "service_request": "2024-1107265",
    "request_type": "Roads/Drainage",
    "request_reason": "Man hole cover issue",
    "date_created": "2024-06-26T14:33:35.000",
    "date_modified": "2024-06-26T14:33:36.000",
    "request_status": "Pending",
    "responsible_agency": "Department of Public Works",
    "final_address": "JEFFERSON AVE & CAMP ST",
    "address_councildis": "B",
    "status": "Pending",
    "rowid": "1107265",
    "final_x": "3666870.0",
    "final_y": "519152.18",
    "longitude": "-90.11468211356055",
    "latitude": "29.921924239228343",
    "geocoded_column": {
      "latitude": "29.921924239228343",
      "longitude": "-90.11468211356055"
    }
  },
  {
    "service_request": "2024-1107264",
    "request_type": "Roads/Drainage",
    "request_reason": "Pothole",
    "date_created": "2024-06-26T14:32:56.000",
    "date_modified": "2024-06-26T14:33:33.000",
    "case_close_date": "2024-06-26T09:33:33.000",
    "request_status": "Closed",
    "responsible_agency": "Department of Public Works",
    "final_address": "2400 BLK Gladiolus St",
    "address_councildis": "D",
    "status": "Resolved",
    "rowid": "1107264",
    "final_x": "3685957.39741",
    "final_y": "547420.466955",
    "longitude": "-90.05343467521469",
    "latitude": "29.999080289135936",
    "geocoded_column": {
      "latitude": "29.999080289135936",
      "longitude": "-90.05343467521469"
    }
  },
  {
    "service_request": "2024-1107263",
    "request_type": "Parks & Parkways",
    "request_reason": "Request Tree Service (Right of Way/Public Property)",
    "date_created": "2024-06-26T14:27:52.000",
    "date_modified": "2024-06-26T14:27:53.000",
    "request_status": "Pending",
    "responsible_agency": "Department of Parks & Parkway",
    "final_address": "1208 Elysian Fields Ave",
    "address_councildis": "C",
    "status": "Pending",
    "rowid": "1107263",
    "final_x": "3684833.62786",
    "final_y": "536764.032712",
    "longitude": "-90.05735955003767",
    "latitude": "29.969813327536325",
    "geocoded_column": {
      "latitude": "29.969813327536325",
      "longitude": "-90.05735955003767"
    }
  },
  {
    "service_request": "2024-1107262",
    "request_type": "Traffic Signals/Signs/Striping/Streetlights",
    "request_reason": "Street Light Outage/Malfunction",
    "date_created": "2024-06-26T14:27:48.000",
    "date_modified": "2024-06-26T14:27:49.000",
    "request_status": "Pending",
    "responsible_agency": "Department of Public Works",
    "final_address": "S DERBIGNY ST & TULANE AVE",
    "address_councildis": "B",
    "status": "Assigned to Contractor",
    "contractor": "Legacy Professional Services",
    "rowid": "1107262",
    "final_x": "3677406.9",
    "final_y": "532190.78",
    "longitude": "-90.08097171457739",
    "latitude": "29.957463743966407",
    "geocoded_column": {
      "latitude": "29.957463743966407",
      "longitude": "-90.08097171457739"
    }
  },
  {
    "service_request": "2024-1107261",
    "request_type": "Health Related Request",
    "request_reason": "Noise Ordinance Complaint",
    "date_created": "2024-06-26T14:22:25.000",
    "date_modified": "2024-06-26T14:22:26.000",
    "request_status": "Pending",
    "responsible_agency": "Health Department",
    "final_address": "2319 Valence St",
    "address_councildis": "B",
    "status": "Pending",
    "rowid": "1107261",
    "final_x": "3669665.94535",
    "final_y": "523424.605691",
    "longitude": "-90.10571198089197",
    "latitude": "29.933589986147087",
    "geocoded_column": {
      "latitude": "29.933589986147087",
      "longitude": "-90.10571198089197"
    }
  },
  {
    "service_request": "2024-1107260",
    "request_type": "Trash/Recycling",
    "request_reason": "Request a Large Item Pick Up",
    "date_created": "2024-06-26T14:21:25.000",
    "date_modified": "2024-06-26T14:21:26.000",
    "request_status": "Pending",
    "responsible_agency": "Department of Sanitation",
    "final_address": "2016 Urquhart St",
    "address_councildis": "C",
    "status": "Assigned to Contractor",
    "contractor": "IV Waste",
    "rowid": "1107260",
    "final_x": "3684306.78972",
    "final_y": "536959.213768",
    "longitude": "-90.05901649616068",
    "latitude": "29.970366128610745",
    "geocoded_column": {
      "latitude": "29.970366128610745",
      "longitude": "-90.05901649616068"
    }
  },
  {
    "service_request": "2024-1107259",
    "request_type": "Trash/Recycling",
    "request_reason": "Request a Large Item Pick Up",
    "date_created": "2024-06-26T14:20:32.000",
    "date_modified": "2024-06-26T14:25:53.000",
    "request_status": "Pending",
    "responsible_agency": "Department of Sanitation",
    "final_address": "3833 State Street Dr, New Orleans, Louisiana, 70125",
    "address_councildis": "A",
    "status": "Assigned to Contractor",
    "contractor": "IV Waste",
    "rowid": "1107259",
    "final_x": "3668168.36365",
    "final_y": "529787.780545",
    "longitude": "-90.11022535394572",
    "latitude": "29.951130693254548",
    "geocoded_column": {
      "latitude": "29.951130693254548",
      "longitude": "-90.11022535394572"
    }
  },
  {
    "service_request": "2024-1107256",
    "request_type": "Trash/Recycling",
    "request_reason": "Illegal Dumping",
    "date_created": "2024-06-26T14:17:17.000",
    "date_modified": "2024-06-26T14:17:17.000",
    "request_status": "Pending",
    "responsible_agency": "Department of Sanitation",
    "final_address": "7101 Bundy Rd",
    "address_councildis": "E",
    "status": "Pending",
    "rowid": "1107256",
    "final_x": "3706809.70212",
    "final_y": "561522.844191",
    "longitude": "-89.98703897520863",
    "latitude": "30.03719945037426",
    "geocoded_column": {
      "latitude": "30.03719945037426",
      "longitude": "-89.98703897520863"
    }
  },
  {
    "service_request": "2024-1107255",
    "request_type": "Abandoned Vehicles",
    "request_reason": "Abandoned/Junk Vehicles",
    "date_created": "2024-06-26T14:16:47.000",
    "date_modified": "2024-06-26T14:16:47.000",
    "request_status": "Pending",
    "responsible_agency": "Department of Public Works",
    "final_address": "12121 E Barrington Dr",
    "address_councildis": "E",
    "status": "Pending",
    "rowid": "1107255",
    "final_x": "3714942.19531",
    "final_y": "566314.878755",
    "longitude": "-89.9611573878855",
    "latitude": "30.05011036400553",
    "geocoded_column": {
      "latitude": "30.05011036400553",
      "longitude": "-89.9611573878855"
    }
  },