[
  {
    "service_request": "2026-1296266",
    "request_type": "Abandoned Vehicles",
    "request_reason": "Abandoned/Junk Vehicles",
    "date_created": "2026-07-01T23:38:42.000",
    "date_modified": "2026-07-01T23:38:44.000",
    "request_status": "Pending",
    "responsible_agency": "Department of Public Works",
    "final_address": "2520 Freret St, New Orleans, Louisiana, 70113",
    "address_councildis": "B",
    "status": "Pending",
    "rowid": "1296266",
    "final_x": "3674751.72296",
    "final_y": "525663.575101",
    "longitude": "-90.08957970637135",
    "latitude": "29.939595618503027",
    "geocoded_column": {
      "latitude": "29.939595618503027",
      "longitude": "-90.08957970637135"
    }
  },
  {
    "service_request": "2026-1296265",
    "request_type": "Safety & Permits",
    "request_reason": "Zoning Enforcement",
    "date_created": "2026-07-01T22:39:35.000",
    "date_modified": "2026-07-01T22:39:36.000",
    "request_status": "Pending",
    "responsible_agency": "Safety and Permits",
    "final_address": "8513 Palmetto St",
    "address_councildis": "A",
    "status": "Pending",
    "rowid": "1296265",
    "final_x": "3667049.58164",
    "final_y": "536311.521543",
    "longitude": "-90.1135386406519",
    "latitude": "29.969101624458137",
    "geocoded_column": {
      "latitude": "29.969101624458137",
      "longitude": "-90.1135386406519"
    }
  },
  {
    "service_request": "2026-1296264",
    "request_type": "Abandoned Vehicles",
    "request_reason": "Abandoned/Junk Vehicles",
    "date_created": "2026-07-01T22:37:58.000",
    "date_modified": "2026-07-01T22:38:02.000",
    "request_status": "Pending",
    "responsible_agency": "Department of Public Works",
    "final_address": "2402 Nashville Ave",
    "address_councildis": "A",
    "status": "Pending",
    "rowid": "1296264",
    "final_x": "3666986.72295",
    "final_y": "524949.710461",
    "longitude": "-90.11411894468853",
    "latitude": "29.937862192531444",
    "geocoded_column": {
      "latitude": "29.937862192531444",
      "longitude": "-90.11411894468853"
    }
  },
  {
    "service_request": "2026-1296263",
    "request_type": "Trash/Recycling",
    "request_reason": "Order Second Trash Cart",
    "date_created": "2026-07-01T22:29:10.000",
    "date_modified": "2026-07-01T22:29:13.000",
    "request_status": "Pending",
    "responsible_agency": "Department of Sanitation",
    "final_address": "7306 Heather Ct",
    "address_councildis": "E",
    "status": "Assigned to Contractor",
    "contractor": "Waste Pro",
    "rowid": "1296263",
    "final_x": "3705600.95383",
    "final_y": "561988.783775",
    "longitude": "-89.99084161110363",
    "latitude": "30.038519595422418",
    "geocoded_column": {
      "latitude": "30.038519595422418",
      "longitude": "-89.99084161110363"
    }
  },
  {
    "service_request": "2026-1296262",
    "request_type": "Trash/Recycling",
    "request_reason": "Request a Large Item Pick Up",
    "date_created": "2026-07-01T22:26:43.000",
    "date_modified": "2026-07-01T22:26:45.000",
    "request_status": "Pending",
    "responsible_agency": "Department of Sanitation",
    "final_address": "4574 Bonita Dr",
    "address_councildis": "E",
    "status": "Assigned to Contractor",
    "contractor": "Waste Pro",
    "rowid": "1296262",
    "final_x": "3704538.04958",
    "final_y": "554240.64636",
    "longitude": "-89.99448675398978",
    "latitude": "30.01724942967518",
    "geocoded_column": {
      "latitude": "30.01724942967518",
      "longitude": "-89.99448675398978"
    }
  },
  {
    "service_request": "2026-1296261",
    "request_type": "Streetlights",
    "request_reason": "Streetlight Outage/Malfunction",
    "date_created": "2026-07-01T22:25:08.000",
    "date_modified": "2026-07-01T22:25:10.000",
    "request_status": "Pending",
    "responsible_agency": "Department of Public Works",
    "final_address": "1461 Magazine St",
    "address_councildis": "B",
    "status": "Pending",
    "rowid": "1296261",
    "final_x": "3680202.78491",
    "final_y": "524023.150652",
    "longitude": "-90.0724269539209",
    "latitude": "29.934921174757065",
    "geocoded_column": {
      "latitude": "29.934921174757065",
      "longitude": "-90.0724269539209"
    }
  },
  {
    "service_request": "2026-1296260",
    "request_type": "Trash/Recycling",
    "request_reason": "Repair Trash Cart",
    "date_created": "2026-07-01T21:57:23.000",
    "date_modified": "2026-07-01T21:57:29.000",
    "request_status": "Pending",
    "responsible_agency": "Department of Sanitation",
    "final_address": "316 40Th St",
    "address_councildis": "A",
    "status": "Assigned to Contractor",
    "contractor": "IV Waste",
    "rowid": "1296260",
    "final_x": "3665266.7689",
    "final_y": "553297.091799",
    "longitude": "-90.11860024335459",
    "latitude": "30.015858222157213",
    "geocoded_column": {
      "latitude": "30.015858222157213",
      "longitude": "-90.11860024335459"
    }
  },
  {
    "service_request": "2026-1296259",
    "request_type": "Streetlights",
    "request_reason": "Streetlight Outage/Malfunction",
    "date_created": "2026-07-01T21:56:25.000",
    "date_modified": "2026-07-01T21:56:28.000",
    "request_status": "Pending",
    "responsible_agency": "Department of Public Works",
    "final_address": "7540 Branch Dr",
    "address_councildis": "E",
    "status": "Pending",
    "rowid": "1296259",
    "final_x": "3715032.694",
    "final_y": "568226.425509",
    "longitude": "-89.9607989879478",
    "latitude": "30.05536335437866",
    "geocoded_column": {
      "latitude": "30.05536335437866",
      "longitude": "-89.9607989879478"
    }
  },
  {
    "service_request": "2026-1296258",
    "request_type": "Healthy Homes",
    "request_reason": "Healthy Homes",
    "date_created": "2026-07-01T21:45:47.000",
    "date_modified": "2026-07-01T21:45:50.000",
    "request_status": "Pending",
    "responsible_agency": "Department of Code Enforcement",
    "final_address": "3059 Dumaine St",
    "address_councildis": "A",
    "status": "Pending",
    "rowid": "1296258",
    "final_x": "3675769.23931",
    "final_y": "538616.800201",
    "longitude": "-90.08592206292198",
    "latitude": "29.975182238750538",
    "geocoded_column": {
      "latitude": "29.975182238750538",
      "longitude": "-90.08592206292198"
    }
  },
  {
    "service_request": "2026-1296257",
    "request_type": "Trash/Recycling",
    "request_reason": "Request a Large Item Pick Up",
    "date_created": "2026-07-01T21:40:19.000",
    "date_modified": "2026-07-01T21:40:21.000",
    "request_status": "Pending",
    "responsible_agency": "Department of Sanitation",
    "final_address": "4616 Shalimar Dr",
    "address_councildis": "D",
    "status": "Assigned to Contractor",
    "contractor": "Waste Pro",
    "rowid": "1296257",
    "final_x": "3697175.03613",
    "final_y": "553563.849047",
    "longitude": "-90.01777531707988",
    "latitude": "30.015622994795326",
    "geocoded_column": {
      "latitude": "30.015622994795326",
      "longitude": "-90.01777531707988"
    }
  },
  {
    "service_request": "2026-1296256",
    "request_type": "Abandoned Vehicles",
    "request_reason": "Abandoned/Junk Vehicles",
    "date_created": "2026-07-01T21:35:01.000",
    "date_modified": "2026-07-01T21:35:03.000",
    "request_status": "Pending",
    "responsible_agency": "Department of Public Works",
    "final_address": "7010 Manchester St",
    "address_councildis": "E",
    "status": "Pending",
    "rowid": "1296256",
    "final_x": "3699013.64624",
    "final_y": "560002.441373",
    "longitude": "-90.01173155026885",
    "latitude": "30.033268489724378",
    "geocoded_column": {
      "latitude": "30.033268489724378",
      "longitude": "-90.01173155026885"
    }
  },
  {
    "service_request": "2026-1296255",
    "request_type": "Trash/Recycling",
    "request_reason": "Replace Trash Cart",
    "date_created": "2026-07-01T21:10:53.000",
    "date_modified": "2026-07-01T21:10:56.000",
    "request_status": "Pending",
    "responsible_agency": "Department of Sanitation",
    "final_address": "3918 Virgil Blvd",
    "address_councildis": "D",
    "status": "Assigned to Contractor",
    "contractor": "IV Waste",
    "rowid": "1296255",
    "final_x": "3680098.93954",
    "final_y": "546900.828369",
    "longitude": "-90.07195972402093",
    "latitude": "29.997830099883473",
    "geocoded_column": {
      "latitude": "29.997830099883473",
      "longitude": "-90.07195972402093"
    }
  },
  {
    "service_request": "2026-1296254",
    "request_type": "Trash/Recycling",
    "request_reason": "Illegal Dumping",
    "date_created": "2026-07-01T21:02:50.000",
    "date_modified": "2026-07-01T21:02:51.000",
    "request_status": "Pending",
    "responsible_agency": "Department of Sanitation",
    "final_address": "2129 S Liberty St",
    "address_councildis": "B",
    "status": "Pending",
    "rowid": "1296254",
    "final_x": "3676068.01217",
    "final_y": "525934.561277",
    "longitude": "-90.08541467965526",
    "latitude": "29.94030138939409",
    "geocoded_column": {
      "latitude": "29.94030138939409",
      "longitude": "-90.08541467965526"
    }
  },
  {
    "service_request": "2026-1296253",
    "request_type": "Trash/Recycling",
    "request_reason": "Replace Trash Cart",
    "date_created": "2026-07-01T20:44:36.000",
    "date_modified": "2026-07-01T20:44:38.000",
    "request_status": "Pending",
    "responsible_agency": "Department of Sanitation",
    "final_address": "78 Versailles Blvd",
    "address_councildis": "B",
    "status": "Assigned to Contractor",
    "contractor": "IV Waste",
    "rowid": "1296253",
    "final_x": "3667878.98817",
    "final_y": "530709.251906",
    "longitude": "-90.11110802553398",
    "latitude": "29.95367292870101",
    "geocoded_column": {
      "latitude": "29.95367292870101",
      "longitude": "-90.11110802553398"
    }
  },
  {
    "service_request": "2026-1296252",
    "request_type": "Roads and Streets",
    "request_reason": "Street Subsidence (Sinking)",
    "date_created": "2026-07-01T20:32:24.000",
    "date_modified": "2026-07-01T20:32:25.000",
    "request_status": "Pending",
    "responsible_agency": "Sewerage & Water Board",
    "final_address": "1816 General Ogden St",
    "address_councildis": "A",
    "status": "Pending",
    "rowid": "1296252",
    "final_x": "3661362.79104",
    "final_y": "531986.688707",
    "longitude": "-90.13164126011146",
    "latitude": "29.9573749769476",
    "geocoded_column": {
      "latitude": "29.9573749769476",
      "longitude": "-90.13164126011146"
    }
  },
  {
    "service_request": "2026-1296251",
    "request_type": "General Services",
    "request_reason": "General Service Request",
    "date_created": "2026-07-01T20:30:17.000",
    "date_modified": "2026-07-01T20:30:19.000",
    "request_status": "Pending",
    "responsible_agency": "Orleans Parish Communication District",
    "final_address": "3059 Dumaine St",
    "address_councildis": "A",
    "status": "Pending",
    "rowid": "1296251",
    "final_x": "3675769.23931",
    "final_y": "538616.800201",
    "longitude": "-90.08592206292198",
    "latitude": "29.975182238750538",
    "geocoded_column": {
      "latitude": "29.975182238750538",
      "longitude": "-90.08592206292198"
    }
  },
  {
    "service_request": "2026-1296250",
    "request_type": "General Services",
    "request_reason": "General Service Request",
    "date_created": "2026-07-01T20:28:57.000",
    "date_modified": "2026-07-01T20:28:59.000",
    "request_status": "Pending",
    "responsible_agency": "Orleans Parish Communication District",
    "final_address": "924 N Rendon St",
    "address_councildis": "A",
    "status": "Pending",
    "rowid": "1296250",
    "final_x": "3675582.75041",
    "final_y": "539004.67041",
    "longitude": "-90.08649771485793",
    "latitude": "29.976254330169375",
    "geocoded_column": {
      "latitude": "29.976254330169375",
      "longitude": "-90.08649771485793"
    }
  },
  {
    "service_request": "2026-1296249",
    "request_type": "Trash/Recycling",
    "request_reason": "Damaged Caused By Contractor",
    "date_created": "2026-07-01T20:28:33.000",
    "date_modified": "2026-07-01T20:28:35.000",
    "request_status": "Pending",
    "responsible_agency": "Department of Sanitation",
    "final_address": "5020 Wilton Dr",
    "address_councildis": "D",
    "status": "Assigned to Contractor",
    "contractor": "IV Waste",
    "rowid": "1296249",
    "final_x": "3681892.45685",
    "final_y": "551246.167765",
    "longitude": "-90.06614223762601",
    "latitude": "30.009723814059104",
    "geocoded_column": {
      "latitude": "30.009723814059104",
      "longitude": "-90.06614223762601"
    }
  },
  {
    "service_request": "2026-1296248",
    "request_type": "Tree Service",
    "request_reason": "Dead or Dying Tree",
    "date_created": "2026-07-01T20:22:30.000",
    "date_modified": "2026-07-01T20:22:33.000",
    "request_status": "Pending",
    "responsible_agency": "Department of Parks & Parkways",
    "final_address": "2932 Magazine St",
    "address_councildis": "B",
    "status": "Pending",
    "rowid": "1296248",
    "final_x": "3676445.05249",
    "final_y": "520372.660472",
    "longitude": "-90.08441569683629",
    "latitude": "29.924996680974218",
    "geocoded_column": {
      "latitude": "29.924996680974218",
      "longitude": "-90.08441569683629"
    }
  },
  {
    "service_request": "2026-1296247",
    "request_type": "Trash/Recycling",
    "request_reason": "Damaged Caused By Contractor",
    "date_created": "2026-07-01T20:16:12.000",
    "date_modified": "2026-07-01T20:16:14.000",
    "request_status": "Pending",
    "responsible_agency": "Department of Sanitation",
    "final_address": "985 Polk St",
    "address_councildis": "A",
    "status": "Assigned to Contractor",
    "contractor": "IV Waste",
    "rowid": "1296247",
    "final_x": "3670733.89857",
    "final_y": "547125.562833",
    "longitude": "-90.10153614447322",
    "latitude": "29.998728186772286",
    "geocoded_column": {
      "latitude": "29.998728186772286",
      "longitude": "-90.10153614447322"
    }
  },
  {
    "service_request": "2026-1296246",
    "request_type": "Parks & Grass Service",
    "request_reason": "Request Grass Cutting Service (City Owned Property)",
    "date_created": "2026-07-01T20:12:16.000",
    "date_modified": "2026-07-01T20:12:19.000",
    "request_status": "Pending",
    "responsible_agency": "Department of Parks & Parkways",
    "final_address": "3361 General De Gaulle Dr",
    "address_councildis": "C",
    "status": "Pending",
    "rowid": "1296246",
    "final_x": "3695009.75786",
    "final_y": "521091.788089",
    "longitude": "-90.02578733136232",
    "latitude": "29.92640459505818",
    "geocoded_column": {
      "latitude": "29.92640459505818",
      "longitude": "-90.02578733136232"
    }
  },
  {
    "service_request": "2026-1296245",
    "request_type": "Trash/Recycling",
    "request_reason": "Request a Large Item Pick Up",
    "date_created": "2026-07-01T20:09:58.000",
    "date_modified": "2026-07-01T20:10:00.000",
    "request_status": "Pending",
    "responsible_agency": "Department of Sanitation",
    "final_address": "105 E Park Pl",
    "address_councildis": "A",
    "status": "Assigned to Contractor",
    "contractor": "IV Waste",
    "rowid": "1296245",
    "final_x": "3670423.25351",
    "final_y": "544429.880271",
    "longitude": "-90.10260894276959",
    "latitude": "29.99132517049562",
    "geocoded_column": {
      "latitude": "29.99132517049562",
      "longitude": "-90.10260894276959"
    }
  },
  {
    "service_request": "2026-1296244",
    "request_type": "Trash/Recycling",
    "request_reason": "Order Trash Cart",
    "date_created": "2026-07-01T20:06:19.000",
    "date_modified": "2026-07-01T20:06:21.000",
    "request_status": "Pending",
    "responsible_agency": "Department of Sanitation",
    "final_address": "216 Rhodes Ave",
    "address_councildis": "C",
    "status": "Assigned to Contractor",
    "contractor": "Richards Disposal",
    "rowid": "1296244",
    "final_x": "3706753.19851",
    "final_y": "519473.859383",
    "longitude": "-89.98877683021888",
    "latitude": "29.921582157378214",
    "geocoded_column": {
      "latitude": "29.921582157378214",
      "longitude": "-89.98877683021888"
    }
  },
  {
    "service_request": "2026-1296243",
    "request_type": "Trash/Recycling",
    "request_reason": "Request a Large Item Pick Up",
    "date_created": "2026-07-01T19:52:44.000",
    "date_modified": "2026-07-01T19:52:46.000",
    "request_status": "Pending",
    "responsible_agency": "Department of Sanitation",
    "final_address": "2037 General Taylor St",
    "address_councildis": "B",
    "status": "Assigned to Contractor",
    "contractor": "IV Waste",
    "rowid": "1296243",
    "final_x": "3672274.24468",
    "final_y": "522749.894586",
    "longitude": "-90.09750067435452",
    "latitude": "29.93165765228619",
    "geocoded_column": {
      "latitude": "29.93165765228619",
      "longitude": "-90.09750067435452"
    }
  },
  {
    "service_request": "2026-1296242",
    "request_type": "General Services",
    "request_reason": "General Service Request",
    "date_created": "2026-07-01T19:51:08.000",
    "date_modified": "2026-07-01T19:51:11.000",
    "request_status": "Pending",
    "responsible_agency": "Orleans Parish Communication District",
    "final_address": "5660 Clements Dr",
    "address_councildis": "E",
    "status": "Pending",
    "rowid": "1296242",
    "final_x": "3702521.95588",
    "final_y": "556486.985178",
    "longitude": "-90.00077420668512",
    "latitude": "30.02349061783908",
    "geocoded_column": {
      "latitude": "30.02349061783908",
      "longitude": "-90.00077420668512"
    }
  },
  {
    "service_request": "2026-1296241",
    "request_type": "Streetlights",
    "request_reason": "Streetlight Outage/Malfunction",
    "date_created": "2026-07-01T19:38:57.000",
    "date_modified": "2026-07-01T19:38:59.000",
    "request_status": "Pending",
    "responsible_agency": "Department of Public Works",
    "final_address": "6038 Louis Xiv St",
    "address_councildis": "A",
    "status": "Pending",
    "rowid": "1296241",
    "final_x": "3668012.50701",
    "final_y": "547624.986258",
    "longitude": "-90.1101162298285",
    "latitude": "30.000181589922203",
    "geocoded_column": {
      "latitude": "30.000181589922203",
      "longitude": "-90.1101162298285"
    }
  },
  {
    "service_request": "2026-1296240",
    "request_type": "Trash/Recycling",
    "request_reason": "Replace Trash Cart",
    "date_created": "2026-07-01T19:24:54.000",
    "date_modified": "2026-07-01T19:24:56.000",
    "request_status": "Pending",
    "responsible_agency": "Department of Sanitation",
    "final_address": "2518 Lapeyrouse St",
    "address_councildis": "D",
    "status": "Assigned to Contractor",
    "contractor": "IV Waste",
    "rowid": "1296240",
    "final_x": "3679398.49832",
    "final_y": "539880.28993",
    "longitude": "-90.07441606715697",
    "latitude": "29.97854726160557",
    "geocoded_column": {
      "latitude": "29.97854726160557",
      "longitude": "-90.07441606715697"
    }
  },
  {
    "service_request": "2026-1296239",
    "request_type": "Streetlights",
    "request_reason": "Streetlight Outage/Malfunction",
    "date_created": "2026-07-01T19:21:55.000",
    "date_modified": "2026-07-01T19:21:59.000",
    "request_status": "Pending",
    "responsible_agency": "Department of Public Works",
    "final_address": "4771 Major Dr",
    "address_councildis": "E",
    "status": "Pending",
    "rowid": "1296239",
    "final_x": "3718321.64364",
    "final_y": "557186.463579",
    "longitude": "-89.95082441904835",
    "latitude": "30.024899215476026",
    "geocoded_column": {
      "latitude": "30.024899215476026",
      "longitude": "-89.95082441904835"
    }
  },
  {
    "service_request": "2026-1296238",
    "request_type": "Trash/Recycling",
    "request_reason": "Missed Trash Pick-Up",
    "date_created": "2026-07-01T19:14:18.000",
    "date_modified": "2026-07-01T19:14:19.000",
    "request_status": "Pending",
    "responsible_agency": "Department of Sanitation",
    "final_address": "1708 Broadway St",
    "address_councildis": "A",
    "status": "Assigned to Contractor",
    "contractor": "IV Waste",
    "rowid": "1296238",
    "final_x": "3665155.05421",
    "final_y": "528068.014527",
    "longitude": "-90.1197974335264",
    "latitude": "29.946489991697348",
    "geocoded_column": {
      "latitude": "29.946489991697348",
      "longitude": "-90.1197974335264"
    }
  },
  {
    "service_request": "2026-1296237",
    "request_type": "Roads and Streets",
    "request_reason": "Debris in Driving Lanes",
    "date_created": "2026-07-01T19:12:57.000",
    "date_modified": "2026-07-01T19:12:58.000",
    "request_status": "Pending",
    "responsible_agency": "Department of Public Works",
    "final_address": "8185 Palmetto St",
    "address_councildis": "A",
    "status": "Pending",
    "rowid": "1296237",
    "final_x": "3667983.34439",
    "final_y": "535456.859334",
    "longitude": "-90.11061854388416",
    "latitude": "29.966724222327112",
    "geocoded_column": {
      "latitude": "29.966724222327112",
      "longitude": "-90.11061854388416"
    }
  },
  {
    "service_request": "2026-1296236",
    "request_type": "Trash/Recycling",
    "request_reason": "Repair Trash Cart",
    "date_created": "2026-07-01T19:09:30.000",
    "date_modified": "2026-07-01T19:09:32.000",
    "request_status": "Pending",
    "responsible_agency": "Department of Sanitation",
    "final_address": "4310 Fields St",
    "address_councildis": "C",
    "status": "Assigned to Contractor",
    "contractor": "Richards Disposal",
    "rowid": "1296236",
    "final_x": "3707972.10974",
    "final_y": "514891.098739",
    "longitude": "-89.98509949839304",
    "latitude": "29.90894177202597",
    "geocoded_column": {
      "latitude": "29.90894177202597",
      "longitude": "-89.98509949839304"
    }
  },
  {
    "service_request": "2026-1296235",
    "request_type": "Trash/Recycling",
    "request_reason": "Missed Trash Pick-Up",
    "date_created": "2026-07-01T19:02:18.000",
    "date_modified": "2026-07-01T19:02:20.000",
    "request_status": "Pending",
    "responsible_agency": "Department of Sanitation",
    "final_address": "7735 Cohn St, New Orleans, Louisiana, 70118",
    "address_councildis": "A",
    "status": "Assigned to Contractor",
    "contractor": "IV Waste",
    "rowid": "1296235",
    "final_x": "3664552.49018",
    "final_y": "529395.322497",
    "longitude": "-90.12165563452548",
    "latitude": "29.950157194210906",
    "geocoded_column": {
      "latitude": "29.950157194210906",
      "longitude": "-90.12165563452548"
    }
  },
  {
    "service_request": "2026-1296234",
    "request_type": "Trash/Recycling",
    "request_reason": "Missed Trash Pick-Up",
    "date_created": "2026-07-01T19:01:52.000",
    "date_modified": "2026-07-01T19:01:55.000",
    "request_status": "Pending",
    "responsible_agency": "Department of Sanitation",
    "final_address": "4843 Papania Dr",
    "address_councildis": "E",
    "status": "Assigned to Contractor",
    "contractor": "Waste Pro",
    "rowid": "1296234",
    "final_x": "3715580.56575",
    "final_y": "557354.241179",
    "longitude": "-89.95947932335359",
    "latitude": "30.025451188838822",
    "geocoded_column": {
      "latitude": "30.025451188838822",
      "longitude": "-89.95947932335359"
    }
  },
  {
    "service_request": "2026-1296233",
    "request_type": "Trash/Recycling",
    "request_reason": "Missed Trash Pick-Up",
    "date_created": "2026-07-01T19:00:21.000",
    "date_modified": "2026-07-01T19:00:27.000",
    "request_status": "Pending",
    "responsible_agency": "Department of Sanitation",
    "final_address": "2742 Saint Philip St, New Orleans, Louisiana, 70119",
    "address_councildis": "C",
    "status": "Assigned to Contractor",
    "contractor": "IV Waste",
    "rowid": "1296233",
    "final_x": "3677058.00309",
    "final_y": "538068.693769",
    "longitude": "-90.08187071172395",
    "latitude": "29.97363649322501",
    "geocoded_column": {
      "latitude": "29.97363649322501",
      "longitude": "-90.08187071172395"
    }
  },
  {
    "service_request": "2026-1296232",
    "request_type": "Roads and Streets",
    "request_reason": "ADA Ramps Damaged or Missing",
    "date_created": "2026-07-01T18:59:17.000",
    "date_modified": "2026-07-01T18:59:19.000",
    "request_status": "Pending",
    "responsible_agency": "Department of Public Works",
    "final_address": "7700 Maple St",
    "address_councildis": "A",
    "status": "Pending",
    "rowid": "1296232",
    "final_x": "3662054.95949",
    "final_y": "526342.248702",
    "longitude": "-90.12964282238602",
    "latitude": "29.941834600452015",
    "geocoded_column": {
      "latitude": "29.941834600452015",
      "longitude": "-90.12964282238602"
    }
  },
  {
    "service_request": "2026-1296231",
    "request_type": "Trash/Recycling",
    "request_reason": "Repair Recycling Cart",
    "date_created": "2026-07-01T18:56:03.000",
    "date_modified": "2026-07-01T18:56:06.000",
    "request_status": "Pending",
    "responsible_agency": "Department of Sanitation",
    "final_address": "3033 Nashville Ave",
    "address_councildis": "B",
    "status": "Pending",
    "rowid": "1296231",
    "final_x": "3667811.32673",
    "final_y": "527079.149311",
    "longitude": "-90.11144390394868",
    "latitude": "29.943693311521557",
    "geocoded_column": {
      "latitude": "29.943693311521557",
      "longitude": "-90.11144390394868"
    }
  },
  {
    "service_request": "2026-1296230",
    "request_type": "Streetlights",
    "request_reason": "New Streetlight Request",
    "date_created": "2026-07-01T18:26:48.000",
    "date_modified": "2026-07-01T18:42:47.000",
    "request_status": "Pending",
    "responsible_agency": "Department of Public Works",
    "final_address": "11000 BLK Chef Menteur Hwy",
    "address_councildis": "E",
    "status": "Pending",
    "rowid": "1296230",
    "final_x": "3716588.08319",
    "final_y": "555878.839802",
    "longitude": "-89.9563517768404",
    "latitude": "30.02136116776958",
    "geocoded_column": {
      "latitude": "30.02136116776958",
      "longitude": "-89.9563517768404"
    }
  },
  {
    "service_request": "2026-1296229",
    "request_type": "General Services",
    "request_reason": "General Service Request",
    "date_created": "2026-07-01T18:22:55.000",
    "date_modified": "2026-07-01T18:22:57.000",
    "request_status": "Pending",
    "responsible_agency": "Orleans Parish Communication District",
    "final_address": "1717 S Carrollton Ave",
    "address_councildis": "A",
    "status": "Pending",
    "rowid": "1296229",
    "final_x": "3663370.32762",
    "final_y": "529661.931201",
    "longitude": "-90.12537942161161",
    "latitude": "29.95092460250294",
    "geocoded_column": {
      "latitude": "29.95092460250294",
      "longitude": "-90.12537942161161"
    }
  },
  {
    "service_request": "2026-1296228",
    "request_type": "Trash/Recycling",
    "request_reason": "Missed Trash Pick-Up",
    "date_created": "2026-07-01T18:20:05.000",
    "date_modified": "2026-07-01T18:20:08.000",
    "request_status": "Pending",
    "responsible_agency": "Department of Sanitation",
    "final_address": "4438 Lancelot Dr, New Orleans, Louisiana, 70127",
    "address_councildis": "E",
    "status": "Assigned to Contractor",
    "contractor": "Waste Pro",
    "rowid": "1296228",
    "final_x": "3707537.87627",
    "final_y": "553819.649431",
    "longitude": "-89.98502425273327",
    "latitude": "30.015995131908348",
    "geocoded_column": {
      "latitude": "30.015995131908348",
      "longitude": "-89.98502425273327"
    }
  },
  {
    "service_request": "2026-1296227",
    "request_type": "Street and Traffic Signs",
    "request_reason": "One Way Sign Missing or Damaged",
    "date_created": "2026-07-01T18:17:51.000",
    "date_modified": "2026-07-01T18:17:55.000",
    "request_status": "Pending",
    "responsible_agency": "Department of Public Works",
    "final_address": "N CLAIBORNE AVE & POLAND AVE",
    "address_councildis": "D",
    "status": "Pending",
    "rowid": "1296227",
    "final_x": "3693481.9",
    "final_y": "536875.08",
    "longitude": "-90.0300436334021",
    "latitude": "29.96985102981372",
    "geocoded_column": {
      "latitude": "29.96985102981372",
      "longitude": "-90.0300436334021"
    }
  },
  {
    "service_request": "2026-1296226",
    "request_type": "Trash/Recycling",
    "request_reason": "Request a Large Item Pick Up",
    "date_created": "2026-07-01T18:16:51.000",
    "date_modified": "2026-07-01T18:16:53.000",
    "request_status": "Pending",
    "responsible_agency": "Department of Sanitation",
    "final_address": "4901 Gallier Dr",
    "address_councildis": "D",
    "status": "Assigned to Contractor",
    "contractor": "IV Waste",
    "rowid": "1296226",
    "final_x": "3691993.34205",
    "final_y": "552087.672534",
    "longitude": "-90.03419992092151",
    "latitude": "30.01172662115575",
    "geocoded_column": {
      "latitude": "30.01172662115575",
      "longitude": "-90.03419992092151"
    }
  },
  {
    "service_request": "2026-1296225",
    "request_type": "Trash/Recycling",
    "request_reason": "Missed Trash Pick-Up",
    "date_created": "2026-07-01T18:07:14.000",
    "date_modified": "2026-07-01T18:07:18.000",
    "request_status": "Pending",
    "responsible_agency": "Department of Sanitation",
    "final_address": "7640 Expedition Dr",
    "address_councildis": "E",
    "status": "Assigned to Contractor",
    "contractor": "Waste Pro",
    "rowid": "1296225",
    "final_x": "3725826.94848",
    "final_y": "571329.997032",
    "longitude": "-89.92656055009786",
    "latitude": "30.063536926951034",
    "geocoded_column": {
      "latitude": "30.063536926951034",
      "longitude": "-89.92656055009786"
    }
  },
  {
    "service_request": "2026-1296224",
    "request_type": "General Services",
    "request_reason": "General Service Request",
    "date_created": "2026-07-01T17:54:33.000",
    "date_modified": "2026-07-01T17:54:35.000",
    "request_status": "Pending",
    "responsible_agency": "Orleans Parish Communication District",
    "final_address": "7109 Edinburgh St",
    "address_councildis": "B",
    "status": "Pending",
    "rowid": "1296224",
    "final_x": "3668920.24558",
    "final_y": "533184.945796",
    "longitude": "-90.10773654623806",
    "latitude": "29.960449690801134",
    "geocoded_column": {
      "latitude": "29.960449690801134",
      "longitude": "-90.10773654623806"
    }
  },
  {
    "service_request": "2026-1296223",
    "request_type": "Trash/Recycling",
    "request_reason": "Order Recycling Cart",
    "date_created": "2026-07-01T17:52:27.000",
    "date_modified": "2026-07-01T17:52:29.000",
    "request_status": "Pending",
    "responsible_agency": "Department of Sanitation",
    "final_address": "10910 Zenith St",
    "address_councildis": "E",
    "status": "Pending",
    "rowid": "1296223",
    "final_x": "3710463.56267",
    "final_y": "565315.797026",
    "longitude": "-89.97535000176917",
    "latitude": "30.047510001610636",
    "geocoded_column": {
      "latitude": "30.047510001610636",
      "longitude": "-89.97535000176917"
    }
  },
  {
    "service_request": "2026-1296222",
    "request_type": "General Services",
    "request_reason": "General Service Request",
    "date_created": "2026-07-01T17:41:57.000",
    "date_modified": "2026-07-01T17:42:00.000",
    "request_status": "Pending",
    "responsible_agency": "Orleans Parish Communication District",
    "final_address": "7109 Edinburgh St",
    "address_councildis": "B",
    "status": "Pending",
    "rowid": "1296222",
    "final_x": "3668920.24558",
    "final_y": "533184.945796",
    "longitude": "-90.10773654623806",
    "latitude": "29.960449690801134",
    "geocoded_column": {
      "latitude": "29.960449690801134",
      "longitude": "-90.10773654623806"
    }
  },
  {
    "service_request": "2026-1296221",
    "request_type": "Trash/Recycling",
    "request_reason": "Missed Trash Pick-Up",
    "date_created": "2026-07-01T17:36:11.000",
    "date_modified": "2026-07-01T17:36:13.000",
    "request_status": "Pending",
    "responsible_agency": "Department of Sanitation",
    "final_address": "2716 Lowerline St",
    "address_councildis": "A",
    "status": "Assigned to Contractor",
    "contractor": "IV Waste",
    "rowid": "1296221",
    "final_x": "3666764.17581",
    "final_y": "531504.699843",
    "longitude": "-90.11460143552313",
    "latitude": "29.955892800639603",
    "geocoded_column": {
      "latitude": "29.955892800639603",
      "longitude": "-90.11460143552313"
    }
  },
  {
    "service_request": "2026-1296220",
    "request_type": "General Services",
    "request_reason": "General Service Request",
    "date_created": "2026-07-01T17:28:12.000",
    "date_modified": "2026-07-01T17:28:16.000",
    "request_status": "Pending",
    "responsible_agency": "Orleans Parish Communication District",
    "final_address": "7113 Edinburgh St",
    "address_councildis": "B",
    "status": "Pending",
    "rowid": "1296220",
    "final_x": "3668889.07758",
    "final_y": "533196.043524",
    "longitude": "-90.10783459394086",
    "latitude": "29.960481122515105",
    "geocoded_column": {
      "latitude": "29.960481122515105",
      "longitude": "-90.10783459394086"
    }
  },
  {
    "service_request": "2026-1296219",
    "request_type": "Property Maintenance",
    "request_reason": "Property Maintenance",
    "date_created": "2026-07-01T17:21:23.000",
    "date_modified": "2026-07-01T17:21:25.000",
    "request_status": "Pending",
    "responsible_agency": "Department of Code Enforcement",
    "final_address": "2658 N Galvez St",
    "address_councildis": "D",
    "status": "Pending",
    "rowid": "1296219",
    "final_x": "3688269.56214",
    "final_y": "540144.682571",
    "longitude": "-90.04638866889428",
    "latitude": "29.979003270679687",
    "geocoded_column": {
      "latitude": "29.979003270679687",
      "longitude": "-90.04638866889428"
    }
  },
  {
    "service_request": "2026-1296218",
    "request_type": "Abandoned Vehicles",
    "request_reason": "Abandoned/Junk Vehicles",
    "date_created": "2026-07-01T17:14:50.000",
    "date_modified": "2026-07-01T17:14:52.000",
    "request_status": "Pending",
    "responsible_agency": "Department of Public Works",
    "final_address": "2026 Burdette St",
    "address_councildis": "A",
    "status": "Pending",
    "rowid": "1296218",
    "final_x": "3664814.40404",
    "final_y": "529883.378817",
    "longitude": "-90.12081233853885",
    "latitude": "29.951491572983286",
    "geocoded_column": {
      "latitude": "29.951491572983286",
      "longitude": "-90.12081233853885"
    }
  },
  {
    "service_request": "2026-1296217",
    "request_type": "Trash/Recycling",
    "request_reason": "MIssed Recycling Pick-Up",
    "date_created": "2026-07-01T17:08:23.000",
    "date_modified": "2026-07-01T17:18:32.000",
    "case_close_date": "2026-07-01T12:18:31.000",
    "request_status": "Closed",
    "responsible_agency": "Department of Sanitation",
    "final_address": "5722 Peoples Ave",
    "address_councildis": "D",
    "status": "Invalid Request",
    "contractor": "IV Waste",
    "contractor_action": "Invalid Request",
    "rowid": "1296217",
    "final_x": "3687848.49372",
    "final_y": "554392.691928",
    "longitude": "-90.04721346259635",
    "latitude": "30.018193138472505",
    "geocoded_column": {
      "latitude": "30.018193138472505",
      "longitude": "-90.04721346259635"
    }
  },
  {
    "service_request": "2026-1296216",
    "request_type": "Roads and Streets",
    "request_reason": "Pothole",
    "date_created": "2026-07-01T17:00:41.000",
    "date_modified": "2026-07-01T17:00:43.000",
    "request_status": "Pending",
    "responsible_agency": "Department of Public Works",
    "final_address": "323 Nashville Ave",
    "address_councildis": "A",
    "status": "Pending",
    "rowid": "1296216",
    "final_x": "3665248.4176",
    "final_y": "517416.125365",
    "longitude": "-90.11985882078046",
    "latitude": "29.91719795359615",
    "geocoded_column": {
      "latitude": "29.91719795359615",
      "longitude": "-90.11985882078046"
    }
  },
  {
    "service_request": "2026-1296215",
    "request_type": "Roads and Streets",
    "request_reason": "Street Subsidence (Sinking)",
    "date_created": "2026-07-01T16:46:36.000",
    "date_modified": "2026-07-01T16:46:37.000",
    "request_status": "Pending",
    "responsible_agency": "Sewerage & Water Board",
    "final_address": "3034 Wabash St",
    "address_councildis": "C",
    "status": "Pending",
    "rowid": "1296215",
    "final_x": "3694883.54826",
    "final_y": "520661.409529",
    "longitude": "-90.02620123596706",
    "latitude": "29.92522515960532",
    "geocoded_column": {
      "latitude": "29.92522515960532",
      "longitude": "-90.02620123596706"
    }
  },
  {
    "service_request": "2026-1296214",
    "request_type": "Trash/Recycling",
    "request_reason": "Request a Large Item Pick Up",
    "date_created": "2026-07-01T16:45:03.000",
    "date_modified": "2026-07-01T16:45:04.000",
    "request_status": "Pending",
    "responsible_agency": "Department of Sanitation",
    "final_address": "6000 Airway St",
    "address_councildis": "D",
    "status": "Assigned to Contractor",
    "contractor": "Waste Pro",
    "rowid": "1296214",
    "final_x": "3696560.45763",
    "final_y": "552810.057878",
    "longitude": "-90.0197443971646",
    "latitude": "30.01356973985295",
    "geocoded_column": {
      "latitude": "30.01356973985295",
      "longitude": "-90.0197443971646"
    }
  },
  {
    "service_request": "2026-1296213",
    "request_type": "Roads and Streets",
    "request_reason": "Street Subsidence (Sinking)",
    "date_created": "2026-07-01T16:41:53.000",
    "date_modified": "2026-07-01T16:41:55.000",
    "request_status": "Pending",
    "responsible_agency": "Sewerage & Water Board",
    "final_address": "3034 Wabash St",
    "address_councildis": "C",
    "status": "Pending",
    "rowid": "1296213",
    "final_x": "3694883.54826",
    "final_y": "520661.409529",
    "longitude": "-90.02620123596706",
    "latitude": "29.92522515960532",
    "geocoded_column": {
      "latitude": "29.92522515960532",
      "longitude": "-90.02620123596706"
    }
  },
  {
    "service_request": "2026-1296212",
    "request_type": "Trash/Recycling",
    "request_reason": "Order Recycling Cart",
    "date_created": "2026-07-01T16:39:27.000",
    "date_modified": "2026-07-01T16:39:28.000",
    "request_status": "Pending",
    "responsible_agency": "Department of Sanitation",
    "final_address": "4618 Danneel St",
    "address_councildis": "B",
    "status": "Pending",
    "rowid": "1296212",
    "final_x": "3669809.98087",
    "final_y": "522100.939514",
    "longitude": "-90.10530205200106",
    "latitude": "29.92994608455264",
    "geocoded_column": {
      "latitude": "29.92994608455264",
      "longitude": "-90.10530205200106"
    }
  },
  {
    "service_request": "2026-1296211",
    "request_type": "Trash/Recycling",
    "request_reason": "Request a Large Item Pick Up",
    "date_created": "2026-07-01T16:36:01.000",
    "date_modified": "2026-07-01T16:36:04.000",
    "request_status": "Pending",
    "responsible_agency": "Department of Sanitation",
    "final_address": "7370 Chef Menteur Hwy",
    "address_councildis": "E",
    "status": "Assigned to Contractor",
    "contractor": "Waste Pro",
    "rowid": "1296211",
    "final_x": "3702539.85188",
    "final_y": "552116.595926",
    "longitude": "-90.00087824486708",
    "latitude": "30.01147314701431",
    "geocoded_column": {
      "latitude": "30.01147314701431",
      "longitude": "-90.00087824486708"
    }
  },
  {
    "service_request": "2026-1296210",
    "request_type": "Trash/Recycling",
    "request_reason": "Replace Recycling Cart",
    "date_created": "2026-07-01T16:33:41.000",
    "date_modified": "2026-07-01T16:33:42.000",
    "request_status": "Pending",
    "responsible_agency": "Department of Sanitation",
    "final_address": "4701 Bancroft Dr",
    "address_councildis": "D",
    "status": "Pending",
    "rowid": "1296210",
    "final_x": "3676290.09422",
    "final_y": "549471.035283",
    "longitude": "-90.08390326810854",
    "latitude": "30.005012000574574",
    "geocoded_column": {
      "latitude": "30.005012000574574",
      "longitude": "-90.08390326810854"
    }
  },
  {
    "service_request": "2026-1296209",
    "request_type": "Trash/Recycling",
    "request_reason": "Request a Large Item Pick Up",
    "date_created": "2026-07-01T16:33:32.000",
    "date_modified": "2026-07-01T16:33:34.000",
    "request_status": "Pending",
    "responsible_agency": "Department of Sanitation",
    "final_address": "4600 Kendall Dr",
    "address_councildis": "D",
    "status": "Assigned to Contractor",
    "contractor": "IV Waste",
    "rowid": "1296209",
    "final_x": "3690678.45744",
    "final_y": "550418.432468",
    "longitude": "-90.03841377892871",
    "latitude": "30.00717775238279",
    "geocoded_column": {
      "latitude": "30.00717775238279",
      "longitude": "-90.03841377892871"
    }
  },
  {
    "service_request": "2026-1296208",
    "request_type": "Trash/Recycling",
    "request_reason": "Missed Trash Pick-Up",
    "date_created": "2026-07-01T16:32:12.000",
    "date_modified": "2026-07-01T16:32:16.000",
    "request_status": "Pending",
    "responsible_agency": "Department of Sanitation",
    "final_address": "11133 Pressburg St",
    "address_councildis": "E",
    "status": "Assigned to Contractor",
    "contractor": "Waste Pro",
    "rowid": "1296208",
    "final_x": "3716403.723",
    "final_y": "557587.237851",
    "longitude": "-89.95686945239778",
    "latitude": "30.026064673461143",
    "geocoded_column": {
      "latitude": "30.026064673461143",
      "longitude": "-89.95686945239778"
    }
  },
  {
    "service_request": "2026-1296207",
    "request_type": "Trash/Recycling",
    "request_reason": "Order Trash Cart",
    "date_created": "2026-07-01T16:31:08.000",
    "date_modified": "2026-07-01T16:31:09.000",
    "request_status": "Pending",
    "responsible_agency": "Department of Sanitation",
    "final_address": "2419 Short St",
    "address_councildis": "A",
    "status": "Assigned to Contractor",
    "contractor": "IV Waste",
    "rowid": "1296207",
    "final_x": "3665356.35994",
    "final_y": "531369.681218",
    "longitude": "-90.11905136516519",
    "latitude": "29.955562641087504",
    "geocoded_column": {
      "latitude": "29.955562641087504",
      "longitude": "-90.11905136516519"
    }
  },
  {
    "service_request": "2026-1296206",
    "request_type": "Trash/Recycling",
    "request_reason": "Order Recycling Cart",
    "date_created": "2026-07-01T16:30:16.000",
    "date_modified": "2026-07-01T16:30:17.000",
    "request_status": "Pending",
    "responsible_agency": "Department of Sanitation",
    "final_address": "722 Spain St",
    "address_councildis": "C",
    "status": "Pending",
    "rowid": "1296206",
    "final_x": "3686206.48412",
    "final_y": "535138.41383",
    "longitude": "-90.05308131227356",
    "latitude": "29.96530133349594",
    "geocoded_column": {
      "latitude": "29.96530133349594",
      "longitude": "-90.05308131227356"
    }
  },
  {
    "service_request": "2026-1296205",
    "request_type": "Streetlights",
    "request_reason": "New Streetlight Request",
    "date_created": "2026-07-01T16:30:07.000",
    "date_modified": "2026-07-01T16:30:10.000",
    "request_status": "Pending",
    "responsible_agency": "Department of Public Works",
    "final_address": "8507 Sycamore St",
    "address_councildis": "A",
    "status": "Pending",
    "rowid": "1296205",
    "final_x": "3663243.52218",
    "final_y": "532008.829379",
    "longitude": "-90.1257017116341",
    "latitude": "29.95738148806699",
    "geocoded_column": {
      "latitude": "29.95738148806699",
      "longitude": "-90.1257017116341"
    }
  },
  {
    "service_request": "2026-1296204",
    "request_type": "Trash/Recycling",
    "request_reason": "Request a Large Item Pick Up",
    "date_created": "2026-07-01T16:28:45.000",
    "date_modified": "2026-07-01T16:28:47.000",
    "request_status": "Pending",
    "responsible_agency": "Department of Sanitation",
    "final_address": "4526 America St",
    "address_councildis": "E",
    "status": "Assigned to Contractor",
    "contractor": "Waste Pro",
    "rowid": "1296204",
    "final_x": "3699772.61738",
    "final_y": "553883.814359",
    "longitude": "-90.00955651914614",
    "latitude": "30.016420519207074",
    "geocoded_column": {
      "latitude": "30.016420519207074",
      "longitude": "-90.00955651914614"
    }
  },
  {
    "service_request": "2026-1296203",
    "request_type": "Trash/Recycling",
    "request_reason": "Request a Large Item Pick Up",
    "date_created": "2026-07-01T16:24:17.000",
    "date_modified": "2026-07-01T16:24:20.000",
    "request_status": "Pending",
    "responsible_agency": "Department of Sanitation",
    "final_address": "4618 Danneel St",
    "address_councildis": "B",
    "status": "Assigned to Contractor",
    "contractor": "IV Waste",
    "rowid": "1296203",
    "final_x": "3669809.98087",
    "final_y": "522100.939514",
    "longitude": "-90.10530205200106",
    "latitude": "29.92994608455264",
    "geocoded_column": {
      "latitude": "29.92994608455264",
      "longitude": "-90.10530205200106"
    }
  },
  {
    "service_request": "2026-1296202",
    "request_type": "Trash/Recycling",
    "request_reason": "Order Second Trash Cart",
    "date_created": "2026-07-01T16:22:20.000",
    "date_modified": "2026-07-01T16:22:22.000",
    "request_status": "Pending",
    "responsible_agency": "Department of Sanitation",
    "final_address": "5668 General Diaz St",
    "address_councildis": "A",
    "status": "Assigned to Contractor",
    "contractor": "IV Waste",
    "rowid": "1296202",
    "final_x": "3669106.75802",
    "final_y": "545004.936527",
    "longitude": "-90.10674802226166",
    "latitude": "29.992945192653305",
    "geocoded_column": {
      "latitude": "29.992945192653305",
      "longitude": "-90.10674802226166"
    }
  },
  {
    "service_request": "2026-1296201",
    "request_type": "Trash/Recycling",
    "request_reason": "Request a Large Item Pick Up",
    "date_created": "2026-07-01T16:19:45.000",
    "date_modified": "2026-07-01T16:19:48.000",
    "request_status": "Pending",
    "responsible_agency": "Department of Sanitation",
    "final_address": "4809 Dixon St",
    "address_councildis": "B",
    "status": "Assigned to Contractor",
    "contractor": "IV Waste",
    "rowid": "1296201",
    "final_x": "3670198.8347",
    "final_y": "534126.220997",
    "longitude": "-90.10366711285884",
    "latitude": "29.963000219017562",
    "geocoded_column": {
      "latitude": "29.963000219017562",
      "longitude": "-90.10366711285884"
    }
  },
  {
    "service_request": "2026-1296200",
    "request_type": "Trash/Recycling",
    "request_reason": "Request a Large Item Pick Up",
    "date_created": "2026-07-01T16:13:46.000",
    "date_modified": "2026-07-01T16:13:48.000",
    "request_status": "Pending",
    "responsible_agency": "Department of Sanitation",
    "final_address": "12 Carriage Ln",
    "address_councildis": "C",
    "status": "Assigned to Contractor",
    "contractor": "Richards Disposal",
    "rowid": "1296200",
    "final_x": "3695940.59587",
    "final_y": "519889.315384",
    "longitude": "-90.0228923632517",
    "latitude": "29.923068964092447",
    "geocoded_column": {
      "latitude": "29.923068964092447",
      "longitude": "-90.0228923632517"
    }
  },
  {
    "service_request": "2026-1296199",
    "request_type": "Trash/Recycling",
    "request_reason": "Illegal Dumping",
    "date_created": "2026-07-01T16:11:53.000",
    "date_modified": "2026-07-01T16:11:55.000",
    "request_status": "Pending",
    "responsible_agency": "Department of Sanitation",
    "final_address": "6565 Milne Blvd",
    "address_councildis": "A",
    "status": "Pending",
    "rowid": "1296199",
    "final_x": "3667524.16404",
    "final_y": "551328.226005",
    "longitude": "-90.11153419452778",
    "latitude": "30.010378537003245",
    "geocoded_column": {
      "latitude": "30.010378537003245",
      "longitude": "-90.11153419452778"
    }
  },
  {
    "service_request": "2026-1296198",
    "request_type": "Trash/Recycling",
    "request_reason": "Repair Recycling Cart",
    "date_created": "2026-07-01T16:09:21.000",
    "date_modified": "2026-07-01T16:09:22.000",
    "request_status": "Pending",
    "responsible_agency": "Department of Sanitation",
    "final_address": "2124 Pine St",
    "address_councildis": "A",
    "status": "Pending",
    "rowid": "1296198",
    "final_x": "3665752.69978",
    "final_y": "529540.485377",
    "longitude": "-90.11786113034742",
    "latitude": "29.950521392505987",
    "geocoded_column": {
      "latitude": "29.950521392505987",
      "longitude": "-90.11786113034742"
    }
  },
  {
    "service_request": "2026-1296197",
    "request_type": "Trash/Recycling",
    "request_reason": "Request a Large Item Pick Up",
    "date_created": "2026-07-01T16:08:46.000",
    "date_modified": "2026-07-01T16:08:48.000",
    "request_status": "Pending",
    "responsible_agency": "Department of Sanitation",
    "final_address": "3520 Palmyra St",
    "address_councildis": "B",
    "status": "Assigned to Contractor",
    "contractor": "IV Waste",
    "rowid": "1296197",
    "final_x": "3672205.76577",
    "final_y": "536444.419719",
    "longitude": "-90.09725048601813",
    "latitude": "29.96931511421506",
    "geocoded_column": {
      "latitude": "29.96931511421506",
      "longitude": "-90.09725048601813"
    }
  },
  {
    "service_request": "2026-1296196",
    "request_type": "Trash/Recycling",
    "request_reason": "Request a Large Item Pick Up",
    "date_created": "2026-07-01T16:06:50.000",
    "date_modified": "2026-07-01T16:06:51.000",
    "request_status": "Pending",
    "responsible_agency": "Department of Sanitation",
    "final_address": "5711 Argonne Blvd",
    "address_councildis": "A",
    "status": "Assigned to Contractor",
    "contractor": "IV Waste",
    "rowid": "1296196",
    "final_x": "3670068.3833",
    "final_y": "545552.687184",
    "longitude": "-90.10369183978061",
    "latitude": "29.994422978401616",
    "geocoded_column": {
      "latitude": "29.994422978401616",
      "longitude": "-90.10369183978061"
    }
  },
  {
    "service_request": "2026-1296195",
    "request_type": "Trash/Recycling",
    "request_reason": "Request a Large Item Pick Up",
    "date_created": "2026-07-01T16:05:32.000",
    "date_modified": "2026-07-01T16:05:34.000",
    "request_status": "Pending",
    "responsible_agency": "Department of Sanitation",
    "final_address": "4836 Shalimar Dr",
    "address_councildis": "D",
    "status": "Assigned to Contractor",
    "contractor": "Waste Pro",
    "rowid": "1296195",
    "final_x": "3697066.28976",
    "final_y": "554750.117592",
    "longitude": "-90.01807588181234",
    "latitude": "30.01888821786228",
    "geocoded_column": {
      "latitude": "30.01888821786228",
      "longitude": "-90.01807588181234"
    }
  },
  {
    "service_request": "2026-1296194",
    "request_type": "Street and Traffic Signs",
    "request_reason": "Additional Signage Request",
    "date_created": "2026-07-01T16:04:56.000",
    "date_modified": "2026-07-01T16:04:57.000",
    "request_status": "Pending",
    "responsible_agency": "Department of Public Works",
    "final_address": "612 Moss St",
    "address_councildis": "A",
    "status": "Pending",
    "rowid": "1296194",
    "final_x": "3674346.05371",
    "final_y": "538326.504713",
    "longitude": "-90.09042680878181",
    "latitude": "29.9744265498682",
    "geocoded_column": {
      "latitude": "29.9744265498682",
      "longitude": "-90.09042680878181"
    }
  },
  {
    "service_request": "2026-1296193",
    "request_type": "Trash/Recycling",
    "request_reason": "Request a Large Item Pick Up",
    "date_created": "2026-07-01T16:04:35.000",
    "date_modified": "2026-07-01T16:04:38.000",
    "request_status": "Pending",
    "responsible_agency": "Department of Sanitation",
    "final_address": "1724 Old Roman St",
    "address_councildis": "D",
    "status": "Assigned to Contractor",
    "contractor": "IV Waste",
    "rowid": "1296193",
    "final_x": "3682285.72655",
    "final_y": "539028.248586",
    "longitude": "-90.06532692195425",
    "latitude": "29.976116905552228",
    "geocoded_column": {
      "latitude": "29.976116905552228",
      "longitude": "-90.06532692195425"
    }
  },
  {
    "service_request": "2026-1296192",
    "request_type": "Trash/Recycling",
    "request_reason": "Request a Large Item Pick Up",
    "date_created": "2026-07-01T15:58:15.000",
    "date_modified": "2026-07-01T15:58:17.000",
    "request_status": "Pending",
    "responsible_agency": "Department of Sanitation",
    "final_address": "1963 N Rocheblave St",
    "address_councildis": "D",
    "status": "Assigned to Contractor",
    "contractor": "IV Waste",
    "rowid": "1296192",
    "final_x": "3682201.04092",
    "final_y": "540935.659851",
    "longitude": "-90.06552772987526",
    "latitude": "29.9813641977686",
    "geocoded_column": {
      "latitude": "29.9813641977686",
      "longitude": "-90.06552772987526"
    }
  },
  {
    "service_request": "2026-1296191",
    "request_type": "Trash/Recycling",
    "request_reason": "Order Trash Cart",
    "date_created": "2026-07-01T15:55:53.000",
    "date_modified": "2026-07-01T15:55:55.000",
    "request_status": "Pending",
    "responsible_agency": "Department of Sanitation",
    "final_address": "6215 Colbert St",
    "address_councildis": "A",
    "status": "Assigned to Contractor",
    "contractor": "IV Waste",
    "rowid": "1296191",
    "final_x": "3667617.63373",
    "final_y": "548890.264211",
    "longitude": "-90.11132103232723",
    "latitude": "30.003672250963405",
    "geocoded_column": {
      "latitude": "30.003672250963405",
      "longitude": "-90.11132103232723"
    }
  },
  {
    "service_request": "2026-1296190",
    "request_type": "Trash/Recycling",
    "request_reason": "Request a Large Item Pick Up",
    "date_created": "2026-07-01T15:54:45.000",
    "date_modified": "2026-07-01T15:54:47.000",
    "request_status": "Pending",
    "responsible_agency": "Department of Sanitation",
    "final_address": "6211 Providence Pl",
    "address_councildis": "D",
    "status": "Assigned to Contractor",
    "contractor": "IV Waste",
    "rowid": "1296190",
    "final_x": "3688364.15311",
    "final_y": "556398.879834",
    "longitude": "-90.04551293459805",
    "latitude": "30.02369348472246",
    "geocoded_column": {
      "latitude": "30.02369348472246",
      "longitude": "-90.04551293459805"
    }
  },
  {
    "service_request": "2026-1296189",
    "request_type": "Streetlights",
    "request_reason": "Streetlight Outage/Malfunction",
    "date_created": "2026-07-01T15:52:55.000",
    "date_modified": "2026-07-01T15:52:56.000",
    "request_status": "Pending",
    "responsible_agency": "Department of Public Works",
    "final_address": "5525 West End Blvd",
    "address_councildis": "A",
    "status": "Pending",
    "rowid": "1296189",
    "final_x": "3666358.27969",
    "final_y": "544406.834447",
    "longitude": "-90.11545009927322",
    "latitude": "29.991381228808578",
    "geocoded_column": {
      "latitude": "29.991381228808578",
      "longitude": "-90.11545009927322"
    }
  },
  {
    "service_request": "2026-1296188",
    "request_type": "Trash/Recycling",
    "request_reason": "Replace Recycling Cart",
    "date_created": "2026-07-01T15:52:38.000",
    "date_modified": "2026-07-01T15:52:40.000",
    "request_status": "Pending",
    "responsible_agency": "Department of Sanitation",
    "final_address": "5014 S Prieur St",
    "address_councildis": "B",
    "status": "Pending",
    "rowid": "1296188",
    "final_x": "3668768.77863",
    "final_y": "526573.862846",
    "longitude": "-90.1084380176283",
    "latitude": "29.942275828593395",
    "geocoded_column": {
      "latitude": "29.942275828593395",
      "longitude": "-90.1084380176283"
    }
  },
  {
    "service_request": "2026-1296187",
    "request_type": "Streetlights",
    "request_reason": "Streetlight Outage/Malfunction",
    "date_created": "2026-07-01T15:51:40.000",
    "date_modified": "2026-07-01T15:51:42.000",
    "request_status": "Pending",
    "responsible_agency": "Department of Public Works",
    "final_address": "5525 West End Blvd",
    "address_councildis": "A",
    "status": "Pending",
    "rowid": "1296187",
    "final_x": "3666358.27969",
    "final_y": "544406.834447",
    "longitude": "-90.11545009927322",
    "latitude": "29.991381228808578",
    "geocoded_column": {
      "latitude": "29.991381228808578",
      "longitude": "-90.11545009927322"
    }
  },
  {
    "service_request": "2026-1296186",
    "request_type": "Trash/Recycling",
    "request_reason": "Order Trash Cart",
    "date_created": "2026-07-01T15:51:01.000",
    "date_modified": "2026-07-01T15:51:03.000",
    "request_status": "Pending",
    "responsible_agency": "Department of Sanitation",
    "final_address": "7231 Camberley Dr",
    "address_councildis": "E",
    "status": "Assigned to Contractor",
    "contractor": "Waste Pro",
    "rowid": "1296186",
    "final_x": "3713110.26821",
    "final_y": "565154.200034",
    "longitude": "-89.96699112567477",
    "latitude": "30.04697916199466",
    "geocoded_column": {
      "latitude": "30.04697916199466",
      "longitude": "-89.96699112567477"
    }
  },
  {
    "service_request": "2026-1296185",
    "request_type": "Trash/Recycling",
    "request_reason": "Request a Large Item Pick Up",
    "date_created": "2026-07-01T15:46:02.000",
    "date_modified": "2026-07-01T15:46:03.000",
    "request_status": "Pending",
    "responsible_agency": "Department of Sanitation",
    "final_address": "4650 Longfellow Dr",
    "address_councildis": "E",
    "status": "Assigned to Contractor",
    "contractor": "Waste Pro",
    "rowid": "1296185",
    "final_x": "3709612.72894",
    "final_y": "555234.930841",
    "longitude": "-89.97841582792694",
    "latitude": "30.019819310467707",
    "geocoded_column": {
      "latitude": "30.019819310467707",
      "longitude": "-89.97841582792694"
    }
  },
  {
    "service_request": "2026-1296184",
    "request_type": "Trash/Recycling",
    "request_reason": "Repair Trash Cart",
    "date_created": "2026-07-01T15:45:57.000",
    "date_modified": "2026-07-01T15:45:59.000",
    "request_status": "Pending",
    "responsible_agency": "Department of Sanitation",
    "final_address": "6301 Pandora St",
    "address_councildis": "D",
    "status": "Assigned to Contractor",
    "contractor": "Waste Pro",
    "rowid": "1296184",
    "final_x": "3696716.63229",
    "final_y": "557396.800667",
    "longitude": "-90.01908475353561",
    "latitude": "30.026176622647796",
    "geocoded_column": {
      "latitude": "30.026176622647796",
      "longitude": "-90.01908475353561"
    }
  },
  {
    "service_request": "2026-1296183",
    "request_type": "Roads and Streets",
    "request_reason": "Street Subsidence (Sinking)",
    "date_created": "2026-07-01T15:43:55.000",
    "date_modified": "2026-07-01T15:44:56.000",
    "request_status": "Pending",
    "responsible_agency": "Sewerage & Water Board",
    "final_address": "HOLLYGROVE ST & BELFAST ST",
    "address_councildis": "A",
    "status": "Pending",
    "rowid": "1296183",
    "final_x": "3663244.4",
    "final_y": "534502.18",
    "longitude": "-90.12561595541573",
    "latitude": "29.964237363500295",
    "geocoded_column": {
      "latitude": "29.964237363500295",
      "longitude": "-90.12561595541573"
    }
  },
  {
    "service_request": "2026-1296182",
    "request_type": "Trash/Recycling",
    "request_reason": "Repair Trash Cart",
    "date_created": "2026-07-01T15:42:06.000",
    "date_modified": "2026-07-01T15:42:08.000",
    "request_status": "Pending",
    "responsible_agency": "Department of Sanitation",
    "final_address": "6901 Louis Xiv St",
    "address_councildis": "A",
    "status": "Assigned to Contractor",
    "contractor": "IV Waste",
    "rowid": "1296182",
    "final_x": "3668679.19905",
    "final_y": "553419.115479",
    "longitude": "-90.10781433881121",
    "latitude": "30.016093831711704",
    "geocoded_column": {
      "latitude": "30.016093831711704",
      "longitude": "-90.10781433881121"
    }
  },
  {
    "service_request": "2026-1296181",
    "request_type": "Roads and Streets",
    "request_reason": "Pothole",
    "date_created": "2026-07-01T15:41:56.000",
    "date_modified": "2026-07-01T15:41:58.000",
    "request_status": "Pending",
    "responsible_agency": "Department of Public Works",
    "final_address": "2280 Leon C Simon Dr",
    "address_councildis": "D",
    "status": "Pending",
    "rowid": "1296181",
    "final_x": "3684087.15913",
    "final_y": "556822.57321",
    "longitude": "-90.0590124678286",
    "latitude": "30.024989964898317",
    "geocoded_column": {
      "latitude": "30.024989964898317",
      "longitude": "-90.0590124678286"
    }
  },
  {
    "service_request": "2026-1296180",
    "request_type": "Streetlights",
    "request_reason": "Streetlight Outage/Malfunction",
    "date_created": "2026-07-01T15:39:49.000",
    "date_modified": "2026-07-01T15:40:14.000",
    "request_status": "Pending",
    "responsible_agency": "Department of Public Works",
    "final_address": "3489 Vespasian St",
    "address_councildis": "C",
    "status": "Pending",
    "rowid": "1296180",
    "final_x": "3696159.9729",
    "final_y": "522567.07577",
    "longitude": "-90.0221031513406",
    "latitude": "29.930424991827625",
    "geocoded_column": {
      "latitude": "29.930424991827625",
      "longitude": "-90.0221031513406"
    }
  },
  {
    "service_request": "2026-1296179",
    "request_type": "Property Maintenance",
    "request_reason": "Property Maintenance",
    "date_created": "2026-07-01T15:39:18.000",
    "date_modified": "2026-07-01T15:41:56.000",
    "request_status": "Pending",
    "responsible_agency": "Department of Code Enforcement",
    "final_address": "5431 N Tonti St",
    "address_councildis": "E",
    "status": "Pending",
    "rowid": "1296179",
    "final_x": "3698727.78148",
    "final_y": "538408.563849",
    "longitude": "-90.0134209600299",
    "latitude": "29.973902451401383",
    "geocoded_column": {
      "latitude": "29.973902451401383",
      "longitude": "-90.0134209600299"
    }
  },
  {
    "service_request": "2026-1296178",
    "request_type": "Trash/Recycling",
    "request_reason": "Repair Trash Cart",
    "date_created": "2026-07-01T15:38:27.000",
    "date_modified": "2026-07-01T15:38:29.000",
    "request_status": "Pending",
    "responsible_agency": "Department of Sanitation",
    "final_address": "7033 Walmsley Ave",
    "address_councildis": "B",
    "status": "Assigned to Contractor",
    "contractor": "IV Waste",
    "rowid": "1296178",
    "final_x": "3667681.41569",
    "final_y": "531005.945922",
    "longitude": "-90.11172189115865",
    "latitude": "29.954494533429543",
    "geocoded_column": {
      "latitude": "29.954494533429543",
      "longitude": "-90.11172189115865"
    }
  },
  {
    "service_request": "2026-1296177",
    "request_type": "Abandoned Vehicles",
    "request_reason": "Abandoned/Junk Vehicles",
    "date_created": "2026-07-01T15:38:04.000",
    "date_modified": "2026-07-01T15:40:30.000",
    "request_status": "Pending",
    "responsible_agency": "Department of Public Works",
    "final_address": "1000 BLK Annunciation St",
    "address_councildis": "B",
    "status": "Pending",
    "rowid": "1296177",
    "final_x": "3681624.55043",
    "final_y": "526258.225815",
    "longitude": "-90.06786053104975",
    "latitude": "29.941023791830162",
    "geocoded_column": {
      "latitude": "29.941023791830162",
      "longitude": "-90.06786053104975"
    }
  },
  {
    "service_request": "2026-1296176",
    "request_type": "Street and Traffic Signs",
    "request_reason": "Traffic or Parking Sign Damaged or Missing",
    "date_created": "2026-07-01T15:34:10.000",
    "date_modified": "2026-07-01T15:34:11.000",
    "request_status": "Pending",
    "responsible_agency": "Department of Public Works",
    "final_address": "5660 Clements Dr",
    "address_councildis": "E",
    "status": "Pending",
    "rowid": "1296176",
    "final_x": "3702521.95588",
    "final_y": "556486.985178",
    "longitude": "-90.00077420668512",
    "latitude": "30.02349061783908",
    "geocoded_column": {
      "latitude": "30.02349061783908",
      "longitude": "-90.00077420668512"
    }
  },
  {
    "service_request": "2026-1296175",
    "request_type": "Tree Service",
    "request_reason": "Tree Trim",
    "date_created": "2026-07-01T15:33:18.000",
    "date_modified": "2026-07-01T15:33:20.000",
    "request_status": "Pending",
    "responsible_agency": "Department of Parks & Parkways",
    "final_address": "1800 Broadway St",
    "address_councildis": "A",
    "status": "Pending",
    "rowid": "1296175",
    "final_x": "3665317.60634",
    "final_y": "528324.014784",
    "longitude": "-90.11927563257387",
    "latitude": "29.947189175124763",
    "geocoded_column": {
      "latitude": "29.947189175124763",
      "longitude": "-90.11927563257387"
    }
  },
  {
    "service_request": "2026-1296174",
    "request_type": "Trash/Recycling",
    "request_reason": "Dead Animal Pick Up",
    "date_created": "2026-07-01T15:32:46.000",
    "date_modified": "2026-07-01T15:32:48.000",
    "request_status": "Pending",
    "responsible_agency": "Department of Sanitation",
    "final_address": "7016 Orleans Ave",
    "address_councildis": "A",
    "status": "Assigned to Contractor",
    "contractor": "IV Waste",
    "rowid": "1296174",
    "final_x": "3671416.19156",
    "final_y": "553936.452056",
    "longitude": "-90.09914902494785",
    "latitude": "30.017435548600353",
    "geocoded_column": {
      "latitude": "30.017435548600353",
      "longitude": "-90.09914902494785"
    }
  },
  {
    "service_request": "2026-1296173",
    "request_type": "Trash/Recycling",
    "request_reason": "Repair Trash Cart",
    "date_created": "2026-07-01T15:30:58.000",
    "date_modified": "2026-07-01T15:31:00.000",
    "request_status": "Pending",
    "responsible_agency": "Department of Sanitation",
    "final_address": "4618 Charlmark Dr",
    "address_councildis": "E",
    "status": "Assigned to Contractor",
    "contractor": "Waste Pro",
    "rowid": "1296173",
    "final_x": "3711427.94885",
    "final_y": "555232.870041",
    "longitude": "-89.97268045582028",
    "latitude": "30.019754500163135",
    "geocoded_column": {
      "latitude": "30.019754500163135",
      "longitude": "-89.97268045582028"
    }
  },
  {
    "service_request": "2026-1296172",
    "request_type": "Trash/Recycling",
    "request_reason": "Change Size of Trash Cart",
    "date_created": "2026-07-01T15:30:07.000",
    "date_modified": "2026-07-01T15:30:16.000",
    "request_status": "Pending",
    "responsible_agency": "Department of Sanitation",
    "final_address": "5700 Annunciation St",
    "address_councildis": "A",
    "status": "Assigned to Contractor",
    "contractor": "IV Waste",
    "rowid": "1296172",
    "final_x": "3665481.69965",
    "final_y": "517524.606006",
    "longitude": "-90.11911885120603",
    "latitude": "29.91748944632555",
    "geocoded_column": {
      "latitude": "29.91748944632555",
      "longitude": "-90.11911885120603"
    }
  },
  {
    "service_request": "2026-1296171",
    "request_type": "Property Maintenance",
    "request_reason": "Property Maintenance",
    "date_created": "2026-07-01T15:28:19.000",
    "date_modified": "2026-07-01T15:28:21.000",
    "request_status": "Pending",
    "responsible_agency": "Department of Code Enforcement",
    "final_address": "3526 N Prieur St",
    "address_councildis": "D",
    "status": "Pending",
    "rowid": "1296171",
    "final_x": "3691423.17667",
    "final_y": "538553.278217",
    "longitude": "-90.03648526750597",
    "latitude": "29.974529706392506",
    "geocoded_column": {
      "latitude": "29.974529706392506",
      "longitude": "-90.03648526750597"
    }
  },
  {
    "service_request": "2026-1296170",
    "request_type": "Trash/Recycling",
    "request_reason": "Repair Recycling Cart",
    "date_created": "2026-07-01T15:27:35.000",
    "date_modified": "2026-07-01T15:27:36.000",
    "request_status": "Pending",
    "responsible_agency": "Department of Sanitation",
    "final_address": "1123 N Derbigny St",
    "address_councildis": "C",
    "status": "Pending",
    "rowid": "1296170",
    "final_x": "3680491.59874",
    "final_y": "536225.127495",
    "longitude": "-90.07109082452595",
    "latitude": "29.968463759074904",
    "geocoded_column": {
      "latitude": "29.968463759074904",
      "longitude": "-90.07109082452595"
    }
  },
  {
    "service_request": "2026-1296169",
    "request_type": "Trash/Recycling",
    "request_reason": "Request a Large Item Pick Up",
    "date_created": "2026-07-01T15:24:32.000",
    "date_modified": "2026-07-01T15:24:33.000",
    "request_status": "Pending",
    "responsible_agency": "Department of Sanitation",
    "final_address": "4901 Sierra Madre Dr",
    "address_councildis": "E",
    "status": "Assigned to Contractor",
    "contractor": "Waste Pro",
    "rowid": "1296169",
    "final_x": "3713879.98008",
    "final_y": "557314.441499",
    "longitude": "-89.96485437042602",
    "latitude": "30.025397710379007",
    "geocoded_column": {
      "latitude": "30.025397710379007",
      "longitude": "-89.96485437042602"
    }
  },
  {
    "service_request": "2026-1296168",
    "request_type": "Trash/Recycling",
    "request_reason": "Replace Trash Cart",
    "date_created": "2026-07-01T15:17:49.000",
    "date_modified": "2026-07-01T15:18:58.000",
    "request_status": "Pending",
    "responsible_agency": "Department of Sanitation",
    "final_address": "1407 Sumner St",
    "address_councildis": "C",
    "status": "Assigned to Contractor",
    "contractor": "Richards Disposal",
    "rowid": "1296168",
    "final_x": "3690983.04796",
    "final_y": "526223.07859",
    "longitude": "-90.03831541113303",
    "latitude": "29.940639637349268",
    "geocoded_column": {
      "latitude": "29.940639637349268",
      "longitude": "-90.03831541113303"
    }
  },
  {
    "service_request": "2026-1296167",
    "request_type": "Utility Poles",
    "request_reason": "Wires Sagging/Hanging Low",
    "date_created": "2026-07-01T15:16:48.000",
    "date_modified": "2026-07-01T15:16:50.000",
    "request_status": "Pending",
    "responsible_agency": "Utility Company Collective",
    "final_address": "CHATHAM DR & PRENTISS AVE",
    "address_councildis": "D",
    "status": "Pending",
    "rowid": "1296167",
    "final_x": "3679687.7",
    "final_y": "553456.28",
    "longitude": "-90.07303104942812",
    "latitude": "30.01586768393322",
    "geocoded_column": {
      "latitude": "30.01586768393322",
      "longitude": "-90.07303104942812"
    }
  },
  {
    "service_request": "2026-1296166",
    "request_type": "Streetlights",
    "request_reason": "Streetlight Outage/Malfunction",
    "date_created": "2026-07-01T15:16:05.000",
    "date_modified": "2026-07-01T15:16:07.000",
    "request_status": "Pending",
    "responsible_agency": "Department of Public Works",
    "final_address": "5865 Argonne Blvd",
    "address_councildis": "A",
    "status": "Pending",
    "rowid": "1296166",
    "final_x": "3670147.41063",
    "final_y": "546316.028688",
    "longitude": "-90.10341631957091",
    "latitude": "29.996519571517414",
    "geocoded_column": {
      "latitude": "29.996519571517414",
      "longitude": "-90.10341631957091"
    }
  },
  {
    "service_request": "2026-1296165",
    "request_type": "Trash/Recycling",
    "request_reason": "Illegal Dumping",
    "date_created": "2026-07-01T15:15:48.000",
    "date_modified": "2026-07-01T15:19:43.000",
    "request_status": "Pending",
    "responsible_agency": "Department of Sanitation",
    "final_address": "4700 BLK Erato St",
    "address_councildis": "B",
    "status": "Pending",
    "rowid": "1296165",
    "final_x": "3669426.76347",
    "final_y": "532401.597714",
    "longitude": "-90.10616355337045",
    "latitude": "29.95828083587697",
    "geocoded_column": {
      "latitude": "29.95828083587697",
      "longitude": "-90.10616355337045"
    }
  },
  {
    "service_request": "2026-1296164",
    "request_type": "Trash/Recycling",
    "request_reason": "Order Recycling Cart",
    "date_created": "2026-07-01T15:14:16.000",
    "date_modified": "2026-07-01T15:14:18.000",
    "request_status": "Pending",
    "responsible_agency": "Department of Sanitation",
    "final_address": "8742 Jeannette St",
    "address_councildis": "A",
    "status": "Pending",
    "rowid": "1296164",
    "final_x": "3660840.45165",
    "final_y": "530762.138306",
    "longitude": "-90.13333115527097",
    "latitude": "29.95402291037422",
    "geocoded_column": {
      "latitude": "29.95402291037422",
      "longitude": "-90.13333115527097"
    }
  },
  {
    "service_request": "2026-1296163",
    "request_type": "Streetlights",
    "request_reason": "Streetlight Outage/Malfunction",
    "date_created": "2026-07-01T15:12:49.000",
    "date_modified": "2026-07-01T15:12:51.000",
    "request_status": "Pending",
    "responsible_agency": "Department of Public Works",
    "final_address": "5859 Argonne Blvd",
    "address_councildis": "A",
    "status": "Pending",
    "rowid": "1296163",
    "final_x": "3670142.99342",
    "final_y": "546266.35976",
    "longitude": "-90.10343195742132",
    "latitude": "29.996383129525203",
    "geocoded_column": {
      "latitude": "29.996383129525203",
      "longitude": "-90.10343195742132"
    }
  },
  {
    "service_request": "2026-1296162",
    "request_type": "Tree Service",
    "request_reason": "Blocking Stop Sign or Traffic Signal",
    "date_created": "2026-07-01T15:10:34.000",
    "date_modified": "2026-07-01T15:10:36.000",
    "request_status": "Pending",
    "responsible_agency": "Department of Parks & Parkways",
    "final_address": "601 S Carrollton Ave",
    "address_councildis": "A",
    "status": "Pending",
    "rowid": "1296162",
    "final_x": "3660737.10822",
    "final_y": "526789.355326",
    "longitude": "-90.13378879756087",
    "latitude": "29.943102002108066",
    "geocoded_column": {
      "latitude": "29.943102002108066",
      "longitude": "-90.13378879756087"
    }
  },
  {
    "service_request": "2026-1296161",
    "request_type": "Trash/Recycling",
    "request_reason": "Request a Large Item Pick Up",
    "date_created": "2026-07-01T15:10:13.000",
    "date_modified": "2026-07-01T15:10:15.000",
    "request_status": "Pending",
    "responsible_agency": "Department of Sanitation",
    "final_address": "7300 Vanderkloot Ave",
    "address_councildis": "E",
    "status": "Assigned to Contractor",
    "contractor": "Waste Pro",
    "rowid": "1296161",
    "final_x": "3706281.51268",
    "final_y": "562299.183839",
    "longitude": "-89.98867936879219",
    "latitude": "30.039351130995716",
    "geocoded_column": {
      "latitude": "30.039351130995716",
      "longitude": "-89.98867936879219"
    }
  },
  {
    "service_request": "2026-1296160",
    "request_type": "Trash/Recycling",
    "request_reason": "Repair Recycling Cart",
    "date_created": "2026-07-01T15:08:32.000",
    "date_modified": "2026-07-01T15:08:34.000",
    "request_status": "Pending",
    "responsible_agency": "Department of Sanitation",
    "final_address": "1015 Harding Dr",
    "address_councildis": "A",
    "status": "Pending",
    "rowid": "1296160",
    "final_x": "3674572.81665",
    "final_y": "540448.383947",
    "longitude": "-90.08963789916486",
    "latitude": "29.980254226935394",
    "geocoded_column": {
      "latitude": "29.980254226935394",
      "longitude": "-90.08963789916486"
    }
  },
  {
    "service_request": "2026-1296159",
    "request_type": "Trash/Recycling",
    "request_reason": "Order Recycling Cart",
    "date_created": "2026-07-01T15:07:11.000",
    "date_modified": "2026-07-01T15:07:14.000",
    "request_status": "Pending",
    "responsible_agency": "Department of Sanitation",
    "final_address": "1806 St Philip St",
    "address_councildis": "C",
    "status": "Pending",
    "rowid": "1296159",
    "final_x": "3680051.60309",
    "final_y": "535742.458823",
    "longitude": "-90.07249712524398",
    "latitude": "29.9671499056866",
    "geocoded_column": {
      "latitude": "29.9671499056866",
      "longitude": "-90.07249712524398"
    }
  },
  {
    "service_request": "2026-1296158",
    "request_type": "Alley Ways",
    "request_reason": "Alley Way Issues",
    "date_created": "2026-07-01T15:06:04.000",
    "date_modified": "2026-07-01T15:06:07.000",
    "request_status": "Pending",
    "responsible_agency": "Department of Public Works",
    "final_address": "3353 Plymouth Pl",
    "address_councildis": "C",
    "status": "Pending",
    "rowid": "1296158",
    "final_x": "3702730.05246",
    "final_y": "518723.736631",
    "longitude": "-90.00150358958703",
    "latitude": "29.919648773041402",
    "geocoded_column": {
      "latitude": "29.919648773041402",
      "longitude": "-90.00150358958703"
    }
  },
  {
    "service_request": "2026-1296157",
    "request_type": "Trash/Recycling",
    "request_reason": "Request a Large Item Pick Up",
    "date_created": "2026-07-01T15:05:50.000",
    "date_modified": "2026-07-01T15:05:52.000",
    "request_status": "Pending",
    "responsible_agency": "Department of Sanitation",
    "final_address": "2449 Mercedes Blvd",
    "address_councildis": "C",
    "status": "Assigned to Contractor",
    "contractor": "Richards Disposal",
    "rowid": "1296157",
    "final_x": "3697977.6321",
    "final_y": "521975.238906",
    "longitude": "-90.01638658626985",
    "latitude": "29.92874032500909",
    "geocoded_column": {
      "latitude": "29.92874032500909",
      "longitude": "-90.01638658626985"
    }
  },
  {
    "service_request": "2026-1296156",
    "request_type": "Trash/Recycling",
    "request_reason": "Repair Recycling Cart",
    "date_created": "2026-07-01T15:05:37.000",
    "date_modified": "2026-07-01T15:05:39.000",
    "request_status": "Pending",
    "responsible_agency": "Department of Sanitation",
    "final_address": "2213 Willow St",
    "address_councildis": "B",
    "status": "Pending",
    "rowid": "1296156",
    "final_x": "3674703.95201",
    "final_y": "527289.137407",
    "longitude": "-90.08967482356422",
    "latitude": "29.94406680689408",
    "geocoded_column": {
      "latitude": "29.94406680689408",
      "longitude": "-90.08967482356422"
    }
  },
  {
    "service_request": "2026-1296155",
    "request_type": "Trash/Recycling",
    "request_reason": "Request a Large Item Pick Up",
    "date_created": "2026-07-01T15:00:31.000",
    "date_modified": "2026-07-01T15:00:33.000",
    "request_status": "Pending",
    "responsible_agency": "Department of Sanitation",
    "final_address": "2820 Mansfield Ave",
    "address_councildis": "C",
    "status": "Assigned to Contractor",
    "contractor": "Richards Disposal",
    "rowid": "1296155",
    "final_x": "3709259.92331",
    "final_y": "519481.366775",
    "longitude": "-89.98086397982429",
    "latitude": "29.921521681992377",
    "geocoded_column": {
      "latitude": "29.921521681992377",
      "longitude": "-89.98086397982429"
    }
  },
  {
    "service_request": "2026-1296154",
    "request_type": "Trash/Recycling",
    "request_reason": "Request a Large Item Pick Up",
    "date_created": "2026-07-01T15:00:10.000",
    "date_modified": "2026-07-01T15:00:15.000",
    "request_status": "Pending",
    "responsible_agency": "Department of Sanitation",
    "final_address": "1209 Ninth St",
    "address_councildis": "B",
    "status": "Assigned to Contractor",
    "contractor": "IV Waste",
    "rowid": "1296154",
    "final_x": "3675640.89608",
    "final_y": "520432.91916",
    "longitude": "-90.08695209106038",
    "latitude": "29.925186449215925",
    "geocoded_column": {
      "latitude": "29.925186449215925",
      "longitude": "-90.08695209106038"
    }
  },
  {
    "service_request": "2026-1296153",
    "request_type": "Trash/Recycling",
    "request_reason": "Request a Large Item Pick Up",
    "date_created": "2026-07-01T14:59:06.000",
    "date_modified": "2026-07-01T14:59:08.000",
    "request_status": "Pending",
    "responsible_agency": "Department of Sanitation",
    "final_address": "1200 Louisa St",
    "address_councildis": "C",
    "status": "Assigned to Contractor",
    "contractor": "IV Waste",
    "rowid": "1296153",
    "final_x": "3689622.69801",
    "final_y": "536255.378887",
    "longitude": "-90.04225336927334",
    "latitude": "29.96826720092729",
    "geocoded_column": {
      "latitude": "29.96826720092729",
      "longitude": "-90.04225336927334"
    }
  },
  {
    "service_request": "2026-1296152",
    "request_type": "Parks & Grass Service",
    "request_reason": "Request Grass Cutting Service (City Owned Property)",
    "date_created": "2026-07-01T14:56:03.000",
    "date_modified": "2026-07-01T14:56:04.000",
    "request_status": "Pending",
    "responsible_agency": "Department of Parks & Parkways",
    "final_address": "3700 BLK Wall Blvd",
    "address_councildis": "C",
    "status": "Pending",
    "rowid": "1296152",
    "final_x": "3697573.50869",
    "final_y": "523689.683051",
    "longitude": "-90.0176001673085",
    "latitude": "29.933467222359948",
    "geocoded_column": {
      "latitude": "29.933467222359948",
      "longitude": "-90.0176001673085"
    }
  },
  {
    "service_request": "2026-1296151",
    "request_type": "Trash/Recycling",
    "request_reason": "Repair Trash Cart",
    "date_created": "2026-07-01T14:53:10.000",
    "date_modified": "2026-07-01T15:34:13.000",
    "request_status": "Pending",
    "responsible_agency": "Department of Sanitation",
    "final_address": "7505 Shorewood Blvd",
    "address_councildis": "E",
    "status": "Assigned to Contractor",
    "contractor": "Waste Pro",
    "rowid": "1296151",
    "final_x": "3720468.50489",
    "final_y": "572455.901929",
    "longitude": "-89.94345553020491",
    "latitude": "30.066812490517687",
    "geocoded_column": {
      "latitude": "30.066812490517687",
      "longitude": "-89.94345553020491"
    }
  },
  {
    "service_request": "2026-1296150",
    "request_type": "Tree Service",
    "request_reason": "Street or Sidewalk Blocked",
    "date_created": "2026-07-01T14:47:44.000",
    "date_modified": "2026-07-01T14:49:18.000",
    "case_close_date": "2026-07-01T09:49:16.000",
    "request_status": "Closed",
    "responsible_agency": "Department of Parks & Parkways",
    "final_address": "4849 Eastview Dr",
    "address_councildis": "E",
    "status": "Not Enough Information- Resubmittal Required",
    "rowid": "1296150",
    "final_x": "3705077.59927",
    "final_y": "556055.400025",
    "longitude": "-89.99271492370335",
    "latitude": "30.022221956596024",
    "geocoded_column": {
      "latitude": "30.022221956596024",
      "longitude": "-89.99271492370335"
    }
  },
  {
    "service_request": "2026-1296149",
    "request_type": "Trash/Recycling",
    "request_reason": "Request a Large Item Pick Up",
    "date_created": "2026-07-01T14:44:14.000",
    "date_modified": "2026-07-01T14:44:16.000",
    "request_status": "Pending",
    "responsible_agency": "Department of Sanitation",
    "final_address": "6 Assumption Pl",
    "address_councildis": "E",
    "status": "Assigned to Contractor",
    "contractor": "Waste Pro",
    "rowid": "1296149",
    "final_x": "3726093.4551",
    "final_y": "564303.261985",
    "longitude": "-89.92599092863988",
    "latitude": "30.044207359883078",
    "geocoded_column": {
      "latitude": "30.044207359883078",
      "longitude": "-89.92599092863988"
    }
  },
  {
    "service_request": "2026-1296148",
    "request_type": "Trash/Recycling",
    "request_reason": "Request a Large Item Pick Up",
    "date_created": "2026-07-01T14:41:45.000",
    "date_modified": "2026-07-01T14:41:46.000",
    "request_status": "Pending",
    "responsible_agency": "Department of Sanitation",
    "final_address": "5214 Dauphine St",
    "address_councildis": "E",
    "status": "Assigned to Contractor",
    "contractor": "Waste Pro",
    "rowid": "1296148",
    "final_x": "3696350.8481",
    "final_y": "532935.985476",
    "longitude": "-90.02112573500155",
    "latitude": "29.958929881230112",
    "geocoded_column": {
      "latitude": "29.958929881230112",
      "longitude": "-90.02112573500155"
    }
  },
  {
    "service_request": "2026-1296147",
    "request_type": "Trash/Recycling",
    "request_reason": "Repair Recycling Cart",
    "date_created": "2026-07-01T14:39:47.000",
    "date_modified": "2026-07-01T14:39:49.000",
    "request_status": "Pending",
    "responsible_agency": "Department of Sanitation",
    "final_address": "49 Yosemite Dr",
    "address_councildis": "C",
    "status": "Pending",
    "rowid": "1296147",
    "final_x": "3699832.25066",
    "final_y": "516800.617525",
    "longitude": "-90.01072052823787",
    "latitude": "29.91445314599435",
    "geocoded_column": {
      "latitude": "29.91445314599435",
      "longitude": "-90.01072052823787"
    }
  },
  {
    "service_request": "2026-1296146",
    "request_type": "Alley Ways",
    "request_reason": "Alley Way Issues",
    "date_created": "2026-07-01T14:39:44.000",
    "date_modified": "2026-07-01T14:39:57.000",
    "request_status": "Pending",
    "responsible_agency": "Department of Public Works",
    "final_address": "6443 Marshal Foch St",
    "address_councildis": "A",
    "status": "Pending",
    "rowid": "1296146",
    "final_x": "3670167.05364",
    "final_y": "550274.682772",
    "longitude": "-90.10322001964396",
    "latitude": "30.00740391111966",
    "geocoded_column": {
      "latitude": "30.00740391111966",
      "longitude": "-90.10322001964396"
    }
  },
  {
    "service_request": "2026-1296145",
    "request_type": "Trash/Recycling",
    "request_reason": "Repair Recycling Cart",
    "date_created": "2026-07-01T14:37:59.000",
    "date_modified": "2026-07-01T14:38:02.000",
    "request_status": "Pending",
    "responsible_agency": "Department of Sanitation",
    "final_address": "6443 Marshal Foch St",
    "address_councildis": "A",
    "status": "Pending",
    "rowid": "1296145",
    "final_x": "3670167.05364",
    "final_y": "550274.682772",
    "longitude": "-90.10322001964396",
    "latitude": "30.00740391111966",
    "geocoded_column": {
      "latitude": "30.00740391111966",
      "longitude": "-90.10322001964396"
    }
  },
  {
    "service_request": "2026-1296144",
    "request_type": "Trash/Recycling",
    "request_reason": "Order Second Trash Cart",
    "date_created": "2026-07-01T14:37:13.000",
    "date_modified": "2026-07-01T14:37:15.000",
    "request_status": "Pending",
    "responsible_agency": "Department of Sanitation",
    "final_address": "6330 Orleans Ave",
    "address_councildis": "A",
    "status": "Assigned to Contractor",
    "contractor": "IV Waste",
    "rowid": "1296144",
    "final_x": "3671031.47284",
    "final_y": "549392.450707",
    "longitude": "-90.1005190557366",
    "latitude": "30.004952537669542",
    "geocoded_column": {
      "latitude": "30.004952537669542",
      "longitude": "-90.1005190557366"
    }
  },
  {
    "service_request": "2026-1296143",
    "request_type": "Trash/Recycling",
    "request_reason": "Request a Large Item Pick Up",
    "date_created": "2026-07-01T14:35:01.000",
    "date_modified": "2026-07-01T14:35:04.000",
    "request_status": "Pending",
    "responsible_agency": "Department of Sanitation",
    "final_address": "2663 Touro St",
    "address_councildis": "D",
    "status": "Assigned to Contractor",
    "contractor": "IV Waste",
    "rowid": "1296143",
    "final_x": "3683768.78665",
    "final_y": "542368.043021",
    "longitude": "-90.0605258225087",
    "latitude": "29.985254958214785",
    "geocoded_column": {
      "latitude": "29.985254958214785",
      "longitude": "-90.0605258225087"
    }
  },
  {
    "service_request": "2026-1296142",
    "request_type": "Streetlights",
    "request_reason": "Streetlight Outage/Malfunction",
    "date_created": "2026-07-01T14:34:03.000",
    "date_modified": "2026-07-01T14:34:22.000",
    "request_status": "Pending",
    "responsible_agency": "Department of Public Works",
    "final_address": "5245 Berkley Dr",
    "address_councildis": "C",
    "status": "Pending",
    "rowid": "1296142",
    "final_x": "3703266.85828",
    "final_y": "518130.606646",
    "longitude": "-89.99983095983637",
    "latitude": "29.91800070263131",
    "geocoded_column": {
      "latitude": "29.91800070263131",
      "longitude": "-89.99983095983637"
    }
  },
  {
    "service_request": "2026-1296141",
    "request_type": "Drainage",
    "request_reason": "Drainage Manhole Cover Missing or Damaged",
    "date_created": "2026-07-01T14:32:59.000",
    "date_modified": "2026-07-01T14:33:01.000",
    "request_status": "Pending",
    "responsible_agency": "Sewerage & Water Board",
    "final_address": "OLIVE ST & CAMPHOR ST",
    "address_councildis": "A",
    "status": "Pending",
    "rowid": "1296141",
    "final_x": "3663436.9",
    "final_y": "537651.68",
    "longitude": "-90.12490316213713",
    "latitude": "29.972891870759565",
    "geocoded_column": {
      "latitude": "29.972891870759565",
      "longitude": "-90.12490316213713"
    }
  },
  {
    "service_request": "2026-1296140",
    "request_type": "Trash/Recycling",
    "request_reason": "Request a Large Item Pick Up",
    "date_created": "2026-07-01T14:30:45.000",
    "date_modified": "2026-07-01T14:30:47.000",
    "request_status": "Pending",
    "responsible_agency": "Department of Sanitation",
    "final_address": "5600 Bellaire Dr",
    "address_councildis": "A",
    "status": "Assigned to Contractor",
    "contractor": "IV Waste",
    "rowid": "1296140",
    "final_x": "3664028.31047",
    "final_y": "544998.864079",
    "longitude": "-90.1227902258527",
    "latitude": "29.993076997691002",
    "geocoded_column": {
      "latitude": "29.993076997691002",
      "longitude": "-90.1227902258527"
    }
  },
  {
    "service_request": "2026-1296139",
    "request_type": "Trash/Recycling",
    "request_reason": "Request a Large Item Pick Up",
    "date_created": "2026-07-01T14:29:24.000",
    "date_modified": "2026-07-01T14:29:26.000",
    "request_status": "Pending",
    "responsible_agency": "Department of Sanitation",
    "final_address": "4936 S Tonti St",
    "address_councildis": "B",
    "status": "Assigned to Contractor",
    "contractor": "IV Waste",
    "rowid": "1296139",
    "final_x": "3669002.83726",
    "final_y": "528009.766655",
    "longitude": "-90.10765054676209",
    "latitude": "29.94621721612921",
    "geocoded_column": {
      "latitude": "29.94621721612921",
      "longitude": "-90.10765054676209"
    }
  },
  {
    "service_request": "2026-1296138",
    "request_type": "Drainage",
    "request_reason": "Ditch and Culvert Maintenance",
    "date_created": "2026-07-01T14:27:46.000",
    "date_modified": "2026-07-01T14:31:05.000",
    "request_status": "Pending",
    "responsible_agency": "Department of Public Works",
    "final_address": "6016 Annunciation St",
    "address_councildis": "A",
    "status": "Pending",
    "rowid": "1296138",
    "final_x": "3664082.12384",
    "final_y": "517863.908982",
    "longitude": "-90.12352523721874",
    "latitude": "29.918463130036713",
    "geocoded_column": {
      "latitude": "29.918463130036713",
      "longitude": "-90.12352523721874"
    }
  },
  {
    "service_request": "2026-1296137",
    "request_type": "Trash/Recycling",
    "request_reason": "Repair Trash Cart",
    "date_created": "2026-07-01T14:27:14.000",
    "date_modified": "2026-07-01T14:27:17.000",
    "request_status": "Pending",
    "responsible_agency": "Department of Sanitation",
    "final_address": "1417 State St",
    "address_councildis": "A",
    "status": "Assigned to Contractor",
    "contractor": "IV Waste",
    "rowid": "1296137",
    "final_x": "3665469.21076",
    "final_y": "521259.460729",
    "longitude": "-90.11903333986645",
    "latitude": "29.92775948868835",
    "geocoded_column": {
      "latitude": "29.92775948868835",
      "longitude": "-90.11903333986645"
    }
  },
  {
    "service_request": "2026-1296136",
    "request_type": "Utility Poles",
    "request_reason": "Wires Sagging/Hanging Low",
    "date_created": "2026-07-01T14:27:11.000",
    "date_modified": "2026-07-01T14:27:26.000",
    "request_status": "Pending",
    "responsible_agency": "Utility Company Collective",
    "final_address": "6016 Annunciation St",
    "address_councildis": "A",
    "status": "Pending",
    "rowid": "1296136",
    "final_x": "3664082.12384",
    "final_y": "517863.908982",
    "longitude": "-90.12352523721874",
    "latitude": "29.918463130036713",
    "geocoded_column": {
      "latitude": "29.918463130036713",
      "longitude": "-90.12352523721874"
    }
  },
  {
    "service_request": "2026-1296135",
    "request_type": "Trash/Recycling",
    "request_reason": "Request a Large Item Pick Up",
    "date_created": "2026-07-01T14:25:41.000",
    "date_modified": "2026-07-01T14:25:43.000",
    "request_status": "Pending",
    "responsible_agency": "Department of Sanitation",
    "final_address": "6301 Pandora St",
    "address_councildis": "D",
    "status": "Assigned to Contractor",
    "contractor": "Waste Pro",
    "rowid": "1296135",
    "final_x": "3696716.63229",
    "final_y": "557396.800667",
    "longitude": "-90.01908475353561",
    "latitude": "30.026176622647796",
    "geocoded_column": {
      "latitude": "30.026176622647796",
      "longitude": "-90.01908475353561"
    }
  },
  {
    "service_request": "2026-1296134",
    "request_type": "Trash/Recycling",
    "request_reason": "Replace Recycling Cart",
    "date_created": "2026-07-01T14:24:30.000",
    "date_modified": "2026-07-01T14:24:32.000",
    "request_status": "Pending",
    "responsible_agency": "Department of Sanitation",
    "final_address": "3532 Silver Maple Ct",
    "address_councildis": "C",
    "status": "Pending",
    "rowid": "1296134",
    "final_x": "3703302.57182",
    "final_y": "512548.420913",
    "longitude": "-89.99992327424533",
    "latitude": "29.902650454519577",
    "geocoded_column": {
      "latitude": "29.902650454519577",
      "longitude": "-89.99992327424533"
    }
  },
  {
    "service_request": "2026-1296133",
    "request_type": "Trash/Recycling",
    "request_reason": "Request a Large Item Pick Up",
    "date_created": "2026-07-01T14:23:47.000",
    "date_modified": "2026-07-01T14:23:50.000",
    "request_status": "Pending",
    "responsible_agency": "Department of Sanitation",
    "final_address": "7819 Dorsett Dr",
    "address_councildis": "E",
    "status": "Assigned to Contractor",
    "contractor": "Waste Pro",
    "rowid": "1296133",
    "final_x": "3712465.4053",
    "final_y": "567990.799717",
    "longitude": "-89.9689224648669",
    "latitude": "30.05479978583118",
    "geocoded_column": {
      "latitude": "30.05479978583118",
      "longitude": "-89.9689224648669"
    }
  },
  {
    "service_request": "2026-1296132",
    "request_type": "Street and Traffic Signs",
    "request_reason": "Street Name Sign Damaged or Missing",
    "date_created": "2026-07-01T14:21:27.000",
    "date_modified": "2026-07-01T14:21:59.000",
    "request_status": "Pending",
    "responsible_agency": "Department of Public Works",
    "final_address": "BURGUNDY ST & CHARBONNET ST",
    "address_councildis": "E",
    "status": "Pending",
    "rowid": "1296132",
    "final_x": "3698417.7",
    "final_y": "532821.28",
    "longitude": "-90.01460334385031",
    "latitude": "29.958549237221906",
    "geocoded_column": {
      "latitude": "29.958549237221906",
      "longitude": "-90.01460334385031"
    }
  },
  {
    "service_request": "2026-1296131",
    "request_type": "Parks & Grass Service",
    "request_reason": "Request Grass Cutting Service (City Owned Property)",
    "date_created": "2026-07-01T14:17:10.000",
    "date_modified": "2026-07-01T14:17:12.000",
    "request_status": "Pending",
    "responsible_agency": "Department of Parks & Parkways",
    "final_address": "3701 Behrman Pl",
    "address_councildis": "C",
    "status": "Pending",
    "rowid": "1296131",
    "final_x": "3697532.11869",
    "final_y": "517224.025461",
    "longitude": "-90.01796514836522",
    "latitude": "29.915690177619858",
    "geocoded_column": {
      "latitude": "29.915690177619858",
      "longitude": "-90.01796514836522"
    }
  },
  {
    "service_request": "2026-1296130",
    "request_type": "Abandoned Vehicles",
    "request_reason": "Abandoned/Junk Vehicles",
    "date_created": "2026-07-01T14:16:56.000",
    "date_modified": "2026-07-01T14:16:58.000",
    "request_status": "Pending",
    "responsible_agency": "Department of Public Works",
    "final_address": "2833 St Charles Ave",
    "address_councildis": "B",
    "status": "Pending",
    "rowid": "1296130",
    "final_x": "3675603.69441",
    "final_y": "522410.524922",
    "longitude": "-90.08700162338833",
    "latitude": "29.93062533707521",
    "geocoded_column": {
      "latitude": "29.93062533707521",
      "longitude": "-90.08700162338833"
    }
  },
  {
    "service_request": "2026-1296129",
    "request_type": "Trash/Recycling",
    "request_reason": "Order Trash Cart",
    "date_created": "2026-07-01T14:16:25.000",
    "date_modified": "2026-07-01T14:16:28.000",
    "request_status": "Pending",
    "responsible_agency": "Department of Sanitation",
    "final_address": "5310 Glouster Rd",
    "address_councildis": "E",
    "status": "Assigned to Contractor",
    "contractor": "Waste Pro",
    "rowid": "1296129",
    "final_x": "3707574.9155",
    "final_y": "557634.298971",
    "longitude": "-89.9847653767106",
    "latitude": "30.02648273709857",
    "geocoded_column": {
      "latitude": "30.02648273709857",
      "longitude": "-89.9847653767106"
    }
  },
  {
    "service_request": "2026-1296128",
    "request_type": "Property Maintenance",
    "request_reason": "Property Maintenance",
    "date_created": "2026-07-01T14:15:43.000",
    "date_modified": "2026-07-01T14:15:44.000",
    "request_status": "Pending",
    "responsible_agency": "Department of Code Enforcement",
    "final_address": "S ROMAN ST & ERATO ST",
    "address_councildis": "B",
    "status": "Pending",
    "rowid": "1296128",
    "final_x": "3674794.3",
    "final_y": "529037.58",
    "longitude": "-90.08932963699905",
    "latitude": "29.94887175021911",
    "geocoded_column": {
      "latitude": "29.94887175021911",
      "longitude": "-90.08932963699905"
    }
  },