[
  {
    "service_request": "2022-922913",
    "request_type": "Abandoned Vehicles",
    "request_reason": "Abandoned/Junk Vehicles",
    "date_created": "2022-09-23T00:31:37.000",
    "date_modified": "2022-09-23T00:31:37.000",
    "request_status": "Pending",
    "responsible_agency": "Department of Public Works",
    "final_address": "4230 Baudin St",
    "address_councildis": "A",
    "status": "Pending",
    "rowid": "922913",
    "final_x": "3669393.91463",
    "final_y": "537574.715592",
    "longitude": "-90.10609232361088",
    "latitude": "29.972506154984096",
    "geocoded_column": {
      "latitude": "29.972506154984096",
      "longitude": "-90.10609232361088"
    }
  },
  {
    "service_request": "2022-922912",
    "request_type": "Trash/Recycling",
    "request_reason": "Missed Trash Pick-Up",
    "date_created": "2022-09-23T00:22:56.000",
    "date_modified": "2022-09-23T00:22:56.000",
    "request_status": "Pending",
    "responsible_agency": "Department of Sanitation",
    "final_address": "7541 Briarheath Dr",
    "address_councildis": "E",
    "status": "Assigned to Contractor",
    "contractor": "Metro Disposal",
    "rowid": "922912",
    "final_x": "3714889.86245",
    "final_y": "566733.076707",
    "longitude": "-89.96130696436083",
    "latitude": "30.051261960604723",
    "geocoded_column": {
      "latitude": "30.051261960604723",
      "longitude": "-89.96130696436083"
    }
  },
  {
    "service_request": "2022-922911",
    "request_type": "Traffic Signals/Signs/Striping/Streetlights",
    "request_reason": "Street Light Outage/Malfunction",
    "date_created": "2022-09-23T00:19:53.000",
    "date_modified": "2022-09-23T00:19:53.000",
    "request_status": "Pending",
    "responsible_agency": "Department of Public Works",
    "final_address": "7533 Selma St",
    "address_councildis": "E",
    "status": "Pending",
    "contractor": "Legacy Professional Services",
    "rowid": "922911",
    "final_x": "3702899.76298",
    "final_y": "554103.072024",
    "longitude": "-89.99966809730863",
    "latitude": "30.016923685700654",
    "geocoded_column": {
      "latitude": "30.016923685700654",
      "longitude": "-89.99966809730863"
    }
  },
  {
    "service_request": "2022-922910",
    "request_type": "Mosquito, Termite & Rodent Control",
    "request_reason": "Non-Rodent Complaint (Mice, Possums, Snakes)",
    "date_created": "2022-09-23T00:12:53.000",
    "date_modified": "2022-09-23T00:12:53.000",
    "request_status": "Pending",
    "responsible_agency": "Mosquito, Termite & Rodent Control Board",
    "final_address": "2815 DAbadie St",
    "address_councildis": "D",
    "status": "Pending",
    "rowid": "922910",
    "final_x": "3678864.80853",
    "final_y": "541319.096972",
    "longitude": "-90.07605179436885",
    "latitude": "29.982519594058523",
    "geocoded_column": {
      "latitude": "29.982519594058523",
      "longitude": "-90.07605179436885"
    }
  },
  {
    "service_request": "2022-922909",
    "request_type": "Trash/Recycling",
    "request_reason": "Request a Large Item Pick Up",
    "date_created": "2022-09-22T22:52:14.000",
    "date_modified": "2022-09-22T22:52:15.000",
    "request_status": "Pending",
    "responsible_agency": "Department of Sanitation",
    "final_address": "3917 Octavia St",
    "address_councildis": "B",
    "status": "Assigned to Contractor",
    "contractor": "Richards Disposal",
    "rowid": "922909",
    "final_x": "3668903.59009",
    "final_y": "529861.277761",
    "longitude": "-90.1079013861252",
    "latitude": "29.951311186553195",
    "geocoded_column": {
      "latitude": "29.951311186553195",
      "longitude": "-90.1079013861252"
    }
  },
  {
    "service_request": "2022-922908",
    "request_type": "Property Maintenance",
    "request_reason": "Property Maintenance",
    "date_created": "2022-09-22T22:36:49.000",
    "date_modified": "2022-09-22T22:36:49.000",
    "request_status": "Pending",
    "responsible_agency": "Department of Code Enforcement",
    "final_address": "5601 Read Blvd",
    "address_councildis": "E",
    "status": "Pending",
    "rowid": "922908",
    "final_x": "3711987.02949",
    "final_y": "559650.501085",
    "longitude": "-89.97074797591881",
    "latitude": "30.03188297577755",
    "geocoded_column": {
      "latitude": "30.03188297577755",
      "longitude": "-89.97074797591881"
    }
  },
  {
    "service_request": "2022-922907",
    "request_type": "Trash/Recycling",
    "request_reason": "Missed Trash Pick-Up",
    "date_created": "2022-09-22T22:34:06.000",
    "date_modified": "2022-09-22T22:34:07.000",
    "request_status": "Pending",
    "responsible_agency": "Department of Sanitation",
    "final_address": "1111 Jefferson Ave",
    "address_councildis": "B",
    "status": "Assigned to Contractor",
    "contractor": "Richards Disposal",
    "rowid": "922907",
    "final_x": "3667064.86004",
    "final_y": "519624.076856",
    "longitude": "-90.11405116987353",
    "latitude": "29.92321610697393",
    "geocoded_column": {
      "latitude": "29.92321610697393",
      "longitude": "-90.11405116987353"
    }
  },
  {
    "service_request": "2022-922905",
    "request_type": "Abandoned Vehicles",
    "request_reason": "Abandoned/Junk Vehicles",
    "date_created": "2022-09-22T22:24:05.000",
    "date_modified": "2022-09-22T22:24:05.000",
    "request_status": "Pending",
    "responsible_agency": "Department of Public Works",
    "final_address": "4901 Eunice Dr",
    "address_councildis": "E",
    "status": "Pending",
    "rowid": "922905",
    "final_x": "3710514.48241",
    "final_y": "556755.667226",
    "longitude": "-89.97550966719511",
    "latitude": "30.023971390140886",
    "geocoded_column": {
      "latitude": "30.023971390140886",
      "longitude": "-89.97550966719511"
    }
  },
  {
    "service_request": "2022-922906",
    "request_type": "Abandoned Vehicles",
    "request_reason": "Abandoned/Junk Vehicles",
    "date_created": "2022-09-22T22:24:05.000",
    "date_modified": "2022-09-22T22:24:05.000",
    "request_status": "Pending",
    "responsible_agency": "Department of Public Works",
    "final_address": "4901 Eunice Dr",
    "address_councildis": "E",
    "status": "Pending",
    "rowid": "922906",
    "final_x": "3710514.48241",
    "final_y": "556755.667226",
    "longitude": "-89.97550966719511",
    "latitude": "30.023971390140886",
    "geocoded_column": {
      "latitude": "30.023971390140886",
      "longitude": "-89.97550966719511"
    }
  },
  {
    "service_request": "2022-922904",
    "request_type": "Property Maintenance",
    "request_reason": "Property Maintenance",
    "date_created": "2022-09-22T22:21:31.000",
    "date_modified": "2022-09-22T22:21:31.000",
    "request_status": "Pending",
    "responsible_agency": "Department of Code Enforcement",
    "final_address": "4921 Crowder Blvd",
    "address_councildis": "E",
    "status": "Pending",
    "rowid": "922904",
    "final_x": "3706463.40452",
    "final_y": "556565.189402",
    "longitude": "-89.9883172513283",
    "latitude": "30.023579024827164",
    "geocoded_column": {
      "latitude": "30.023579024827164",
      "longitude": "-89.9883172513283"
    }
  },
  {
    "service_request": "2022-922903",
    "request_type": "Property Maintenance",
    "request_reason": "Property Maintenance",
    "date_created": "2022-09-22T22:19:39.000",
    "date_modified": "2022-09-22T22:19:39.000",
    "request_status": "Pending",
    "responsible_agency": "Department of Code Enforcement",
    "final_address": "4820 Marque Dr",
    "address_councildis": "E",
    "status": "Pending",
    "rowid": "922903",
    "final_x": "3709928.92542",
    "final_y": "556334.359834",
    "longitude": "-89.97737565061976",
    "latitude": "30.022832026126938",
    "geocoded_column": {
      "latitude": "30.022832026126938",
      "longitude": "-89.97737565061976"
    }
  },
  {
    "service_request": "2022-922902",
    "request_type": "Safety & Permits",
    "request_reason": "Licenses & Permits",
    "date_created": "2022-09-22T22:16:22.000",
    "date_modified": "2022-09-22T22:16:23.000",
    "request_status": "Pending",
    "responsible_agency": "Safety and Permits",
    "final_address": "600 BLK Tricou St",
    "address_councildis": "E",
    "status": "Pending",
    "rowid": "922902",
    "final_x": "3699493.59343",
    "final_y": "531455.359121",
    "longitude": "-90.01125574330902",
    "latitude": "29.954759348694232",
    "geocoded_column": {
      "latitude": "29.954759348694232",
      "longitude": "-90.01125574330902"
    }
  },
  {
    "service_request": "2022-922901",
    "request_type": "Trash/Recycling",
    "request_reason": "Request a Large Item Pick Up",
    "date_created": "2022-09-22T22:15:15.000",
    "date_modified": "2022-09-22T22:15:16.000",
    "request_status": "Pending",
    "responsible_agency": "Department of Sanitation",
    "final_address": "1617 Duels St, New Orleans, Louisiana, 70119",
    "address_councildis": "D",
    "status": "Assigned to Contractor",
    "contractor": "Metro Disposal",
    "rowid": "922901",
    "final_x": "3680129.60239",
    "final_y": "542253.405197",
    "longitude": "-90.07202446630043",
    "latitude": "29.985050395097968",
    "geocoded_column": {
      "latitude": "29.985050395097968",
      "longitude": "-90.07202446630043"
    }
  },
  {
    "service_request": "2022-922900",
    "request_type": "Traffic Signals/Signs/Striping/Streetlights",
    "request_reason": "Request for Stop Sign",
    "date_created": "2022-09-22T22:07:40.000",
    "date_modified": "2022-09-22T22:07:40.000",
    "request_status": "Pending",
    "responsible_agency": "Department of Public Works",
    "final_address": "7440 Wright Rd",
    "address_councildis": "E",
    "status": "Pending",
    "rowid": "922900",
    "final_x": "3711462.51198",
    "final_y": "564845.667042",
    "longitude": "-89.97221045093752",
    "latitude": "30.04618474348682",
    "geocoded_column": {
      "latitude": "30.04618474348682",
      "longitude": "-89.97221045093752"
    }
  },
  {
    "service_request": "2022-922899",
    "request_type": "Property Maintenance",
    "request_reason": "Property Maintenance",
    "date_created": "2022-09-22T22:04:27.000",
    "date_modified": "2022-09-22T22:04:27.000",
    "request_status": "Pending",
    "responsible_agency": "Department of Code Enforcement",
    "final_address": "5427 Crowder Blvd",
    "address_councildis": "E",
    "status": "Pending",
    "rowid": "922899",
    "final_x": "3706397.2691",
    "final_y": "557043.012442",
    "longitude": "-89.98850850384686",
    "latitude": "30.02489498675801",
    "geocoded_column": {
      "latitude": "30.02489498675801",
      "longitude": "-89.98850850384686"
    }
  },
  {
    "service_request": "2022-922898",
    "request_type": "Property Maintenance",
    "request_reason": "Property Maintenance",
    "date_created": "2022-09-22T22:01:41.000",
    "date_modified": "2022-09-22T22:01:41.000",
    "request_status": "Pending",
    "responsible_agency": "Department of Code Enforcement",
    "final_address": "2233 Humanity St",
    "address_councildis": "D",
    "status": "Pending",
    "rowid": "922898",
    "final_x": "3684648.88585",
    "final_y": "544849.338063",
    "longitude": "-90.05765870768407",
    "latitude": "29.99205072849505",
    "geocoded_column": {
      "latitude": "29.99205072849505",
      "longitude": "-90.05765870768407"
    }
  },
  {
    "service_request": "2022-922896",
    "request_type": "Trash/Recycling",
    "request_reason": "Missed Trash Pick-Up",
    "date_created": "2022-09-22T21:30:41.000",
    "date_modified": "2022-09-22T21:30:41.000",
    "request_status": "Pending",
    "responsible_agency": "Department of Sanitation",
    "final_address": "3421 Burgundy St",
    "address_councildis": "C",
    "status": "Assigned to Contractor",
    "contractor": "Metro Disposal",
    "rowid": "922896",
    "final_x": "3690170.22179",
    "final_y": "534904.589766",
    "longitude": "-90.04057239902869",
    "latitude": "29.964536029837564",
    "geocoded_column": {
      "latitude": "29.964536029837564",
      "longitude": "-90.04057239902869"
    }
  },
  {
    "service_request": "2022-922895",
    "request_type": "Trash/Recycling",
    "request_reason": "Missed Trash Pick-Up",
    "date_created": "2022-09-22T21:24:49.000",
    "date_modified": "2022-09-22T21:24:50.000",
    "request_status": "Pending",
    "responsible_agency": "Department of Sanitation",
    "final_address": "1461 Magazine St",
    "address_councildis": "B",
    "status": "Assigned to Contractor",
    "contractor": "Richards Disposal",
    "rowid": "922895",
    "final_x": "3680202.78491",
    "final_y": "524023.150652",
    "longitude": "-90.0724269539209",
    "latitude": "29.934921174757065",
    "geocoded_column": {
      "latitude": "29.934921174757065",
      "longitude": "-90.0724269539209"
    }
  },
  {
    "service_request": "2022-922894",
    "request_type": "Health Related Questions",
    "request_reason": "Noise Ordinance Complaint",
    "date_created": "2022-09-22T21:22:08.000",
    "date_modified": "2022-09-22T21:22:08.000",
    "request_status": "Pending",
    "responsible_agency": "Health Department",
    "final_address": "1723 Henriette Delille St",
    "address_councildis": "C",
    "status": "Pending",
    "rowid": "922894",
    "final_x": "3683338.40943",
    "final_y": "536195.373255",
    "longitude": "-90.06210150700602",
    "latitude": "29.968295408632137",
    "geocoded_column": {
      "latitude": "29.968295408632137",
      "longitude": "-90.06210150700602"
    }
  },
  {
    "service_request": "2022-922893",
    "request_type": "Abandoned Vehicles",
    "request_reason": "Abandoned/Junk Vehicles",
    "date_created": "2022-09-22T21:22:01.000",
    "date_modified": "2022-09-22T21:22:01.000",
    "request_status": "Pending",
    "responsible_agency": "Department of Public Works",
    "final_address": "8207 Birch St",
    "address_councildis": "A",
    "status": "Pending",
    "rowid": "922893",
    "final_x": "3662621.90266",
    "final_y": "529732.895617",
    "longitude": "-90.1277402239464",
    "latitude": "29.9511414053397",
    "geocoded_column": {
      "latitude": "29.9511414053397",
      "longitude": "-90.1277402239464"
    }
  },
  {
    "service_request": "2022-922892",
    "request_type": "Trash/Recycling",
    "request_reason": "Replace Trash Cart",
    "date_created": "2022-09-22T21:14:56.000",
    "date_modified": "2022-09-22T21:14:57.000",
    "request_status": "Pending",
    "responsible_agency": "Department of Sanitation",
    "final_address": "2429 Octavia St",
    "address_councildis": "A",
    "status": "Assigned to Contractor",
    "contractor": "Richards Disposal",
    "rowid": "922892",
    "final_x": "3667772.16461",
    "final_y": "524654.69382",
    "longitude": "-90.11164916288308",
    "latitude": "29.937027988059267",
    "geocoded_column": {
      "latitude": "29.937027988059267",
      "longitude": "-90.11164916288308"
    }
  },
  {
    "service_request": "2022-922891",
    "request_type": "Traffic Signals/Signs/Striping/Streetlights",
    "request_reason": "Street Light Outage/Malfunction",
    "date_created": "2022-09-22T20:53:58.000",
    "date_modified": "2022-09-22T20:53:58.000",
    "request_status": "Pending",
    "responsible_agency": "Department of Public Works",
    "final_address": "815 St Ann St",
    "address_councildis": "C",
    "status": "Pending",
    "contractor": "Legacy Professional Services",
    "rowid": "922891",
    "final_x": "3682414.98767",
    "final_y": "533075.498052",
    "longitude": "-90.06512676050652",
    "latitude": "29.95974495961398",
    "geocoded_column": {
      "latitude": "29.95974495961398",
      "longitude": "-90.06512676050652"
    }
  },
  {
    "service_request": "2022-922890",
    "request_type": "Traffic Signals/Signs/Striping/Streetlights",
    "request_reason": "Street Light Outage/Malfunction",
    "date_created": "2022-09-22T20:51:53.000",
    "date_modified": "2022-09-22T20:51:54.000",
    "request_status": "Pending",
    "responsible_agency": "Department of Public Works",
    "final_address": "815 St Ann St",
    "address_councildis": "C",
    "status": "Pending",
    "contractor": "Legacy Professional Services",
    "rowid": "922890",
    "final_x": "3682414.98767",
    "final_y": "533075.498052",
    "longitude": "-90.06512676050652",
    "latitude": "29.95974495961398",
    "geocoded_column": {
      "latitude": "29.95974495961398",
      "longitude": "-90.06512676050652"
    }
  },
  {
    "service_request": "2022-922889",
    "request_type": "Property Maintenance",
    "request_reason": "Property Maintenance",
    "date_created": "2022-09-22T20:41:32.000",
    "date_modified": "2022-09-22T20:41:32.000",
    "request_status": "Pending",
    "responsible_agency": "Department of Code Enforcement",
    "final_address": "1201 S Derbigny St",
    "address_councildis": "B",
    "status": "Pending",
    "rowid": "922889",
    "final_x": "3675166.01173",
    "final_y": "529163.275456",
    "longitude": "-90.08815166885599",
    "latitude": "29.949206269394175",
    "geocoded_column": {
      "latitude": "29.949206269394175",
      "longitude": "-90.08815166885599"
    }
  },
  {
    "service_request": "2022-922888",
    "request_type": "Property Maintenance",
    "request_reason": "Property Maintenance",
    "date_created": "2022-09-22T20:29:53.000",
    "date_modified": "2022-09-22T20:29:53.000",
    "request_status": "Pending",
    "responsible_agency": "Department of Code Enforcement",
    "final_address": "9900 E Wheaton Cir",
    "address_councildis": "E",
    "status": "Pending",
    "rowid": "922888",
    "final_x": "3709242.5603",
    "final_y": "562649.872928",
    "longitude": "-89.9793085755661",
    "latitude": "30.040219509599645",
    "geocoded_column": {
      "latitude": "30.040219509599645",
      "longitude": "-89.9793085755661"
    }
  },
  {
    "service_request": "2022-922887",
    "request_type": "Trash/Recycling",
    "request_reason": "Replace Trash Cart",
    "date_created": "2022-09-22T20:22:16.000",
    "date_modified": "2022-09-22T20:22:16.000",
    "request_status": "Pending",
    "responsible_agency": "Department of Sanitation",
    "final_address": "815 Leboeuf St",
    "address_councildis": "C",
    "status": "Assigned to Contractor",
    "contractor": "Richards Disposal",
    "rowid": "922887",
    "final_x": "3689735.50537",
    "final_y": "528471.687936",
    "longitude": "-90.04217410652606",
    "latitude": "29.946861255152097",
    "geocoded_column": {
      "latitude": "29.946861255152097",
      "longitude": "-90.04217410652606"
    }
  },
  {
    "service_request": "2022-922886",
    "request_type": "Roads/Drainage",
    "request_reason": "Street Subsidence (Sinking)",
    "date_created": "2022-09-22T20:16:21.000",
    "date_modified": "2022-09-22T20:16:21.000",
    "request_status": "Pending",
    "responsible_agency": "Department of Public Works",
    "final_address": "1713 Eighth St",
    "address_councildis": "B",
    "status": "Pending",
    "rowid": "922886",
    "final_x": "3674698.43444",
    "final_y": "522411.039802",
    "longitude": "-90.08985938243141",
    "latitude": "29.930653796501865",
    "geocoded_column": {
      "latitude": "29.930653796501865",
      "longitude": "-90.08985938243141"
    }
  },
  {
    "service_request": "2022-922885",
    "request_type": "Traffic Signals/Signs/Striping/Streetlights",
    "request_reason": "Street Light Outage/Malfunction",
    "date_created": "2022-09-22T20:12:20.000",
    "date_modified": "2022-09-22T20:12:21.000",
    "request_status": "Pending",
    "responsible_agency": "Department of Public Works",
    "final_address": "1705 Eighth St",
    "address_councildis": "B",
    "status": "Pending",
    "contractor": "Legacy Professional Services",
    "rowid": "922885",
    "final_x": "3674753.31995",
    "final_y": "522325.381754",
    "longitude": "-90.08968905156425",
    "latitude": "29.930416626760536",
    "geocoded_column": {
      "latitude": "29.930416626760536",
      "longitude": "-90.08968905156425"
    }
  },
  {
    "service_request": "2022-922884",
    "request_type": "Roads/Drainage",
    "request_reason": "Damaged Sidewalk",
    "date_created": "2022-09-22T20:08:15.000",
    "date_modified": "2022-09-22T20:08:15.000",
    "request_status": "Pending",
    "responsible_agency": "Department of Public Works",
    "final_address": "1606 Cambronne St",
    "address_councildis": "A",
    "status": "Pending",
    "rowid": "922884",
    "final_x": "3662139.60743",
    "final_y": "530227.857281",
    "longitude": "-90.12924665696772",
    "latitude": "29.95251633486364",
    "geocoded_column": {
      "latitude": "29.95251633486364",
      "longitude": "-90.12924665696772"
    }
  },
  {
    "service_request": "2022-922883",
    "request_type": "Mosquito, Termite & Rodent Control",
    "request_reason": "Non-Rodent Complaint (Mice, Possums, Snakes)",
    "date_created": "2022-09-22T20:05:29.000",
    "date_modified": "2022-09-22T20:05:29.000",
    "request_status": "Pending",
    "responsible_agency": "Mosquito, Termite & Rodent Control Board",
    "final_address": "3121 Thalia St",
    "address_councildis": "B",
    "status": "Pending",
    "rowid": "922883",
    "final_x": "3674792.5755",
    "final_y": "528736.531136",
    "longitude": "-90.08934540159737",
    "latitude": "29.948044016922328",
    "geocoded_column": {
      "latitude": "29.948044016922328",
      "longitude": "-90.08934540159737"
    }
  },
  {
    "service_request": "2022-922882",
    "request_type": "Property Maintenance",
    "request_reason": "Property Maintenance",
    "date_created": "2022-09-22T20:04:39.000",
    "date_modified": "2022-09-22T20:04:39.000",
    "request_status": "Pending",
    "responsible_agency": "Department of Code Enforcement",
    "final_address": "3121 Thalia St",
    "address_councildis": "B",
    "status": "Pending",
    "rowid": "922882",
    "final_x": "3674792.5755",
    "final_y": "528736.531136",
    "longitude": "-90.08934540159737",
    "latitude": "29.948044016922328",
    "geocoded_column": {
      "latitude": "29.948044016922328",
      "longitude": "-90.08934540159737"
    }
  },
  {
    "service_request": "2022-922881",
    "request_type": "Traffic Signals/Signs/Striping/Streetlights",
    "request_reason": "Street Light Outage/Malfunction",
    "date_created": "2022-09-22T20:03:22.000",
    "date_modified": "2022-09-22T20:03:22.000",
    "request_status": "Pending",
    "responsible_agency": "Department of Public Works",
    "final_address": "1610 Cambronne St",
    "address_councildis": "A",
    "status": "Pending",
    "contractor": "Legacy Professional Services",
    "rowid": "922881",
    "final_x": "3662156.23309",
    "final_y": "530254.565761",
    "longitude": "-90.12919327418045",
    "latitude": "29.952589294179937",
    "geocoded_column": {
      "latitude": "29.952589294179937",
      "longitude": "-90.12919327418045"
    }
  },
  {
    "service_request": "2022-922880",
    "request_type": "Mosquito, Termite & Rodent Control",
    "request_reason": "Non-Rodent Complaint (Mice, Possums, Snakes)",
    "date_created": "2022-09-22T20:03:16.000",
    "date_modified": "2022-09-22T20:03:16.000",
    "request_status": "Pending",
    "responsible_agency": "Mosquito, Termite & Rodent Control Board",
    "final_address": "3117 Thalia St",
    "address_councildis": "B",
    "status": "Pending",
    "rowid": "922880",
    "final_x": "3674817.87566",
    "final_y": "528720.670336",
    "longitude": "-90.0892660623818",
    "latitude": "29.947999649685144",
    "geocoded_column": {
      "latitude": "29.947999649685144",
      "longitude": "-90.0892660623818"
    }
  },
  {
    "service_request": "2022-922879",
    "request_type": "Property Maintenance",
    "request_reason": "Property Maintenance",
    "date_created": "2022-09-22T20:01:05.000",
    "date_modified": "2022-09-22T20:01:05.000",
    "request_status": "Pending",
    "responsible_agency": "Department of Code Enforcement",
    "final_address": "3117 Thalia St",
    "address_councildis": "B",
    "status": "Pending",
    "rowid": "922879",
    "final_x": "3674817.87566",
    "final_y": "528720.670336",
    "longitude": "-90.0892660623818",
    "latitude": "29.947999649685144",
    "geocoded_column": {
      "latitude": "29.947999649685144",
      "longitude": "-90.0892660623818"
    }
  },
  {
    "service_request": "2022-922878",
    "request_type": "Trash/Recycling",
    "request_reason": "Missed Trash Pick-Up",
    "date_created": "2022-09-22T19:58:18.000",
    "date_modified": "2022-09-22T19:58:19.000",
    "request_status": "Pending",
    "responsible_agency": "Department of Sanitation",
    "final_address": "3143 N Villere St",
    "address_councildis": "C",
    "status": "Assigned to Contractor",
    "contractor": "Metro Disposal",
    "rowid": "922878",
    "final_x": "3689631.24483",
    "final_y": "537051.062984",
    "longitude": "-90.04219806381501",
    "latitude": "29.9704547878306",
    "geocoded_column": {
      "latitude": "29.9704547878306",
      "longitude": "-90.04219806381501"
    }
  },
  {
    "service_request": "2022-922877",
    "request_type": "Property Maintenance",
    "request_reason": "Property Maintenance",
    "date_created": "2022-09-22T19:57:55.000",
    "date_modified": "2022-09-22T19:57:55.000",
    "request_status": "Pending",
    "responsible_agency": "Department of Code Enforcement",
    "final_address": "1317 S Derbigny St",
    "address_councildis": "B",
    "status": "Pending",
    "rowid": "922877",
    "final_x": "3674970.81211",
    "final_y": "528724.13696",
    "longitude": "-90.0887830609163",
    "latitude": "29.948004615132295",
    "geocoded_column": {
      "latitude": "29.948004615132295",
      "longitude": "-90.0887830609163"
    }
  },
  {
    "service_request": "2022-922876",
    "request_type": "Trash/Recycling",
    "request_reason": "Missed Trash Pick-Up",
    "date_created": "2022-09-22T19:57:36.000",
    "date_modified": "2022-09-22T19:57:36.000",
    "request_status": "Pending",
    "responsible_agency": "Department of Sanitation",
    "final_address": "14748 Beekman Rd",
    "address_councildis": "E",
    "status": "Assigned to Contractor",
    "contractor": "Metro Disposal",
    "rowid": "922876",
    "final_x": "3721303.39622",
    "final_y": "573912.991786",
    "longitude": "-89.9407603565125",
    "latitude": "30.07079099958917",
    "geocoded_column": {
      "latitude": "30.07079099958917",
      "longitude": "-89.9407603565125"
    }
  },
  {
    "service_request": "2022-922875",
    "request_type": "Traffic Signals/Signs/Striping/Streetlights",
    "request_reason": "Street Light Outage/Malfunction",
    "date_created": "2022-09-22T19:51:13.000",
    "date_modified": "2022-09-22T19:51:14.000",
    "request_status": "Pending",
    "responsible_agency": "Department of Public Works",
    "final_address": "8416 Nelson St",
    "address_councildis": "A",
    "status": "Pending",
    "contractor": "Legacy Professional Services",
    "rowid": "922875",
    "final_x": "3664212.22842",
    "final_y": "532620.564548",
    "longitude": "-90.12262240435895",
    "latitude": "29.95903545223911",
    "geocoded_column": {
      "latitude": "29.95903545223911",
      "longitude": "-90.12262240435895"
    }
  },
  {
    "service_request": "2022-922874",
    "request_type": "Roads/Drainage",
    "request_reason": "Damaged Sidewalk",
    "date_created": "2022-09-22T19:30:31.000",
    "date_modified": "2022-09-22T19:30:31.000",
    "request_status": "Pending",
    "responsible_agency": "Department of Public Works",
    "final_address": "401 Tchoupitoulas St",
    "address_councildis": "B",
    "status": "Pending",
    "rowid": "922874",
    "final_x": "3681881.99989",
    "final_y": "529246.342721",
    "longitude": "-90.06694345146589",
    "latitude": "29.949232290282723",
    "geocoded_column": {
      "latitude": "29.949232290282723",
      "longitude": "-90.06694345146589"
    }
  },
  {
    "service_request": "2022-922873",
    "request_type": "Trash/Recycling",
    "request_reason": "Replace Trash Cart",
    "date_created": "2022-09-22T19:25:16.000",
    "date_modified": "2022-09-22T19:25:17.000",
    "request_status": "Pending",
    "responsible_agency": "Department of Sanitation",
    "final_address": "4012 Clermont Dr",
    "address_councildis": "D",
    "status": "Assigned to Contractor",
    "contractor": "Metro Disposal",
    "rowid": "922873",
    "final_x": "3684997.44316",
    "final_y": "547089.589073",
    "longitude": "-90.05647883174254",
    "latitude": "29.99819994238771",
    "geocoded_column": {
      "latitude": "29.99819994238771",
      "longitude": "-90.05647883174254"
    }
  },
  {
    "service_request": "2022-922872",
    "request_type": "Trash/Recycling",
    "request_reason": "Order Recycling Cart",
    "date_created": "2022-09-22T19:23:23.000",
    "date_modified": "2022-09-22T19:23:23.000",
    "request_status": "Pending",
    "responsible_agency": "Department of Sanitation",
    "final_address": "4012 Clermont Dr",
    "address_councildis": "D",
    "status": "Pending",
    "rowid": "922872",
    "final_x": "3684997.44316",
    "final_y": "547089.589073",
    "longitude": "-90.05647883174254",
    "latitude": "29.99819994238771",
    "geocoded_column": {
      "latitude": "29.99819994238771",
      "longitude": "-90.05647883174254"
    }
  },
  {
    "service_request": "2022-922871",
    "request_type": "Trash/Recycling",
    "request_reason": "Missed Trash Pick-Up",
    "date_created": "2022-09-22T19:22:27.000",
    "date_modified": "2022-09-22T19:22:27.000",
    "request_status": "Pending",
    "responsible_agency": "Department of Sanitation",
    "final_address": "1020 Pauline St",
    "address_councildis": "C",
    "status": "Assigned to Contractor",
    "contractor": "Metro Disposal",
    "rowid": "922871",
    "final_x": "3691117.51459",
    "final_y": "535195.48679",
    "longitude": "-90.03757054119713",
    "latitude": "29.965306473488177",
    "geocoded_column": {
      "latitude": "29.965306473488177",
      "longitude": "-90.03757054119713"
    }
  },
  {
    "service_request": "2022-922870",
    "request_type": "Roads/Drainage",
    "request_reason": "Damaged Sidewalk",
    "date_created": "2022-09-22T19:22:10.000",
    "date_modified": "2022-09-22T19:22:10.000",
    "request_status": "Pending",
    "responsible_agency": "Department of Public Works",
    "final_address": "5615 Woodlawn Pl",
    "address_councildis": "A",
    "status": "Pending",
    "rowid": "922870",
    "final_x": "3667585.00461",
    "final_y": "544808.421135",
    "longitude": "-90.11156161103757",
    "latitude": "29.99244954634325",
    "geocoded_column": {
      "latitude": "29.99244954634325",
      "longitude": "-90.11156161103757"
    }
  },
  {
    "service_request": "2022-922869",
    "request_type": "Trash/Recycling",
    "request_reason": "Missed Trash Pick-Up",
    "date_created": "2022-09-22T19:11:12.000",
    "date_modified": "2022-09-22T19:11:13.000",
    "request_status": "Pending",
    "responsible_agency": "Department of Sanitation",
    "final_address": "3619 Dauphine St",
    "address_councildis": "C",
    "status": "Assigned to Contractor",
    "contractor": "Metro Disposal",
    "rowid": "922869",
    "final_x": "3690602.49033",
    "final_y": "534417.808581",
    "longitude": "-90.03922469303436",
    "latitude": "29.963184134964205",
    "geocoded_column": {
      "latitude": "29.963184134964205",
      "longitude": "-90.03922469303436"
    }
  },
  {
    "service_request": "2022-922868",
    "request_type": "Trash/Recycling",
    "request_reason": "Missed Trash Pick-Up",
    "date_created": "2022-09-22T19:10:53.000",
    "date_modified": "2022-09-22T19:10:54.000",
    "request_status": "Pending",
    "responsible_agency": "Department of Sanitation",
    "final_address": "9886 E Rockton Cir",
    "address_councildis": "E",
    "status": "Assigned to Contractor",
    "contractor": "Metro Disposal",
    "rowid": "922868",
    "final_x": "3708796.16235",
    "final_y": "563174.976864",
    "longitude": "-89.98069973426304",
    "latitude": "30.041677832891516",
    "geocoded_column": {
      "latitude": "30.041677832891516",
      "longitude": "-89.98069973426304"
    }
  },
  {
    "service_request": "2022-922867",
    "request_type": "Trash/Recycling",
    "request_reason": "Request a Large Item Pick Up",
    "date_created": "2022-09-22T18:57:55.000",
    "date_modified": "2022-09-22T18:57:56.000",
    "request_status": "Pending",
    "responsible_agency": "Department of Sanitation",
    "final_address": "933 Picheloup Pl",
    "address_councildis": "A",
    "status": "Assigned to Contractor",
    "contractor": "Richards Disposal",
    "rowid": "922867",
    "final_x": "3673580.73819",
    "final_y": "540521.436619",
    "longitude": "-90.09276881031441",
    "latitude": "29.980484667816725",
    "geocoded_column": {
      "latitude": "29.980484667816725",
      "longitude": "-90.09276881031441"
    }
  },
  {
    "service_request": "2022-922865",
    "request_type": "Trash/Recycling",
    "request_reason": "Missed Trash Pick-Up",
    "date_created": "2022-09-22T18:54:44.000",
    "date_modified": "2022-09-22T18:54:45.000",
    "request_status": "Pending",
    "responsible_agency": "Department of Sanitation",
    "final_address": "7220 Read Blvd",
    "address_councildis": "E",
    "status": "Assigned to Contractor",
    "contractor": "Metro Disposal",
    "rowid": "922865",
    "final_x": "3709346.00293",
    "final_y": "562710.061856",
    "longitude": "-89.97897941824533",
    "latitude": "30.04038164369864",
    "geocoded_column": {
      "latitude": "30.04038164369864",
      "longitude": "-89.97897941824533"
    }
  },
  {
    "service_request": "2022-922864",
    "request_type": "Trash/Recycling",
    "request_reason": "Missed Trash Pick-Up",
    "date_created": "2022-09-22T18:50:38.000",
    "date_modified": "2022-09-22T18:50:38.000",
    "request_status": "Pending",
    "responsible_agency": "Department of Sanitation",
    "final_address": "3415 Burgundy St",
    "address_councildis": "C",
    "status": "Assigned to Contractor",
    "contractor": "Metro Disposal",
    "rowid": "922864",
    "final_x": "3690124.04009",
    "final_y": "534911.371142",
    "longitude": "-90.04071799534822",
    "latitude": "29.964556108825622",
    "geocoded_column": {
      "latitude": "29.964556108825622",
      "longitude": "-90.04071799534822"
    }
  },
  {
    "service_request": "2022-922863",
    "request_type": "Trash/Recycling",
    "request_reason": "Missed Trash Pick-Up",
    "date_created": "2022-09-22T18:46:49.000",
    "date_modified": "2022-09-22T18:46:49.000",
    "request_status": "Pending",
    "responsible_agency": "Department of Sanitation",
    "final_address": "3117 N Villere St",
    "address_councildis": "C",
    "status": "Assigned to Contractor",
    "contractor": "Metro Disposal",
    "rowid": "922863",
    "final_x": "3689429.97321",
    "final_y": "537103.568072",
    "longitude": "-90.04283183289137",
    "latitude": "29.97060539285459",
    "geocoded_column": {
      "latitude": "29.97060539285459",
      "longitude": "-90.04283183289137"
    }
  },
  {
    "service_request": "2022-922862",
    "request_type": "Trash/Recycling",
    "request_reason": "Order Recycling Cart",
    "date_created": "2022-09-22T18:45:48.000",
    "date_modified": "2022-09-22T18:45:48.000",
    "request_status": "Pending",
    "responsible_agency": "Department of Sanitation",
    "final_address": "9643 River Rd",
    "address_councildis": "C",
    "status": "Pending",
    "rowid": "922862",
    "final_x": "3720772.76121",
    "final_y": "518377.19615",
    "longitude": "-89.94456567805084",
    "latitude": "29.91810694028004",
    "geocoded_column": {
      "latitude": "29.91810694028004",
      "longitude": "-89.94456567805084"
    }
  },
  {
    "service_request": "2022-922861",
    "request_type": "Trash/Recycling",
    "request_reason": "Repair Trash Cart",
    "date_created": "2022-09-22T18:44:55.000",
    "date_modified": "2022-09-22T18:44:56.000",
    "request_status": "Pending",
    "responsible_agency": "Department of Sanitation",
    "final_address": "2321 Annunciation St",
    "address_councildis": "B",
    "status": "Assigned to Contractor",
    "contractor": "Richards Disposal",
    "rowid": "922861",
    "final_x": "3679047.09531",
    "final_y": "520886.909177",
    "longitude": "-90.0761840823976",
    "latitude": "29.926332456872057",
    "geocoded_column": {
      "latitude": "29.926332456872057",
      "longitude": "-90.0761840823976"
    }
  },
  {
    "service_request": "2022-922860",
    "request_type": "Trash/Recycling",
    "request_reason": "Missed Trash Pick-Up",
    "date_created": "2022-09-22T18:42:50.000",
    "date_modified": "2022-09-22T18:42:51.000",
    "request_status": "Pending",
    "responsible_agency": "Department of Sanitation",
    "final_address": "7500 Parry St",
    "address_councildis": "E",
    "status": "Assigned to Contractor",
    "contractor": "Metro Disposal",
    "rowid": "922860",
    "final_x": "3714737.78226",
    "final_y": "567862.427684",
    "longitude": "-89.96174490728933",
    "latitude": "30.054372219625428",
    "geocoded_column": {
      "latitude": "30.054372219625428",
      "longitude": "-89.96174490728933"
    }
  },
  {
    "service_request": "2022-922859",
    "request_type": "Trash/Recycling",
    "request_reason": "Request a Large Item Pick Up",
    "date_created": "2022-09-22T18:38:40.000",
    "date_modified": "2022-09-22T18:38:41.000",
    "request_status": "Pending",
    "responsible_agency": "Department of Sanitation",
    "final_address": "2600 Chippewa St",
    "address_councildis": "B",
    "status": "Assigned to Contractor",
    "contractor": "Richards Disposal",
    "rowid": "922859",
    "final_x": "3678387.65525",
    "final_y": "519869.685752",
    "longitude": "-90.07830091969123",
    "latitude": "29.923555300624994",
    "geocoded_column": {
      "latitude": "29.923555300624994",
      "longitude": "-90.07830091969123"
    }
  },
  {
    "service_request": "2022-922858",
    "request_type": "Parks & Parkways",
    "request_reason": "Request Tree Service (Right of Way/Public Property)",
    "date_created": "2022-09-22T18:33:33.000",
    "date_modified": "2022-09-22T19:22:42.000",
    "request_status": "Pending",
    "responsible_agency": "Department of Parks & Parkway",
    "final_address": "53 Versailles Blvd",
    "address_councildis": "A",
    "status": "Pending",
    "rowid": "922858",
    "final_x": "3667634.04321",
    "final_y": "529948.692865",
    "longitude": "-90.11190706154035",
    "latitude": "29.95158882160853",
    "geocoded_column": {
      "latitude": "29.95158882160853",
      "longitude": "-90.11190706154035"
    }
  },
  {
    "service_request": "2022-922857",
    "request_type": "Trash/Recycling",
    "request_reason": "Missed Trash Pick-Up",
    "date_created": "2022-09-22T18:26:43.000",
    "date_modified": "2022-09-22T18:26:43.000",
    "request_status": "Pending",
    "responsible_agency": "Department of Sanitation",
    "final_address": "1111 Erato St",
    "address_councildis": "B",
    "status": "Assigned to Contractor",
    "contractor": "Richards Disposal",
    "rowid": "922857",
    "final_x": "3680552.30274",
    "final_y": "525692.492349",
    "longitude": "-90.07126548381918",
    "latitude": "29.939500730852806",
    "geocoded_column": {
      "latitude": "29.939500730852806",
      "longitude": "-90.07126548381918"
    }
  },
  {
    "service_request": "2022-922856",
    "request_type": "Trash/Recycling",
    "request_reason": "Missed Trash Pick-Up",
    "date_created": "2022-09-22T18:25:08.000",
    "date_modified": "2022-09-22T18:25:08.000",
    "request_status": "Pending",
    "responsible_agency": "Department of Sanitation",
    "final_address": "4317 Dauphine St",
    "address_councildis": "C",
    "status": "Assigned to Contractor",
    "contractor": "Metro Disposal",
    "rowid": "922856",
    "final_x": "3692595.75677",
    "final_y": "533997.146053",
    "longitude": "-90.03294529209185",
    "latitude": "29.9619654102583",
    "geocoded_column": {
      "latitude": "29.9619654102583",
      "longitude": "-90.03294529209185"
    }
  },
  {
    "service_request": "2022-922855",
    "request_type": "Trash/Recycling",
    "request_reason": "Request a Large Item Pick Up",
    "date_created": "2022-09-22T18:24:56.000",
    "date_modified": "2022-09-22T18:24:57.000",
    "request_status": "Pending",
    "responsible_agency": "Department of Sanitation",
    "final_address": "1121 Antonine St",
    "address_councildis": "B",
    "status": "Assigned to Contractor",
    "contractor": "Richards Disposal",
    "rowid": "922855",
    "final_x": "3673853.00584",
    "final_y": "519401.796663",
    "longitude": "-90.09263114357188",
    "latitude": "29.922404547079868",
    "geocoded_column": {
      "latitude": "29.922404547079868",
      "longitude": "-90.09263114357188"
    }
  },
  {
    "service_request": "2022-922853",
    "request_type": "Trash/Recycling",
    "request_reason": "Missed Trash Pick-Up",
    "date_created": "2022-09-22T17:48:14.000",
    "date_modified": "2022-09-22T17:48:15.000",
    "request_status": "Pending",
    "responsible_agency": "Department of Sanitation",
    "final_address": "1219 Jefferson Ave",
    "address_councildis": "B",
    "status": "Assigned to Contractor",
    "contractor": "Richards Disposal",
    "rowid": "922853",
    "final_x": "3667122.21313",
    "final_y": "519981.939512",
    "longitude": "-90.11385810506765",
    "latitude": "29.924198438138536",
    "geocoded_column": {
      "latitude": "29.924198438138536",
      "longitude": "-90.11385810506765"
    }
  },
  {
    "service_request": "2022-922852",
    "request_type": "Trash/Recycling",
    "request_reason": "Order Trash Cart",
    "date_created": "2022-09-22T17:46:42.000",
    "date_modified": "2022-09-22T17:46:43.000",
    "request_status": "Pending",
    "responsible_agency": "Department of Sanitation",
    "final_address": "4824 Howard Ave",
    "address_councildis": "B",
    "status": "Assigned to Contractor",
    "contractor": "Richards Disposal",
    "rowid": "922852",
    "final_x": "3670257.02516",
    "final_y": "534402.824773",
    "longitude": "-90.10347397873286",
    "latitude": "29.96375907011062",
    "geocoded_column": {
      "latitude": "29.96375907011062",
      "longitude": "-90.10347397873286"
    }
  },
  {
    "service_request": "2022-922851",
    "request_type": "Trash/Recycling",
    "request_reason": "MIssed Recycling Pick-Up",
    "date_created": "2022-09-22T17:43:29.000",
    "date_modified": "2022-09-22T17:43:30.000",
    "request_status": "Pending",
    "responsible_agency": "Department of Sanitation",
    "final_address": "522 Napoleon Ave",
    "address_councildis": "B",
    "status": "Assigned to Contractor",
    "contractor": "Richards Disposal",
    "rowid": "922851",
    "final_x": "3671051.50849",
    "final_y": "517584.827702",
    "longitude": "-90.10153600960744",
    "latitude": "29.91749157130745",
    "geocoded_column": {
      "latitude": "29.91749157130745",
      "longitude": "-90.10153600960744"
    }
  },
  {
    "service_request": "2022-922850",
    "request_type": "Trash/Recycling",
    "request_reason": "Missed Trash Pick-Up",
    "date_created": "2022-09-22T17:33:04.000",
    "date_modified": "2022-09-22T17:33:04.000",
    "request_status": "Pending",
    "responsible_agency": "Department of Sanitation",
    "final_address": "1135 Philip St",
    "address_councildis": "B",
    "status": "Assigned to Contractor",
    "contractor": "Richards Disposal",
    "rowid": "922850",
    "final_x": "3678404.33051",
    "final_y": "522111.522682",
    "longitude": "-90.0781707638938",
    "latitude": "29.92971911958499",
    "geocoded_column": {
      "latitude": "29.92971911958499",
      "longitude": "-90.0781707638938"
    }
  },
  {
    "service_request": "2022-922849",
    "request_type": "Trash/Recycling",
    "request_reason": "Request a Large Item Pick Up",
    "date_created": "2022-09-22T17:29:32.000",
    "date_modified": "2022-09-22T17:29:33.000",
    "request_status": "Pending",
    "responsible_agency": "Department of Sanitation",
    "final_address": "302 S Scott St",
    "address_councildis": "A",
    "status": "Assigned to Contractor",
    "contractor": "Richards Disposal",
    "rowid": "922849",
    "final_x": "3671294.31003",
    "final_y": "537134.281224",
    "longitude": "-90.10010549253754",
    "latitude": "29.97123900551795",
    "geocoded_column": {
      "latitude": "29.97123900551795",
      "longitude": "-90.10010549253754"
    }
  },
  {
    "service_request": "2022-922848",
    "request_type": "Trash/Recycling",
    "request_reason": "Missed Trash Pick-Up",
    "date_created": "2022-09-22T17:27:56.000",
    "date_modified": "2022-09-22T17:27:56.000",
    "request_status": "Pending",
    "responsible_agency": "Department of Sanitation",
    "final_address": "7401 Seven Oaks Rd",
    "address_councildis": "E",
    "status": "Assigned to Contractor",
    "contractor": "Metro Disposal",
    "rowid": "922848",
    "final_x": "3712687.76504",
    "final_y": "565311.228322",
    "longitude": "-89.96832053633358",
    "latitude": "30.04742477221815",
    "geocoded_column": {
      "latitude": "30.04742477221815",
      "longitude": "-89.96832053633358"
    }
  },
  {
    "service_request": "2022-922847",
    "request_type": "Trash/Recycling",
    "request_reason": "Missed Trash Pick-Up",
    "date_created": "2022-09-22T17:26:28.000",
    "date_modified": "2022-09-22T17:26:29.000",
    "request_status": "Pending",
    "responsible_agency": "Department of Sanitation",
    "final_address": "1014 Desire St",
    "address_councildis": "C",
    "status": "Assigned to Contractor",
    "contractor": "Metro Disposal",
    "rowid": "922847",
    "final_x": "3690078.27043",
    "final_y": "535408.076614",
    "longitude": "-90.04084483903002",
    "latitude": "29.96592329460682",
    "geocoded_column": {
      "latitude": "29.96592329460682",
      "longitude": "-90.04084483903002"
    }
  },
  {
    "service_request": "2022-922846",
    "request_type": "Abandoned Vehicles",
    "request_reason": "Abandoned/Junk Vehicles",
    "date_created": "2022-09-22T17:21:46.000",
    "date_modified": "2022-09-22T17:21:47.000",
    "request_status": "Pending",
    "responsible_agency": "Department of Public Works",
    "final_address": "1140 Esplanade Ave",
    "address_councildis": "C",
    "status": "Pending",
    "rowid": "922846",
    "final_x": "3682566.87356",
    "final_y": "535491.837254",
    "longitude": "-90.06456265108791",
    "latitude": "29.966384440636013",
    "geocoded_column": {
      "latitude": "29.966384440636013",
      "longitude": "-90.06456265108791"
    }
  },
  {
    "service_request": "2022-922845",
    "request_type": "Trash/Recycling",
    "request_reason": "Missed Trash Pick-Up",
    "date_created": "2022-09-22T17:16:04.000",
    "date_modified": "2022-09-22T17:16:04.000",
    "request_status": "Pending",
    "responsible_agency": "Department of Sanitation",
    "final_address": "7561 Jahncke Rd",
    "address_councildis": "E",
    "status": "Assigned to Contractor",
    "contractor": "Metro Disposal",
    "rowid": "922845",
    "final_x": "3714423.08107",
    "final_y": "568015.782885",
    "longitude": "-89.96273379680284",
    "latitude": "30.054804237648845",
    "geocoded_column": {
      "latitude": "30.054804237648845",
      "longitude": "-89.96273379680284"
    }
  },
  {
    "service_request": "2022-922843",
    "request_type": "Taxi Issues",
    "request_reason": "Taxi Complaint",
    "date_created": "2022-09-22T17:01:21.000",
    "date_modified": "2022-09-22T17:01:22.000",
    "request_status": "Pending",
    "responsible_agency": "Ground Transportation Bureau",
    "status": "Pending",
    "rowid": "922843",
    "longitude": "0.0",
    "latitude": "0.0",
    "geocoded_column": {
      "latitude": "0.0",
      "longitude": "0.0"
    }
  },
  {
    "service_request": "2022-922842",
    "request_type": "Trash/Recycling",
    "request_reason": "Illegal Dumping",
    "date_created": "2022-09-22T16:52:12.000",
    "date_modified": "2022-09-22T16:52:13.000",
    "request_status": "Pending",
    "responsible_agency": "Department of Sanitation",
    "final_address": "2513 Second St",
    "address_councildis": "B",
    "status": "Pending",
    "rowid": "922842",
    "final_x": "3674846.65269",
    "final_y": "525916.188989",
    "longitude": "-90.08927134080763",
    "latitude": "29.940287390268534",
    "geocoded_column": {
      "latitude": "29.940287390268534",
      "longitude": "-90.08927134080763"
    }
  },
  {
    "service_request": "2022-922841",
    "request_type": "Traffic Signals/Signs/Striping/Streetlights",
    "request_reason": "Traffic Sign Missing/Damaged",
    "date_created": "2022-09-22T16:49:32.000",
    "date_modified": "2022-09-22T16:49:32.000",
    "request_status": "Pending",
    "responsible_agency": "Department of Public Works",
    "final_address": "CALHOUN ST & CROMWELL PL",
    "address_councildis": "A",
    "status": "Pending",
    "rowid": "922841",
    "final_x": "3665354.0",
    "final_y": "524099.28",
    "longitude": "-90.11930205289437",
    "latitude": "29.935571448271553",
    "geocoded_column": {
      "latitude": "29.935571448271553",
      "longitude": "-90.11930205289437"
    }
  },
  {
    "service_request": "2022-922840",
    "request_type": "Trash/Recycling",
    "request_reason": "Missed Trash Pick-Up",
    "date_created": "2022-09-22T16:49:26.000",
    "date_modified": "2022-09-22T16:49:27.000",
    "request_status": "Pending",
    "responsible_agency": "Department of Sanitation",
    "final_address": "2230 First St",
    "address_councildis": "B",
    "status": "Assigned to Contractor",
    "contractor": "Richards Disposal",
    "rowid": "922840",
    "final_x": "3675600.76245",
    "final_y": "525190.505149",
    "longitude": "-90.08691541601499",
    "latitude": "29.93826946326665",
    "geocoded_column": {
      "latitude": "29.93826946326665",
      "longitude": "-90.08691541601499"
    }
  },
  {
    "service_request": "2022-922839",
    "request_type": "Trash/Recycling",
    "request_reason": "Order Trash Cart",
    "date_created": "2022-09-22T16:48:34.000",
    "date_modified": "2022-09-22T16:48:34.000",
    "request_status": "Pending",
    "responsible_agency": "Department of Sanitation",
    "final_address": "1602 N Dupre St",
    "address_councildis": "D",
    "status": "Assigned to Contractor",
    "contractor": "Metro Disposal",
    "rowid": "922839",
    "final_x": "3678570.56974",
    "final_y": "540628.870219",
    "longitude": "-90.07700504927945",
    "latitude": "29.98063058406695",
    "geocoded_column": {
      "latitude": "29.98063058406695",
      "longitude": "-90.07700504927945"
    }
  },
  {
    "service_request": "2022-922838",
    "request_type": "Property Maintenance",
    "request_reason": "Property Maintenance",
    "date_created": "2022-09-22T16:48:22.000",
    "date_modified": "2022-09-22T16:48:23.000",
    "request_status": "Pending",
    "responsible_agency": "Department of Code Enforcement",
    "final_address": "4029 Banks St",
    "address_councildis": "A",
    "status": "Pending",
    "rowid": "922838",
    "final_x": "3670593.38766",
    "final_y": "537288.625672",
    "longitude": "-90.10231387113039",
    "latitude": "29.971684125052295",
    "geocoded_column": {
      "latitude": "29.971684125052295",
      "longitude": "-90.10231387113039"
    }
  },
  {
    "service_request": "2022-922837",
    "request_type": "Trash/Recycling",
    "request_reason": "MIssed Recycling Pick-Up",
    "date_created": "2022-09-22T16:43:35.000",
    "date_modified": "2022-09-22T16:43:36.000",
    "request_status": "Pending",
    "responsible_agency": "Department of Sanitation",
    "final_address": "1745 Arabella St",
    "address_councildis": "A",
    "status": "Assigned to Contractor",
    "contractor": "Richards Disposal",
    "rowid": "922837",
    "final_x": "3666889.76935",
    "final_y": "522884.683835",
    "longitude": "-90.11449438432834",
    "latitude": "29.932186865174955",
    "geocoded_column": {
      "latitude": "29.932186865174955",
      "longitude": "-90.11449438432834"
    }
  },
  {
    "service_request": "2022-922836",
    "request_type": "Trash/Recycling",
    "request_reason": "Illegal Dumping",
    "date_created": "2022-09-22T16:41:35.000",
    "date_modified": "2022-09-22T16:41:36.000",
    "request_status": "Pending",
    "responsible_agency": "Department of Sanitation",
    "final_address": "4027 Banks St",
    "address_councildis": "A",
    "status": "Pending",
    "rowid": "922836",
    "final_x": "3670605.58049",
    "final_y": "537283.830728",
    "longitude": "-90.10227552691218",
    "latitude": "29.97167058037994",
    "geocoded_column": {
      "latitude": "29.97167058037994",
      "longitude": "-90.10227552691218"
    }
  },
  {
    "service_request": "2022-922835",
    "request_type": "Trash/Recycling",
    "request_reason": "Order Recycling Cart",
    "date_created": "2022-09-22T16:40:14.000",
    "date_modified": "2022-09-22T16:40:14.000",
    "request_status": "Pending",
    "responsible_agency": "Department of Sanitation",
    "final_address": "3331 Dauphine St",
    "address_councildis": "C",
    "status": "Pending",
    "rowid": "922835",
    "final_x": "3689809.8502",
    "final_y": "534616.54023",
    "longitude": "-90.04172067574329",
    "latitude": "29.96375516887031",
    "geocoded_column": {
      "latitude": "29.96375516887031",
      "longitude": "-90.04172067574329"
    }
  },
  {
    "service_request": "2022-922834",
    "request_type": "Trash/Recycling",
    "request_reason": "Missed Trash Pick-Up",
    "date_created": "2022-09-22T16:39:19.000",
    "date_modified": "2022-09-22T16:39:19.000",
    "request_status": "Pending",
    "responsible_agency": "Department of Sanitation",
    "final_address": "3331 Dauphine St",
    "address_councildis": "C",
    "status": "Assigned to Contractor",
    "contractor": "Metro Disposal",
    "rowid": "922834",
    "final_x": "3689809.8502",
    "final_y": "534616.54023",
    "longitude": "-90.04172067574329",
    "latitude": "29.96375516887031",
    "geocoded_column": {
      "latitude": "29.96375516887031",
      "longitude": "-90.04172067574329"
    }
  },
  {
    "service_request": "2022-922833",
    "request_type": "Trash/Recycling",
    "request_reason": "Repair Trash Cart",
    "date_created": "2022-09-22T16:38:08.000",
    "date_modified": "2022-09-22T16:38:09.000",
    "request_status": "Pending",
    "responsible_agency": "Department of Sanitation",
    "final_address": "4540 Bancroft Dr",
    "address_councildis": "D",
    "status": "Assigned to Contractor",
    "contractor": "Metro Disposal",
    "rowid": "922833",
    "final_x": "3676117.38542",
    "final_y": "548953.995603",
    "longitude": "-90.08446669457929",
    "latitude": "30.00359550171583",
    "geocoded_column": {
      "latitude": "30.00359550171583",
      "longitude": "-90.08446669457929"
    }
  },
  {
    "service_request": "2022-922832",
    "request_type": "Trash/Recycling",
    "request_reason": "Missed Trash Pick-Up",
    "date_created": "2022-09-22T16:36:21.000",
    "date_modified": "2022-09-22T16:36:22.000",
    "request_status": "Pending",
    "responsible_agency": "Department of Sanitation",
    "final_address": "7832 Lafourche St",
    "address_councildis": "E",
    "status": "Assigned to Contractor",
    "contractor": "Metro Disposal",
    "rowid": "922832",
    "final_x": "3709685.13803",
    "final_y": "566299.272355",
    "longitude": "-89.97777345907953",
    "latitude": "30.050239505840572",
    "geocoded_column": {
      "latitude": "30.050239505840572",
      "longitude": "-89.97777345907953"
    }
  },
  {
    "service_request": "2022-922831",
    "request_type": "Trash/Recycling",
    "request_reason": "MIssed Recycling Pick-Up",
    "date_created": "2022-09-22T16:35:33.000",
    "date_modified": "2022-09-22T16:35:33.000",
    "case_close_date": "2022-08-22T19:00:00.000",
    "request_status": "Pending",
    "responsible_agency": "Department of Sanitation",
    "final_address": "5014 S Prieur St",
    "address_councildis": "B",
    "status": "Assigned to Contractor",
    "contractor": "Richards Disposal",
    "rowid": "922831",
    "final_x": "3668768.77863",
    "final_y": "526573.862846",
    "longitude": "-90.1084380176283",
    "latitude": "29.942275828593395",
    "geocoded_column": {
      "latitude": "29.942275828593395",
      "longitude": "-90.1084380176283"
    }
  },
  {
    "service_request": "2022-922830",
    "request_type": "Trash/Recycling",
    "request_reason": "Order Trash Cart",
    "date_created": "2022-09-22T16:34:21.000",
    "date_modified": "2022-09-22T16:34:22.000",
    "request_status": "Pending",
    "responsible_agency": "Department of Sanitation",
    "final_address": "4419 Ulloa St",
    "address_councildis": "A",
    "status": "Assigned to Contractor",
    "contractor": "Richards Disposal",
    "rowid": "922830",
    "final_x": "3668476.81466",
    "final_y": "537437.0994",
    "longitude": "-90.10899334196323",
    "latitude": "29.97215473322463",
    "geocoded_column": {
      "latitude": "29.97215473322463",
      "longitude": "-90.10899334196323"
    }
  },
  {
    "service_request": "2022-922829",
    "request_type": "Trash/Recycling",
    "request_reason": "Repair Trash Cart",
    "date_created": "2022-09-22T16:31:03.000",
    "date_modified": "2022-09-22T16:31:04.000",
    "request_status": "Pending",
    "responsible_agency": "Department of Sanitation",
    "final_address": "2021 State St",
    "address_councildis": "A",
    "status": "Assigned to Contractor",
    "contractor": "Richards Disposal",
    "rowid": "922829",
    "final_x": "3666406.85908",
    "final_y": "524193.576316",
    "longitude": "-90.1159749912545",
    "latitude": "29.935800017981652",
    "geocoded_column": {
      "latitude": "29.935800017981652",
      "longitude": "-90.1159749912545"
    }
  },
  {
    "service_request": "2022-922828",
    "request_type": "Trash/Recycling",
    "request_reason": "Replace Recycling Cart",
    "date_created": "2022-09-22T16:30:47.000",
    "date_modified": "2022-09-22T16:30:48.000",
    "request_status": "Pending",
    "responsible_agency": "Department of Sanitation",
    "final_address": "2021 State St",
    "address_councildis": "A",
    "status": "Pending",
    "rowid": "922828",
    "final_x": "3666406.85908",
    "final_y": "524193.576316",
    "longitude": "-90.1159749912545",
    "latitude": "29.935800017981652",
    "geocoded_column": {
      "latitude": "29.935800017981652",
      "longitude": "-90.1159749912545"
    }
  },
  {
    "service_request": "2022-922827",
    "request_type": "Trash/Recycling",
    "request_reason": "Order Recycling Cart",
    "date_created": "2022-09-22T16:23:07.000",
    "date_modified": "2022-09-22T16:23:07.000",
    "request_status": "Pending",
    "responsible_agency": "Department of Sanitation",
    "final_address": "619 Opelousas Ave",
    "address_councildis": "C",
    "status": "Pending",
    "rowid": "922827",
    "final_x": "3687253.70134",
    "final_y": "529050.568",
    "longitude": "-90.04998958202647",
    "latitude": "29.94852964041385",
    "geocoded_column": {
      "latitude": "29.94852964041385",
      "longitude": "-90.04998958202647"
    }
  },
  {
    "service_request": "2022-922826",
    "request_type": "Traffic Signals/Signs/Striping/Streetlights",
    "request_reason": "Street Light Outage/Malfunction",
    "date_created": "2022-09-22T16:21:47.000",
    "date_modified": "2022-09-22T16:21:48.000",
    "request_status": "Pending",
    "responsible_agency": "Department of Public Works",
    "final_address": "9700 BLK Rockton Cir W",
    "address_councildis": "E",
    "status": "Pending",
    "contractor": "Legacy Professional Services",
    "rowid": "922826",
    "final_x": "3708063.43587",
    "final_y": "562789.569418",
    "longitude": "-89.98302975315976",
    "latitude": "30.04064187865517",
    "geocoded_column": {
      "latitude": "30.04064187865517",
      "longitude": "-89.98302975315976"
    }
  },
  {
    "service_request": "2022-922825",
    "request_type": "Trash/Recycling",
    "request_reason": "Order Recycling Cart",
    "date_created": "2022-09-22T16:18:50.000",
    "date_modified": "2022-09-22T16:18:50.000",
    "request_status": "Pending",
    "responsible_agency": "Department of Sanitation",
    "final_address": "2313 Burdette St",
    "address_councildis": "A",
    "status": "Pending",
    "rowid": "922825",
    "final_x": "3665535.7785",
    "final_y": "530563.341826",
    "longitude": "-90.11851181742773",
    "latitude": "29.95334024098809",
    "geocoded_column": {
      "latitude": "29.95334024098809",
      "longitude": "-90.11851181742773"
    }
  },
  {
    "service_request": "2022-922824",
    "request_type": "Trash/Recycling",
    "request_reason": "Repair Trash Cart",
    "date_created": "2022-09-22T16:17:32.000",
    "date_modified": "2022-09-22T16:17:33.000",
    "request_status": "Pending",
    "responsible_agency": "Department of Sanitation",
    "final_address": "2313 Burdette St",
    "address_councildis": "A",
    "status": "Assigned to Contractor",
    "contractor": "Richards Disposal",
    "rowid": "922824",
    "final_x": "3665535.7785",
    "final_y": "530563.341826",
    "longitude": "-90.11851181742773",
    "latitude": "29.95334024098809",
    "geocoded_column": {
      "latitude": "29.95334024098809",
      "longitude": "-90.11851181742773"
    }
  },
  {
    "service_request": "2022-922823",
    "request_type": "Traffic Signals/Signs/Striping/Streetlights",
    "request_reason": "Traffic Sign Missing/Damaged",
    "date_created": "2022-09-22T16:16:56.000",
    "date_modified": "2022-09-22T16:16:57.000",
    "request_status": "Pending",
    "responsible_agency": "Department of Public Works",
    "final_address": "AYMARD CT & CANAL BLVD",
    "address_councildis": "A",
    "status": "Pending",
    "rowid": "922823",
    "final_x": "3668126.2",
    "final_y": "544007.28",
    "longitude": "-90.10987909288194",
    "latitude": "29.99023080428476",
    "geocoded_column": {
      "latitude": "29.99023080428476",
      "longitude": "-90.10987909288194"
    }
  },
  {
    "service_request": "2022-922822",
    "request_type": "Trash/Recycling",
    "request_reason": "Request a Large Item Pick Up",
    "date_created": "2022-09-22T16:16:14.000",
    "date_modified": "2022-09-22T16:16:15.000",
    "request_status": "Pending",
    "responsible_agency": "Department of Sanitation",
    "final_address": "2755 St Ann St",
    "address_councildis": "A",
    "status": "Assigned to Contractor",
    "contractor": "Richards Disposal",
    "rowid": "922822",
    "final_x": "3676527.84296",
    "final_y": "537558.024008",
    "longitude": "-90.08356266312217",
    "latitude": "29.972248236585003",
    "geocoded_column": {
      "latitude": "29.972248236585003",
      "longitude": "-90.08356266312217"
    }
  },
  {
    "service_request": "2022-922821",
    "request_type": "Traffic Signals/Signs/Striping/Streetlights",
    "request_reason": "Street Light Outage/Malfunction",
    "date_created": "2022-09-22T16:16:00.000",
    "date_modified": "2022-09-22T16:16:01.000",
    "request_status": "Pending",
    "responsible_agency": "Department of Public Works",
    "final_address": "AYMARD CT & CANAL BLVD",
    "address_councildis": "A",
    "status": "Pending",
    "contractor": "Legacy Professional Services",
    "rowid": "922821",
    "final_x": "3668126.2",
    "final_y": "544007.28",
    "longitude": "-90.10987909288194",
    "latitude": "29.99023080428476",
    "geocoded_column": {
      "latitude": "29.99023080428476",
      "longitude": "-90.10987909288194"
    }
  },
  {
    "service_request": "2022-922820",
    "request_type": "Trash/Recycling",
    "request_reason": "Request a Large Item Pick Up",
    "date_created": "2022-09-22T16:13:18.000",
    "date_modified": "2022-09-22T16:13:19.000",
    "request_status": "Pending",
    "responsible_agency": "Department of Sanitation",
    "final_address": "216 Warrington Dr",
    "address_councildis": "D",
    "status": "Assigned to Contractor",
    "contractor": "Metro Disposal",
    "rowid": "922820",
    "final_x": "3682340.8806",
    "final_y": "547208.838353",
    "longitude": "-90.06486671258739",
    "latitude": "29.998608965863948",
    "geocoded_column": {
      "latitude": "29.998608965863948",
      "longitude": "-90.06486671258739"
    }
  },
  {
    "service_request": "2022-922819",
    "request_type": "Trash/Recycling",
    "request_reason": "Illegal Dumping",
    "date_created": "2022-09-22T16:11:17.000",
    "date_modified": "2022-09-22T16:11:17.000",
    "request_status": "Pending",
    "responsible_agency": "Department of Sanitation",
    "final_address": "4234 Thalia St",
    "address_councildis": "B",
    "status": "Pending",
    "rowid": "922819",
    "final_x": "3671001.59086",
    "final_y": "531019.449218",
    "longitude": "-90.10123759448804",
    "latitude": "29.954433914688472",
    "geocoded_column": {
      "latitude": "29.954433914688472",
      "longitude": "-90.10123759448804"
    }
  },
  {
    "service_request": "2022-922818",
    "request_type": "Trash/Recycling",
    "request_reason": "Missed Trash Pick-Up",
    "date_created": "2022-09-22T16:09:55.000",
    "date_modified": "2022-09-22T16:09:55.000",
    "request_status": "Pending",
    "responsible_agency": "Department of Sanitation",
    "final_address": "2841 Chestnut St",
    "address_councildis": "B",
    "status": "Assigned to Contractor",
    "contractor": "Richards Disposal",
    "rowid": "922818",
    "final_x": "3676325.50881",
    "final_y": "521271.979129",
    "longitude": "-90.08476212396538",
    "latitude": "29.92747309818333",
    "geocoded_column": {
      "latitude": "29.92747309818333",
      "longitude": "-90.08476212396538"
    }
  },
  {
    "service_request": "2022-922817",
    "request_type": "Abandoned Vehicles",
    "request_reason": "Abandoned/Junk Vehicles",
    "date_created": "2022-09-22T16:09:14.000",
    "date_modified": "2022-09-22T16:10:37.000",
    "request_status": "Pending",
    "responsible_agency": "Department of Public Works",
    "final_address": "7468 Garfield St",
    "address_councildis": "A",
    "status": "Pending",
    "rowid": "922817",
    "final_x": "3661051.33453",
    "final_y": "523977.7927",
    "longitude": "-90.13288970016168",
    "latitude": "29.935362045269752",
    "geocoded_column": {
      "latitude": "29.935362045269752",
      "longitude": "-90.13288970016168"
    }
  },
  {
    "service_request": "2022-922816",
    "request_type": "Trash/Recycling",
    "request_reason": "MIssed Recycling Pick-Up",
    "date_created": "2022-09-22T16:06:55.000",
    "date_modified": "2022-09-22T16:06:56.000",
    "request_status": "Pending",
    "responsible_agency": "Department of Sanitation",
    "final_address": "4129 Thalia St",
    "address_councildis": "B",
    "status": "Assigned to Contractor",
    "contractor": "Richards Disposal",
    "rowid": "922816",
    "final_x": "3671323.30215",
    "final_y": "530901.363138",
    "longitude": "-90.10022576716453",
    "latitude": "29.954099701157496",
    "geocoded_column": {
      "latitude": "29.954099701157496",
      "longitude": "-90.10022576716453"
    }
  },
  {
    "service_request": "2022-922815",
    "request_type": "Roads/Drainage",
    "request_reason": "Leaking Hydrant",
    "date_created": "2022-09-22T16:00:59.000",
    "date_modified": "2022-09-22T16:00:59.000",
    "request_status": "Pending",
    "responsible_agency": "Department of Public Works",
    "final_address": "7142 Bundy Rd",
    "address_councildis": "E",
    "status": "Pending",
    "rowid": "922815",
    "final_x": "3706593.60862",
    "final_y": "561435.217758",
    "longitude": "-89.98772512588032",
    "latitude": "30.036965491716817",
    "geocoded_column": {
      "latitude": "30.036965491716817",
      "longitude": "-89.98772512588032"
    }
  },
  {
    "service_request": "2022-922814",
    "request_type": "Trash/Recycling",
    "request_reason": "Request a Large Item Pick Up",
    "date_created": "2022-09-22T16:00:07.000",
    "date_modified": "2022-09-22T16:00:08.000",
    "request_status": "Pending",
    "responsible_agency": "Department of Sanitation",
    "final_address": "513 Leboeuf St",
    "address_councildis": "C",
    "status": "Assigned to Contractor",
    "contractor": "Richards Disposal",
    "rowid": "922814",
    "final_x": "3689786.11715",
    "final_y": "529705.638849",
    "longitude": "-90.04197039879772",
    "latitude": "29.95025262812236",
    "geocoded_column": {
      "latitude": "29.95025262812236",
      "longitude": "-90.04197039879772"
    }
  },
  {
    "service_request": "2022-922813",
    "request_type": "Trash/Recycling",
    "request_reason": "Request a Large Item Pick Up",
    "date_created": "2022-09-22T15:53:42.000",
    "date_modified": "2022-09-22T15:53:43.000",
    "request_status": "Pending",
    "responsible_agency": "Department of Sanitation",
    "final_address": "3208 Pauger St",
    "address_councildis": "D",
    "status": "Assigned to Contractor",
    "contractor": "Metro Disposal",
    "rowid": "922813",
    "final_x": "3683410.85193",
    "final_y": "541464.319372",
    "longitude": "-90.06168806600867",
    "latitude": "29.982780963907725",
    "geocoded_column": {
      "latitude": "29.982780963907725",
      "longitude": "-90.06168806600867"
    }
  },
  {
    "service_request": "2022-922812",
    "request_type": "Property Maintenance",
    "request_reason": "Property Maintenance",
    "date_created": "2022-09-22T15:52:43.000",
    "date_modified": "2022-09-22T15:52:43.000",
    "request_status": "Pending",
    "responsible_agency": "Department of Code Enforcement",
    "final_address": "2129 N Tonti St",
    "address_councildis": "D",
    "status": "Pending",
    "rowid": "922812",
    "final_x": "3683703.8294",
    "final_y": "540734.076043",
    "longitude": "-90.06078831211741",
    "latitude": "29.980764107696583",
    "geocoded_column": {
      "latitude": "29.980764107696583",
      "longitude": "-90.06078831211741"
    }
  },
  {
    "service_request": "2022-922811",
    "request_type": "Trash/Recycling",
    "request_reason": "MIssed Recycling Pick-Up",
    "date_created": "2022-09-22T15:48:29.000",
    "date_modified": "2022-09-22T15:48:29.000",
    "request_status": "Pending",
    "responsible_agency": "Department of Sanitation",
    "final_address": "4620 S Liberty St",
    "address_councildis": "B",
    "status": "Assigned to Contractor",
    "contractor": "Richards Disposal",
    "rowid": "922811",
    "final_x": "3669668.0187",
    "final_y": "523214.864827",
    "longitude": "-90.10571252941148",
    "latitude": "29.933013205025297",
    "geocoded_column": {
      "latitude": "29.933013205025297",
      "longitude": "-90.10571252941148"
    }
  },
  {
    "service_request": "2022-922810",
    "request_type": "Trash/Recycling",
    "request_reason": "Repair Trash Cart",
    "date_created": "2022-09-22T15:44:36.000",
    "date_modified": "2022-09-22T15:44:36.000",
    "request_status": "Pending",
    "responsible_agency": "Department of Sanitation",
    "final_address": "1401 Nunez St",
    "address_councildis": "C",
    "status": "Assigned to Contractor",
    "contractor": "Richards Disposal",
    "rowid": "922810",
    "final_x": "3686994.00905",
    "final_y": "526372.381118",
    "longitude": "-90.05090417917818",
    "latitude": "29.94117353122065",
    "geocoded_column": {
      "latitude": "29.94117353122065",
      "longitude": "-90.05090417917818"
    }
  },
  {
    "service_request": "2022-922809",
    "request_type": "Trash/Recycling",
    "request_reason": "Illegal Dumping",
    "date_created": "2022-09-22T15:43:58.000",
    "date_modified": "2022-09-22T15:43:58.000",
    "request_status": "Pending",
    "responsible_agency": "Department of Sanitation",
    "final_address": "1940 Hermosa St",
    "address_councildis": "C",
    "status": "Pending",
    "rowid": "922809",
    "final_x": "3687966.38582",
    "final_y": "524118.417148",
    "longitude": "-90.04791404253241",
    "latitude": "29.934945931989343",
    "geocoded_column": {
      "latitude": "29.934945931989343",
      "longitude": "-90.04791404253241"
    }
  },
  {
    "service_request": "2022-922808",
    "request_type": "Trash/Recycling",
    "request_reason": "Missed Trash Pick-Up",
    "date_created": "2022-09-22T15:43:17.000",
    "date_modified": "2022-09-22T15:43:18.000",
    "request_status": "Pending",
    "responsible_agency": "Department of Sanitation",
    "final_address": "7001 Argonne Blvd",
    "address_councildis": "A",
    "status": "Assigned to Contractor",
    "contractor": "Metro Disposal",
    "rowid": "922808",
    "final_x": "3670831.58932",
    "final_y": "553889.032535",
    "longitude": "-90.10099775075899",
    "latitude": "30.0173224626137",
    "geocoded_column": {
      "latitude": "30.0173224626137",
      "longitude": "-90.10099775075899"
    }
  },
  {
    "service_request": "2022-922807",
    "request_type": "Trash/Recycling",
    "request_reason": "Repair Trash Cart",
    "date_created": "2022-09-22T15:42:52.000",
    "date_modified": "2022-09-22T15:42:53.000",
    "request_status": "Pending",
    "responsible_agency": "Department of Sanitation",
    "final_address": "7520 Anne Marie Ct",
    "address_councildis": "E",
    "status": "Assigned to Contractor",
    "contractor": "Metro Disposal",
    "rowid": "922807",
    "final_x": "3718282.7038",
    "final_y": "570693.823399",
    "longitude": "-89.95043235063231",
    "latitude": "30.062040231026995",
    "geocoded_column": {
      "latitude": "30.062040231026995",
      "longitude": "-89.95043235063231"
    }
  },
  {
    "service_request": "2022-922806",
    "request_type": "Trash/Recycling",
    "request_reason": "Missed Trash Pick-Up",
    "date_created": "2022-09-22T15:40:57.000",
    "date_modified": "2022-09-22T15:40:58.000",
    "request_status": "Pending",
    "responsible_agency": "Department of Sanitation",
    "final_address": "7520 Anne Marie Ct",
    "address_councildis": "E",
    "status": "Assigned to Contractor",
    "contractor": "Metro Disposal",
    "rowid": "922806",
    "final_x": "3718282.7038",
    "final_y": "570693.823399",
    "longitude": "-89.95043235063231",
    "latitude": "30.062040231026995",
    "geocoded_column": {
      "latitude": "30.062040231026995",
      "longitude": "-89.95043235063231"
    }
  },
  {
    "service_request": "2022-922805",
    "request_type": "Mosquito, Termite & Rodent Control",
    "request_reason": "Mosquito Complaint",
    "date_created": "2022-09-22T15:40:12.000",
    "date_modified": "2022-09-22T15:40:12.000",
    "request_status": "Pending",
    "responsible_agency": "Mosquito, Termite & Rodent Control Board",
    "final_address": "4871 Brittany Ct",
    "address_councildis": "E",
    "status": "Pending",
    "rowid": "922805",
    "final_x": "3726863.1271",
    "final_y": "561937.993183",
    "longitude": "-89.92365042187599",
    "latitude": "30.037677837195453",
    "geocoded_column": {
      "latitude": "30.037677837195453",
      "longitude": "-89.92365042187599"
    }
  },
  {
    "service_request": "2022-922804",
    "request_type": "Roads/Drainage",
    "request_reason": "Pothole",
    "date_created": "2022-09-22T15:32:41.000",
    "date_modified": "2022-09-22T15:32:41.000",
    "request_status": "Pending",
    "responsible_agency": "Department of Public Works",
    "final_address": "2309 Frenchmen St",
    "address_councildis": "D",
    "status": "Pending",
    "rowid": "922804",
    "final_x": "3684257.24041",
    "final_y": "540795.658507",
    "longitude": "-90.05903823645077",
    "latitude": "29.980916526703965",
    "geocoded_column": {
      "latitude": "29.980916526703965",
      "longitude": "-90.05903823645077"
    }
  },
  {
    "service_request": "2022-922803",
    "request_type": "Trash/Recycling",
    "request_reason": "Request a Large Item Pick Up",
    "date_created": "2022-09-22T15:30:23.000",
    "date_modified": "2022-09-22T15:30:24.000",
    "request_status": "Pending",
    "responsible_agency": "Department of Sanitation",
    "final_address": "2021 Louisiana Ave",
    "address_councildis": "B",
    "status": "Assigned to Contractor",
    "contractor": "Richards Disposal",
    "rowid": "922803",
    "final_x": "3673632.85268",
    "final_y": "523076.790843",
    "longitude": "-90.09320052787999",
    "latitude": "29.932516149967714",
    "geocoded_column": {
      "latitude": "29.932516149967714",
      "longitude": "-90.09320052787999"
    }
  },
  {
    "service_request": "2022-922802",
    "request_type": "Traffic Signals/Signs/Striping/Streetlights",
    "request_reason": "Street Light Outage/Malfunction",
    "date_created": "2022-09-22T15:26:23.000",
    "date_modified": "2022-09-22T15:26:24.000",
    "request_status": "Pending",
    "responsible_agency": "Department of Public Works",
    "final_address": "5907 Annunciation St",
    "address_councildis": "A",
    "status": "Pending",
    "contractor": "Legacy Professional Services",
    "rowid": "922802",
    "final_x": "3664859.08205",
    "final_y": "517828.07199",
    "longitude": "-90.12107397934275",
    "latitude": "29.918342010095085",
    "geocoded_column": {
      "latitude": "29.918342010095085",
      "longitude": "-90.12107397934275"
    }
  },
  {
    "service_request": "2022-922801",
    "request_type": "Trash/Recycling",
    "request_reason": "MIssed Recycling Pick-Up",
    "date_created": "2022-09-22T15:26:00.000",
    "date_modified": "2022-09-22T15:26:01.000",
    "request_status": "Pending",
    "responsible_agency": "Department of Sanitation",
    "final_address": "3528 Banks St",
    "address_councildis": "B",
    "status": "Assigned to Contractor",
    "contractor": "Richards Disposal",
    "rowid": "922801",
    "final_x": "3671888.94164",
    "final_y": "536137.734791",
    "longitude": "-90.09826148287647",
    "latitude": "29.968481227690674",
    "geocoded_column": {
      "latitude": "29.968481227690674",
      "longitude": "-90.09826148287647"
    }
  },
  {
    "service_request": "2022-922800",
    "request_type": "Roads/Drainage",
    "request_reason": "Catch Basin - Clogged",
    "date_created": "2022-09-22T15:24:06.000",
    "date_modified": "2022-09-22T15:24:07.000",
    "request_status": "Pending",
    "responsible_agency": "Department of Public Works",
    "final_address": "2635 Dublin St",
    "address_councildis": "A",
    "status": "Pending",
    "rowid": "922800",
    "final_x": "3665315.84288",
    "final_y": "532497.20442",
    "longitude": "-90.11914157707916",
    "latitude": "29.958664142398145",
    "geocoded_column": {
      "latitude": "29.958664142398145",
      "longitude": "-90.11914157707916"
    }
  },
  {
    "service_request": "2022-922799",
    "request_type": "Trash/Recycling",
    "request_reason": "Missed Trash Pick-Up",
    "date_created": "2022-09-22T15:20:55.000",
    "date_modified": "2022-09-22T15:20:56.000",
    "request_status": "Pending",
    "responsible_agency": "Department of Sanitation",
    "final_address": "1926 Burdette St",
    "address_councildis": "A",
    "status": "Assigned to Contractor",
    "contractor": "Richards Disposal",
    "rowid": "922799",
    "final_x": "3664566.11629",
    "final_y": "529625.166145",
    "longitude": "-90.1216049357288",
    "latitude": "29.950788793727185",
    "geocoded_column": {
      "latitude": "29.950788793727185",
      "longitude": "-90.1216049357288"
    }
  },
  {
    "service_request": "2022-922798",
    "request_type": "Trash/Recycling",
    "request_reason": "Replace Trash Cart",
    "date_created": "2022-09-22T15:20:49.000",
    "date_modified": "2022-09-22T15:20:50.000",
    "request_status": "Pending",
    "responsible_agency": "Department of Sanitation",
    "final_address": "1219 Fern St",
    "address_councildis": "A",
    "status": "Assigned to Contractor",
    "contractor": "Richards Disposal",
    "rowid": "922798",
    "final_x": "3662677.53575",
    "final_y": "527944.886975",
    "longitude": "-90.12762396777771",
    "latitude": "29.946223346111136",
    "geocoded_column": {
      "latitude": "29.946223346111136",
      "longitude": "-90.12762396777771"
    }
  },
  {
    "service_request": "2022-922796",
    "request_type": "Traffic Signals/Signs/Striping/Streetlights",
    "request_reason": "Street Light Knocked Down/Leaning",
    "date_created": "2022-09-22T15:18:07.000",
    "date_modified": "2022-09-22T15:18:08.000",
    "request_status": "Pending",
    "responsible_agency": "Department of Public Works",
    "final_address": "7811 Shamrock Dr",
    "address_councildis": "E",
    "status": "Pending",
    "contractor": "Legacy Professional Services",
    "rowid": "922796",
    "final_x": "3718801.10873",
    "final_y": "572603.198377",
    "longitude": "-89.94872075335579",
    "latitude": "30.06727299954236",
    "geocoded_column": {
      "latitude": "30.06727299954236",
      "longitude": "-89.94872075335579"
    }
  },
  {
    "service_request": "2022-922795",
    "request_type": "Roads/Drainage",
    "request_reason": "Pothole",
    "date_created": "2022-09-22T15:17:50.000",
    "date_modified": "2022-09-22T15:17:50.000",
    "request_status": "Pending",
    "responsible_agency": "Department of Public Works",
    "final_address": "ELYSIAN FIELDS AV OVER & ELYSIAN FIELDS AVE & ABUNDANCE ST",
    "address_councildis": "D",
    "status": "Pending",
    "rowid": "922795",
    "final_x": "3684376.2",
    "final_y": "543672.68",
    "longitude": "-90.05856141600397",
    "latitude": "29.98882368167206",
    "geocoded_column": {
      "latitude": "29.98882368167206",
      "longitude": "-90.05856141600397"
    }
  },
  {
    "service_request": "2022-922794",
    "request_type": "Trash/Recycling",
    "request_reason": "Missed Trash Pick-Up",
    "date_created": "2022-09-22T15:16:19.000",
    "date_modified": "2022-09-22T15:16:20.000",
    "request_status": "Pending",
    "responsible_agency": "Department of Sanitation",
    "final_address": "707 Clouet St",
    "address_councildis": "C",
    "status": "Assigned to Contractor",
    "contractor": "Metro Disposal",
    "rowid": "922794",
    "final_x": "3688679.47247",
    "final_y": "534575.070149",
    "longitude": "-90.04529175875325",
    "latitude": "29.963676127832585",
    "geocoded_column": {
      "latitude": "29.963676127832585",
      "longitude": "-90.04529175875325"
    }
  },
  {
    "service_request": "2022-922792",
    "request_type": "Traffic Signals/Signs/Striping/Streetlights",
    "request_reason": "Street Light Outage/Malfunction",
    "date_created": "2022-09-22T15:14:00.000",
    "date_modified": "2022-09-22T15:14:01.000",
    "request_status": "Pending",
    "responsible_agency": "Department of Public Works",
    "final_address": "1515 S Robertson St",
    "address_councildis": "B",
    "status": "Pending",
    "contractor": "Legacy Professional Services",
    "rowid": "922792",
    "final_x": "3676023.91048",
    "final_y": "527330.482815",
    "longitude": "-90.08550592172978",
    "latitude": "29.94414103424774",
    "geocoded_column": {
      "latitude": "29.94414103424774",
      "longitude": "-90.08550592172978"
    }
  },
  {
    "service_request": "2022-922791",
    "request_type": "Abandoned Vehicles",
    "request_reason": "Abandoned/Junk Vehicles",
    "date_created": "2022-09-22T15:12:30.000",
    "date_modified": "2022-09-22T15:12:30.000",
    "request_status": "Pending",
    "responsible_agency": "Department of Public Works",
    "final_address": "715 N Lopez St",
    "address_councildis": "A",
    "status": "Pending",
    "rowid": "922791",
    "final_x": "3675333.64149",
    "final_y": "538269.813449",
    "longitude": "-90.0873097138799",
    "latitude": "29.974241175641303",
    "geocoded_column": {
      "latitude": "29.974241175641303",
      "longitude": "-90.0873097138799"
    }
  },
  {
    "service_request": "2022-922790",
    "request_type": "Trash/Recycling",
    "request_reason": "Missed Trash Pick-Up",
    "date_created": "2022-09-22T15:11:58.000",
    "date_modified": "2022-09-22T15:11:58.000",
    "request_status": "Pending",
    "responsible_agency": "Department of Sanitation",
    "final_address": "819 France St",
    "address_councildis": "C",
    "status": "Assigned to Contractor",
    "contractor": "Metro Disposal",
    "rowid": "922790",
    "final_x": "3692176.30589",
    "final_y": "534173.485573",
    "longitude": "-90.03426353433369",
    "latitude": "29.962463364482012",
    "geocoded_column": {
      "latitude": "29.962463364482012",
      "longitude": "-90.03426353433369"
    }
  },
  {
    "service_request": "2022-922789",
    "request_type": "Trash/Recycling",
    "request_reason": "Missed Trash Pick-Up",
    "date_created": "2022-09-22T15:11:19.000",
    "date_modified": "2022-09-22T15:11:20.000",
    "request_status": "Pending",
    "responsible_agency": "Department of Sanitation",
    "final_address": "7600 Nelson St",
    "address_councildis": "A",
    "status": "Assigned to Contractor",
    "contractor": "Richards Disposal",
    "rowid": "922789",
    "final_x": "3666223.10772",
    "final_y": "530712.802178",
    "longitude": "-90.11633650535511",
    "latitude": "29.95373115333883",
    "geocoded_column": {
      "latitude": "29.95373115333883",
      "longitude": "-90.11633650535511"
    }
  },
  {
    "service_request": "2022-922788",
    "request_type": "Trash/Recycling",
    "request_reason": "Repair Recycling Cart",
    "date_created": "2022-09-22T15:09:36.000",
    "date_modified": "2022-09-22T15:09:37.000",
    "case_close_date": "2022-09-04T19:00:00.000",
    "request_status": "Pending",
    "responsible_agency": "Department of Sanitation",
    "final_address": "1919 State St",
    "address_councildis": "A",
    "status": "Pending",
    "contractor": "Richards Disposal",
    "rowid": "922788",
    "final_x": "3666288.37287",
    "final_y": "523845.077435",
    "longitude": "-90.11636074083381",
    "latitude": "29.934845218044078",
    "geocoded_column": {
      "latitude": "29.934845218044078",
      "longitude": "-90.11636074083381"
    }
  },
  {
    "service_request": "2022-922787",
    "request_type": "Trash/Recycling",
    "request_reason": "Missed Trash Pick-Up",
    "date_created": "2022-09-22T15:08:55.000",
    "date_modified": "2022-09-22T15:08:56.000",
    "request_status": "Pending",
    "responsible_agency": "Department of Sanitation",
    "final_address": "819 France St",
    "address_councildis": "C",
    "status": "Assigned to Contractor",
    "contractor": "Metro Disposal",
    "rowid": "922787",
    "final_x": "3692176.30589",
    "final_y": "534173.485573",
    "longitude": "-90.03426353433369",
    "latitude": "29.962463364482012",
    "geocoded_column": {
      "latitude": "29.962463364482012",
      "longitude": "-90.03426353433369"
    }
  },
  {
    "service_request": "2022-922786",
    "request_type": "Traffic Signals/Signs/Striping/Streetlights",
    "request_reason": "Street Light Outage/Malfunction",
    "date_created": "2022-09-22T15:05:44.000",
    "date_modified": "2022-09-22T15:05:45.000",
    "request_status": "Pending",
    "responsible_agency": "Department of Public Works",
    "final_address": "2144 Robin St",
    "address_councildis": "D",
    "status": "Pending",
    "contractor": "Legacy Professional Services",
    "rowid": "922786",
    "final_x": "3683396.67913",
    "final_y": "551770.942806",
    "longitude": "-90.06137146459335",
    "latitude": "30.011120928149257",
    "geocoded_column": {
      "latitude": "30.011120928149257",
      "longitude": "-90.06137146459335"
    }
  },
  {
    "service_request": "2022-922785",
    "request_type": "Trash/Recycling",
    "request_reason": "Missed Trash Pick-Up",
    "date_created": "2022-09-22T15:02:26.000",
    "date_modified": "2022-09-22T15:02:26.000",
    "request_status": "Pending",
    "responsible_agency": "Department of Sanitation",
    "final_address": "2317 General Taylor St",
    "address_councildis": "B",
    "status": "Assigned to Contractor",
    "contractor": "Richards Disposal",
    "rowid": "922785",
    "final_x": "3672064.4498",
    "final_y": "523641.758715",
    "longitude": "-90.09813262337482",
    "latitude": "29.934116210785053",
    "geocoded_column": {
      "latitude": "29.934116210785053",
      "longitude": "-90.09813262337482"
    }
  },
  {
    "service_request": "2022-922784",
    "request_type": "Property Maintenance",
    "request_reason": "Property Maintenance",
    "date_created": "2022-09-22T15:01:20.000",
    "date_modified": "2022-09-22T15:01:20.000",
    "request_status": "Pending",
    "responsible_agency": "Department of Code Enforcement",
    "final_address": "1210 St Bernard Ave",
    "address_councildis": "C",
    "status": "Pending",
    "rowid": "922784",
    "final_x": "3683000.31048",
    "final_y": "536196.279879",
    "longitude": "-90.06316920571774",
    "latitude": "29.968308211103484",
    "geocoded_column": {
      "latitude": "29.968308211103484",
      "longitude": "-90.06316920571774"
    }
  },
  {
    "service_request": "2022-922783",
    "request_type": "Trash/Recycling",
    "request_reason": "Request a Large Item Pick Up",
    "date_created": "2022-09-22T15:00:10.000",
    "date_modified": "2022-09-22T15:00:13.000",
    "request_status": "Pending",
    "responsible_agency": "Department of Sanitation",
    "final_address": "2121 S Robertson St",
    "address_councildis": "B",
    "status": "Assigned to Contractor",
    "contractor": "Richards Disposal",
    "rowid": "922783",
    "final_x": "3675562.47925",
    "final_y": "526707.58547",
    "longitude": "-90.08698418293768",
    "latitude": "29.942442080874883",
    "geocoded_column": {
      "latitude": "29.942442080874883",
      "longitude": "-90.08698418293768"
    }
  },
  {
    "service_request": "2022-922782",
    "request_type": "Safety & Permits",
    "request_reason": "Construction permit",
    "date_created": "2022-09-22T14:58:51.000",
    "date_modified": "2022-09-22T14:58:51.000",
    "request_status": "Pending",
    "responsible_agency": "Department of Code Enforcement",
    "final_address": "7425 Hampson St",
    "address_councildis": "A",
    "status": "Pending",
    "rowid": "922782",
    "final_x": "3662578.89056",
    "final_y": "525526.216893",
    "longitude": "-90.12801575620807",
    "latitude": "29.939575628391825",
    "geocoded_column": {
      "latitude": "29.939575628391825",
      "longitude": "-90.12801575620807"
    }
  },
  {
    "service_request": "2022-922781",
    "request_type": "Trash/Recycling",
    "request_reason": "Missed Trash Pick-Up",
    "date_created": "2022-09-22T14:58:35.000",
    "date_modified": "2022-09-22T14:58:36.000",
    "request_status": "Pending",
    "responsible_agency": "Department of Sanitation",
    "final_address": "1319 Jefferson Ave",
    "address_councildis": "B",
    "status": "Assigned to Contractor",
    "contractor": "Richards Disposal",
    "rowid": "922781",
    "final_x": "3667172.79169",
    "final_y": "520198.914104",
    "longitude": "-90.11369115540957",
    "latitude": "29.924793569520368",
    "geocoded_column": {
      "latitude": "29.924793569520368",
      "longitude": "-90.11369115540957"
    }
  },
  {
    "service_request": "2022-922780",
    "request_type": "Property Maintenance",
    "request_reason": "Property Maintenance",
    "date_created": "2022-09-22T14:57:59.000",
    "date_modified": "2022-09-22T14:57:59.000",
    "request_status": "Pending",
    "responsible_agency": "Department of Code Enforcement",
    "final_address": "1308 St Anthony St",
    "address_councildis": "C",
    "status": "Pending",
    "rowid": "922780",
    "final_x": "3683438.26287",
    "final_y": "536646.423047",
    "longitude": "-90.06177035851036",
    "latitude": "29.969532593067193",
    "geocoded_column": {
      "latitude": "29.969532593067193",
      "longitude": "-90.06177035851036"
    }
  },
  {
    "service_request": "2022-922779",
    "request_type": "Trash/Recycling",
    "request_reason": "Missed Trash Pick-Up",
    "date_created": "2022-09-22T14:57:54.000",
    "date_modified": "2022-09-22T14:57:54.000",
    "request_status": "Pending",
    "responsible_agency": "Department of Sanitation",
    "final_address": "3005 Dauphine St, New Orleans, Louisiana, 70117",
    "address_councildis": "C",
    "status": "Assigned to Contractor",
    "contractor": "Metro Disposal",
    "rowid": "922779",
    "final_x": "3688208.94243",
    "final_y": "535011.52871",
    "longitude": "-90.0467621651806",
    "latitude": "29.964890772124892",
    "geocoded_column": {
      "latitude": "29.964890772124892",
      "longitude": "-90.0467621651806"
    }
  },
  {
    "service_request": "2022-922778",
    "request_type": "Trash/Recycling",
    "request_reason": "Missed Trash Pick-Up",
    "date_created": "2022-09-22T14:57:34.000",
    "date_modified": "2022-09-22T14:57:35.000",
    "request_status": "Pending",
    "responsible_agency": "Department of Sanitation",
    "final_address": "550 Lowerline St",
    "address_councildis": "A",
    "status": "Assigned to Contractor",
    "contractor": "Richards Disposal",
    "rowid": "922778",
    "final_x": "3662313.59987",
    "final_y": "524848.461884",
    "longitude": "-90.12887581156629",
    "latitude": "29.937719687623233",
    "geocoded_column": {
      "latitude": "29.937719687623233",
      "longitude": "-90.12887581156629"
    }
  },
  {
    "service_request": "2022-922777",
    "request_type": "Trash/Recycling",
    "request_reason": "Repair Trash Cart",
    "date_created": "2022-09-22T14:57:10.000",
    "date_modified": "2022-09-22T14:57:10.000",
    "request_status": "Pending",
    "responsible_agency": "Department of Sanitation",
    "final_address": "7170 Whitmore Pl",
    "address_councildis": "E",
    "status": "Assigned to Contractor",
    "contractor": "Metro Disposal",
    "rowid": "922777",
    "final_x": "3718479.60018",
    "final_y": "569810.604582",
    "longitude": "-89.94984367497074",
    "latitude": "30.059605211779058",
    "geocoded_column": {
      "latitude": "30.059605211779058",
      "longitude": "-89.94984367497074"
    }
  },
  {
    "service_request": "2022-922776",
    "request_type": "Trash/Recycling",
    "request_reason": "Missed Trash Pick-Up",
    "date_created": "2022-09-22T14:57:01.000",
    "date_modified": "2022-09-22T14:57:02.000",
    "request_status": "Pending",
    "responsible_agency": "Department of Sanitation",
    "final_address": "4917 S Miro St",
    "address_councildis": "B",
    "status": "Assigned to Contractor",
    "contractor": "Richards Disposal",
    "rowid": "922776",
    "final_x": "3669119.55284",
    "final_y": "527730.772543",
    "longitude": "-90.1072914595208",
    "latitude": "29.94544663962311",
    "geocoded_column": {
      "latitude": "29.94544663962311",
      "longitude": "-90.1072914595208"
    }
  },
  {
    "service_request": "2022-922775",
    "request_type": "Property Maintenance",
    "request_reason": "Property Maintenance",
    "date_created": "2022-09-22T14:56:45.000",
    "date_modified": "2022-09-22T14:56:45.000",
    "request_status": "Pending",
    "responsible_agency": "Department of Code Enforcement",
    "final_address": "1304 St Anthony St",
    "address_councildis": "C",
    "status": "Pending",
    "rowid": "922775",
    "final_x": "3683411.70569",
    "final_y": "536618.808711",
    "longitude": "-90.06185519591584",
    "latitude": "29.969457473527378",
    "geocoded_column": {
      "latitude": "29.969457473527378",
      "longitude": "-90.06185519591584"
    }
  },
  {
    "service_request": "2022-922774",
    "request_type": "Property Maintenance",
    "request_reason": "Property Maintenance",
    "date_created": "2022-09-22T14:51:40.000",
    "date_modified": "2022-09-22T14:51:40.000",
    "request_status": "Pending",
    "responsible_agency": "Department of Code Enforcement",
    "final_address": "1238 Annette St",
    "address_councildis": "C",
    "status": "Pending",
    "rowid": "922774",
    "final_x": "3683084.98818",
    "final_y": "536471.196935",
    "longitude": "-90.06289216391815",
    "latitude": "29.969061556769883",
    "geocoded_column": {
      "latitude": "29.969061556769883",
      "longitude": "-90.06289216391815"
    }
  },
  {
    "service_request": "2022-922773",
    "request_type": "Abandoned Vehicles",
    "request_reason": "Abandoned/Junk Vehicles",
    "date_created": "2022-09-22T14:50:18.000",
    "date_modified": "2022-09-22T14:59:10.000",
    "request_status": "Pending",
    "responsible_agency": "Department of Public Works",
    "final_address": "MORRISON RD & GANNON RD",
    "address_councildis": "E",
    "status": "Inspected",
    "rowid": "922773",
    "final_x": "3716844.9",
    "final_y": "569274.68",
    "longitude": "-89.9550311752423",
    "latitude": "30.058185809886584",
    "geocoded_column": {
      "latitude": "30.058185809886584",
      "longitude": "-89.9550311752423"
    }
  },
  {
    "service_request": "2022-922772",
    "request_type": "Traffic Signals/Signs/Striping/Streetlights",
    "request_reason": "Street Light Outage/Malfunction",
    "date_created": "2022-09-22T14:49:14.000",
    "date_modified": "2022-09-22T14:50:35.000",
    "request_status": "Pending",
    "responsible_agency": "Department of Public Works",
    "final_address": "7738 Marquis St",
    "address_councildis": "E",
    "status": "Pending",
    "contractor": "Legacy Professional Services",
    "rowid": "922772",
    "final_x": "3710868.36824",
    "final_y": "566761.674211",
    "longitude": "-89.97401639336799",
    "latitude": "30.051472381691646",
    "geocoded_column": {
      "latitude": "30.051472381691646",
      "longitude": "-89.97401639336799"
    }
  },
  {
    "service_request": "2022-922771",
    "request_type": "Trash/Recycling",
    "request_reason": "Illegal Dumping",
    "date_created": "2022-09-22T14:47:13.000",
    "date_modified": "2022-09-22T14:47:13.000",
    "request_status": "Pending",
    "responsible_agency": "Department of Sanitation",
    "final_address": "3321 Banks St",
    "address_councildis": "B",
    "status": "Pending",
    "rowid": "922771",
    "final_x": "3672728.04027",
    "final_y": "535651.666054",
    "longitude": "-90.09562814257077",
    "latitude": "29.967119806495095",
    "geocoded_column": {
      "latitude": "29.967119806495095",
      "longitude": "-90.09562814257077"
    }
  },
  {
    "service_request": "2022-922770",
    "request_type": "Trash/Recycling",
    "request_reason": "Request a Large Item Pick Up",
    "date_created": "2022-09-22T14:44:46.000",
    "date_modified": "2022-09-22T14:44:46.000",
    "request_status": "Pending",
    "responsible_agency": "Department of Sanitation",
    "final_address": "4700 Perlita St",
    "address_councildis": "D",
    "status": "Assigned to Contractor",
    "contractor": "Metro Disposal",
    "rowid": "922770",
    "final_x": "3678614.75618",
    "final_y": "549820.072084",
    "longitude": "-90.07654708298314",
    "latitude": "30.005901823790282",
    "geocoded_column": {
      "latitude": "30.005901823790282",
      "longitude": "-90.07654708298314"
    }
  },