[
  {
    "service_request": "2026-1270649",
    "request_type": "Trash/Recycling",
    "request_reason": "Request a Large Item Pick Up",
    "date_created": "2026-04-01T22:39:54.000",
    "date_modified": "2026-04-01T22:39:57.000",
    "request_status": "Pending",
    "responsible_agency": "Department of Sanitation",
    "final_address": "640 Lizardi St",
    "address_councildis": "E",
    "status": "Assigned to Contractor",
    "contractor": "Waste Pro",
    "rowid": "1270649",
    "final_x": "3696069.6536",
    "final_y": "532623.366404",
    "longitude": "-90.0220249691599",
    "latitude": "29.958079140525424",
    "geocoded_column": {
      "latitude": "29.958079140525424",
      "longitude": "-90.0220249691599"
    }
  },
  {
    "service_request": "2026-1270648",
    "request_type": "Trash/Recycling",
    "request_reason": "Request a Large Item Pick Up",
    "date_created": "2026-04-01T22:27:32.000",
    "date_modified": "2026-04-01T22:27:36.000",
    "request_status": "Pending",
    "responsible_agency": "Department of Sanitation",
    "final_address": "1835 Soniat St",
    "address_councildis": "B",
    "status": "Assigned to Contractor",
    "contractor": "IV Waste",
    "rowid": "1270648",
    "final_x": "3668555.7618",
    "final_y": "522430.361402",
    "longitude": "-90.10925031367603",
    "latitude": "29.930888790733203",
    "geocoded_column": {
      "latitude": "29.930888790733203",
      "longitude": "-90.10925031367603"
    }
  },
  {
    "service_request": "2026-1270647",
    "request_type": "Health Related Request",
    "request_reason": "Noise Ordinance Complaint",
    "date_created": "2026-04-01T22:15:53.000",
    "date_modified": "2026-04-01T22:15:54.000",
    "request_status": "Pending",
    "responsible_agency": "Health Department",
    "final_address": "801 Bourbon St, New Orleans, Louisiana, 70116",
    "address_councildis": "C",
    "status": "Pending",
    "rowid": "1270647",
    "final_x": "3682490.98735",
    "final_y": "533018.672772",
    "longitude": "-90.06488875731978",
    "latitude": "29.959586396383013",
    "geocoded_column": {
      "latitude": "29.959586396383013",
      "longitude": "-90.06488875731978"
    }
  },
  {
    "service_request": "2026-1270646",
    "request_type": "Trash/Recycling",
    "request_reason": "Illegal Dumping",
    "date_created": "2026-04-01T22:11:48.000",
    "date_modified": "2026-04-01T22:11:50.000",
    "request_status": "Pending",
    "responsible_agency": "Department of Sanitation",
    "final_address": "816 N Prieur St",
    "address_councildis": "C",
    "status": "Pending",
    "rowid": "1270646",
    "final_x": "3679253.41883",
    "final_y": "535642.756486",
    "longitude": "-90.07502125570795",
    "latitude": "29.966899884144684",
    "geocoded_column": {
      "latitude": "29.966899884144684",
      "longitude": "-90.07502125570795"
    }
  },
  {
    "service_request": "2026-1270645",
    "request_type": "Trash/Recycling",
    "request_reason": "Request a Large Item Pick Up",
    "date_created": "2026-04-01T22:05:48.000",
    "date_modified": "2026-04-01T22:05:49.000",
    "request_status": "Pending",
    "responsible_agency": "Department of Sanitation",
    "final_address": "1604 Robert C. Blakes, Sr. Dr",
    "address_councildis": "B",
    "status": "Assigned to Contractor",
    "contractor": "IV Waste",
    "rowid": "1270645",
    "final_x": "3678647.1204",
    "final_y": "525437.572413",
    "longitude": "-90.07728922277693",
    "latitude": "29.938857347755224",
    "geocoded_column": {
      "latitude": "29.938857347755224",
      "longitude": "-90.07728922277693"
    }
  },
  {
    "service_request": "2026-1270644",
    "request_type": "Abandoned Vehicles",
    "request_reason": "Abandoned/Junk Vehicles",
    "date_created": "2026-04-01T21:16:29.000",
    "date_modified": "2026-04-01T21:16:31.000",
    "request_status": "Pending",
    "responsible_agency": "Department of Public Works",
    "final_address": "7610 Willow St",
    "address_councildis": "A",
    "status": "Pending",
    "rowid": "1270644",
    "final_x": "3663644.27431",
    "final_y": "527728.019775",
    "longitude": "-90.12457884825608",
    "latitude": "29.945599024471058",
    "geocoded_column": {
      "latitude": "29.945599024471058",
      "longitude": "-90.12457884825608"
    }
  },
  {
    "service_request": "2026-1270643",
    "request_type": "Trash/Recycling",
    "request_reason": "Missed Trash Pick-Up",
    "date_created": "2026-04-01T20:53:53.000",
    "date_modified": "2026-04-01T20:53:54.000",
    "request_status": "Pending",
    "responsible_agency": "Department of Sanitation",
    "final_address": "3237 DHemecourt St",
    "address_councildis": "B",
    "status": "Assigned to Contractor",
    "contractor": "IV Waste",
    "rowid": "1270643",
    "final_x": "3672451.85633",
    "final_y": "534891.826438",
    "longitude": "-90.09652623616516",
    "latitude": "29.965038702696337",
    "geocoded_column": {
      "latitude": "29.965038702696337",
      "longitude": "-90.09652623616516"
    }
  },
  {
    "service_request": "2026-1270642",
    "request_type": "Trash/Recycling",
    "request_reason": "Repair Trash Cart",
    "date_created": "2026-04-01T20:49:08.000",
    "date_modified": "2026-04-01T20:49:11.000",
    "request_status": "Pending",
    "responsible_agency": "Department of Sanitation",
    "final_address": "1520 Dufossat St",
    "address_councildis": "B",
    "status": "Assigned to Contractor",
    "contractor": "IV Waste",
    "rowid": "1270642",
    "final_x": "3668021.84634",
    "final_y": "520604.332856",
    "longitude": "-90.1109973100833",
    "latitude": "29.925883465381688",
    "geocoded_column": {
      "latitude": "29.925883465381688",
      "longitude": "-90.1109973100833"
    }
  },
  {
    "service_request": "2026-1270641",
    "request_type": "Trash/Recycling",
    "request_reason": "Repair Trash Cart",
    "date_created": "2026-04-01T20:32:13.000",
    "date_modified": "2026-04-01T20:32:15.000",
    "request_status": "Pending",
    "responsible_agency": "Department of Sanitation",
    "final_address": "4414 Eden St",
    "address_councildis": "B",
    "status": "Assigned to Contractor",
    "contractor": "IV Waste",
    "rowid": "1270641",
    "final_x": "3669837.52871",
    "final_y": "530656.051394",
    "longitude": "-90.1049255563034",
    "latitude": "29.953469056113963",
    "geocoded_column": {
      "latitude": "29.953469056113963",
      "longitude": "-90.1049255563034"
    }
  },
  {
    "service_request": "2026-1270640",
    "request_type": "Trash/Recycling",
    "request_reason": "Missed Trash Pick-Up",
    "date_created": "2026-04-01T20:24:49.000",
    "date_modified": "2026-04-01T20:24:52.000",
    "request_status": "Pending",
    "responsible_agency": "Department of Sanitation",
    "final_address": "5410 Norgate Dr",
    "address_councildis": "E",
    "status": "Assigned to Contractor",
    "contractor": "Waste Pro",
    "rowid": "1270640",
    "final_x": "3707183.85547",
    "final_y": "557723.299355",
    "longitude": "-89.98599776476887",
    "latitude": "30.026740102688457",
    "geocoded_column": {
      "latitude": "30.026740102688457",
      "longitude": "-89.98599776476887"
    }
  },
  {
    "service_request": "2026-1270639",
    "request_type": "Trash/Recycling",
    "request_reason": "Replace Trash Cart",
    "date_created": "2026-04-01T19:44:52.000",
    "date_modified": "2026-04-01T19:44:54.000",
    "request_status": "Pending",
    "responsible_agency": "Department of Sanitation",
    "final_address": "671 Arabella St",
    "address_councildis": "A",
    "status": "Assigned to Contractor",
    "contractor": "IV Waste",
    "rowid": "1270639",
    "final_x": "3665782.97728",
    "final_y": "518562.940535",
    "longitude": "-90.11813312499483",
    "latitude": "29.920335759614403",
    "geocoded_column": {
      "latitude": "29.920335759614403",
      "longitude": "-90.11813312499483"
    }
  },
  {
    "service_request": "2026-1270637",
    "request_type": "Trash/Recycling",
    "request_reason": "Order Recycling Cart",
    "date_created": "2026-04-01T19:37:41.000",
    "date_modified": "2026-04-01T19:37:43.000",
    "request_status": "Pending",
    "responsible_agency": "Department of Sanitation",
    "final_address": "826 Delachaise St",
    "address_councildis": "B",
    "status": "Pending",
    "rowid": "1270637",
    "final_x": "3675004.00686",
    "final_y": "518636.840951",
    "longitude": "-90.08902411856954",
    "latitude": "29.920266845372915",
    "geocoded_column": {
      "latitude": "29.920266845372915",
      "longitude": "-90.08902411856954"
    }
  },
  {
    "service_request": "2026-1270636",
    "request_type": "Trash/Recycling",
    "request_reason": "Request a Large Item Pick Up",
    "date_created": "2026-04-01T19:22:48.000",
    "date_modified": "2026-04-01T19:22:51.000",
    "request_status": "Pending",
    "responsible_agency": "Department of Sanitation",
    "final_address": "13916 Tu Do Dr",
    "address_councildis": "E",
    "status": "Assigned to Contractor",
    "contractor": "Waste Pro",
    "rowid": "1270636",
    "final_x": "3727747.632",
    "final_y": "562851.765984",
    "longitude": "-89.92081961768896",
    "latitude": "30.04016038300696",
    "geocoded_column": {
      "latitude": "30.04016038300696",
      "longitude": "-89.92081961768896"
    }
  },
  {
    "service_request": "2026-1270635",
    "request_type": "Trash/Recycling",
    "request_reason": "Return Recycling Cart",
    "date_created": "2026-04-01T19:10:29.000",
    "date_modified": "2026-04-01T19:10:45.000",
    "request_status": "Pending",
    "responsible_agency": "Department of Sanitation",
    "final_address": "911 Congress St",
    "address_councildis": "C",
    "status": "Pending",
    "rowid": "1270635",
    "final_x": "3690658.20867",
    "final_y": "534852.425286",
    "longitude": "-90.03903323874925",
    "latitude": "29.96437744834605",
    "geocoded_column": {
      "latitude": "29.96437744834605",
      "longitude": "-90.03903323874925"
    }
  },
  {
    "service_request": "2026-1270634",
    "request_type": "Trash/Recycling",
    "request_reason": "Return Trash Cart",
    "date_created": "2026-04-01T19:09:38.000",
    "date_modified": "2026-04-01T19:09:40.000",
    "request_status": "Pending",
    "responsible_agency": "Department of Sanitation",
    "final_address": "911 Congress St",
    "address_councildis": "C",
    "status": "Assigned to Contractor",
    "contractor": "IV Waste",
    "rowid": "1270634",
    "final_x": "3690658.20867",
    "final_y": "534852.425286",
    "longitude": "-90.03903323874925",
    "latitude": "29.96437744834605",
    "geocoded_column": {
      "latitude": "29.96437744834605",
      "longitude": "-90.03903323874925"
    }
  },
  {
    "service_request": "2026-1270633",
    "request_type": "Parks & Parkways",
    "request_reason": "Request Tree Service (Right of Way/Public Property)",
    "date_created": "2026-04-01T19:08:18.000",
    "date_modified": "2026-04-01T19:08:20.000",
    "request_status": "Pending",
    "responsible_agency": "Department of Parks & Parkway",
    "final_address": "5296 Beaver Dr",
    "address_councildis": "E",
    "status": "Pending",
    "rowid": "1270633",
    "final_x": "3717421.26412",
    "final_y": "559537.327005",
    "longitude": "-89.95357999002357",
    "latitude": "30.031392987900865",
    "geocoded_column": {
      "latitude": "30.031392987900865",
      "longitude": "-89.95357999002357"
    }
  },
  {
    "service_request": "2026-1270632",
    "request_type": "General Services",
    "request_reason": "General Service Request",
    "date_created": "2026-04-01T18:57:33.000",
    "date_modified": "2026-04-01T18:57:35.000",
    "request_status": "Pending",
    "responsible_agency": "Orleans Parish Communication District",
    "final_address": "2408 St Roch Ave",
    "address_councildis": "D",
    "status": "Pending",
    "rowid": "1270632",
    "final_x": "3686022.94306",
    "final_y": "541307.6859",
    "longitude": "-90.05344331029895",
    "latitude": "29.9822703096099",
    "geocoded_column": {
      "latitude": "29.9822703096099",
      "longitude": "-90.05344331029895"
    }
  },
  {
    "service_request": "2026-1270631",
    "request_type": "Trash/Recycling",
    "request_reason": "Illegal Dumping",
    "date_created": "2026-04-01T18:55:45.000",
    "date_modified": "2026-04-01T18:55:46.000",
    "request_status": "Pending",
    "responsible_agency": "Department of Sanitation",
    "final_address": "806 Audubon St",
    "address_councildis": "A",
    "status": "Pending",
    "rowid": "1270631",
    "final_x": "3663658.32864",
    "final_y": "525267.925437",
    "longitude": "-90.12461640949482",
    "latitude": "29.938834143305783",
    "geocoded_column": {
      "latitude": "29.938834143305783",
      "longitude": "-90.12461640949482"
    }
  },
  {
    "service_request": "2026-1270630",
    "request_type": "Property Maintenance",
    "request_reason": "Property Maintenance",
    "date_created": "2026-04-01T18:55:08.000",
    "date_modified": "2026-04-01T18:55:12.000",
    "request_status": "Pending",
    "responsible_agency": "Department of Code Enforcement",
    "final_address": "2678 Myrtle St",
    "address_councildis": "D",
    "status": "Pending",
    "rowid": "1270630",
    "final_x": "3687817.58153",
    "final_y": "546074.362384",
    "longitude": "-90.04760604768848",
    "latitude": "29.995321723948354",
    "geocoded_column": {
      "latitude": "29.995321723948354",
      "longitude": "-90.04760604768848"
    }
  },
  {
    "service_request": "2026-1270629",
    "request_type": "Trash/Recycling",
    "request_reason": "Request a Large Item Pick Up",
    "date_created": "2026-04-01T18:43:02.000",
    "date_modified": "2026-04-01T18:43:04.000",
    "request_status": "Pending",
    "responsible_agency": "Department of Sanitation",
    "final_address": "7581 Pineridge St",
    "address_councildis": "E",
    "status": "Assigned to Contractor",
    "contractor": "Waste Pro",
    "rowid": "1270629",
    "final_x": "3719194.38834",
    "final_y": "571891.585896",
    "longitude": "-89.94750474802512",
    "latitude": "30.065303291099735",
    "geocoded_column": {
      "latitude": "30.065303291099735",
      "longitude": "-89.94750474802512"
    }
  },
  {
    "service_request": "2026-1270628",
    "request_type": "Mosquito, Termite & Rodent Control",
    "request_reason": "Mosquito Complaint",
    "date_created": "2026-04-01T18:42:45.000",
    "date_modified": "2026-04-01T18:42:46.000",
    "request_status": "Pending",
    "responsible_agency": "Mosquito, Termite & Rodent Control Board",
    "final_address": "5415 N Miro St",
    "address_councildis": "E",
    "status": "Pending",
    "rowid": "1270628",
    "final_x": "3698430.7082",
    "final_y": "538087.691465",
    "longitude": "-90.01437084287208",
    "latitude": "29.97302957410166",
    "geocoded_column": {
      "latitude": "29.97302957410166",
      "longitude": "-90.01437084287208"
    }
  },
  {
    "service_request": "2026-1270627",
    "request_type": "Trash/Recycling",
    "request_reason": "Order Trash Cart",
    "date_created": "2026-04-01T18:39:41.000",
    "date_modified": "2026-04-01T18:39:43.000",
    "request_status": "Pending",
    "responsible_agency": "Department of Sanitation",
    "final_address": "2536 General Pershing St",
    "address_councildis": "B",
    "status": "Assigned to Contractor",
    "contractor": "IV Waste",
    "rowid": "1270627",
    "final_x": "3670855.98151",
    "final_y": "524361.055548",
    "longitude": "-90.10192331952312",
    "latitude": "29.936129809999056",
    "geocoded_column": {
      "latitude": "29.936129809999056",
      "longitude": "-90.10192331952312"
    }
  },
  {
    "service_request": "2026-1270626",
    "request_type": "Street and Traffic Signs",
    "request_reason": "Stop Sign Missing or Damaged",
    "date_created": "2026-04-01T18:38:29.000",
    "date_modified": "2026-04-01T18:38:31.000",
    "request_status": "Pending",
    "responsible_agency": "Department of Public Works",
    "final_address": "5164 Marigny St",
    "address_councildis": "D",
    "status": "Pending",
    "rowid": "1270626",
    "final_x": "3684240.87356",
    "final_y": "551882.891414",
    "longitude": "-90.05870038556519",
    "latitude": "30.01140295179787",
    "geocoded_column": {
      "latitude": "30.01140295179787",
      "longitude": "-90.05870038556519"
    }
  },
  {
    "service_request": "2026-1270625",
    "request_type": "Trash/Recycling",
    "request_reason": "Request a Large Item Pick Up",
    "date_created": "2026-04-01T18:34:04.000",
    "date_modified": "2026-04-01T18:34:05.000",
    "request_status": "Pending",
    "responsible_agency": "Department of Sanitation",
    "final_address": "1622 Nie Prkwy",
    "address_councildis": "C",
    "status": "Assigned to Contractor",
    "contractor": "Richards Disposal",
    "rowid": "1270625",
    "final_x": "3701271.35332",
    "final_y": "524920.133372",
    "longitude": "-90.00588136125636",
    "latitude": "29.93673326004419",
    "geocoded_column": {
      "latitude": "29.93673326004419",
      "longitude": "-90.00588136125636"
    }
  },
  {
    "service_request": "2026-1270624",
    "request_type": "Trash/Recycling",
    "request_reason": "Missed Trash Pick-Up",
    "date_created": "2026-04-01T18:30:12.000",
    "date_modified": "2026-04-01T18:30:14.000",
    "request_status": "Pending",
    "responsible_agency": "Department of Sanitation",
    "final_address": "0 BLK Dwyer Rd",
    "address_councildis": "E",
    "status": "Assigned to Contractor",
    "contractor": "Waste Pro",
    "rowid": "1270624",
    "final_x": "3717176.06889",
    "final_y": "558469.101353",
    "longitude": "-89.95439543147795",
    "latitude": "30.02846391186081",
    "geocoded_column": {
      "latitude": "30.02846391186081",
      "longitude": "-89.95439543147795"
    }
  },
  {
    "service_request": "2026-1270623",
    "request_type": "Trash/Recycling",
    "request_reason": "Request a Large Item Pick Up",
    "date_created": "2026-04-01T18:21:48.000",
    "date_modified": "2026-04-01T18:21:49.000",
    "request_status": "Pending",
    "responsible_agency": "Department of Sanitation",
    "final_address": "6917 West End Blvd",
    "address_councildis": "A",
    "status": "Assigned to Contractor",
    "contractor": "IV Waste",
    "rowid": "1270623",
    "final_x": "3666861.31745",
    "final_y": "553864.448023",
    "longitude": "-90.11354308451367",
    "latitude": "30.01737167518203",
    "geocoded_column": {
      "latitude": "30.01737167518203",
      "longitude": "-90.11354308451367"
    }
  },
  {
    "service_request": "2026-1270622",
    "request_type": "General Services",
    "request_reason": "General Service Request",
    "date_created": "2026-04-01T18:21:20.000",
    "date_modified": "2026-04-01T18:21:22.000",
    "request_status": "Pending",
    "responsible_agency": "Orleans Parish Communication District",
    "final_address": "8217 Panola St",
    "address_councildis": "A",
    "status": "Pending",
    "rowid": "1270622",
    "final_x": "3663740.33421",
    "final_y": "531080.636546",
    "longitude": "-90.12416385078288",
    "latitude": "29.95481485253596",
    "geocoded_column": {
      "latitude": "29.95481485253596",
      "longitude": "-90.12416385078288"
    }
  },
  {
    "service_request": "2026-1270621",
    "request_type": "Trash/Recycling",
    "request_reason": "Return Trash Cart",
    "date_created": "2026-04-01T18:00:28.000",
    "date_modified": "2026-04-01T18:00:30.000",
    "request_status": "Pending",
    "responsible_agency": "Department of Sanitation",
    "final_address": "2714 Coliseum St",
    "address_councildis": "B",
    "status": "Assigned to Contractor",
    "contractor": "IV Waste",
    "rowid": "1270621",
    "final_x": "3676653.73237",
    "final_y": "521751.276922",
    "longitude": "-90.08370950164189",
    "latitude": "29.92878117309633",
    "geocoded_column": {
      "latitude": "29.92878117309633",
      "longitude": "-90.08370950164189"
    }
  },
  {
    "service_request": "2026-1270620",
    "request_type": "Trash/Recycling",
    "request_reason": "Return Recycling Cart",
    "date_created": "2026-04-01T17:46:08.000",
    "date_modified": "2026-04-01T17:46:09.000",
    "request_status": "Pending",
    "responsible_agency": "Department of Sanitation",
    "final_address": "418 S Alexander St",
    "address_councildis": "A",
    "status": "Pending",
    "rowid": "1270620",
    "final_x": "3669166.48276",
    "final_y": "538022.082633",
    "longitude": "-90.10679547245084",
    "latitude": "29.97374296001568",
    "geocoded_column": {
      "latitude": "29.97374296001568",
      "longitude": "-90.10679547245084"
    }
  },
  {
    "service_request": "2026-1270619",
    "request_type": "Trash/Recycling",
    "request_reason": "Replace Trash Cart",
    "date_created": "2026-04-01T17:44:35.000",
    "date_modified": "2026-04-01T17:44:37.000",
    "request_status": "Pending",
    "responsible_agency": "Department of Sanitation",
    "final_address": "3127 St Philip St",
    "address_councildis": "A",
    "status": "Assigned to Contractor",
    "contractor": "IV Waste",
    "rowid": "1270619",
    "final_x": "3675798.68443",
    "final_y": "539128.941386",
    "longitude": "-90.0858114572823",
    "latitude": "29.976589570245736",
    "geocoded_column": {
      "latitude": "29.976589570245736",
      "longitude": "-90.0858114572823"
    }
  },
  {
    "service_request": "2026-1270618",
    "request_type": "Trash/Recycling",
    "request_reason": "Request a Large Item Pick Up",
    "date_created": "2026-04-01T17:42:27.000",
    "date_modified": "2026-04-01T17:42:29.000",
    "request_status": "Pending",
    "responsible_agency": "Department of Sanitation",
    "final_address": "5109 Burgundy St",
    "address_councildis": "E",
    "status": "Assigned to Contractor",
    "contractor": "Waste Pro",
    "rowid": "1270618",
    "final_x": "3696134.14166",
    "final_y": "533440.42554",
    "longitude": "-90.02179180345343",
    "latitude": "29.960323735324803",
    "geocoded_column": {
      "latitude": "29.960323735324803",
      "longitude": "-90.02179180345343"
    }
  },
  {
    "service_request": "2026-1270617",
    "request_type": "Trash/Recycling",
    "request_reason": "Request a Large Item Pick Up",
    "date_created": "2026-04-01T17:39:17.000",
    "date_modified": "2026-04-01T18:04:04.000",
    "request_status": "Pending",
    "responsible_agency": "Department of Sanitation",
    "final_address": "4554 Eastview Dr, New Orleans, Louisiana, 70126",
    "address_councildis": "E",
    "status": "Assigned to Contractor",
    "contractor": "Waste Pro",
    "rowid": "1270617",
    "final_x": "3705174.89956",
    "final_y": "554157.447704",
    "longitude": "-89.99247765840269",
    "latitude": "30.017000189415782",
    "geocoded_column": {
      "latitude": "30.017000189415782",
      "longitude": "-89.99247765840269"
    }
  },
  {
    "service_request": "2026-1270616",
    "request_type": "Utility Poles",
    "request_reason": "Wires Sagging/Hanging Low",
    "date_created": "2026-04-01T17:35:13.000",
    "date_modified": "2026-04-01T17:35:27.000",
    "request_status": "Pending",
    "responsible_agency": "Utility Company Collective",
    "final_address": "416 S Alexander St",
    "address_councildis": "A",
    "status": "Pending",
    "rowid": "1270616",
    "final_x": "3669175.45294",
    "final_y": "538030.364233",
    "longitude": "-90.10676686260979",
    "latitude": "29.97376546760957",
    "geocoded_column": {
      "latitude": "29.97376546760957",
      "longitude": "-90.10676686260979"
    }
  },
  {
    "service_request": "2026-1270615",
    "request_type": "Abandoned Vehicles",
    "request_reason": "Abandoned/Junk Vehicles",
    "date_created": "2026-04-01T17:28:38.000",
    "date_modified": "2026-04-01T17:28:39.000",
    "request_status": "Pending",
    "responsible_agency": "Department of Public Works",
    "final_address": "7157 Dorian St",
    "address_councildis": "D",
    "status": "Pending",
    "rowid": "1270615",
    "final_x": "3696154.68381",
    "final_y": "557150.758298",
    "longitude": "-90.02086933799887",
    "latitude": "30.0255178102704",
    "geocoded_column": {
      "latitude": "30.0255178102704",
      "longitude": "-90.02086933799887"
    }
  },
  {
    "service_request": "2026-1270614",
    "request_type": "Trash/Recycling",
    "request_reason": "Replace Trash Cart",
    "date_created": "2026-04-01T17:28:17.000",
    "date_modified": "2026-04-01T17:28:20.000",
    "request_status": "Pending",
    "responsible_agency": "Department of Sanitation",
    "final_address": "4635 Dreux Ave",
    "address_councildis": "D",
    "status": "Assigned to Contractor",
    "contractor": "IV Waste",
    "rowid": "1270614",
    "final_x": "3690832.94076",
    "final_y": "553100.997463",
    "longitude": "-90.03782990620483",
    "latitude": "30.01454901362187",
    "geocoded_column": {
      "latitude": "30.01454901362187",
      "longitude": "-90.03782990620483"
    }
  },
  {
    "service_request": "2026-1270613",
    "request_type": "Roads and Streets",
    "request_reason": "Pothole",
    "date_created": "2026-04-01T17:23:16.000",
    "date_modified": "2026-04-01T17:23:18.000",
    "request_status": "Pending",
    "responsible_agency": "Department of Public Works",
    "final_address": "7100 BLK Dorian St",
    "address_councildis": "D",
    "status": "Pending",
    "rowid": "1270613",
    "final_x": "3696036.93893",
    "final_y": "557209.165553",
    "longitude": "-90.02123927968591",
    "latitude": "30.0256821158157",
    "geocoded_column": {
      "latitude": "30.0256821158157",
      "longitude": "-90.02123927968591"
    }
  },
  {
    "service_request": "2026-1270612",
    "request_type": "Abandoned Vehicles",
    "request_reason": "Abandoned/Junk Vehicles",
    "date_created": "2026-04-01T17:20:24.000",
    "date_modified": "2026-04-01T17:20:25.000",
    "request_status": "Pending",
    "responsible_agency": "Department of Public Works",
    "final_address": "6700 Virgilian St",
    "address_councildis": "D",
    "status": "Pending",
    "rowid": "1270612",
    "final_x": "3697014.42",
    "final_y": "555985.640857",
    "longitude": "-90.01819496505628",
    "latitude": "30.0222870755002",
    "geocoded_column": {
      "latitude": "30.0222870755002",
      "longitude": "-90.01819496505628"
    }
  },
  {
    "service_request": "2026-1270611",
    "request_type": "Trash/Recycling",
    "request_reason": "Request a Large Item Pick Up",
    "date_created": "2026-04-01T17:20:12.000",
    "date_modified": "2026-04-01T17:20:14.000",
    "request_status": "Pending",
    "responsible_agency": "Department of Sanitation",
    "final_address": "4101 Erato St",
    "address_councildis": "B",
    "status": "Assigned to Contractor",
    "contractor": "IV Waste",
    "rowid": "1270611",
    "final_x": "3671399.89268",
    "final_y": "531207.50477",
    "longitude": "-90.09997351960132",
    "latitude": "29.954939222910696",
    "geocoded_column": {
      "latitude": "29.954939222910696",
      "longitude": "-90.09997351960132"
    }
  },
  {
    "service_request": "2026-1270610",
    "request_type": "Abandoned Vehicles",
    "request_reason": "Abandoned/Junk Vehicles",
    "date_created": "2026-04-01T17:18:10.000",
    "date_modified": "2026-04-01T17:18:12.000",
    "request_status": "Pending",
    "responsible_agency": "Department of Public Works",
    "final_address": "7157 Dorian St",
    "address_councildis": "D",
    "status": "Pending",
    "rowid": "1270610",
    "final_x": "3696154.68381",
    "final_y": "557150.758298",
    "longitude": "-90.02086933799887",
    "latitude": "30.0255178102704",
    "geocoded_column": {
      "latitude": "30.0255178102704",
      "longitude": "-90.02086933799887"
    }
  },
  {
    "service_request": "2026-1270609",
    "request_type": "Trash/Recycling",
    "request_reason": "Illegal Dumping",
    "date_created": "2026-04-01T17:16:37.000",
    "date_modified": "2026-04-01T17:16:40.000",
    "request_status": "Pending",
    "responsible_agency": "Department of Sanitation",
    "final_address": "6700 Virgilian St",
    "address_councildis": "D",
    "status": "Pending",
    "rowid": "1270609",
    "final_x": "3697014.42",
    "final_y": "555985.640857",
    "longitude": "-90.01819496505628",
    "latitude": "30.0222870755002",
    "geocoded_column": {
      "latitude": "30.0222870755002",
      "longitude": "-90.01819496505628"
    }
  },
  {
    "service_request": "2026-1270608",
    "request_type": "Trash/Recycling",
    "request_reason": "Order Recycling Cart",
    "date_created": "2026-04-01T17:06:47.000",
    "date_modified": "2026-04-01T17:06:49.000",
    "request_status": "Pending",
    "responsible_agency": "Department of Sanitation",
    "final_address": "4509 Camp St",
    "address_councildis": "B",
    "status": "Pending",
    "rowid": "1270608",
    "final_x": "3670506.84507",
    "final_y": "519147.223287",
    "longitude": "-90.10320226642689",
    "latitude": "29.921803752910268",
    "geocoded_column": {
      "latitude": "29.921803752910268",
      "longitude": "-90.10320226642689"
    }
  },
  {
    "service_request": "2026-1270607",
    "request_type": "Trash/Recycling",
    "request_reason": "Request a Large Item Pick Up",
    "date_created": "2026-04-01T16:57:40.000",
    "date_modified": "2026-04-01T16:57:43.000",
    "request_status": "Pending",
    "responsible_agency": "Department of Sanitation",
    "final_address": "314 S Gayoso St",
    "address_councildis": "B",
    "status": "Assigned to Contractor",
    "contractor": "IV Waste",
    "rowid": "1270607",
    "final_x": "3673807.14555",
    "final_y": "535093.531142",
    "longitude": "-90.0922394053977",
    "latitude": "29.965553028822878",
    "geocoded_column": {
      "latitude": "29.965553028822878",
      "longitude": "-90.0922394053977"
    }
  },
  {
    "service_request": "2026-1270606",
    "request_type": "Trash/Recycling",
    "request_reason": "Request a Large Item Pick Up",
    "date_created": "2026-04-01T16:57:00.000",
    "date_modified": "2026-04-01T16:57:01.000",
    "request_status": "Pending",
    "responsible_agency": "Department of Sanitation",
    "final_address": "726 Upperline St",
    "address_councildis": "B",
    "status": "Assigned to Contractor",
    "contractor": "IV Waste",
    "rowid": "1270606",
    "final_x": "3668936.1691",
    "final_y": "518052.483958",
    "longitude": "-90.10819718460125",
    "latitude": "29.918839837598757",
    "geocoded_column": {
      "latitude": "29.918839837598757",
      "longitude": "-90.10819718460125"
    }
  },
  {
    "service_request": "2026-1270605",
    "request_type": "Trash/Recycling",
    "request_reason": "Return Trash Cart",
    "date_created": "2026-04-01T16:55:35.000",
    "date_modified": "2026-04-01T16:55:53.000",
    "request_status": "Pending",
    "responsible_agency": "Department of Sanitation",
    "final_address": "7601 Patterson St",
    "address_councildis": "C",
    "status": "Assigned to Contractor",
    "contractor": "Richards Disposal",
    "rowid": "1270605",
    "final_x": "3712338.70654",
    "final_y": "518934.159863",
    "longitude": "-89.97116623479418",
    "latitude": "29.919916774875198",
    "geocoded_column": {
      "latitude": "29.919916774875198",
      "longitude": "-89.97116623479418"
    }
  },
  {
    "service_request": "2026-1270604",
    "request_type": "Trash/Recycling",
    "request_reason": "Request a Large Item Pick Up",
    "date_created": "2026-04-01T16:55:17.000",
    "date_modified": "2026-04-01T17:39:28.000",
    "request_status": "Pending",
    "responsible_agency": "Department of Sanitation",
    "final_address": "314 S Gayoso St, New Orleans, Louisiana, 70119",
    "address_councildis": "B",
    "status": "Assigned to Contractor",
    "contractor": "IV Waste",
    "rowid": "1270604",
    "final_x": "3673807.14555",
    "final_y": "535093.531142",
    "longitude": "-90.0922394053977",
    "latitude": "29.965553028822878",
    "geocoded_column": {
      "latitude": "29.965553028822878",
      "longitude": "-90.0922394053977"
    }
  },
  {
    "service_request": "2026-1270603",
    "request_type": "Trash/Recycling",
    "request_reason": "Request a Large Item Pick Up",
    "date_created": "2026-04-01T16:49:07.000",
    "date_modified": "2026-04-01T16:49:09.000",
    "request_status": "Pending",
    "responsible_agency": "Department of Sanitation",
    "final_address": "4927 Citrus Dr",
    "address_councildis": "E",
    "status": "Assigned to Contractor",
    "contractor": "Waste Pro",
    "rowid": "1270603",
    "final_x": "3710723.85163",
    "final_y": "557013.980314",
    "longitude": "-89.9748384302438",
    "latitude": "30.024674826093037",
    "geocoded_column": {
      "latitude": "30.024674826093037",
      "longitude": "-89.9748384302438"
    }
  },
  {
    "service_request": "2026-1270602",
    "request_type": "Trash/Recycling",
    "request_reason": "Request a Large Item Pick Up",
    "date_created": "2026-04-01T16:48:36.000",
    "date_modified": "2026-04-01T16:48:38.000",
    "request_status": "Pending",
    "responsible_agency": "Department of Sanitation",
    "final_address": "4635 S Claiborne Ave",
    "address_councildis": "B",
    "status": "Assigned to Contractor",
    "contractor": "IV Waste",
    "rowid": "1270602",
    "final_x": "3669282.65748",
    "final_y": "525867.532989",
    "longitude": "-90.10683945347941",
    "latitude": "29.940318535248657",
    "geocoded_column": {
      "latitude": "29.940318535248657",
      "longitude": "-90.10683945347941"
    }
  },
  {
    "service_request": "2026-1270601",
    "request_type": "Safety & Permits",
    "request_reason": "Zoning Enforcement",
    "date_created": "2026-04-01T16:41:36.000",
    "date_modified": "2026-04-01T16:41:38.000",
    "request_status": "Pending",
    "responsible_agency": "Safety and Permits",
    "final_address": "S WHITE ST & EVE ST",
    "address_councildis": "B",
    "status": "Pending",
    "rowid": "1270601",
    "final_x": "3671204.6",
    "final_y": "530204.38",
    "longitude": "-90.10062425786093",
    "latitude": "29.95218673926622",
    "geocoded_column": {
      "latitude": "29.95218673926622",
      "longitude": "-90.10062425786093"
    }
  },
  {
    "service_request": "2026-1270600",
    "request_type": "Trash/Recycling",
    "request_reason": "Request a Large Item Pick Up",
    "date_created": "2026-04-01T16:40:07.000",
    "date_modified": "2026-04-01T16:40:09.000",
    "request_status": "Pending",
    "responsible_agency": "Department of Sanitation",
    "final_address": "4583 Viola St",
    "address_councildis": "E",
    "status": "Assigned to Contractor",
    "contractor": "Waste Pro",
    "rowid": "1270600",
    "final_x": "3704136.67114",
    "final_y": "554153.67644",
    "longitude": "-89.99575814515265",
    "latitude": "30.017023185073896",
    "geocoded_column": {
      "latitude": "30.017023185073896",
      "longitude": "-89.99575814515265"
    }
  },
  {
    "service_request": "2026-1270599",
    "request_type": "Drainage",
    "request_reason": "Catch Basin Not Draining",
    "date_created": "2026-04-01T16:31:44.000",
    "date_modified": "2026-04-01T16:31:45.000",
    "request_status": "Pending",
    "responsible_agency": "Sewerage & Water Board",
    "final_address": "828 Dublin St",
    "address_councildis": "A",
    "status": "Pending",
    "rowid": "1270599",
    "final_x": "3660895.24109",
    "final_y": "527786.112255",
    "longitude": "-90.13325657047953",
    "latitude": "29.945838213707756",
    "geocoded_column": {
      "latitude": "29.945838213707756",
      "longitude": "-90.13325657047953"
    }
  },
  {
    "service_request": "2026-1270598",
    "request_type": "Trash/Recycling",
    "request_reason": "Request a Large Item Pick Up",
    "date_created": "2026-04-01T16:27:27.000",
    "date_modified": "2026-04-01T16:27:36.000",
    "request_status": "Pending",
    "responsible_agency": "Department of Sanitation",
    "final_address": "4322 S Liberty St",
    "address_councildis": "B",
    "status": "Assigned to Contractor",
    "contractor": "IV Waste",
    "rowid": "1270598",
    "final_x": "3670830.15579",
    "final_y": "523326.388923",
    "longitude": "-90.1020399529896",
    "latitude": "29.93328557357923",
    "geocoded_column": {
      "latitude": "29.93328557357923",
      "longitude": "-90.1020399529896"
    }
  },
  {
    "service_request": "2026-1270597",
    "request_type": "Property Maintenance",
    "request_reason": "Property Maintenance",
    "date_created": "2026-04-01T16:21:09.000",
    "date_modified": "2026-04-01T16:21:11.000",
    "request_status": "Pending",
    "responsible_agency": "Department of Code Enforcement",
    "final_address": "5001 Columbia St",
    "address_councildis": "D",
    "status": "Pending",
    "rowid": "1270597",
    "final_x": "3690522.06563",
    "final_y": "558566.478108",
    "longitude": "-90.03861699740112",
    "latitude": "30.0295867014318",
    "geocoded_column": {
      "latitude": "30.0295867014318",
      "longitude": "-90.03861699740112"
    }
  },
  {
    "service_request": "2026-1270596",
    "request_type": "Trash/Recycling",
    "request_reason": "Missed Trash Pick-Up",
    "date_created": "2026-04-01T16:20:16.000",
    "date_modified": "2026-04-01T17:51:46.000",
    "case_close_date": "2026-04-01T12:51:44.000",
    "request_status": "Closed",
    "responsible_agency": "Department of Sanitation",
    "final_address": "2302 Nashville Ave",
    "address_councildis": "A",
    "status": "Invalid Request",
    "contractor": "IV Waste",
    "contractor_action": "Invalid Request",
    "rowid": "1270596",
    "final_x": "3666929.76033",
    "final_y": "524627.502268",
    "longitude": "-90.11430960309754",
    "latitude": "29.93697788967212",
    "geocoded_column": {
      "latitude": "29.93697788967212",
      "longitude": "-90.11430960309754"
    }
  },
  {
    "service_request": "2026-1270595",
    "request_type": "Traffic Signals",
    "request_reason": "Traffic Signal Malfunctioning or Damaged",
    "date_created": "2026-04-01T16:18:55.000",
    "date_modified": "2026-04-01T16:18:57.000",
    "request_status": "Pending",
    "responsible_agency": "Department of Public Works",
    "final_address": "PALMETTO ST & DUBLIN ST",
    "address_councildis": "A",
    "status": "Pending",
    "rowid": "1270595",
    "final_x": "3667945.3",
    "final_y": "535448.98",
    "longitude": "-90.11073895378681",
    "latitude": "29.96670367299608",
    "geocoded_column": {
      "latitude": "29.96670367299608",
      "longitude": "-90.11073895378681"
    }
  },
  {
    "service_request": "2026-1270594",
    "request_type": "Trash/Recycling",
    "request_reason": "MIssed Recycling Pick-Up",
    "date_created": "2026-04-01T16:16:26.000",
    "date_modified": "2026-04-01T16:16:28.000",
    "request_status": "Pending",
    "responsible_agency": "Department of Sanitation",
    "final_address": "11101 S Idlewood Ct",
    "address_councildis": "E",
    "status": "Assigned to Contractor",
    "contractor": "Waste Pro",
    "rowid": "1270594",
    "final_x": "3716047.30597",
    "final_y": "559300.338141",
    "longitude": "-89.957930695728",
    "latitude": "30.030786782704475",
    "geocoded_column": {
      "latitude": "30.030786782704475",
      "longitude": "-89.957930695728"
    }
  },
  {
    "service_request": "2026-1270593",
    "request_type": "Road Striping",
    "request_reason": "Lane Striping or other Pavement Markings",
    "date_created": "2026-04-01T16:15:52.000",
    "date_modified": "2026-04-01T16:17:52.000",
    "request_status": "Pending",
    "responsible_agency": "Department of Public Works",
    "final_address": "2400 BLK Felicity St",
    "address_councildis": "B",
    "status": "Pending",
    "rowid": "1270593",
    "final_x": "3676043.41789",
    "final_y": "527021.772516",
    "longitude": "-90.08545494612046",
    "latitude": "29.943291598682748",
    "geocoded_column": {
      "latitude": "29.943291598682748",
      "longitude": "-90.08545494612046"
    }
  },
  {
    "service_request": "2026-1270592",
    "request_type": "Trash/Recycling",
    "request_reason": "Request a Large Item Pick Up",
    "date_created": "2026-04-01T16:12:38.000",
    "date_modified": "2026-04-01T16:12:41.000",
    "request_status": "Pending",
    "responsible_agency": "Department of Sanitation",
    "final_address": "5512 Chartres St",
    "address_councildis": "E",
    "status": "Assigned to Contractor",
    "contractor": "Waste Pro",
    "rowid": "1270592",
    "final_x": "3697305.68867",
    "final_y": "531945.270595",
    "longitude": "-90.01814651323147",
    "latitude": "29.9561756640024",
    "geocoded_column": {
      "latitude": "29.9561756640024",
      "longitude": "-90.01814651323147"
    }
  },
  {
    "service_request": "2026-1270591",
    "request_type": "Trash/Recycling",
    "request_reason": "Repair Trash Cart",
    "date_created": "2026-04-01T16:12:26.000",
    "date_modified": "2026-04-01T16:12:29.000",
    "request_status": "Pending",
    "responsible_agency": "Department of Sanitation",
    "final_address": "2025 Spain St",
    "address_councildis": "D",
    "status": "Assigned to Contractor",
    "contractor": "IV Waste",
    "rowid": "1270591",
    "final_x": "3685896.51446",
    "final_y": "539950.232458",
    "longitude": "-90.05389050670242",
    "latitude": "29.97854167369995",
    "geocoded_column": {
      "latitude": "29.97854167369995",
      "longitude": "-90.05389050670242"
    }
  },
  {
    "service_request": "2026-1270590",
    "request_type": "Property Maintenance",
    "request_reason": "Property Maintenance",
    "date_created": "2026-04-01T16:08:17.000",
    "date_modified": "2026-04-01T16:08:19.000",
    "request_status": "Pending",
    "responsible_agency": "Department of Code Enforcement",
    "final_address": "2200 State St",
    "address_councildis": "A",
    "status": "Pending",
    "rowid": "1270590",
    "final_x": "3666420.39866",
    "final_y": "524777.844924",
    "longitude": "-90.11591264864647",
    "latitude": "29.93740617437464",
    "geocoded_column": {
      "latitude": "29.93740617437464",
      "longitude": "-90.11591264864647"
    }
  },
  {
    "service_request": "2026-1270589",
    "request_type": "Drainage",
    "request_reason": "Ditch and Culvert Maintenance",
    "date_created": "2026-04-01T16:04:02.000",
    "date_modified": "2026-04-01T16:04:03.000",
    "request_status": "Pending",
    "responsible_agency": "Department of Public Works",
    "final_address": "3115 Pauger St",
    "address_councildis": "D",
    "status": "Pending",
    "rowid": "1270589",
    "final_x": "3683511.19439",
    "final_y": "541149.36846",
    "longitude": "-90.06138217698924",
    "latitude": "29.981911897187523",
    "geocoded_column": {
      "latitude": "29.981911897187523",
      "longitude": "-90.06138217698924"
    }
  },
  {
    "service_request": "2026-1270588",
    "request_type": "Trash/Recycling",
    "request_reason": "Order Recycling Cart",
    "date_created": "2026-04-01T16:03:45.000",
    "date_modified": "2026-04-01T16:03:48.000",
    "request_status": "Pending",
    "responsible_agency": "Department of Sanitation",
    "final_address": "4511 Camp St",
    "address_councildis": "B",
    "status": "Pending",
    "rowid": "1270588",
    "final_x": "3670494.74657",
    "final_y": "519145.610743",
    "longitude": "-90.1032405109834",
    "latitude": "29.92179967606249",
    "geocoded_column": {
      "latitude": "29.92179967606249",
      "longitude": "-90.1032405109834"
    }
  },
  {
    "service_request": "2026-1270587",
    "request_type": "Trash/Recycling",
    "request_reason": "Replace Trash Cart",
    "date_created": "2026-04-01T16:03:23.000",
    "date_modified": "2026-04-01T16:03:25.000",
    "request_status": "Pending",
    "responsible_agency": "Department of Sanitation",
    "final_address": "614 Dufossat St",
    "address_councildis": "B",
    "status": "Assigned to Contractor",
    "contractor": "IV Waste",
    "rowid": "1270587",
    "final_x": "3667925.55105",
    "final_y": "517713.554934",
    "longitude": "-90.11139860019712",
    "latitude": "29.917937562443036",
    "geocoded_column": {
      "latitude": "29.917937562443036",
      "longitude": "-90.11139860019712"
    }
  },
  {
    "service_request": "2026-1270586",
    "request_type": "Trash/Recycling",
    "request_reason": "Repair Trash Cart",
    "date_created": "2026-04-01T16:02:57.000",
    "date_modified": "2026-04-01T16:02:58.000",
    "request_status": "Pending",
    "responsible_agency": "Department of Sanitation",
    "final_address": "3016 General Ogden St",
    "address_councildis": "A",
    "status": "Assigned to Contractor",
    "contractor": "IV Waste",
    "rowid": "1270586",
    "final_x": "3664286.93421",
    "final_y": "535185.451142",
    "longitude": "-90.12230090004498",
    "latitude": "29.96608587915559",
    "geocoded_column": {
      "latitude": "29.96608587915559",
      "longitude": "-90.12230090004498"
    }
  },
  {
    "service_request": "2026-1270585",
    "request_type": "Trash/Recycling",
    "request_reason": "Order Trash Cart",
    "date_created": "2026-04-01T16:02:18.000",
    "date_modified": "2026-04-01T16:02:20.000",
    "request_status": "Pending",
    "responsible_agency": "Department of Sanitation",
    "final_address": "1722 N Tonti St",
    "address_councildis": "D",
    "status": "Assigned to Contractor",
    "contractor": "IV Waste",
    "rowid": "1270585",
    "final_x": "3680806.66722",
    "final_y": "540012.789643",
    "longitude": "-90.06996393761757",
    "latitude": "29.978868973802165",
    "geocoded_column": {
      "latitude": "29.978868973802165",
      "longitude": "-90.06996393761757"
    }
  },
  {
    "service_request": "2026-1270584",
    "request_type": "Streetlights",
    "request_reason": "Streetlight Outage/Malfunction",
    "date_created": "2026-04-01T16:01:49.000",
    "date_modified": "2026-04-01T16:01:51.000",
    "request_status": "Pending",
    "responsible_agency": "Department of Public Works",
    "final_address": "2423 George Nick Connor Dr",
    "address_councildis": "D",
    "status": "Pending",
    "rowid": "1270584",
    "final_x": "3681240.5892",
    "final_y": "541028.364747",
    "longitude": "-90.06855804305067",
    "latitude": "29.981648289014405",
    "geocoded_column": {
      "latitude": "29.981648289014405",
      "longitude": "-90.06855804305067"
    }
  },
  {
    "service_request": "2026-1270583",
    "request_type": "Trash/Recycling",
    "request_reason": "Repair Trash Cart",
    "date_created": "2026-04-01T16:01:44.000",
    "date_modified": "2026-04-01T16:01:46.000",
    "request_status": "Pending",
    "responsible_agency": "Department of Sanitation",
    "final_address": "6611 Morrison Rd",
    "address_councildis": "E",
    "status": "Assigned to Contractor",
    "contractor": "Waste Pro",
    "rowid": "1270583",
    "final_x": "3698005.25667",
    "final_y": "558530.272412",
    "longitude": "-90.01497167270766",
    "latitude": "30.029252532796885",
    "geocoded_column": {
      "latitude": "30.029252532796885",
      "longitude": "-90.01497167270766"
    }
  },
  {
    "service_request": "2026-1270582",
    "request_type": "Trash/Recycling",
    "request_reason": "Request a Large Item Pick Up",
    "date_created": "2026-04-01T16:00:04.000",
    "date_modified": "2026-04-01T16:00:10.000",
    "request_status": "Pending",
    "responsible_agency": "Department of Sanitation",
    "final_address": "1224 Kerlerec St",
    "address_councildis": "C",
    "status": "Assigned to Contractor",
    "contractor": "IV Waste",
    "rowid": "1270582",
    "final_x": "3682622.28597",
    "final_y": "535947.950471",
    "longitude": "-90.0643717080448",
    "latitude": "29.967636907624925",
    "geocoded_column": {
      "latitude": "29.967636907624925",
      "longitude": "-90.0643717080448"
    }
  },
  {
    "service_request": "2026-1270581",
    "request_type": "Trash/Recycling",
    "request_reason": "Order Recycling Cart",
    "date_created": "2026-04-01T15:59:42.000",
    "date_modified": "2026-04-01T15:59:43.000",
    "request_status": "Pending",
    "responsible_agency": "Department of Sanitation",
    "final_address": "614 Dufossat St",
    "address_councildis": "B",
    "status": "Pending",
    "rowid": "1270581",
    "final_x": "3667925.55105",
    "final_y": "517713.554934",
    "longitude": "-90.11139860019712",
    "latitude": "29.917937562443036",
    "geocoded_column": {
      "latitude": "29.917937562443036",
      "longitude": "-90.11139860019712"
    }
  },
  {
    "service_request": "2026-1270580",
    "request_type": "Trash/Recycling",
    "request_reason": "Request a Large Item Pick Up",
    "date_created": "2026-04-01T15:59:40.000",
    "date_modified": "2026-04-01T15:59:42.000",
    "request_status": "Pending",
    "responsible_agency": "Department of Sanitation",
    "final_address": "6944 Foch Rd",
    "address_councildis": "D",
    "status": "Assigned to Contractor",
    "contractor": "Waste Pro",
    "rowid": "1270580",
    "final_x": "3696475.82365",
    "final_y": "556607.435866",
    "longitude": "-90.01987426705585",
    "latitude": "30.024013762167378",
    "geocoded_column": {
      "latitude": "30.024013762167378",
      "longitude": "-90.01987426705585"
    }
  },
  {
    "service_request": "2026-1270579",
    "request_type": "Trash/Recycling",
    "request_reason": "Repair Trash Cart",
    "date_created": "2026-04-01T15:57:53.000",
    "date_modified": "2026-04-01T15:57:54.000",
    "request_status": "Pending",
    "responsible_agency": "Department of Sanitation",
    "final_address": "6027 Chamberlain Dr",
    "address_councildis": "D",
    "status": "Assigned to Contractor",
    "contractor": "IV Waste",
    "rowid": "1270579",
    "final_x": "3679376.19208",
    "final_y": "554660.791128",
    "longitude": "-90.07397344712479",
    "latitude": "30.019189069939113",
    "geocoded_column": {
      "latitude": "30.019189069939113",
      "longitude": "-90.07397344712479"
    }
  },
  {
    "service_request": "2026-1270578",
    "request_type": "Trash/Recycling",
    "request_reason": "MIssed Recycling Pick-Up",
    "date_created": "2026-04-01T15:54:38.000",
    "date_modified": "2026-04-01T16:02:55.000",
    "case_close_date": "2026-04-01T11:02:54.000",
    "request_status": "Closed",
    "responsible_agency": "Department of Sanitation",
    "final_address": "2833 OReilly St",
    "address_councildis": "D",
    "status": "Invalid Request",
    "contractor": "IV Waste",
    "contractor_action": "Invalid Request",
    "rowid": "1270578",
    "final_x": "3679243.41755",
    "final_y": "541969.888012",
    "longitude": "-90.07483338341265",
    "latitude": "29.984297614448064",
    "geocoded_column": {
      "latitude": "29.984297614448064",
      "longitude": "-90.07483338341265"
    }
  },
  {
    "service_request": "2026-1270577",
    "request_type": "Trash/Recycling",
    "request_reason": "Order Trash Cart",
    "date_created": "2026-04-01T15:53:33.000",
    "date_modified": "2026-04-01T15:53:35.000",
    "request_status": "Pending",
    "responsible_agency": "Department of Sanitation",
    "final_address": "1720 N Tonti St",
    "address_councildis": "D",
    "status": "Assigned to Contractor",
    "contractor": "IV Waste",
    "rowid": "1270577",
    "final_x": "3680798.85474",
    "final_y": "540002.807051",
    "longitude": "-90.0699889600037",
    "latitude": "29.978841761992395",
    "geocoded_column": {
      "latitude": "29.978841761992395",
      "longitude": "-90.0699889600037"
    }
  },
  {
    "service_request": "2026-1270576",
    "request_type": "Parks & Parkways",
    "request_reason": "Request Tree Service (Right of Way/Public Property)",
    "date_created": "2026-04-01T15:50:12.000",
    "date_modified": "2026-04-01T15:50:14.000",
    "request_status": "Pending",
    "responsible_agency": "Department of Parks & Parkway",
    "final_address": "3400 Touro St",
    "address_councildis": "D",
    "status": "Pending",
    "rowid": "1270576",
    "final_x": "3683473.27362",
    "final_y": "545123.721295",
    "longitude": "-90.06136260194431",
    "latitude": "29.992841120388324",
    "geocoded_column": {
      "latitude": "29.992841120388324",
      "longitude": "-90.06136260194431"
    }
  },
  {
    "service_request": "2026-1270575",
    "request_type": "Safety & Permits",
    "request_reason": "Licenses & Permits",
    "date_created": "2026-04-01T15:48:17.000",
    "date_modified": "2026-04-01T15:50:44.000",
    "request_status": "Pending",
    "responsible_agency": "Safety and Permits",
    "final_address": "1237 Washington Ave",
    "address_councildis": "B",
    "status": "Pending",
    "rowid": "1270575",
    "final_x": "3676728.83227",
    "final_y": "521443.049977",
    "longitude": "-90.08348303979818",
    "latitude": "29.92793139692747",
    "geocoded_column": {
      "latitude": "29.92793139692747",
      "longitude": "-90.08348303979818"
    }
  },
  {
    "service_request": "2026-1270574",
    "request_type": "Trash/Recycling",
    "request_reason": "Request a Large Item Pick Up",
    "date_created": "2026-04-01T15:46:32.000",
    "date_modified": "2026-04-01T15:58:00.000",
    "request_status": "Pending",
    "responsible_agency": "Department of Sanitation",
    "final_address": "6318 Barrett St",
    "address_councildis": "A",
    "status": "Assigned to Contractor",
    "contractor": "IV Waste",
    "rowid": "1270574",
    "final_x": "3666421.29927",
    "final_y": "526964.480958",
    "longitude": "-90.11583645458713",
    "latitude": "29.943418695200247",
    "geocoded_column": {
      "latitude": "29.943418695200247",
      "longitude": "-90.11583645458713"
    }
  },
  {
    "service_request": "2026-1270573",
    "request_type": "Trash/Recycling",
    "request_reason": "Request a Large Item Pick Up",
    "date_created": "2026-04-01T15:45:32.000",
    "date_modified": "2026-04-01T15:45:35.000",
    "request_status": "Pending",
    "responsible_agency": "Department of Sanitation",
    "final_address": "4719 Virgilian St",
    "address_councildis": "D",
    "status": "Assigned to Contractor",
    "contractor": "Waste Pro",
    "rowid": "1270573",
    "final_x": "3697573.29437",
    "final_y": "553614.334103",
    "longitude": "-90.0165151768813",
    "latitude": "30.01574923102479",
    "geocoded_column": {
      "latitude": "30.01574923102479",
      "longitude": "-90.0165151768813"
    }
  },
  {
    "service_request": "2026-1270572",
    "request_type": "Trash/Recycling",
    "request_reason": "Repair Trash Cart",
    "date_created": "2026-04-01T15:39:05.000",
    "date_modified": "2026-04-01T15:40:48.000",
    "request_status": "Pending",
    "responsible_agency": "Department of Sanitation",
    "final_address": "321 Alonzo St",
    "address_councildis": "A",
    "status": "Assigned to Contractor",
    "contractor": "IV Waste",
    "rowid": "1270572",
    "final_x": "3664633.28365",
    "final_y": "517570.918774",
    "longitude": "-90.12179528947192",
    "latitude": "29.91764148554684",
    "geocoded_column": {
      "latitude": "29.91764148554684",
      "longitude": "-90.12179528947192"
    }
  },
  {
    "service_request": "2026-1270571",
    "request_type": "Abandoned Vehicles",
    "request_reason": "Abandoned/Junk Vehicles",
    "date_created": "2026-04-01T15:39:02.000",
    "date_modified": "2026-04-01T15:48:36.000",
    "request_status": "Pending",
    "responsible_agency": "Department of Public Works",
    "final_address": "400 BLK Freret St",
    "address_councildis": "B",
    "status": "Inspected",
    "rowid": "1270571",
    "final_x": "3678228.35184",
    "final_y": "530926.100337",
    "longitude": "-90.07842154971293",
    "latitude": "29.95396158787819",
    "geocoded_column": {
      "latitude": "29.95396158787819",
      "longitude": "-90.07842154971293"
    }
  },
  {
    "service_request": "2026-1270570",
    "request_type": "Trash/Recycling",
    "request_reason": "Request a Large Item Pick Up",
    "date_created": "2026-04-01T15:35:34.000",
    "date_modified": "2026-04-01T15:35:35.000",
    "request_status": "Pending",
    "responsible_agency": "Department of Sanitation",
    "final_address": "4826 Nighthart St",
    "address_councildis": "E",
    "status": "Assigned to Contractor",
    "contractor": "Waste Pro",
    "rowid": "1270570",
    "final_x": "3716046.05068",
    "final_y": "557273.521307",
    "longitude": "-89.95801153712043",
    "latitude": "30.02521388710677",
    "geocoded_column": {
      "latitude": "30.02521388710677",
      "longitude": "-89.95801153712043"
    }
  },
  {
    "service_request": "2026-1270569",
    "request_type": "Trash/Recycling",
    "request_reason": "Request a Large Item Pick Up",
    "date_created": "2026-04-01T15:33:59.000",
    "date_modified": "2026-04-01T15:34:01.000",
    "request_status": "Pending",
    "responsible_agency": "Department of Sanitation",
    "final_address": "1438 Alabo St",
    "address_councildis": "E",
    "status": "Assigned to Contractor",
    "contractor": "Waste Pro",
    "rowid": "1270569",
    "final_x": "3699237.09488",
    "final_y": "534983.651078",
    "longitude": "-90.01193718342252",
    "latitude": "29.964469031162583",
    "geocoded_column": {
      "latitude": "29.964469031162583",
      "longitude": "-90.01193718342252"
    }
  },
  {
    "service_request": "2026-1270568",
    "request_type": "Trash/Recycling",
    "request_reason": "Request a Large Item Pick Up",
    "date_created": "2026-04-01T15:33:27.000",
    "date_modified": "2026-04-01T15:33:30.000",
    "request_status": "Pending",
    "responsible_agency": "Department of Sanitation",
    "final_address": "1519 Flood St",
    "address_councildis": "E",
    "status": "Assigned to Contractor",
    "contractor": "Waste Pro",
    "rowid": "1270568",
    "final_x": "3698183.32586",
    "final_y": "535478.863494",
    "longitude": "-90.01524689696497",
    "latitude": "29.96586406069553",
    "geocoded_column": {
      "latitude": "29.96586406069553",
      "longitude": "-90.01524689696497"
    }
  },
  {
    "service_request": "2026-1270567",
    "request_type": "Drainage",
    "request_reason": "Catch Basin Not Draining",
    "date_created": "2026-04-01T15:29:20.000",
    "date_modified": "2026-04-01T15:29:22.000",
    "request_status": "Pending",
    "responsible_agency": "Sewerage & Water Board",
    "final_address": "5643 Pratt Dr",
    "address_councildis": "D",
    "status": "Pending",
    "rowid": "1270567",
    "final_x": "3680402.40802",
    "final_y": "553410.199383",
    "longitude": "-90.07077449783829",
    "latitude": "30.015719344614176",
    "geocoded_column": {
      "latitude": "30.015719344614176",
      "longitude": "-90.07077449783829"
    }
  },
  {
    "service_request": "2026-1270566",
    "request_type": "Streetlights",
    "request_reason": "Streetlight Outage/Malfunction",
    "date_created": "2026-04-01T15:27:15.000",
    "date_modified": "2026-04-01T15:27:16.000",
    "request_status": "Pending",
    "responsible_agency": "Department of Public Works",
    "final_address": "3709 Lang St",
    "address_councildis": "C",
    "status": "Pending",
    "rowid": "1270566",
    "final_x": "3701889.56074",
    "final_y": "517440.46655",
    "longitude": "-90.00420357393388",
    "latitude": "29.916147055418573",
    "geocoded_column": {
      "latitude": "29.916147055418573",
      "longitude": "-90.00420357393388"
    }
  },
  {
    "service_request": "2026-1270565",
    "request_type": "Safety & Permits",
    "request_reason": "Zoning Enforcement",
    "date_created": "2026-04-01T15:25:57.000",
    "date_modified": "2026-04-01T15:29:05.000",
    "request_status": "Pending",
    "responsible_agency": "Safety and Permits",
    "final_address": "RANKIN ST & BRYSON ST",
    "address_councildis": "C",
    "status": "Pending",
    "rowid": "1270565",
    "final_x": "3714801.4",
    "final_y": "517917.08",
    "longitude": "-89.96343117633651",
    "latitude": "29.917039435953534",
    "geocoded_column": {
      "latitude": "29.917039435953534",
      "longitude": "-89.96343117633651"
    }
  },
  {
    "service_request": "2026-1270564",
    "request_type": "Trash/Recycling",
    "request_reason": "Request a Large Item Pick Up",
    "date_created": "2026-04-01T15:21:58.000",
    "date_modified": "2026-04-01T15:23:23.000",
    "request_status": "Pending",
    "responsible_agency": "Department of Sanitation",
    "final_address": "8008 Edgelake Ct",
    "address_councildis": "E",
    "status": "Assigned to Contractor",
    "contractor": "Waste Pro",
    "rowid": "1270564",
    "final_x": "3702354.40401",
    "final_y": "562122.031967",
    "longitude": "-90.00109661202464",
    "latitude": "30.038990164210997",
    "geocoded_column": {
      "latitude": "30.038990164210997",
      "longitude": "-90.00109661202464"
    }
  },
  {
    "service_request": "2026-1270563",
    "request_type": "Trash/Recycling",
    "request_reason": "Request a Large Item Pick Up",
    "date_created": "2026-04-01T15:19:08.000",
    "date_modified": "2026-04-01T15:19:10.000",
    "request_status": "Pending",
    "responsible_agency": "Department of Sanitation",
    "final_address": "3709 Lang St",
    "address_councildis": "C",
    "status": "Assigned to Contractor",
    "contractor": "Richards Disposal",
    "rowid": "1270563",
    "final_x": "3701889.56074",
    "final_y": "517440.46655",
    "longitude": "-90.00420357393388",
    "latitude": "29.916147055418573",
    "geocoded_column": {
      "latitude": "29.916147055418573",
      "longitude": "-90.00420357393388"
    }
  },
  {
    "service_request": "2026-1270562",
    "request_type": "Roads and Streets",
    "request_reason": "Sidewalk Damaged or Missing",
    "date_created": "2026-04-01T15:17:55.000",
    "date_modified": "2026-04-01T15:18:04.000",
    "request_status": "Pending",
    "responsible_agency": "Department of Public Works",
    "final_address": "3121 Marigny St",
    "address_councildis": "D",
    "status": "Pending",
    "rowid": "1270562",
    "final_x": "3684826.90261",
    "final_y": "544248.24571",
    "longitude": "-90.05711753752021",
    "latitude": "29.990392487914914",
    "geocoded_column": {
      "latitude": "29.990392487914914",
      "longitude": "-90.05711753752021"
    }
  },
  {
    "service_request": "2026-1270561",
    "request_type": "Trash/Recycling",
    "request_reason": "Replace Trash Cart",
    "date_created": "2026-04-01T15:13:53.000",
    "date_modified": "2026-04-01T15:13:54.000",
    "request_status": "Pending",
    "responsible_agency": "Department of Sanitation",
    "final_address": "5520 Christian Ln",
    "address_councildis": "E",
    "status": "Assigned to Contractor",
    "contractor": "Waste Pro",
    "rowid": "1270561",
    "final_x": "3704480.52382",
    "final_y": "556650.563226",
    "longitude": "-89.99457954776253",
    "latitude": "30.02387761982301",
    "geocoded_column": {
      "latitude": "30.02387761982301",
      "longitude": "-89.99457954776253"
    }
  },
  {
    "service_request": "2026-1270560",
    "request_type": "Road Striping",
    "request_reason": "Crosswalks",
    "date_created": "2026-04-01T15:13:00.000",
    "date_modified": "2026-04-01T15:13:02.000",
    "request_status": "Pending",
    "responsible_agency": "Department of Public Works",
    "final_address": "729 General Pershing St",
    "address_councildis": "B",
    "status": "Pending",
    "rowid": "1270560",
    "final_x": "3671543.06049",
    "final_y": "518326.250166",
    "longitude": "-90.09995926236756",
    "latitude": "29.919515708681004",
    "geocoded_column": {
      "latitude": "29.919515708681004",
      "longitude": "-90.09995926236756"
    }
  },
  {
    "service_request": "2026-1270559",
    "request_type": "Trash/Recycling",
    "request_reason": "Request a Large Item Pick Up",
    "date_created": "2026-04-01T15:12:00.000",
    "date_modified": "2026-04-01T15:12:03.000",
    "request_status": "Pending",
    "responsible_agency": "Department of Sanitation",
    "final_address": "2012 Orleans Ave",
    "address_councildis": "C",
    "status": "Assigned to Contractor",
    "contractor": "IV Waste",
    "rowid": "1270559",
    "final_x": "3678785.29762",
    "final_y": "535432.217414",
    "longitude": "-90.07650687587565",
    "latitude": "29.9663351003934",
    "geocoded_column": {
      "latitude": "29.9663351003934",
      "longitude": "-90.07650687587565"
    }
  },
  {
    "service_request": "2026-1270558",
    "request_type": "Trash/Recycling",
    "request_reason": "Illegal Dumping",
    "date_created": "2026-04-01T15:09:15.000",
    "date_modified": "2026-04-01T15:16:37.000",
    "request_status": "Pending",
    "responsible_agency": "Department of Sanitation",
    "final_address": "4600 BLK Peoples Ave",
    "address_councildis": "D",
    "status": "Pending",
    "rowid": "1270558",
    "final_x": "3688235.17336",
    "final_y": "550087.00296",
    "longitude": "-90.04614452884104",
    "latitude": "30.006342138215714",
    "geocoded_column": {
      "latitude": "30.006342138215714",
      "longitude": "-90.04614452884104"
    }
  },
  {
    "service_request": "2026-1270557",
    "request_type": "Streetlights",
    "request_reason": "Streetlight Outage/Malfunction",
    "date_created": "2026-04-01T15:09:02.000",
    "date_modified": "2026-04-01T15:09:03.000",
    "request_status": "Pending",
    "responsible_agency": "Department of Public Works",
    "final_address": "4877 Laurel St",
    "address_councildis": "B",
    "status": "Pending",
    "rowid": "1270557",
    "final_x": "3669019.95425",
    "final_y": "517892.334326",
    "longitude": "-90.10793812367308",
    "latitude": "29.91839701307734",
    "geocoded_column": {
      "latitude": "29.91839701307734",
      "longitude": "-90.10793812367308"
    }
  },
  {
    "service_request": "2026-1270556",
    "request_type": "Trash/Recycling",
    "request_reason": "Return Recycling Cart",
    "date_created": "2026-04-01T15:08:05.000",
    "date_modified": "2026-04-01T15:08:07.000",
    "request_status": "Pending",
    "responsible_agency": "Department of Sanitation",
    "final_address": "4740 Eastern St",
    "address_councildis": "D",
    "status": "Pending",
    "rowid": "1270556",
    "final_x": "3687960.0646",
    "final_y": "550700.848725",
    "longitude": "-90.0469918929125",
    "latitude": "30.0080384844959",
    "geocoded_column": {
      "latitude": "30.0080384844959",
      "longitude": "-90.0469918929125"
    }
  },
  {
    "service_request": "2026-1270555",
    "request_type": "Abandoned Vehicles",
    "request_reason": "Abandoned/Junk Vehicles",
    "date_created": "2026-04-01T15:06:14.000",
    "date_modified": "2026-04-01T15:06:16.000",
    "request_status": "Pending",
    "responsible_agency": "Department of Public Works",
    "final_address": "3816 Carondelet St",
    "address_councildis": "B",
    "status": "Pending",
    "rowid": "1270555",
    "final_x": "3672615.35707",
    "final_y": "521348.761721",
    "longitude": "-90.09647156518768",
    "latitude": "29.927794867730455",
    "geocoded_column": {
      "latitude": "29.927794867730455",
      "longitude": "-90.09647156518768"
    }
  },
  {
    "service_request": "2026-1270554",
    "request_type": "Trash/Recycling",
    "request_reason": "Repair Trash Cart",
    "date_created": "2026-04-01T15:04:58.000",
    "date_modified": "2026-04-01T15:05:01.000",
    "request_status": "Pending",
    "responsible_agency": "Department of Sanitation",
    "final_address": "937 Eleonore St",
    "address_councildis": "A",
    "status": "Assigned to Contractor",
    "contractor": "IV Waste",
    "rowid": "1270554",
    "final_x": "3665400.93293",
    "final_y": "519649.957688",
    "longitude": "-90.11930270955749",
    "latitude": "29.92333585139206",
    "geocoded_column": {
      "latitude": "29.92333585139206",
      "longitude": "-90.11930270955749"
    }
  },
  {
    "service_request": "2026-1270553",
    "request_type": "Safety & Permits",
    "request_reason": "Licenses & Permits",
    "date_created": "2026-04-01T15:03:17.000",
    "date_modified": "2026-04-01T15:04:34.000",
    "request_status": "Pending",
    "responsible_agency": "Safety and Permits",
    "final_address": "1041 Allen Toussaint Blvd",
    "address_councildis": "D",
    "status": "Pending",
    "rowid": "1270553",
    "final_x": "3673376.0212",
    "final_y": "554438.963736",
    "longitude": "-90.09293954690533",
    "latitude": "30.018759087212775",
    "geocoded_column": {
      "latitude": "30.018759087212775",
      "longitude": "-90.09293954690533"
    }
  },
  {
    "service_request": "2026-1270552",
    "request_type": "Property Maintenance",
    "request_reason": "Property Maintenance",
    "date_created": "2026-04-01T14:57:08.000",
    "date_modified": "2026-04-01T14:57:10.000",
    "request_status": "Pending",
    "responsible_agency": "Department of Code Enforcement",
    "final_address": "2118 DAbadie St",
    "address_councildis": "D",
    "status": "Pending",
    "rowid": "1270552",
    "final_x": "3681069.922",
    "final_y": "539509.737226",
    "longitude": "-90.06915000880372",
    "latitude": "29.97747777084743",
    "geocoded_column": {
      "latitude": "29.97747777084743",
      "longitude": "-90.06915000880372"
    }
  },
  {
    "service_request": "2026-1270551",
    "request_type": "Drainage",
    "request_reason": "Catch Basin Not Draining",
    "date_created": "2026-04-01T14:54:41.000",
    "date_modified": "2026-04-01T14:54:43.000",
    "request_status": "Pending",
    "responsible_agency": "Sewerage & Water Board",
    "final_address": "321 Alonzo St",
    "address_councildis": "A",
    "status": "Pending",
    "rowid": "1270551",
    "final_x": "3664633.28365",
    "final_y": "517570.918774",
    "longitude": "-90.12179528947192",
    "latitude": "29.91764148554684",
    "geocoded_column": {
      "latitude": "29.91764148554684",
      "longitude": "-90.12179528947192"
    }
  },
  {
    "service_request": "2026-1270550",
    "request_type": "Trash/Recycling",
    "request_reason": "Repair Trash Cart",
    "date_created": "2026-04-01T14:53:40.000",
    "date_modified": "2026-04-01T14:53:42.000",
    "request_status": "Pending",
    "responsible_agency": "Department of Sanitation",
    "final_address": "3408 Calhoun St",
    "address_councildis": "A",
    "status": "Assigned to Contractor",
    "contractor": "IV Waste",
    "rowid": "1270550",
    "final_x": "3667573.55297",
    "final_y": "529210.547648",
    "longitude": "-90.1121229012738",
    "latitude": "29.94956093557812",
    "geocoded_column": {
      "latitude": "29.94956093557812",
      "longitude": "-90.1121229012738"
    }
  },
  {
    "service_request": "2026-1270549",
    "request_type": "Trash/Recycling",
    "request_reason": "Repair Trash Cart",
    "date_created": "2026-04-01T14:53:19.000",
    "date_modified": "2026-04-01T14:53:21.000",
    "request_status": "Pending",
    "responsible_agency": "Department of Sanitation",
    "final_address": "7501 Jeannette St",
    "address_councildis": "A",
    "status": "Assigned to Contractor",
    "contractor": "IV Waste",
    "rowid": "1270549",
    "final_x": "3664261.21748",
    "final_y": "527781.244415",
    "longitude": "-90.12262917280937",
    "latitude": "29.94572746538092",
    "geocoded_column": {
      "latitude": "29.94572746538092",
      "longitude": "-90.12262917280937"
    }
  },
  {
    "service_request": "2026-1270548",
    "request_type": "Parks & Parkways",
    "request_reason": "Request Tree Service (Right of Way/Public Property)",
    "date_created": "2026-04-01T14:52:28.000",
    "date_modified": "2026-04-01T14:54:08.000",
    "request_status": "Pending",
    "responsible_agency": "Department of Parks & Parkway",
    "final_address": "1354 Mandolin St",
    "address_councildis": "D",
    "status": "Pending",
    "rowid": "1270548",
    "final_x": "3677667.24328",
    "final_y": "547937.641042",
    "longitude": "-90.0796055708162",
    "latitude": "30.00075434882864",
    "geocoded_column": {
      "latitude": "30.00075434882864",
      "longitude": "-90.0796055708162"
    }
  },
  {
    "service_request": "2026-1270547",
    "request_type": "Road Striping",
    "request_reason": "Lane Striping or other Pavement Markings",
    "date_created": "2026-04-01T14:51:39.000",
    "date_modified": "2026-04-01T14:51:41.000",
    "request_status": "Pending",
    "responsible_agency": "Department of Public Works",
    "final_address": "1141 N Dupre St",
    "address_councildis": "A",
    "status": "Pending",
    "rowid": "1270547",
    "final_x": "3676938.42062",
    "final_y": "539188.794762",
    "longitude": "-90.08220975344277",
    "latitude": "29.976719977429116",
    "geocoded_column": {
      "latitude": "29.976719977429116",
      "longitude": "-90.08220975344277"
    }
  },
  {
    "service_request": "2026-1270546",
    "request_type": "Trash/Recycling",
    "request_reason": "Replace Trash Cart",
    "date_created": "2026-04-01T14:51:27.000",
    "date_modified": "2026-04-01T14:51:29.000",
    "request_status": "Pending",
    "responsible_agency": "Department of Sanitation",
    "final_address": "1022 Thayer St",
    "address_councildis": "C",
    "status": "Assigned to Contractor",
    "contractor": "Richards Disposal",
    "rowid": "1270546",
    "final_x": "3689485.71337",
    "final_y": "527676.388927",
    "longitude": "-90.04299106615112",
    "latitude": "29.94468219213368",
    "geocoded_column": {
      "latitude": "29.94468219213368",
      "longitude": "-90.04299106615112"
    }
  },
  {
    "service_request": "2026-1270545",
    "request_type": "Trash/Recycling",
    "request_reason": "Repair Recycling Cart",
    "date_created": "2026-04-01T14:49:50.000",
    "date_modified": "2026-04-01T14:49:52.000",
    "request_status": "Pending",
    "responsible_agency": "Department of Sanitation",
    "final_address": "937 Eleonore St",
    "address_councildis": "A",
    "status": "Pending",
    "rowid": "1270545",
    "final_x": "3665400.93293",
    "final_y": "519649.957688",
    "longitude": "-90.11930270955749",
    "latitude": "29.92333585139206",
    "geocoded_column": {
      "latitude": "29.92333585139206",
      "longitude": "-90.11930270955749"
    }
  },
  {
    "service_request": "2026-1270544",
    "request_type": "Trash/Recycling",
    "request_reason": "Repair Trash Cart",
    "date_created": "2026-04-01T14:49:26.000",
    "date_modified": "2026-04-01T14:49:28.000",
    "request_status": "Pending",
    "responsible_agency": "Department of Sanitation",
    "final_address": "939 Eleonore St",
    "address_councildis": "A",
    "status": "Assigned to Contractor",
    "contractor": "IV Waste",
    "rowid": "1270544",
    "final_x": "3665403.76704",
    "final_y": "519659.940792",
    "longitude": "-90.11929342941939",
    "latitude": "29.92336321922646",
    "geocoded_column": {
      "latitude": "29.92336321922646",
      "longitude": "-90.11929342941939"
    }
  },
  {
    "service_request": "2026-1270543",
    "request_type": "Trash/Recycling",
    "request_reason": "Replace Trash Cart",
    "date_created": "2026-04-01T14:49:12.000",
    "date_modified": "2026-04-01T14:49:15.000",
    "request_status": "Pending",
    "responsible_agency": "Department of Sanitation",
    "final_address": "1511 N Dupre St Apt 1A",
    "address_councildis": "D",
    "status": "Assigned to Contractor",
    "contractor": "IV Waste",
    "rowid": "1270543",
    "final_x": "3677246.70645",
    "final_y": "540076.567755",
    "longitude": "-90.08120545066541",
    "latitude": "29.979151788184243",
    "geocoded_column": {
      "latitude": "29.979151788184243",
      "longitude": "-90.08120545066541"
    }
  },
  {
    "service_request": "2026-1270542",
    "request_type": "Trash/Recycling",
    "request_reason": "Order Second Trash Cart",
    "date_created": "2026-04-01T14:43:10.000",
    "date_modified": "2026-04-01T14:43:11.000",
    "request_status": "Pending",
    "responsible_agency": "Department of Sanitation",
    "final_address": "2622 Elder St",
    "address_councildis": "D",
    "status": "Assigned to Contractor",
    "contractor": "IV Waste",
    "rowid": "1270542",
    "final_x": "3687427.807",
    "final_y": "545756.771856",
    "longitude": "-90.0488485498246",
    "latitude": "29.994460484339402",
    "geocoded_column": {
      "latitude": "29.994460484339402",
      "longitude": "-90.0488485498246"
    }
  },
  {
    "service_request": "2026-1270541",
    "request_type": "Trash/Recycling",
    "request_reason": "Request a Large Item Pick Up",
    "date_created": "2026-04-01T14:43:01.000",
    "date_modified": "2026-04-01T14:47:35.000",
    "request_status": "Pending",
    "responsible_agency": "Department of Sanitation",
    "final_address": "5439 St Ferdinand Dr",
    "address_councildis": "D",
    "status": "Assigned to Contractor",
    "contractor": "IV Waste",
    "rowid": "1270541",
    "final_x": "3689064.71107",
    "final_y": "553396.336215",
    "longitude": "-90.04340612323335",
    "latitude": "30.015415937773522",
    "geocoded_column": {
      "latitude": "30.015415937773522",
      "longitude": "-90.04340612323335"
    }
  },
  {
    "service_request": "2026-1270540",
    "request_type": "Trash/Recycling",
    "request_reason": "Order Trash Cart",
    "date_created": "2026-04-01T14:39:32.000",
    "date_modified": "2026-04-01T14:39:33.000",
    "request_status": "Pending",
    "responsible_agency": "Department of Sanitation",
    "final_address": "5919 N Prieur St",
    "address_councildis": "E",
    "status": "Assigned to Contractor",
    "contractor": "Waste Pro",
    "rowid": "1270540",
    "final_x": "3700153.44375",
    "final_y": "536388.557895",
    "longitude": "-90.0089921651506",
    "latitude": "29.96830293155034",
    "geocoded_column": {
      "latitude": "29.96830293155034",
      "longitude": "-90.0089921651506"
    }
  },
  {
    "service_request": "2026-1270539",
    "request_type": "Trash/Recycling",
    "request_reason": "Missed Trash Pick-Up",
    "date_created": "2026-04-01T14:38:56.000",
    "date_modified": "2026-04-01T15:54:52.000",
    "case_close_date": "2026-04-01T10:54:51.000",
    "request_status": "Closed",
    "responsible_agency": "Department of Sanitation",
    "final_address": "44 Marywood Ct",
    "address_councildis": "E",
    "status": "Invalid Request",
    "contractor": "Waste Pro",
    "contractor_action": "Invalid",
    "rowid": "1270539",
    "final_x": "3712233.94373",
    "final_y": "567025.747748",
    "longitude": "-89.96969035871096",
    "latitude": "30.052153862366005",
    "geocoded_column": {
      "latitude": "30.052153862366005",
      "longitude": "-89.96969035871096"
    }
  },
  {
    "service_request": "2026-1270538",
    "request_type": "Trash/Recycling",
    "request_reason": "Repair Trash Cart",
    "date_created": "2026-04-01T14:38:00.000",
    "date_modified": "2026-04-01T15:08:33.000",
    "request_status": "Pending",
    "responsible_agency": "Department of Sanitation",
    "final_address": "5850 E Filmore Ave Apt 4",
    "address_councildis": "D",
    "status": "Assigned to Contractor",
    "contractor": "Waste Pro",
    "rowid": "1270538",
    "final_x": "3696203.06263",
    "final_y": "553063.824855",
    "longitude": "-90.02086438941043",
    "latitude": "30.01427876463402",
    "geocoded_column": {
      "latitude": "30.01427876463402",
      "longitude": "-90.02086438941043"
    }
  },
  {
    "service_request": "2026-1270537",
    "request_type": "Trash/Recycling",
    "request_reason": "Repair Recycling Cart",
    "date_created": "2026-04-01T14:21:28.000",
    "date_modified": "2026-04-01T14:21:30.000",
    "request_status": "Pending",
    "responsible_agency": "Department of Sanitation",
    "final_address": "1313 Congress St",
    "address_councildis": "D",
    "status": "Pending",
    "rowid": "1270537",
    "final_x": "3690963.90492",
    "final_y": "536422.512263",
    "longitude": "-90.03801182735657",
    "latitude": "29.968685137644492",
    "geocoded_column": {
      "latitude": "29.968685137644492",
      "longitude": "-90.03801182735657"
    }
  },
  {
    "service_request": "2026-1270536",
    "request_type": "Street and Traffic Signs",
    "request_reason": "Traffic or Parking Sign Damaged or Missing",
    "date_created": "2026-04-01T14:20:47.000",
    "date_modified": "2026-04-01T14:20:49.000",
    "request_status": "Pending",
    "responsible_agency": "Department of Public Works",
    "final_address": "101 Magazine St",
    "address_councildis": "B",
    "status": "Pending",
    "rowid": "1270536",
    "final_x": "3681694.06056",
    "final_y": "530136.289473",
    "longitude": "-90.06750581650434",
    "latitude": "29.951685053685758",
    "geocoded_column": {
      "latitude": "29.951685053685758",
      "longitude": "-90.06750581650434"
    }
  },
  {
    "service_request": "2026-1270535",
    "request_type": "Trash/Recycling",
    "request_reason": "Missed Trash Pick-Up",
    "date_created": "2026-04-01T14:20:41.000",
    "date_modified": "2026-04-01T14:34:56.000",
    "case_close_date": "2026-04-01T09:34:54.000",
    "request_status": "Closed",
    "responsible_agency": "Department of Sanitation",
    "final_address": "9000 Lincoln Beach Blvd",
    "address_councildis": "E",
    "status": "Invalid Request",
    "contractor": "Waste Pro",
    "contractor_action": "Invalid",
    "rowid": "1270535",
    "final_x": "3704769.08727",
    "final_y": "564245.206177",
    "longitude": "-89.99338712364926",
    "latitude": "30.044750637550067",
    "geocoded_column": {
      "latitude": "30.044750637550067",
      "longitude": "-89.99338712364926"
    }
  },
  {
    "service_request": "2026-1270534",
    "request_type": "Trash/Recycling",
    "request_reason": "Request a Large Item Pick Up",
    "date_created": "2026-04-01T14:14:02.000",
    "date_modified": "2026-04-01T14:14:03.000",
    "request_status": "Pending",
    "responsible_agency": "Department of Sanitation",
    "final_address": "7221 Arbor Dr",
    "address_councildis": "E",
    "status": "Assigned to Contractor",
    "contractor": "Waste Pro",
    "rowid": "1270534",
    "final_x": "3700671.03178",
    "final_y": "558093.261723",
    "longitude": "-90.0065639351291",
    "latitude": "30.027966317599404",
    "geocoded_column": {
      "latitude": "30.027966317599404",
      "longitude": "-90.0065639351291"
    }
  },
  {
    "service_request": "2026-1270533",
    "request_type": "Road Striping",
    "request_reason": "Lane Striping or other Pavement Markings",
    "date_created": "2026-04-01T14:13:59.000",
    "date_modified": "2026-04-01T14:14:02.000",
    "request_status": "Pending",
    "responsible_agency": "Department of Public Works",
    "final_address": "1141 N Dupre St",
    "address_councildis": "A",
    "status": "Pending",
    "rowid": "1270533",
    "final_x": "3676938.42062",
    "final_y": "539188.794762",
    "longitude": "-90.08220975344277",
    "latitude": "29.976719977429116",
    "geocoded_column": {
      "latitude": "29.976719977429116",
      "longitude": "-90.08220975344277"
    }
  },
  {
    "service_request": "2026-1270532",
    "request_type": "Trash/Recycling",
    "request_reason": "Request a Large Item Pick Up",
    "date_created": "2026-04-01T14:13:16.000",
    "date_modified": "2026-04-01T14:13:23.000",
    "request_status": "Pending",
    "responsible_agency": "Department of Sanitation",
    "final_address": "1521 Seville Dr",
    "address_councildis": "D",
    "status": "Assigned to Contractor",
    "contractor": "IV Waste",
    "rowid": "1270532",
    "final_x": "3678935.48635",
    "final_y": "551335.720661",
    "longitude": "-90.07548125702235",
    "latitude": "30.010059637728702",
    "geocoded_column": {
      "latitude": "30.010059637728702",
      "longitude": "-90.07548125702235"
    }
  },
  {
    "service_request": "2026-1270531",
    "request_type": "Abandoned Vehicles",
    "request_reason": "Abandoned/Junk Vehicles",
    "date_created": "2026-04-01T14:09:00.000",
    "date_modified": "2026-04-01T14:09:01.000",
    "request_status": "Pending",
    "responsible_agency": "Department of Public Works",
    "final_address": "2740 Castiglione St",
    "address_councildis": "D",
    "status": "Pending",
    "rowid": "1270531",
    "final_x": "3679641.03016",
    "final_y": "542015.387468",
    "longitude": "-90.07357592367684",
    "latitude": "29.984410708190396",
    "geocoded_column": {
      "latitude": "29.984410708190396",
      "longitude": "-90.07357592367684"
    }
  },
  {
    "service_request": "2026-1270530",
    "request_type": "Roads and Streets",
    "request_reason": "Pothole",
    "date_created": "2026-04-01T14:08:11.000",
    "date_modified": "2026-04-01T14:08:12.000",
    "request_status": "Pending",
    "responsible_agency": "Department of Public Works",
    "final_address": "1923 Piety St",
    "address_councildis": "D",
    "status": "Pending",
    "rowid": "1270530",
    "final_x": "3690684.22172",
    "final_y": "538981.848778",
    "longitude": "-90.03880376636278",
    "latitude": "29.975731099235972",
    "geocoded_column": {
      "latitude": "29.975731099235972",
      "longitude": "-90.03880376636278"
    }
  },
  {
    "service_request": "2026-1270529",
    "request_type": "Trash/Recycling",
    "request_reason": "Repair Recycling Cart",
    "date_created": "2026-04-01T14:07:51.000",
    "date_modified": "2026-04-01T14:07:53.000",
    "request_status": "Pending",
    "responsible_agency": "Department of Sanitation",
    "final_address": "527 Henry Clay Ave",
    "address_councildis": "A",
    "status": "Pending",
    "rowid": "1270529",
    "final_x": "3663537.52647",
    "final_y": "518786.384695",
    "longitude": "-90.12521354936764",
    "latitude": "29.921015450571424",
    "geocoded_column": {
      "latitude": "29.921015450571424",
      "longitude": "-90.12521354936764"
    }
  },
  {
    "service_request": "2026-1270528",
    "request_type": "Roads and Streets",
    "request_reason": "Pothole",
    "date_created": "2026-04-01T14:05:29.000",
    "date_modified": "2026-04-01T14:05:30.000",
    "request_status": "Pending",
    "responsible_agency": "Department of Public Works",
    "final_address": "3114 Chippewa St",
    "address_councildis": "B",
    "status": "Pending",
    "rowid": "1270528",
    "final_x": "3676850.68942",
    "final_y": "518852.993655",
    "longitude": "-90.08318756962146",
    "latitude": "29.920805925048832",
    "geocoded_column": {
      "latitude": "29.920805925048832",
      "longitude": "-90.08318756962146"
    }
  },
  {
    "service_request": "2026-1270527",
    "request_type": "Trash/Recycling",
    "request_reason": "Request a Large Item Pick Up",
    "date_created": "2026-04-01T14:02:22.000",
    "date_modified": "2026-04-01T14:02:24.000",
    "request_status": "Pending",
    "responsible_agency": "Department of Sanitation",
    "final_address": "6700 Deanne St",
    "address_councildis": "D",
    "status": "Assigned to Contractor",
    "contractor": "Waste Pro",
    "rowid": "1270527",
    "final_x": "3695973.51779",
    "final_y": "555257.479577",
    "longitude": "-90.02151028457752",
    "latitude": "30.020317716208762",
    "geocoded_column": {
      "latitude": "30.020317716208762",
      "longitude": "-90.02151028457752"
    }
  },
  {
    "service_request": "2026-1270526",
    "request_type": "Trash/Recycling",
    "request_reason": "Request a Large Item Pick Up",
    "date_created": "2026-04-01T14:01:24.000",
    "date_modified": "2026-04-01T14:01:28.000",
    "request_status": "Pending",
    "responsible_agency": "Department of Sanitation",
    "final_address": "3134 Mistletoe St",
    "address_councildis": "A",
    "status": "Assigned to Contractor",
    "contractor": "IV Waste",
    "rowid": "1270526",
    "final_x": "3663842.09709",
    "final_y": "536252.830471",
    "longitude": "-90.12367010583779",
    "latitude": "29.969033740734886",
    "geocoded_column": {
      "latitude": "29.969033740734886",
      "longitude": "-90.12367010583779"
    }
  },
  {
    "service_request": "2026-1270525",
    "request_type": "Trash/Recycling",
    "request_reason": "Request a Large Item Pick Up",
    "date_created": "2026-04-01T13:59:41.000",
    "date_modified": "2026-04-01T13:59:44.000",
    "request_status": "Pending",
    "responsible_agency": "Department of Sanitation",
    "final_address": "10200 Seawood St",
    "address_councildis": "E",
    "status": "Assigned to Contractor",
    "contractor": "Waste Pro",
    "rowid": "1270525",
    "final_x": "3713070.08094",
    "final_y": "557355.977243",
    "longitude": "-89.9674119409239",
    "latitude": "30.025538488499045",
    "geocoded_column": {
      "latitude": "30.025538488499045",
      "longitude": "-89.9674119409239"
    }
  },
  {
    "service_request": "2026-1270524",
    "request_type": "Utility Poles",
    "request_reason": "Wires Sagging/Hanging Low",
    "date_created": "2026-04-01T13:54:51.000",
    "date_modified": "2026-04-01T13:54:53.000",
    "request_status": "Pending",
    "responsible_agency": "Utility Company Collective",
    "final_address": "7152 Deanne St",
    "address_councildis": "D",
    "status": "Pending",
    "rowid": "1270524",
    "final_x": "3695386.84451",
    "final_y": "556934.79209",
    "longitude": "-90.02330339035147",
    "latitude": "30.024948145712088",
    "geocoded_column": {
      "latitude": "30.024948145712088",
      "longitude": "-90.02330339035147"
    }
  },
  {
    "service_request": "2026-1270523",
    "request_type": "Trash/Recycling",
    "request_reason": "Repair Trash Cart",
    "date_created": "2026-04-01T13:54:43.000",
    "date_modified": "2026-04-01T13:54:45.000",
    "request_status": "Pending",
    "responsible_agency": "Department of Sanitation",
    "final_address": "7301 Sheffield St",
    "address_councildis": "E",
    "status": "Assigned to Contractor",
    "contractor": "Waste Pro",
    "rowid": "1270523",
    "final_x": "3699700.03716",
    "final_y": "559190.924764",
    "longitude": "-90.00959212456054",
    "latitude": "30.03101534670935",
    "geocoded_column": {
      "latitude": "30.03101534670935",
      "longitude": "-90.00959212456054"
    }
  },
  {
    "service_request": "2026-1270522",
    "request_type": "Trash/Recycling",
    "request_reason": "Repair Trash Cart",
    "date_created": "2026-04-01T13:54:27.000",
    "date_modified": "2026-04-01T13:54:29.000",
    "request_status": "Pending",
    "responsible_agency": "Department of Sanitation",
    "final_address": "6840 Norwood Ct",
    "address_councildis": "E",
    "status": "Assigned to Contractor",
    "contractor": "Waste Pro",
    "rowid": "1270522",
    "final_x": "3701030.64349",
    "final_y": "557139.967579",
    "longitude": "-90.00546250221569",
    "latitude": "30.02533367175284",
    "geocoded_column": {
      "latitude": "30.02533367175284",
      "longitude": "-90.00546250221569"
    }
  },
  {
    "service_request": "2026-1270521",
    "request_type": "Roads and Streets",
    "request_reason": "Debris in Driving Lanes",
    "date_created": "2026-04-01T13:54:21.000",
    "date_modified": "2026-04-01T13:54:23.000",
    "request_status": "Pending",
    "responsible_agency": "Department of Public Works",
    "final_address": "2500 Winthrop St",
    "address_councildis": "E",
    "status": "Pending",
    "rowid": "1270521",
    "final_x": "3700663.08477",
    "final_y": "538692.031241",
    "longitude": "-90.00729852218164",
    "latitude": "29.974620443801413",
    "geocoded_column": {
      "latitude": "29.974620443801413",
      "longitude": "-90.00729852218164"
    }
  },
  {
    "service_request": "2026-1270520",
    "request_type": "Trash/Recycling",
    "request_reason": "Request a Large Item Pick Up",
    "date_created": "2026-04-01T13:53:46.000",
    "date_modified": "2026-04-01T13:53:56.000",
    "request_status": "Pending",
    "responsible_agency": "Department of Sanitation",
    "final_address": "7301 Sheffield St",
    "address_councildis": "E",
    "status": "Assigned to Contractor",
    "contractor": "Waste Pro",
    "rowid": "1270520",
    "final_x": "3699700.03716",
    "final_y": "559190.924764",
    "longitude": "-90.00959212456054",
    "latitude": "30.03101534670935",
    "geocoded_column": {
      "latitude": "30.03101534670935",
      "longitude": "-90.00959212456054"
    }
  },
  {
    "service_request": "2026-1270519",
    "request_type": "Trash/Recycling",
    "request_reason": "Replace Trash Cart",
    "date_created": "2026-04-01T13:52:00.000",
    "date_modified": "2026-04-01T13:52:17.000",
    "request_status": "Pending",
    "responsible_agency": "Department of Sanitation",
    "final_address": "7730 Jeannette St",
    "address_councildis": "A",
    "status": "Assigned to Contractor",
    "contractor": "IV Waste",
    "rowid": "1270519",
    "final_x": "3663529.13715",
    "final_y": "528315.663808",
    "longitude": "-90.12492280855692",
    "latitude": "29.947218196183915",
    "geocoded_column": {
      "latitude": "29.947218196183915",
      "longitude": "-90.12492280855692"
    }
  },
  {
    "service_request": "2026-1270518",
    "request_type": "Streetlights",
    "request_reason": "Streetlight Outage/Malfunction",
    "date_created": "2026-04-01T13:51:57.000",
    "date_modified": "2026-04-01T13:52:41.000",
    "request_status": "Pending",
    "responsible_agency": "Department of Public Works",
    "final_address": "1423 Murl St",
    "address_councildis": "C",
    "status": "Pending",
    "rowid": "1270518",
    "final_x": "3695355.05245",
    "final_y": "526286.840766",
    "longitude": "-90.0245100194613",
    "latitude": "29.94067837089034",
    "geocoded_column": {
      "latitude": "29.94067837089034",
      "longitude": "-90.0245100194613"
    }
  },
  {
    "service_request": "2026-1270517",
    "request_type": "Roads and Streets",
    "request_reason": "Debris in Driving Lanes",
    "date_created": "2026-04-01T13:51:36.000",
    "date_modified": "2026-04-01T13:51:46.000",
    "request_status": "Pending",
    "responsible_agency": "Department of Public Works",
    "final_address": "2501 Roffignac St",
    "address_councildis": "E",
    "status": "Pending",
    "rowid": "1270517",
    "final_x": "3700555.23076",
    "final_y": "538740.490953",
    "longitude": "-90.00763737862287",
    "latitude": "29.974757121958483",
    "geocoded_column": {
      "latitude": "29.974757121958483",
      "longitude": "-90.00763737862287"
    }
  },
  {
    "service_request": "2026-1270516",
    "request_type": "Trash/Recycling",
    "request_reason": "Request a Large Item Pick Up",
    "date_created": "2026-04-01T13:50:52.000",
    "date_modified": "2026-04-01T13:50:55.000",
    "request_status": "Pending",
    "responsible_agency": "Department of Sanitation",
    "final_address": "7957 Vanderkloot Ave",
    "address_councildis": "E",
    "status": "Assigned to Contractor",
    "contractor": "Waste Pro",
    "rowid": "1270516",
    "final_x": "3705411.44017",
    "final_y": "564279.311137",
    "longitude": "-89.99135574306119",
    "latitude": "30.044823742751667",
    "geocoded_column": {
      "latitude": "30.044823742751667",
      "longitude": "-89.99135574306119"
    }
  },
  {
    "service_request": "2026-1270515",
    "request_type": "Trash/Recycling",
    "request_reason": "Request a Large Item Pick Up",
    "date_created": "2026-04-01T13:47:59.000",
    "date_modified": "2026-04-01T13:48:00.000",
    "request_status": "Pending",
    "responsible_agency": "Department of Sanitation",
    "final_address": "7331 Beauvoir Ct",
    "address_councildis": "E",
    "status": "Assigned to Contractor",
    "contractor": "Waste Pro",
    "rowid": "1270515",
    "final_x": "3716054.63365",
    "final_y": "567975.436773",
    "longitude": "-89.95757840081707",
    "latitude": "30.05463954050383",
    "geocoded_column": {
      "latitude": "30.05463954050383",
      "longitude": "-89.95757840081707"
    }
  },
  {
    "service_request": "2026-1270514",
    "request_type": "Trash/Recycling",
    "request_reason": "Request a Large Item Pick Up",
    "date_created": "2026-04-01T13:47:38.000",
    "date_modified": "2026-04-01T13:47:39.000",
    "request_status": "Pending",
    "responsible_agency": "Department of Sanitation",
    "final_address": "1406 Jena St",
    "address_councildis": "B",
    "status": "Assigned to Contractor",
    "contractor": "IV Waste",
    "rowid": "1270514",
    "final_x": "3670464.15489",
    "final_y": "520360.352056",
    "longitude": "-90.10329591434328",
    "latitude": "29.925140731205044",
    "geocoded_column": {
      "latitude": "29.925140731205044",
      "longitude": "-90.10329591434328"
    }
  },
  {
    "service_request": "2026-1270513",
    "request_type": "Trash/Recycling",
    "request_reason": "Order Second Trash Cart",
    "date_created": "2026-04-01T13:47:26.000",
    "date_modified": "2026-04-01T13:47:27.000",
    "request_status": "Pending",
    "responsible_agency": "Department of Sanitation",
    "final_address": "1240 Farragut St",
    "address_councildis": "C",
    "status": "Assigned to Contractor",
    "contractor": "Richards Disposal",
    "rowid": "1270513",
    "final_x": "3692419.80035",
    "final_y": "526580.346174",
    "longitude": "-90.03376656536194",
    "latitude": "29.941577273337376",
    "geocoded_column": {
      "latitude": "29.941577273337376",
      "longitude": "-90.03376656536194"
    }
  },
  {
    "service_request": "2026-1270512",
    "request_type": "Road Striping",
    "request_reason": "Parking Lane",
    "date_created": "2026-04-01T13:46:28.000",
    "date_modified": "2026-04-01T13:46:30.000",
    "request_status": "Pending",
    "responsible_agency": "Department of Public Works",
    "final_address": "1141 N Dupre St",
    "address_councildis": "A",
    "status": "Pending",
    "rowid": "1270512",
    "final_x": "3676938.42062",
    "final_y": "539188.794762",
    "longitude": "-90.08220975344277",
    "latitude": "29.976719977429116",
    "geocoded_column": {
      "latitude": "29.976719977429116",
      "longitude": "-90.08220975344277"
    }
  },
  {
    "service_request": "2026-1270511",
    "request_type": "Trash/Recycling",
    "request_reason": "Repair Recycling Cart",
    "date_created": "2026-04-01T13:45:34.000",
    "date_modified": "2026-04-01T13:45:37.000",
    "request_status": "Pending",
    "responsible_agency": "Department of Sanitation",
    "final_address": "1410 Third St",
    "address_councildis": "B",
    "status": "Pending",
    "rowid": "1270511",
    "final_x": "3676858.08853",
    "final_y": "522138.553466",
    "longitude": "-90.08305105084322",
    "latitude": "29.929839927888427",
    "geocoded_column": {
      "latitude": "29.929839927888427",
      "longitude": "-90.08305105084322"
    }
  },