[
  {
    "service_request": "2022-927133",
    "request_type": "Trash/Recycling",
    "request_reason": "Request a Large Item Pick Up",
    "date_created": "2022-10-09T01:38:08.000",
    "date_modified": "2022-10-09T01:38:09.000",
    "request_status": "Pending",
    "responsible_agency": "Department of Sanitation",
    "final_address": "4310 Dumaine St",
    "address_councildis": "A",
    "status": "Assigned to Contractor",
    "contractor": "Richards Disposal",
    "rowid": "927133",
    "final_x": "3671990.50599",
    "final_y": "541375.634828",
    "longitude": "-90.09776236748047",
    "latitude": "29.982880665925336",
    "geocoded_column": {
      "latitude": "29.982880665925336",
      "longitude": "-90.09776236748047"
    }
  },
  {
    "service_request": "2022-927132",
    "request_type": "Property Maintenance",
    "request_reason": "Property Maintenance",
    "date_created": "2022-10-09T00:06:55.000",
    "date_modified": "2022-10-09T00:06:55.000",
    "request_status": "Pending",
    "responsible_agency": "Department of Code Enforcement",
    "final_address": "324 Newton St",
    "address_councildis": "C",
    "status": "Pending",
    "rowid": "927132",
    "final_x": "3686415.58742",
    "final_y": "527967.290175",
    "longitude": "-90.05267408142032",
    "latitude": "29.945576778915967",
    "geocoded_column": {
      "latitude": "29.945576778915967",
      "longitude": "-90.05267408142032"
    }
  },
  {
    "service_request": "2022-927131",
    "request_type": "Traffic Signals/Signs/Striping/Streetlights",
    "request_reason": "Street Light Outage/Malfunction",
    "date_created": "2022-10-09T00:04:19.000",
    "date_modified": "2022-10-09T00:04:20.000",
    "request_status": "Pending",
    "responsible_agency": "Department of Public Works",
    "final_address": "330 Newton St",
    "address_councildis": "C",
    "status": "Pending",
    "contractor": "Legacy Professional Services",
    "rowid": "927131",
    "final_x": "3686453.95266",
    "final_y": "527970.608319",
    "longitude": "-90.05255283301311",
    "latitude": "29.94558472359371",
    "geocoded_column": {
      "latitude": "29.94558472359371",
      "longitude": "-90.05255283301311"
    }
  },
  {
    "service_request": "2022-927130",
    "request_type": "Health Related Questions",
    "request_reason": "Noise Ordinance Complaint",
    "date_created": "2022-10-09T00:03:10.000",
    "date_modified": "2022-10-09T00:03:10.000",
    "request_status": "Pending",
    "responsible_agency": "Health Department",
    "final_address": "4010 Royal St",
    "address_councildis": "C",
    "status": "Pending",
    "rowid": "927130",
    "final_x": "3691531.04169",
    "final_y": "533744.778373",
    "longitude": "-90.03631650495889",
    "latitude": "29.961304669175572",
    "geocoded_column": {
      "latitude": "29.961304669175572",
      "longitude": "-90.03631650495889"
    }
  },
  {
    "service_request": "2022-927129",
    "request_type": "Traffic Signals/Signs/Striping/Streetlights",
    "request_reason": "Street Light Outage/Malfunction",
    "date_created": "2022-10-09T00:01:09.000",
    "date_modified": "2022-10-09T00:01:10.000",
    "request_status": "Pending",
    "responsible_agency": "Department of Public Works",
    "final_address": "330 Newton St",
    "address_councildis": "C",
    "status": "Pending",
    "contractor": "Legacy Professional Services",
    "rowid": "927129",
    "final_x": "3686453.95266",
    "final_y": "527970.608319",
    "longitude": "-90.05255283301311",
    "latitude": "29.94558472359371",
    "geocoded_column": {
      "latitude": "29.94558472359371",
      "longitude": "-90.05255283301311"
    }
  },
  {
    "service_request": "2022-927128",
    "request_type": "Traffic Signals/Signs/Striping/Streetlights",
    "request_reason": "Street Light Outage/Malfunction",
    "date_created": "2022-10-09T00:00:31.000",
    "date_modified": "2022-10-09T00:00:32.000",
    "request_status": "Pending",
    "responsible_agency": "Department of Public Works",
    "final_address": "330 Newton St",
    "address_councildis": "C",
    "status": "Pending",
    "contractor": "Legacy Professional Services",
    "rowid": "927128",
    "final_x": "3686453.95266",
    "final_y": "527970.608319",
    "longitude": "-90.05255283301311",
    "latitude": "29.94558472359371",
    "geocoded_column": {
      "latitude": "29.94558472359371",
      "longitude": "-90.05255283301311"
    }
  },
  {
    "service_request": "2022-927127",
    "request_type": "Health Related Questions",
    "request_reason": "Noise Ordinance Complaint",
    "date_created": "2022-10-08T23:59:56.000",
    "date_modified": "2022-10-08T23:59:56.000",
    "request_status": "Pending",
    "responsible_agency": "Health Department",
    "final_address": "600 N Broad St",
    "address_councildis": "D",
    "status": "Pending",
    "rowid": "927127",
    "final_x": "3676514.68328",
    "final_y": "536431.051079",
    "longitude": "-90.0836430411453",
    "latitude": "29.969149839828454",
    "geocoded_column": {
      "latitude": "29.969149839828454",
      "longitude": "-90.0836430411453"
    }
  },
  {
    "service_request": "2022-927126",
    "request_type": "Traffic Signals/Signs/Striping/Streetlights",
    "request_reason": "Street Light Outage/Malfunction",
    "date_created": "2022-10-08T21:34:19.000",
    "date_modified": "2022-10-08T21:34:20.000",
    "request_status": "Pending",
    "responsible_agency": "Department of Public Works",
    "final_address": "4701 Sierra Madre Dr",
    "address_councildis": "E",
    "status": "Pending",
    "contractor": "Legacy Professional Services",
    "rowid": "927126",
    "final_x": "3713996.27621",
    "final_y": "556158.952922",
    "longitude": "-89.96453051195506",
    "latitude": "30.02221675431681",
    "geocoded_column": {
      "latitude": "30.02221675431681",
      "longitude": "-89.96453051195506"
    }
  },
  {
    "service_request": "2022-927124",
    "request_type": "Trash/Recycling",
    "request_reason": "Request a Large Item Pick Up",
    "date_created": "2022-10-08T20:51:06.000",
    "date_modified": "2022-10-08T20:51:07.000",
    "request_status": "Pending",
    "responsible_agency": "Department of Sanitation",
    "final_address": "7929 Freret St",
    "address_councildis": "A",
    "status": "Assigned to Contractor",
    "contractor": "Richards Disposal",
    "rowid": "927124",
    "final_x": "3661926.85114",
    "final_y": "527522.518655",
    "longitude": "-90.13000815603785",
    "latitude": "29.9450836666227",
    "geocoded_column": {
      "latitude": "29.9450836666227",
      "longitude": "-90.13000815603785"
    }
  },
  {
    "service_request": "2022-927123",
    "request_type": "Traffic Signals/Signs/Striping/Streetlights",
    "request_reason": "Traffic Sign Missing/Damaged",
    "date_created": "2022-10-08T20:23:28.000",
    "date_modified": "2022-10-08T20:23:29.000",
    "request_status": "Pending",
    "responsible_agency": "Department of Public Works",
    "final_address": "FRERET ST & STATE ST",
    "address_councildis": "A",
    "status": "Pending",
    "rowid": "927123",
    "final_x": "3666387.4",
    "final_y": "524406.68",
    "longitude": "-90.1160292768105",
    "latitude": "29.93638655348985",
    "geocoded_column": {
      "latitude": "29.93638655348985",
      "longitude": "-90.1160292768105"
    }
  },
  {
    "service_request": "2022-927122",
    "request_type": "Trash/Recycling",
    "request_reason": "Missed Trash Pick-Up",
    "date_created": "2022-10-08T20:09:57.000",
    "date_modified": "2022-10-08T20:09:57.000",
    "request_status": "Pending",
    "responsible_agency": "Department of Sanitation",
    "final_address": "3036 General Ogden St",
    "address_councildis": "A",
    "status": "Assigned to Contractor",
    "contractor": "Richards Disposal",
    "rowid": "927122",
    "final_x": "3664382.48928",
    "final_y": "535292.855814",
    "longitude": "-90.12199555249505",
    "latitude": "29.96637842936838",
    "geocoded_column": {
      "latitude": "29.96637842936838",
      "longitude": "-90.12199555249505"
    }
  },
  {
    "service_request": "2022-927121",
    "request_type": "Trash/Recycling",
    "request_reason": "Missed Trash Pick-Up",
    "date_created": "2022-10-08T20:04:33.000",
    "date_modified": "2022-10-08T20:04:34.000",
    "request_status": "Pending",
    "responsible_agency": "Department of Sanitation",
    "final_address": "8900 BLK Colapissa St",
    "address_councildis": "A",
    "status": "Assigned to Contractor",
    "contractor": "Richards Disposal",
    "rowid": "927121",
    "final_x": "3664315.13393",
    "final_y": "535420.479144",
    "longitude": "-90.1222040005972",
    "latitude": "29.966731309237538",
    "geocoded_column": {
      "latitude": "29.966731309237538",
      "longitude": "-90.1222040005972"
    }
  },
  {
    "service_request": "2022-927120",
    "request_type": "Traffic Signals/Signs/Striping/Streetlights",
    "request_reason": "Street Light Outage/Malfunction",
    "date_created": "2022-10-08T20:02:32.000",
    "date_modified": "2022-10-08T20:02:33.000",
    "request_status": "Pending",
    "responsible_agency": "Department of Public Works",
    "final_address": "5453 Grand Bayou Dr",
    "address_councildis": "E",
    "status": "Pending",
    "contractor": "Legacy Professional Services",
    "rowid": "927120",
    "final_x": "3725788.78873",
    "final_y": "563811.381025",
    "longitude": "-89.92697287691941",
    "latitude": "30.04286517694523",
    "geocoded_column": {
      "latitude": "30.04286517694523",
      "longitude": "-89.92697287691941"
    }
  },
  {
    "service_request": "2022-927119",
    "request_type": "Traffic Signals/Signs/Striping/Streetlights",
    "request_reason": "Street Light Outage/Malfunction",
    "date_created": "2022-10-08T19:56:21.000",
    "date_modified": "2022-10-08T19:56:22.000",
    "request_status": "Pending",
    "responsible_agency": "Department of Public Works",
    "final_address": "1037 Dauphine St",
    "address_councildis": "C",
    "status": "Pending",
    "contractor": "Legacy Professional Services",
    "rowid": "927119",
    "final_x": "3682763.26741",
    "final_y": "534067.717573",
    "longitude": "-90.06399226380465",
    "latitude": "29.962462619863196",
    "geocoded_column": {
      "latitude": "29.962462619863196",
      "longitude": "-90.06399226380465"
    }
  },
  {
    "service_request": "2022-927118",
    "request_type": "Roads/Drainage",
    "request_reason": "Pothole",
    "date_created": "2022-10-08T19:46:38.000",
    "date_modified": "2022-10-08T19:46:38.000",
    "request_status": "Pending",
    "responsible_agency": "Department of Public Works",
    "final_address": "4423 Painters St",
    "address_councildis": "D",
    "status": "Pending",
    "rowid": "927118",
    "final_x": "3686407.28284",
    "final_y": "549075.892947",
    "longitude": "-90.05195500044279",
    "latitude": "30.003618286712513",
    "geocoded_column": {
      "latitude": "30.003618286712513",
      "longitude": "-90.05195500044279"
    }
  },
  {
    "service_request": "2022-927117",
    "request_type": "Trash/Recycling",
    "request_reason": "Missed Trash Pick-Up",
    "date_created": "2022-10-08T19:04:31.000",
    "date_modified": "2022-10-08T19:04:32.000",
    "request_status": "Pending",
    "responsible_agency": "Department of Sanitation",
    "final_address": "8407 Panola St",
    "address_councildis": "A",
    "status": "Assigned to Contractor",
    "contractor": "Richards Disposal",
    "rowid": "927117",
    "final_x": "3663248.46803",
    "final_y": "531527.940035",
    "longitude": "-90.12570209798855",
    "latitude": "29.956059055151336",
    "geocoded_column": {
      "latitude": "29.956059055151336",
      "longitude": "-90.12570209798855"
    }
  },
  {
    "service_request": "2022-927116",
    "request_type": "Trash/Recycling",
    "request_reason": "Missed Trash Pick-Up",
    "date_created": "2022-10-08T18:56:26.000",
    "date_modified": "2022-10-08T18:56:26.000",
    "request_status": "Pending",
    "responsible_agency": "Department of Sanitation",
    "final_address": "1220 Joliet St",
    "address_councildis": "A",
    "status": "Assigned to Contractor",
    "contractor": "Richards Disposal",
    "rowid": "927116",
    "final_x": "3661002.43578",
    "final_y": "529493.895553",
    "longitude": "-90.13286162784152",
    "latitude": "29.95053098453264",
    "geocoded_column": {
      "latitude": "29.95053098453264",
      "longitude": "-90.13286162784152"
    }
  },
  {
    "service_request": "2022-927115",
    "request_type": "Trash/Recycling",
    "request_reason": "Illegal Dumping",
    "date_created": "2022-10-08T18:49:17.000",
    "date_modified": "2022-10-08T18:49:17.000",
    "request_status": "Pending",
    "responsible_agency": "Department of Sanitation",
    "final_address": "4909 Laurel St",
    "address_councildis": "B",
    "status": "Pending",
    "rowid": "927115",
    "final_x": "3668874.12193",
    "final_y": "517874.61023",
    "longitude": "-90.1083990379978",
    "latitude": "29.918352564918184",
    "geocoded_column": {
      "latitude": "29.918352564918184",
      "longitude": "-90.1083990379978"
    }
  },
  {
    "service_request": "2022-927114",
    "request_type": "Trash/Recycling",
    "request_reason": "Illegal Dumping",
    "date_created": "2022-10-08T18:47:19.000",
    "date_modified": "2022-10-08T18:47:19.000",
    "request_status": "Pending",
    "responsible_agency": "Department of Sanitation",
    "final_address": "724 Upperline St",
    "address_councildis": "B",
    "status": "Pending",
    "rowid": "927114",
    "final_x": "3668862.63412",
    "final_y": "518044.35519",
    "longitude": "-90.10842957133552",
    "latitude": "29.918819647747018",
    "geocoded_column": {
      "latitude": "29.918819647747018",
      "longitude": "-90.10842957133552"
    }
  },
  {
    "service_request": "2022-927113",
    "request_type": "Property Maintenance",
    "request_reason": "Property Maintenance",
    "date_created": "2022-10-08T18:45:22.000",
    "date_modified": "2022-10-08T18:45:22.000",
    "request_status": "Pending",
    "responsible_agency": "Department of Code Enforcement",
    "final_address": "1702 Napoleon Ave",
    "address_councildis": "B",
    "status": "Pending",
    "rowid": "927113",
    "final_x": "3670730.07502",
    "final_y": "521275.337913",
    "longitude": "-90.10242546004245",
    "latitude": "29.92764879816051",
    "geocoded_column": {
      "latitude": "29.92764879816051",
      "longitude": "-90.10242546004245"
    }
  },
  {
    "service_request": "2022-927112",
    "request_type": "Roads/Drainage",
    "request_reason": "Accessibility Ramps, Curbs and Sidewalk Repair",
    "date_created": "2022-10-08T18:40:28.000",
    "date_modified": "2022-10-08T18:40:28.000",
    "request_status": "Pending",
    "responsible_agency": "Department of Public Works",
    "final_address": "420 37Th St",
    "address_councildis": "A",
    "status": "Pending",
    "rowid": "927112",
    "final_x": "3664791.17575",
    "final_y": "552335.183382",
    "longitude": "-90.12013508923175",
    "latitude": "30.01322716495783",
    "geocoded_column": {
      "latitude": "30.01322716495783",
      "longitude": "-90.12013508923175"
    }
  },
  {
    "service_request": "2022-927111",
    "request_type": "Trash/Recycling",
    "request_reason": "Request a Large Item Pick Up",
    "date_created": "2022-10-08T18:29:02.000",
    "date_modified": "2022-10-08T18:29:03.000",
    "request_status": "Pending",
    "responsible_agency": "Department of Sanitation",
    "final_address": "539 Seguin St",
    "address_councildis": "C",
    "status": "Assigned to Contractor",
    "contractor": "Richards Disposal",
    "rowid": "927111",
    "final_x": "3686591.12719",
    "final_y": "529681.228673",
    "longitude": "-90.05205933567552",
    "latitude": "29.950284130367717",
    "geocoded_column": {
      "latitude": "29.950284130367717",
      "longitude": "-90.05205933567552"
    }
  },
  {
    "service_request": "2022-927110",
    "request_type": "Roads/Drainage",
    "request_reason": "Pothole",
    "date_created": "2022-10-08T18:20:44.000",
    "date_modified": "2022-10-08T18:20:44.000",
    "request_status": "Pending",
    "responsible_agency": "Department of Public Works",
    "final_address": "3300 State Street Dr",
    "address_councildis": "A",
    "status": "Pending",
    "rowid": "927110",
    "final_x": "3667609.92993",
    "final_y": "528355.730944",
    "longitude": "-90.11203681020542",
    "latitude": "29.947209401332415",
    "geocoded_column": {
      "latitude": "29.947209401332415",
      "longitude": "-90.11203681020542"
    }
  },
  {
    "service_request": "2022-927108",
    "request_type": "Roads/Drainage",
    "request_reason": "Street Flooding / Drainage",
    "date_created": "2022-10-08T17:50:14.000",
    "date_modified": "2022-10-08T17:50:14.000",
    "request_status": "Pending",
    "responsible_agency": "Department of Public Works",
    "final_address": "417 N Galvez St",
    "address_councildis": "B",
    "status": "Pending",
    "rowid": "927108",
    "final_x": "3677674.38363",
    "final_y": "534993.150022",
    "longitude": "-90.08003029096527",
    "latitude": "29.965161272592475",
    "geocoded_column": {
      "latitude": "29.965161272592475",
      "longitude": "-90.08003029096527"
    }
  },
  {
    "service_request": "2022-927107",
    "request_type": "Roads/Drainage",
    "request_reason": "Street Flooding / Drainage",
    "date_created": "2022-10-08T17:49:24.000",
    "date_modified": "2022-10-08T17:49:24.000",
    "request_status": "Pending",
    "responsible_agency": "Department of Public Works",
    "final_address": "816 Elysian Fields Ave",
    "address_councildis": "C",
    "status": "Pending",
    "rowid": "927107",
    "final_x": "3684990.99657",
    "final_y": "535362.545798",
    "longitude": "-90.05691187006155",
    "latitude": "29.965954905132175",
    "geocoded_column": {
      "latitude": "29.965954905132175",
      "longitude": "-90.05691187006155"
    }
  },
  {
    "service_request": "2022-927106",
    "request_type": "Traffic Signals/Signs/Striping/Streetlights",
    "request_reason": "Street Light Outage/Malfunction",
    "date_created": "2022-10-08T17:22:36.000",
    "date_modified": "2022-10-08T17:22:37.000",
    "request_status": "Pending",
    "responsible_agency": "Department of Public Works",
    "final_address": "1009 Poydras St",
    "address_councildis": "B",
    "status": "Pending",
    "contractor": "Legacy Professional Services",
    "rowid": "927106",
    "final_x": "3679394.11055",
    "final_y": "529757.856321",
    "longitude": "-90.07478107721023",
    "latitude": "29.950714152337635",
    "geocoded_column": {
      "latitude": "29.950714152337635",
      "longitude": "-90.07478107721023"
    }
  },
  {
    "service_request": "2022-927104",
    "request_type": "Traffic Signals/Signs/Striping/Streetlights",
    "request_reason": "Street Light Outage/Malfunction",
    "date_created": "2022-10-08T17:20:09.000",
    "date_modified": "2022-10-08T17:20:10.000",
    "request_status": "Pending",
    "responsible_agency": "Department of Public Works",
    "final_address": "1009 Poydras St",
    "address_councildis": "B",
    "status": "Pending",
    "contractor": "Legacy Professional Services",
    "rowid": "927104",
    "final_x": "3679394.11055",
    "final_y": "529757.856321",
    "longitude": "-90.07478107721023",
    "latitude": "29.950714152337635",
    "geocoded_column": {
      "latitude": "29.950714152337635",
      "longitude": "-90.07478107721023"
    }
  },
  {
    "service_request": "2022-927103",
    "request_type": "Trash/Recycling",
    "request_reason": "Missed Trash Pick-Up",
    "date_created": "2022-10-08T17:19:29.000",
    "date_modified": "2022-10-08T17:19:29.000",
    "request_status": "Pending",
    "responsible_agency": "Department of Sanitation",
    "final_address": "3122 Hamilton St",
    "address_councildis": "A",
    "status": "Assigned to Contractor",
    "contractor": "Richards Disposal",
    "rowid": "927103",
    "final_x": "3664036.48359",
    "final_y": "535942.806919",
    "longitude": "-90.12306655849386",
    "latitude": "29.96817563412154",
    "geocoded_column": {
      "latitude": "29.96817563412154",
      "longitude": "-90.12306655849386"
    }
  },
  {
    "service_request": "2022-927102",
    "request_type": "Traffic Signals/Signs/Striping/Streetlights",
    "request_reason": "Street Light Outage/Malfunction",
    "date_created": "2022-10-08T17:17:55.000",
    "date_modified": "2022-10-08T17:17:56.000",
    "request_status": "Pending",
    "responsible_agency": "Department of Public Works",
    "final_address": "1009 Poydras St",
    "address_councildis": "B",
    "status": "Pending",
    "contractor": "Legacy Professional Services",
    "rowid": "927102",
    "final_x": "3679394.11055",
    "final_y": "529757.856321",
    "longitude": "-90.07478107721023",
    "latitude": "29.950714152337635",
    "geocoded_column": {
      "latitude": "29.950714152337635",
      "longitude": "-90.07478107721023"
    }
  },
  {
    "service_request": "2022-927101",
    "request_type": "Property Maintenance",
    "request_reason": "Property Maintenance",
    "date_created": "2022-10-08T17:05:53.000",
    "date_modified": "2022-10-08T17:05:53.000",
    "request_status": "Pending",
    "responsible_agency": "Department of Code Enforcement",
    "final_address": "6479 Marshal Foch St",
    "address_councildis": "A",
    "status": "Pending",
    "rowid": "927101",
    "final_x": "3670221.35802",
    "final_y": "550518.749332",
    "longitude": "-90.10304017719459",
    "latitude": "30.008073405400285",
    "geocoded_column": {
      "latitude": "30.008073405400285",
      "longitude": "-90.10304017719459"
    }
  },
  {
    "service_request": "2022-927100",
    "request_type": "Trash/Recycling",
    "request_reason": "Illegal Dumping",
    "date_created": "2022-10-08T16:57:44.000",
    "date_modified": "2022-10-08T16:57:44.000",
    "request_status": "Pending",
    "responsible_agency": "Department of Sanitation",
    "status": "Pending",
    "rowid": "927100",
    "longitude": "0.0",
    "latitude": "0.0",
    "geocoded_column": {
      "latitude": "0.0",
      "longitude": "0.0"
    }
  },
  {
    "service_request": "2022-927099",
    "request_type": "Trash/Recycling",
    "request_reason": "Replace Recycling Cart",
    "date_created": "2022-10-08T16:43:09.000",
    "date_modified": "2022-10-08T16:43:09.000",
    "request_status": "Pending",
    "responsible_agency": "Department of Sanitation",
    "final_address": "2 Snipe St",
    "address_councildis": "D",
    "status": "Pending",
    "rowid": "927099",
    "final_x": "3672106.63067",
    "final_y": "556648.341722",
    "longitude": "-90.09687504695391",
    "latitude": "30.02487180720847",
    "geocoded_column": {
      "latitude": "30.02487180720847",
      "longitude": "-90.09687504695391"
    }
  },
  {
    "service_request": "2022-927098",
    "request_type": "Mosquito, Termite & Rodent Control",
    "request_reason": "Rodent Complaint (Rats)",
    "date_created": "2022-10-08T16:38:03.000",
    "date_modified": "2022-10-08T16:38:03.000",
    "request_status": "Pending",
    "responsible_agency": "Mosquito, Termite & Rodent Control Board",
    "final_address": "1223 Treme St",
    "address_councildis": "C",
    "status": "Pending",
    "rowid": "927098",
    "final_x": "3682045.27631",
    "final_y": "535479.354758",
    "longitude": "-90.06621028160224",
    "latitude": "29.966365988573948",
    "geocoded_column": {
      "latitude": "29.966365988573948",
      "longitude": "-90.06621028160224"
    }
  },
  {
    "service_request": "2022-927097",
    "request_type": "Roads/Drainage",
    "request_reason": "Unpermitted work in ROW",
    "date_created": "2022-10-08T16:36:41.000",
    "date_modified": "2022-10-08T16:36:41.000",
    "request_status": "Pending",
    "responsible_agency": "Department of Public Works",
    "final_address": "4902 Magnolia St",
    "address_councildis": "B",
    "status": "Pending",
    "rowid": "927097",
    "final_x": "3669095.82593",
    "final_y": "524581.5735",
    "longitude": "-90.10747274745053",
    "latitude": "29.936788058901676",
    "geocoded_column": {
      "latitude": "29.936788058901676",
      "longitude": "-90.10747274745053"
    }
  },
  {
    "service_request": "2022-927096",
    "request_type": "Trash/Recycling",
    "request_reason": "Missed Trash Pick-Up",
    "date_created": "2022-10-08T16:16:53.000",
    "date_modified": "2022-10-08T16:16:54.000",
    "request_status": "Pending",
    "responsible_agency": "Department of Sanitation",
    "final_address": "3160 Jack Wyman Rd",
    "address_councildis": "C",
    "status": "Assigned to Contractor",
    "contractor": "Richards Disposal",
    "rowid": "927096",
    "final_x": "3717462.9548",
    "final_y": "518154.743734",
    "longitude": "-89.95502126026116",
    "latitude": "29.91760516371888",
    "geocoded_column": {
      "latitude": "29.91760516371888",
      "longitude": "-89.95502126026116"
    }
  },
  {
    "service_request": "2022-927095",
    "request_type": "Trash/Recycling",
    "request_reason": "MIssed Recycling Pick-Up",
    "date_created": "2022-10-08T16:08:05.000",
    "date_modified": "2022-10-08T16:08:05.000",
    "request_status": "Pending",
    "responsible_agency": "Department of Sanitation",
    "final_address": "254 Hillary St",
    "address_councildis": "A",
    "status": "Assigned to Contractor",
    "contractor": "Richards Disposal",
    "rowid": "927095",
    "final_x": "3661053.46624",
    "final_y": "524756.941436",
    "longitude": "-90.13285719965295",
    "latitude": "29.93750439724881",
    "geocoded_column": {
      "latitude": "29.93750439724881",
      "longitude": "-90.13285719965295"
    }
  },
  {
    "service_request": "2022-927094",
    "request_type": "Property Maintenance",
    "request_reason": "Property Maintenance",
    "date_created": "2022-10-08T15:47:30.000",
    "date_modified": "2022-10-08T15:47:30.000",
    "request_status": "Pending",
    "responsible_agency": "Department of Code Enforcement",
    "final_address": "1422 Ptolemy St",
    "address_councildis": "C",
    "status": "Pending",
    "rowid": "927094",
    "final_x": "3689881.15792",
    "final_y": "526035.772094",
    "longitude": "-90.04180091930965",
    "latitude": "29.940158805100214",
    "geocoded_column": {
      "latitude": "29.940158805100214",
      "longitude": "-90.04180091930965"
    }
  },
  {
    "service_request": "2022-927093",
    "request_type": "Traffic Signals/Signs/Striping/Streetlights",
    "request_reason": "Street Name Sign Damaged or Missing",
    "date_created": "2022-10-08T15:46:57.000",
    "date_modified": "2022-10-08T15:46:57.000",
    "request_status": "Pending",
    "responsible_agency": "Department of Public Works",
    "final_address": "13000 Chef Menteur Hwy",
    "address_councildis": "E",
    "status": "Pending",
    "rowid": "927093",
    "final_x": "3724420.08083",
    "final_y": "558691.369948",
    "longitude": "-89.93149645164395",
    "latitude": "30.02883336799133",
    "geocoded_column": {
      "latitude": "30.02883336799133",
      "longitude": "-89.93149645164395"
    }
  },
  {
    "service_request": "2022-927092",
    "request_type": "Property Maintenance",
    "request_reason": "Property Maintenance",
    "date_created": "2022-10-08T15:44:41.000",
    "date_modified": "2022-10-08T15:44:41.000",
    "request_status": "Pending",
    "responsible_agency": "Department of Code Enforcement",
    "final_address": "1305 Ptolemy St",
    "address_councildis": "C",
    "status": "Pending",
    "rowid": "927092",
    "final_x": "3689441.12393",
    "final_y": "525961.365245",
    "longitude": "-90.0431928153058",
    "latitude": "29.939967842119856",
    "geocoded_column": {
      "latitude": "29.939967842119856",
      "longitude": "-90.0431928153058"
    }
  },
  {
    "service_request": "2022-927091",
    "request_type": "Property Maintenance",
    "request_reason": "Property Maintenance",
    "date_created": "2022-10-08T15:14:52.000",
    "date_modified": "2022-10-08T15:14:52.000",
    "request_status": "Pending",
    "responsible_agency": "Department of Code Enforcement",
    "final_address": "4921 Francisco Verrett Dr",
    "address_councildis": "E",
    "status": "Pending",
    "rowid": "927091",
    "final_x": "3704198.87985",
    "final_y": "556087.41065",
    "longitude": "-89.99549025706744",
    "latitude": "30.02233821284199",
    "geocoded_column": {
      "latitude": "30.02233821284199",
      "longitude": "-89.99549025706744"
    }
  },
  {
    "service_request": "2022-927090",
    "request_type": "Property Maintenance",
    "request_reason": "Property Maintenance",
    "date_created": "2022-10-08T15:13:20.000",
    "date_modified": "2022-10-08T15:13:20.000",
    "request_status": "Pending",
    "responsible_agency": "Department of Code Enforcement",
    "final_address": "2227 Valmont St",
    "address_councildis": "B",
    "status": "Pending",
    "rowid": "927090",
    "final_x": "3668248.00762",
    "final_y": "523778.226235",
    "longitude": "-90.1101764327885",
    "latitude": "29.93460402462305",
    "geocoded_column": {
      "latitude": "29.93460402462305",
      "longitude": "-90.1101764327885"
    }
  },
  {
    "service_request": "2022-927089",
    "request_type": "Trash/Recycling",
    "request_reason": "Request a Large Item Pick Up",
    "date_created": "2022-10-08T15:12:36.000",
    "date_modified": "2022-10-08T15:12:37.000",
    "request_status": "Pending",
    "responsible_agency": "Department of Sanitation",
    "final_address": "1657 Rousselin Dr",
    "address_councildis": "D",
    "status": "Assigned to Contractor",
    "contractor": "Metro Disposal",
    "rowid": "927089",
    "final_x": "3679583.41442",
    "final_y": "540403.201163",
    "longitude": "-90.073813879894",
    "latitude": "29.97997949852187",
    "geocoded_column": {
      "latitude": "29.97997949852187",
      "longitude": "-90.073813879894"
    }
  },
  {
    "service_request": "2022-927088",
    "request_type": "Abandoned Vehicles",
    "request_reason": "Abandoned/Junk Vehicles",
    "date_created": "2022-10-08T15:11:17.000",
    "date_modified": "2022-10-08T15:11:17.000",
    "request_status": "Pending",
    "responsible_agency": "Department of Public Works",
    "final_address": "2508 Cambronne St",
    "address_councildis": "A",
    "status": "Pending",
    "rowid": "927088",
    "final_x": "3664358.27303",
    "final_y": "532662.895492",
    "longitude": "-90.12215981675588",
    "latitude": "29.959147604624253",
    "geocoded_column": {
      "latitude": "29.959147604624253",
      "longitude": "-90.12215981675588"
    }
  },
  {
    "service_request": "2022-927087",
    "request_type": "Abandoned Vehicles",
    "request_reason": "Abandoned/Junk Vehicles",
    "date_created": "2022-10-08T15:11:12.000",
    "date_modified": "2022-10-08T15:11:12.000",
    "request_status": "Pending",
    "responsible_agency": "Department of Public Works",
    "final_address": "2508 Cambronne St",
    "address_councildis": "A",
    "status": "Pending",
    "rowid": "927087",
    "final_x": "3664358.27303",
    "final_y": "532662.895492",
    "longitude": "-90.12215981675588",
    "latitude": "29.959147604624253",
    "geocoded_column": {
      "latitude": "29.959147604624253",
      "longitude": "-90.12215981675588"
    }
  },
  {
    "service_request": "2022-927086",
    "request_type": "Roads/Drainage",
    "request_reason": "Pothole",
    "date_created": "2022-10-08T15:10:56.000",
    "date_modified": "2022-10-08T15:10:56.000",
    "request_status": "Pending",
    "responsible_agency": "Department of Public Works",
    "final_address": "2200 Soniat St",
    "address_councildis": "B",
    "status": "Pending",
    "rowid": "927086",
    "final_x": "3668445.44948",
    "final_y": "523611.371195",
    "longitude": "-90.10955873683822",
    "latitude": "29.934139429919075",
    "geocoded_column": {
      "latitude": "29.934139429919075",
      "longitude": "-90.10955873683822"
    }
  },
  {
    "service_request": "2022-927084",
    "request_type": "Property Maintenance",
    "request_reason": "Property Maintenance",
    "date_created": "2022-10-08T15:06:42.000",
    "date_modified": "2022-10-08T15:06:42.000",
    "request_status": "Pending",
    "responsible_agency": "Department of Code Enforcement",
    "status": "Pending",
    "rowid": "927084",
    "longitude": "0.0",
    "latitude": "0.0",
    "geocoded_column": {
      "latitude": "0.0",
      "longitude": "0.0"
    }
  },
  {
    "service_request": "2022-927083",
    "request_type": "Property Maintenance",
    "request_reason": "Property Maintenance",
    "date_created": "2022-10-08T15:05:32.000",
    "date_modified": "2022-10-08T15:05:32.000",
    "request_status": "Pending",
    "responsible_agency": "Department of Code Enforcement",
    "status": "Pending",
    "rowid": "927083",
    "longitude": "0.0",
    "latitude": "0.0",
    "geocoded_column": {
      "latitude": "0.0",
      "longitude": "0.0"
    }
  },
  {
    "service_request": "2022-927082",
    "request_type": "Abandoned Vehicles",
    "request_reason": "Abandoned/Junk Vehicles",
    "date_created": "2022-10-08T14:56:54.000",
    "date_modified": "2022-10-08T14:56:54.000",
    "request_status": "Pending",
    "responsible_agency": "Department of Public Works",
    "final_address": "1102 Robert St",
    "address_councildis": "B",
    "status": "Pending",
    "rowid": "927082",
    "final_x": "3668626.42612",
    "final_y": "519378.467511",
    "longitude": "-90.10913016852628",
    "latitude": "29.922494976519797",
    "geocoded_column": {
      "latitude": "29.922494976519797",
      "longitude": "-90.10913016852628"
    }
  },
  {
    "service_request": "2022-927081",
    "request_type": "Traffic Signals/Signs/Striping/Streetlights",
    "request_reason": "Street Light Outage/Malfunction",
    "date_created": "2022-10-08T14:38:53.000",
    "date_modified": "2022-10-08T14:38:54.000",
    "request_status": "Pending",
    "responsible_agency": "Department of Public Works",
    "final_address": "8643 Hickory St",
    "address_councildis": "A",
    "status": "Pending",
    "contractor": "Legacy Professional Services",
    "rowid": "927081",
    "final_x": "3661855.15712",
    "final_y": "531369.613571",
    "longitude": "-90.13010696934349",
    "latitude": "29.95566401239345",
    "geocoded_column": {
      "latitude": "29.95566401239345",
      "longitude": "-90.13010696934349"
    }
  },
  {
    "service_request": "2022-927080",
    "request_type": "Trash/Recycling",
    "request_reason": "Request a Large Item Pick Up",
    "date_created": "2022-10-08T14:38:27.000",
    "date_modified": "2022-10-08T14:38:28.000",
    "request_status": "Pending",
    "responsible_agency": "Department of Sanitation",
    "final_address": "3807 Peach Tree Ct",
    "address_councildis": "C",
    "status": "Assigned to Contractor",
    "contractor": "Richards Disposal",
    "rowid": "927080",
    "final_x": "3703825.85079",
    "final_y": "512603.100081",
    "longitude": "-89.99826982423347",
    "latitude": "29.902784049509137",
    "geocoded_column": {
      "latitude": "29.902784049509137",
      "longitude": "-89.99826982423347"
    }
  },
  {
    "service_request": "2022-927078",
    "request_type": "Trash/Recycling",
    "request_reason": "Request a Large Item Pick Up",
    "date_created": "2022-10-08T14:28:06.000",
    "date_modified": "2022-10-08T14:28:06.000",
    "request_status": "Pending",
    "responsible_agency": "Department of Sanitation",
    "final_address": "1737 Valence St",
    "address_councildis": "B",
    "status": "Assigned to Contractor",
    "contractor": "Richards Disposal",
    "rowid": "927078",
    "final_x": "3669767.04423",
    "final_y": "521439.048185",
    "longitude": "-90.1054599868431",
    "latitude": "29.92812736015009",
    "geocoded_column": {
      "latitude": "29.92812736015009",
      "longitude": "-90.1054599868431"
    }
  },
  {
    "service_request": "2022-927077",
    "request_type": "Trash/Recycling",
    "request_reason": "Replace Trash Cart",
    "date_created": "2022-10-08T14:15:10.000",
    "date_modified": "2022-10-08T14:15:10.000",
    "request_status": "Pending",
    "responsible_agency": "Department of Sanitation",
    "final_address": "2615 Banks St A",
    "address_councildis": "B",
    "status": "Assigned to Contractor",
    "contractor": "Richards Disposal",
    "rowid": "927077",
    "final_x": "3675000.0555",
    "final_y": "533933.390021",
    "longitude": "-90.0885120424763",
    "latitude": "29.962327450016055",
    "geocoded_column": {
      "latitude": "29.962327450016055",
      "longitude": "-90.0885120424763"
    }
  },
  {
    "service_request": "2022-927076",
    "request_type": "Trash/Recycling",
    "request_reason": "Replace Trash Cart",
    "date_created": "2022-10-08T13:59:16.000",
    "date_modified": "2022-10-08T13:59:17.000",
    "request_status": "Pending",
    "responsible_agency": "Department of Sanitation",
    "final_address": "529 S Galvez St",
    "address_councildis": "B",
    "status": "Assigned to Contractor",
    "contractor": "Richards Disposal",
    "rowid": "927076",
    "final_x": "3675596.2468",
    "final_y": "532254.590467",
    "longitude": "-90.086687032129",
    "latitude": "29.957693492371817",
    "geocoded_column": {
      "latitude": "29.957693492371817",
      "longitude": "-90.086687032129"
    }
  },
  {
    "service_request": "2022-927074",
    "request_type": "Trash/Recycling",
    "request_reason": "Replace Trash Cart",
    "date_created": "2022-10-08T13:46:17.000",
    "date_modified": "2022-10-08T13:46:18.000",
    "request_status": "Pending",
    "responsible_agency": "Department of Sanitation",
    "final_address": "4018 Prytania St",
    "address_councildis": "B",
    "status": "Assigned to Contractor",
    "contractor": "Richards Disposal",
    "rowid": "927074",
    "final_x": "3672229.96686",
    "final_y": "520405.038776",
    "longitude": "-90.09772027869872",
    "latitude": "29.925211365385827",
    "geocoded_column": {
      "latitude": "29.925211365385827",
      "longitude": "-90.09772027869872"
    }
  },
  {
    "service_request": "2022-927073",
    "request_type": "Abandoned Vehicles",
    "request_reason": "Abandoned/Junk Vehicles",
    "date_created": "2022-10-08T13:41:09.000",
    "date_modified": "2022-10-08T13:41:09.000",
    "request_status": "Pending",
    "responsible_agency": "Department of Public Works",
    "status": "Pending",
    "rowid": "927073",
    "longitude": "0.0",
    "latitude": "0.0",
    "geocoded_column": {
      "latitude": "0.0",
      "longitude": "0.0"
    }
  },
  {
    "service_request": "2022-927072",
    "request_type": "Abandoned Vehicles",
    "request_reason": "Abandoned/Junk Vehicles",
    "date_created": "2022-10-08T13:28:17.000",
    "date_modified": "2022-10-08T13:28:17.000",
    "request_status": "Pending",
    "responsible_agency": "Department of Public Works",
    "final_address": "7418 Garfield St",
    "address_councildis": "A",
    "status": "Pending",
    "rowid": "927072",
    "final_x": "3661375.6375",
    "final_y": "523680.791611",
    "longitude": "-90.13187570078223",
    "latitude": "29.934536039621662",
    "geocoded_column": {
      "latitude": "29.934536039621662",
      "longitude": "-90.13187570078223"
    }
  },
  {
    "service_request": "2022-927071",
    "request_type": "Trash/Recycling",
    "request_reason": "Request a Large Item Pick Up",
    "date_created": "2022-10-08T13:21:46.000",
    "date_modified": "2022-10-08T13:21:47.000",
    "request_status": "Pending",
    "responsible_agency": "Department of Sanitation",
    "final_address": "2409 Marengo St",
    "address_councildis": "B",
    "status": "Assigned to Contractor",
    "contractor": "Richards Disposal",
    "rowid": "927071",
    "final_x": "3671706.99918",
    "final_y": "523882.70182",
    "longitude": "-90.0992528922373",
    "latitude": "29.93478931686327",
    "geocoded_column": {
      "latitude": "29.93478931686327",
      "longitude": "-90.0992528922373"
    }
  },
  {
    "service_request": "2022-927069",
    "request_type": "Trash/Recycling",
    "request_reason": "Replace Trash Cart",
    "date_created": "2022-10-08T13:19:54.000",
    "date_modified": "2022-10-08T13:19:54.000",
    "request_status": "Pending",
    "responsible_agency": "Department of Sanitation",
    "final_address": "4564 Feliciana Dr",
    "address_councildis": "D",
    "status": "Assigned to Contractor",
    "contractor": "Metro Disposal",
    "rowid": "927069",
    "final_x": "3690143.03696",
    "final_y": "550512.63586",
    "longitude": "-90.0401019553704",
    "latitude": "30.00745340378043",
    "geocoded_column": {
      "latitude": "30.00745340378043",
      "longitude": "-90.0401019553704"
    }
  },
  {
    "service_request": "2022-927068",
    "request_type": "Trash/Recycling",
    "request_reason": "Request a Large Item Pick Up",
    "date_created": "2022-10-08T13:08:56.000",
    "date_modified": "2022-10-08T13:08:57.000",
    "request_status": "Pending",
    "responsible_agency": "Department of Sanitation",
    "final_address": "4305 S Carrollton Ave, New Orleans, Louisiana, 70119",
    "address_councildis": "A",
    "status": "Assigned to Contractor",
    "contractor": "Richards Disposal",
    "rowid": "927068",
    "final_x": "3669742.43098",
    "final_y": "536962.314376",
    "longitude": "-90.10501237668194",
    "latitude": "29.970811988824202",
    "geocoded_column": {
      "latitude": "29.970811988824202",
      "longitude": "-90.10501237668194"
    }
  },
  {
    "service_request": "2022-927067",
    "request_type": "Trash/Recycling",
    "request_reason": "Order Trash Cart",
    "date_created": "2022-10-08T13:04:04.000",
    "date_modified": "2022-10-08T13:04:05.000",
    "request_status": "Pending",
    "responsible_agency": "Department of Sanitation",
    "final_address": "3629 Touro St",
    "address_councildis": "D",
    "status": "Assigned to Contractor",
    "contractor": "Metro Disposal",
    "rowid": "927067",
    "final_x": "3683482.47612",
    "final_y": "546019.935696",
    "longitude": "-90.06130210537383",
    "latitude": "29.995305109905683",
    "geocoded_column": {
      "latitude": "29.995305109905683",
      "longitude": "-90.06130210537383"
    }
  },
  {
    "service_request": "2022-927066",
    "request_type": "Trash/Recycling",
    "request_reason": "Request a Large Item Pick Up",
    "date_created": "2022-10-08T13:03:07.000",
    "date_modified": "2022-10-08T13:03:07.000",
    "request_status": "Pending",
    "responsible_agency": "Department of Sanitation",
    "final_address": "3629 Touro St",
    "address_councildis": "D",
    "status": "Assigned to Contractor",
    "contractor": "Metro Disposal",
    "rowid": "927066",
    "final_x": "3683482.47612",
    "final_y": "546019.935696",
    "longitude": "-90.06130210537383",
    "latitude": "29.995305109905683",
    "geocoded_column": {
      "latitude": "29.995305109905683",
      "longitude": "-90.06130210537383"
    }
  },
  {
    "service_request": "2022-927065",
    "request_type": "Roads/Drainage",
    "request_reason": "Debris in Roadway",
    "date_created": "2022-10-08T12:55:13.000",
    "date_modified": "2022-10-08T12:55:14.000",
    "request_status": "Pending",
    "responsible_agency": "Department of Public Works",
    "final_address": "1206 Reynes St",
    "address_councildis": "E",
    "status": "Pending",
    "rowid": "927065",
    "final_x": "3696007.9608",
    "final_y": "534713.635718",
    "longitude": "-90.02214424735514",
    "latitude": "29.963828583288276",
    "geocoded_column": {
      "latitude": "29.963828583288276",
      "longitude": "-90.02214424735514"
    }
  },
  {
    "service_request": "2022-927064",
    "request_type": "Trash/Recycling",
    "request_reason": "Missed Trash Pick-Up",
    "date_created": "2022-10-08T12:55:09.000",
    "date_modified": "2022-10-08T12:55:09.000",
    "request_status": "Pending",
    "responsible_agency": "Department of Sanitation",
    "final_address": "9118 Apple St",
    "address_councildis": "A",
    "status": "Assigned to Contractor",
    "contractor": "Richards Disposal",
    "rowid": "927064",
    "final_x": "3662610.09984",
    "final_y": "534557.668229",
    "longitude": "-90.12761718838134",
    "latitude": "29.964408305703383",
    "geocoded_column": {
      "latitude": "29.964408305703383",
      "longitude": "-90.12761718838134"
    }
  },
  {
    "service_request": "2022-927063",
    "request_type": "Trash/Recycling",
    "request_reason": "Illegal Dumping",
    "date_created": "2022-10-08T12:54:51.000",
    "date_modified": "2022-10-08T12:54:52.000",
    "request_status": "Pending",
    "responsible_agency": "Department of Sanitation",
    "final_address": "5 Bear Creek Dr",
    "address_councildis": "C",
    "status": "Pending",
    "rowid": "927063",
    "final_x": "3718504.22853",
    "final_y": "514919.073971",
    "longitude": "-89.95185771596162",
    "latitude": "29.908673742202197",
    "geocoded_column": {
      "latitude": "29.908673742202197",
      "longitude": "-89.95185771596162"
    }
  },
  {
    "service_request": "2022-927062",
    "request_type": "Trash/Recycling",
    "request_reason": "Missed Trash Pick-Up",
    "date_created": "2022-10-08T12:16:15.000",
    "date_modified": "2022-10-08T12:16:16.000",
    "request_status": "Pending",
    "responsible_agency": "Department of Sanitation",
    "final_address": "2133 Pine St",
    "address_councildis": "A",
    "status": "Assigned to Contractor",
    "contractor": "Richards Disposal",
    "rowid": "927062",
    "final_x": "3665909.4937",
    "final_y": "529533.544385",
    "longitude": "-90.11736628690176",
    "latitude": "29.950497732790637",
    "geocoded_column": {
      "latitude": "29.950497732790637",
      "longitude": "-90.11736628690176"
    }
  },
  {
    "service_request": "2022-927061",
    "request_type": "Traffic Signals/Signs/Striping/Streetlights",
    "request_reason": "Street Light Outage/Malfunction",
    "date_created": "2022-10-08T12:15:07.000",
    "date_modified": "2022-10-08T12:15:08.000",
    "request_status": "Pending",
    "responsible_agency": "Department of Public Works",
    "final_address": "328 S Bernadotte St",
    "address_councildis": "A",
    "status": "Pending",
    "contractor": "Legacy Professional Services",
    "rowid": "927061",
    "final_x": "3668265.03527",
    "final_y": "539209.672522",
    "longitude": "-90.10960239256676",
    "latitude": "29.977034934777535",
    "geocoded_column": {
      "latitude": "29.977034934777535",
      "longitude": "-90.10960239256676"
    }
  },
  {
    "service_request": "2022-927060",
    "request_type": "Trash/Recycling",
    "request_reason": "Illegal Dumping",
    "date_created": "2022-10-08T11:50:00.000",
    "date_modified": "2022-10-08T11:50:00.000",
    "request_status": "Pending",
    "responsible_agency": "Department of Sanitation",
    "final_address": "724 Upperline St",
    "address_councildis": "B",
    "status": "Pending",
    "rowid": "927060",
    "final_x": "3668862.63412",
    "final_y": "518044.35519",
    "longitude": "-90.10842957133552",
    "latitude": "29.918819647747018",
    "geocoded_column": {
      "latitude": "29.918819647747018",
      "longitude": "-90.10842957133552"
    }
  },
  {
    "service_request": "2022-927059",
    "request_type": "Property Maintenance",
    "request_reason": "Property Maintenance",
    "date_created": "2022-10-08T11:48:06.000",
    "date_modified": "2022-10-08T11:48:06.000",
    "request_status": "Pending",
    "responsible_agency": "Department of Code Enforcement",
    "final_address": "4510 Murano Rd",
    "address_councildis": "E",
    "status": "Pending",
    "rowid": "927059",
    "final_x": "3761247.09897",
    "final_y": "573742.103594",
    "longitude": "-89.81449723982298",
    "latitude": "30.06892583698813",
    "geocoded_column": {
      "latitude": "30.06892583698813",
      "longitude": "-89.81449723982298"
    }
  },
  {
    "service_request": "2022-927058",
    "request_type": "Trash/Recycling",
    "request_reason": "MIssed Recycling Pick-Up",
    "date_created": "2022-10-08T11:41:37.000",
    "date_modified": "2022-10-08T11:41:38.000",
    "request_status": "Pending",
    "responsible_agency": "Department of Sanitation",
    "final_address": "250 Hillary St",
    "address_councildis": "A",
    "status": "Assigned to Contractor",
    "contractor": "Richards Disposal",
    "rowid": "927058",
    "final_x": "3661042.57222",
    "final_y": "524745.691836",
    "longitude": "-90.13289196511163",
    "latitude": "29.937473778228313",
    "geocoded_column": {
      "latitude": "29.937473778228313",
      "longitude": "-90.13289196511163"
    }
  },
  {
    "service_request": "2022-927057",
    "request_type": "Trash/Recycling",
    "request_reason": "Missed Trash Pick-Up",
    "date_created": "2022-10-08T11:34:29.000",
    "date_modified": "2022-10-08T11:34:30.000",
    "request_status": "Pending",
    "responsible_agency": "Department of Sanitation",
    "final_address": "305 Broadway St",
    "address_councildis": "A",
    "status": "Assigned to Contractor",
    "contractor": "Richards Disposal",
    "rowid": "927057",
    "final_x": "3661562.94022",
    "final_y": "522494.95577",
    "longitude": "-90.13132365911731",
    "latitude": "29.93126996232931",
    "geocoded_column": {
      "latitude": "29.93126996232931",
      "longitude": "-90.13132365911731"
    }
  },
  {
    "service_request": "2022-927056",
    "request_type": "Trash/Recycling",
    "request_reason": "Missed Trash Pick-Up",
    "date_created": "2022-10-08T11:22:55.000",
    "date_modified": "2022-10-08T11:22:55.000",
    "request_status": "Pending",
    "responsible_agency": "Department of Sanitation",
    "final_address": "900 BLK Lyons St",
    "address_councildis": "B",
    "status": "Assigned to Contractor",
    "contractor": "Richards Disposal",
    "rowid": "927056",
    "final_x": "3669221.26618",
    "final_y": "518786.62396",
    "longitude": "-90.10727248319533",
    "latitude": "29.920850105898666",
    "geocoded_column": {
      "latitude": "29.920850105898666",
      "longitude": "-90.10727248319533"
    }
  },
  {
    "service_request": "2022-927055",
    "request_type": "Abandoned Vehicles",
    "request_reason": "Abandoned/Junk Vehicles",
    "date_created": "2022-10-08T11:13:11.000",
    "date_modified": "2022-10-08T11:13:59.000",
    "request_status": "Pending",
    "responsible_agency": "Department of Public Works",
    "final_address": "6415 Curran Rd",
    "address_councildis": "E",
    "status": "Pending",
    "rowid": "927055",
    "final_x": "3696614.6456",
    "final_y": "559427.959773",
    "longitude": "-90.01933341612386",
    "latitude": "30.031764749447984",
    "geocoded_column": {
      "latitude": "30.031764749447984",
      "longitude": "-90.01933341612386"
    }
  },
  {
    "service_request": "2022-927054",
    "request_type": "Trash/Recycling",
    "request_reason": "Request a Large Item Pick Up",
    "date_created": "2022-10-08T10:46:59.000",
    "date_modified": "2022-10-08T10:46:59.000",
    "request_status": "Pending",
    "responsible_agency": "Department of Sanitation",
    "final_address": "426 Ninth St",
    "address_councildis": "B",
    "status": "Assigned to Contractor",
    "contractor": "Richards Disposal",
    "rowid": "927054",
    "final_x": "3676876.2139",
    "final_y": "518451.98847",
    "longitude": "-90.08312081133715",
    "latitude": "29.919702524262064",
    "geocoded_column": {
      "latitude": "29.919702524262064",
      "longitude": "-90.08312081133715"
    }
  },
  {
    "service_request": "2022-927053",
    "request_type": "Roads/Drainage",
    "request_reason": "Pothole",
    "date_created": "2022-10-08T10:46:08.000",
    "date_modified": "2022-10-08T10:46:09.000",
    "request_status": "Pending",
    "responsible_agency": "Department of Public Works",
    "final_address": "9800 BLK Old Gentilly Rd",
    "address_councildis": "E",
    "status": "Pending",
    "rowid": "927053",
    "final_x": "3712003.15634",
    "final_y": "552943.614701",
    "longitude": "-89.97094900860417",
    "latitude": "30.013441148484446",
    "geocoded_column": {
      "latitude": "30.013441148484446",
      "longitude": "-89.97094900860417"
    }
  },
  {
    "service_request": "2022-927052",
    "request_type": "Trash/Recycling",
    "request_reason": "Illegal Dumping",
    "date_created": "2022-10-08T10:45:39.000",
    "date_modified": "2022-10-08T10:45:40.000",
    "request_status": "Pending",
    "responsible_agency": "Department of Sanitation",
    "final_address": "9800 BLK Old Gentilly Rd",
    "address_councildis": "E",
    "status": "Pending",
    "rowid": "927052",
    "final_x": "3712003.15634",
    "final_y": "552943.614701",
    "longitude": "-89.97094900860417",
    "latitude": "30.013441148484446",
    "geocoded_column": {
      "latitude": "30.013441148484446",
      "longitude": "-89.97094900860417"
    }
  },
  {
    "service_request": "2022-927051",
    "request_type": "Trash/Recycling",
    "request_reason": "Missed Trash Pick-Up",
    "date_created": "2022-10-08T10:38:37.000",
    "date_modified": "2022-10-08T10:38:37.000",
    "request_status": "Pending",
    "responsible_agency": "Department of Sanitation",
    "final_address": "1456 Verna St",
    "address_councildis": "A",
    "status": "Assigned to Contractor",
    "contractor": "Metro Disposal",
    "rowid": "927051",
    "final_x": "3675881.54465",
    "final_y": "541347.364364",
    "longitude": "-90.08547345615145",
    "latitude": "29.98268698968683",
    "geocoded_column": {
      "latitude": "29.98268698968683",
      "longitude": "-90.08547345615145"
    }
  },
  {
    "service_request": "2022-927050",
    "request_type": "Trash/Recycling",
    "request_reason": "Request a Large Item Pick Up",
    "date_created": "2022-10-08T10:28:59.000",
    "date_modified": "2022-10-08T10:29:00.000",
    "request_status": "Pending",
    "responsible_agency": "Department of Sanitation",
    "final_address": "731 Valence St",
    "address_councildis": "B",
    "status": "Assigned to Contractor",
    "contractor": "Richards Disposal",
    "rowid": "927050",
    "final_x": "3670041.70286",
    "final_y": "518204.240374",
    "longitude": "-90.10470244302185",
    "latitude": "29.919224571159106",
    "geocoded_column": {
      "latitude": "29.919224571159106",
      "longitude": "-90.10470244302185"
    }
  },
  {
    "service_request": "2022-927049",
    "request_type": "Trash/Recycling",
    "request_reason": "Request a Large Item Pick Up",
    "date_created": "2022-10-08T10:26:38.000",
    "date_modified": "2022-10-08T10:26:39.000",
    "request_status": "Pending",
    "responsible_agency": "Department of Sanitation",
    "final_address": "2539 St Philip St",
    "address_councildis": "D",
    "status": "Assigned to Contractor",
    "contractor": "Richards Disposal",
    "rowid": "927049",
    "final_x": "3677974.81922",
    "final_y": "537453.813704",
    "longitude": "-90.07899646708518",
    "latitude": "29.971918218975688",
    "geocoded_column": {
      "latitude": "29.971918218975688",
      "longitude": "-90.07899646708518"
    }
  },
  {
    "service_request": "2022-927048",
    "request_type": "Mosquito, Termite & Rodent Control",
    "request_reason": "Non-Rodent Complaint (Mice, Possums, Snakes)",
    "date_created": "2022-10-08T10:26:30.000",
    "date_modified": "2022-10-08T10:26:30.000",
    "request_status": "Pending",
    "responsible_agency": "Mosquito, Termite & Rodent Control Board",
    "final_address": "3613 S Saratoga St",
    "address_councildis": "B",
    "status": "Pending",
    "rowid": "927048",
    "final_x": "3672771.05275",
    "final_y": "522962.697147",
    "longitude": "-90.09592505018628",
    "latitude": "29.932228047752886",
    "geocoded_column": {
      "latitude": "29.932228047752886",
      "longitude": "-90.09592505018628"
    }
  },
  {
    "service_request": "2022-927047",
    "request_type": "Trash/Recycling",
    "request_reason": "Request a Large Item Pick Up",
    "date_created": "2022-10-08T10:21:10.000",
    "date_modified": "2022-10-08T10:21:11.000",
    "request_status": "Pending",
    "responsible_agency": "Department of Sanitation",
    "final_address": "8217 Panola St",
    "address_councildis": "A",
    "status": "Assigned to Contractor",
    "contractor": "Richards Disposal",
    "rowid": "927047",
    "final_x": "3663740.33421",
    "final_y": "531080.636546",
    "longitude": "-90.12416385078288",
    "latitude": "29.95481485253596",
    "geocoded_column": {
      "latitude": "29.95481485253596",
      "longitude": "-90.12416385078288"
    }
  },
  {
    "service_request": "2022-927046",
    "request_type": "Trash/Recycling",
    "request_reason": "Replace Trash Cart",
    "date_created": "2022-10-08T10:18:32.000",
    "date_modified": "2022-10-08T10:18:33.000",
    "request_status": "Pending",
    "responsible_agency": "Department of Sanitation",
    "final_address": "5854 E Louis Prima Dr",
    "address_councildis": "E",
    "status": "Assigned to Contractor",
    "contractor": "Metro Disposal",
    "rowid": "927046",
    "final_x": "3715471.64069",
    "final_y": "563013.041056",
    "longitude": "-89.959609136177",
    "latitude": "30.04101420930185",
    "geocoded_column": {
      "latitude": "30.04101420930185",
      "longitude": "-89.959609136177"
    }
  },
  {
    "service_request": "2022-927045",
    "request_type": "Roads/Drainage",
    "request_reason": "Street Subsidence (Sinking)",
    "date_created": "2022-10-08T10:17:32.000",
    "date_modified": "2022-10-08T10:17:32.000",
    "request_status": "Pending",
    "responsible_agency": "Department of Public Works",
    "final_address": "3120 Dauphine St",
    "address_councildis": "C",
    "status": "Pending",
    "rowid": "927045",
    "final_x": "3688884.15548",
    "final_y": "534773.013382",
    "longitude": "-90.04463836229918",
    "latitude": "29.96421407459905",
    "geocoded_column": {
      "latitude": "29.96421407459905",
      "longitude": "-90.04463836229918"
    }
  },
  {
    "service_request": "2022-927044",
    "request_type": "Property Maintenance",
    "request_reason": "Property Maintenance",
    "date_created": "2022-10-08T10:15:36.000",
    "date_modified": "2022-10-08T10:15:36.000",
    "request_status": "Pending",
    "responsible_agency": "Department of Code Enforcement",
    "final_address": "4923 Perrault Walk",
    "address_councildis": "E",
    "status": "Pending",
    "rowid": "927044",
    "final_x": "3709754.65861",
    "final_y": "556780.875482",
    "longitude": "-89.97790959925578",
    "latitude": "30.024065438518235",
    "geocoded_column": {
      "latitude": "30.024065438518235",
      "longitude": "-89.97790959925578"
    }
  },
  {
    "service_request": "2022-927043",
    "request_type": "Trash/Recycling",
    "request_reason": "Repair Trash Cart",
    "date_created": "2022-10-08T10:14:38.000",
    "date_modified": "2022-10-08T10:14:38.000",
    "request_status": "Pending",
    "responsible_agency": "Department of Sanitation",
    "final_address": "4811 Corsica Pl",
    "address_councildis": "E",
    "status": "Assigned to Contractor",
    "contractor": "Metro Disposal",
    "rowid": "927043",
    "final_x": "3727496.7143",
    "final_y": "561636.831583",
    "longitude": "-89.92165988923",
    "latitude": "30.036828319620305",
    "geocoded_column": {
      "latitude": "30.036828319620305",
      "longitude": "-89.92165988923"
    }
  },
  {
    "service_request": "2022-927042",
    "request_type": "Property Maintenance",
    "request_reason": "Property Maintenance",
    "date_created": "2022-10-08T10:13:45.000",
    "date_modified": "2022-10-08T10:13:45.000",
    "request_status": "Pending",
    "responsible_agency": "Department of Code Enforcement",
    "final_address": "4911 Perrault Walk",
    "address_councildis": "E",
    "status": "Pending",
    "rowid": "927042",
    "final_x": "3709762.60197",
    "final_y": "556689.224154",
    "longitude": "-89.97788792573616",
    "latitude": "30.023813174910792",
    "geocoded_column": {
      "latitude": "30.023813174910792",
      "longitude": "-89.97788792573616"
    }
  },
  {
    "service_request": "2022-927041",
    "request_type": "Property Maintenance",
    "request_reason": "Property Maintenance",
    "date_created": "2022-10-08T10:10:57.000",
    "date_modified": "2022-10-08T10:10:57.000",
    "request_status": "Pending",
    "responsible_agency": "Department of Code Enforcement",
    "final_address": "4923 Perrault Walk",
    "address_councildis": "E",
    "status": "Pending",
    "rowid": "927041",
    "final_x": "3709754.65861",
    "final_y": "556780.875482",
    "longitude": "-89.97790959925578",
    "latitude": "30.024065438518235",
    "geocoded_column": {
      "latitude": "30.024065438518235",
      "longitude": "-89.97790959925578"
    }
  },
  {
    "service_request": "2022-927040",
    "request_type": "Property Maintenance",
    "request_reason": "Property Maintenance",
    "date_created": "2022-10-08T10:08:31.000",
    "date_modified": "2022-10-08T10:08:31.000",
    "request_status": "Pending",
    "responsible_agency": "Department of Code Enforcement",
    "final_address": "4911 Perrault Walk",
    "address_councildis": "E",
    "status": "Pending",
    "rowid": "927040",
    "final_x": "3709762.60197",
    "final_y": "556689.224154",
    "longitude": "-89.97788792573616",
    "latitude": "30.023813174910792",
    "geocoded_column": {
      "latitude": "30.023813174910792",
      "longitude": "-89.97788792573616"
    }
  },
  {
    "service_request": "2022-927039",
    "request_type": "Trash/Recycling",
    "request_reason": "Request a Large Item Pick Up",
    "date_created": "2022-10-08T10:08:28.000",
    "date_modified": "2022-10-08T10:08:29.000",
    "request_status": "Pending",
    "responsible_agency": "Department of Sanitation",
    "final_address": "3617 Eagle St",
    "address_councildis": "A",
    "status": "Assigned to Contractor",
    "contractor": "Richards Disposal",
    "rowid": "927039",
    "final_x": "3666032.52",
    "final_y": "536445.025799",
    "longitude": "-90.11674612909431",
    "latitude": "29.969498448372278",
    "geocoded_column": {
      "latitude": "29.969498448372278",
      "longitude": "-90.11674612909431"
    }
  },
  {
    "service_request": "2022-927038",
    "request_type": "Trash/Recycling",
    "request_reason": "Missed Trash Pick-Up",
    "date_created": "2022-10-08T10:05:00.000",
    "date_modified": "2022-10-08T10:05:01.000",
    "request_status": "Pending",
    "responsible_agency": "Department of Sanitation",
    "final_address": "339 Broadway St",
    "address_councildis": "A",
    "status": "Assigned to Contractor",
    "contractor": "Richards Disposal",
    "rowid": "927038",
    "final_x": "3661750.77901",
    "final_y": "522789.753722",
    "longitude": "-90.13072090523535",
    "latitude": "29.93207514462521",
    "geocoded_column": {
      "latitude": "29.93207514462521",
      "longitude": "-90.13072090523535"
    }
  },
  {
    "service_request": "2022-927037",
    "request_type": "Abandoned Vehicles",
    "request_reason": "Abandoned/Junk Vehicles",
    "date_created": "2022-10-08T10:04:16.000",
    "date_modified": "2022-10-08T10:04:16.000",
    "request_status": "Pending",
    "responsible_agency": "Department of Public Works",
    "final_address": "4751 Bundy Rd",
    "address_councildis": "E",
    "status": "Pending",
    "rowid": "927037",
    "final_x": "3709454.95243",
    "final_y": "555896.455065",
    "longitude": "-89.9788896386973",
    "latitude": "30.02164337292343",
    "geocoded_column": {
      "latitude": "30.02164337292343",
      "longitude": "-89.9788896386973"
    }
  },
  {
    "service_request": "2022-927036",
    "request_type": "Property Maintenance",
    "request_reason": "Property Maintenance",
    "date_created": "2022-10-08T10:01:30.000",
    "date_modified": "2022-10-08T10:01:30.000",
    "request_status": "Pending",
    "responsible_agency": "Department of Code Enforcement",
    "final_address": "2602 Flood St",
    "address_councildis": "E",
    "status": "Pending",
    "rowid": "927036",
    "final_x": "3699208.32842",
    "final_y": "539541.969674",
    "longitude": "-90.01186201332513",
    "latitude": "29.977003677639832",
    "geocoded_column": {
      "latitude": "29.977003677639832",
      "longitude": "-90.01186201332513"
    }
  },
  {
    "service_request": "2022-927035",
    "request_type": "Trash/Recycling",
    "request_reason": "Replace Trash Cart",
    "date_created": "2022-10-08T09:59:14.000",
    "date_modified": "2022-10-08T09:59:14.000",
    "request_status": "Pending",
    "responsible_agency": "Department of Sanitation",
    "final_address": "1222 Jena St",
    "address_councildis": "B",
    "status": "Assigned to Contractor",
    "contractor": "Richards Disposal",
    "rowid": "927035",
    "final_x": "3670482.04174",
    "final_y": "519971.9662",
    "longitude": "-90.10325261258939",
    "latitude": "29.92407226584169",
    "geocoded_column": {
      "latitude": "29.92407226584169",
      "longitude": "-90.10325261258939"
    }
  },
  {
    "service_request": "2022-927034",
    "request_type": "Property Maintenance",
    "request_reason": "Property Maintenance",
    "date_created": "2022-10-08T09:56:23.000",
    "date_modified": "2022-10-08T09:56:23.000",
    "request_status": "Pending",
    "responsible_agency": "Department of Code Enforcement",
    "final_address": "2602 Flood St",
    "address_councildis": "E",
    "status": "Pending",
    "rowid": "927034",
    "final_x": "3699208.32842",
    "final_y": "539541.969674",
    "longitude": "-90.01186201332513",
    "latitude": "29.977003677639832",
    "geocoded_column": {
      "latitude": "29.977003677639832",
      "longitude": "-90.01186201332513"
    }
  },
  {
    "service_request": "2022-927033",
    "request_type": "Trash/Recycling",
    "request_reason": "Repair Trash Cart",
    "date_created": "2022-10-08T09:55:28.000",
    "date_modified": "2022-10-08T09:55:29.000",
    "request_status": "Pending",
    "responsible_agency": "Department of Sanitation",
    "final_address": "1300 State St",
    "address_councildis": "A",
    "status": "Assigned to Contractor",
    "contractor": "Richards Disposal",
    "rowid": "927033",
    "final_x": "3665188.80269",
    "final_y": "520893.898489",
    "longitude": "-90.11993074562227",
    "latitude": "29.926762475765084",
    "geocoded_column": {
      "latitude": "29.926762475765084",
      "longitude": "-90.11993074562227"
    }
  },
  {
    "service_request": "2022-927032",
    "request_type": "Trash/Recycling",
    "request_reason": "Missed Trash Pick-Up",
    "date_created": "2022-10-08T09:54:56.000",
    "date_modified": "2022-10-08T09:54:57.000",
    "request_status": "Pending",
    "responsible_agency": "Department of Sanitation",
    "final_address": "914 Webster St",
    "address_councildis": "A",
    "status": "Assigned to Contractor",
    "contractor": "Richards Disposal",
    "rowid": "927032",
    "final_x": "3664249.31085",
    "final_y": "519879.514296",
    "longitude": "-90.12293030750101",
    "latitude": "29.924000560311967",
    "geocoded_column": {
      "latitude": "29.924000560311967",
      "longitude": "-90.12293030750101"
    }
  },
  {
    "service_request": "2022-927031",
    "request_type": "Roads/Drainage",
    "request_reason": "Street Subsidence (Sinking)",
    "date_created": "2022-10-08T09:46:03.000",
    "date_modified": "2022-10-08T09:46:03.000",
    "request_status": "Pending",
    "responsible_agency": "Department of Public Works",
    "final_address": "CURRAN BLVD & FORUM RD",
    "address_councildis": "E",
    "status": "Pending",
    "rowid": "927031",
    "final_x": "3719769.6",
    "final_y": "573365.18",
    "longitude": "-89.94563004519468",
    "latitude": "30.069335913612363",
    "geocoded_column": {
      "latitude": "30.069335913612363",
      "longitude": "-89.94563004519468"
    }
  },
  {
    "service_request": "2022-927030",
    "request_type": "Trash/Recycling",
    "request_reason": "Request a Large Item Pick Up",
    "date_created": "2022-10-08T09:45:13.000",
    "date_modified": "2022-10-08T09:45:14.000",
    "request_status": "Pending",
    "responsible_agency": "Department of Sanitation",
    "final_address": "242 26Th St",
    "address_councildis": "A",
    "status": "Assigned to Contractor",
    "contractor": "Metro Disposal",
    "rowid": "927030",
    "final_x": "3665418.44333",
    "final_y": "549875.45058",
    "longitude": "-90.11823566127067",
    "latitude": "30.00644547917642",
    "geocoded_column": {
      "latitude": "30.00644547917642",
      "longitude": "-90.11823566127067"
    }
  },
  {
    "service_request": "2022-927029",
    "request_type": "Trash/Recycling",
    "request_reason": "Request a Large Item Pick Up",
    "date_created": "2022-10-08T09:44:31.000",
    "date_modified": "2022-10-08T09:44:32.000",
    "request_status": "Pending",
    "responsible_agency": "Department of Sanitation",
    "final_address": "4417 S Liberty St",
    "address_councildis": "B",
    "status": "Assigned to Contractor",
    "contractor": "Richards Disposal",
    "rowid": "927029",
    "final_x": "3670358.57313",
    "final_y": "523379.954747",
    "longitude": "-90.10352689886207",
    "latitude": "29.933446787960523",
    "geocoded_column": {
      "latitude": "29.933446787960523",
      "longitude": "-90.10352689886207"
    }
  },
  {
    "service_request": "2022-927028",
    "request_type": "Trash/Recycling",
    "request_reason": "Request a Large Item Pick Up",
    "date_created": "2022-10-08T09:43:12.000",
    "date_modified": "2022-10-08T09:43:13.000",
    "request_status": "Pending",
    "responsible_agency": "Department of Sanitation",
    "final_address": "4417 S Liberty St",
    "address_councildis": "B",
    "status": "Assigned to Contractor",
    "contractor": "Richards Disposal",
    "rowid": "927028",
    "final_x": "3670358.57313",
    "final_y": "523379.954747",
    "longitude": "-90.10352689886207",
    "latitude": "29.933446787960523",
    "geocoded_column": {
      "latitude": "29.933446787960523",
      "longitude": "-90.10352689886207"
    }
  },
  {
    "service_request": "2022-927027",
    "request_type": "Trash/Recycling",
    "request_reason": "Missed Trash Pick-Up",
    "date_created": "2022-10-08T09:39:20.000",
    "date_modified": "2022-10-08T09:39:21.000",
    "request_status": "Pending",
    "responsible_agency": "Department of Sanitation",
    "final_address": "3508 Camphor St",
    "address_councildis": "A",
    "status": "Assigned to Contractor",
    "contractor": "Richards Disposal",
    "rowid": "927027",
    "final_x": "3663671.00979",
    "final_y": "538044.094985",
    "longitude": "-90.12415071709988",
    "latitude": "29.97396409096055",
    "geocoded_column": {
      "latitude": "29.97396409096055",
      "longitude": "-90.12415071709988"
    }
  },
  {
    "service_request": "2022-927026",
    "request_type": "Trash/Recycling",
    "request_reason": "Request a Large Item Pick Up",
    "date_created": "2022-10-08T09:28:26.000",
    "date_modified": "2022-10-08T09:28:27.000",
    "request_status": "Pending",
    "responsible_agency": "Department of Sanitation",
    "final_address": "5326 Wilton Dr",
    "address_councildis": "D",
    "status": "Assigned to Contractor",
    "contractor": "Metro Disposal",
    "rowid": "927026",
    "final_x": "3681814.9044",
    "final_y": "552838.598231",
    "longitude": "-90.06633162289396",
    "latitude": "30.01410477890981",
    "geocoded_column": {
      "latitude": "30.01410477890981",
      "longitude": "-90.06633162289396"
    }
  },
  {
    "service_request": "2022-927025",
    "request_type": "Trash/Recycling",
    "request_reason": "Request a Large Item Pick Up",
    "date_created": "2022-10-08T09:18:52.000",
    "date_modified": "2022-10-08T09:18:52.000",
    "request_status": "Pending",
    "responsible_agency": "Department of Sanitation",
    "final_address": "1483 Harrison Ave",
    "address_councildis": "D",
    "status": "Assigned to Contractor",
    "contractor": "Metro Disposal",
    "rowid": "927025",
    "final_x": "3678676.55822",
    "final_y": "547707.502354",
    "longitude": "-90.07642504610469",
    "latitude": "30.00009114483491",
    "geocoded_column": {
      "latitude": "30.00009114483491",
      "longitude": "-90.07642504610469"
    }
  },
  {
    "service_request": "2022-927024",
    "request_type": "Trash/Recycling",
    "request_reason": "Missed Trash Pick-Up",
    "date_created": "2022-10-08T09:16:26.000",
    "date_modified": "2022-10-08T09:16:27.000",
    "request_status": "Pending",
    "responsible_agency": "Department of Sanitation",
    "final_address": "2439 Nashville Ave",
    "address_councildis": "A",
    "status": "Assigned to Contractor",
    "contractor": "Richards Disposal",
    "rowid": "927024",
    "final_x": "3667243.03393",
    "final_y": "525118.766461",
    "longitude": "-90.11330406420005",
    "latitude": "29.93831954079217",
    "geocoded_column": {
      "latitude": "29.93831954079217",
      "longitude": "-90.11330406420005"
    }
  },
  {
    "service_request": "2022-927023",
    "request_type": "Property Maintenance",
    "request_reason": "Property Maintenance",
    "date_created": "2022-10-08T09:14:21.000",
    "date_modified": "2022-10-08T09:14:21.000",
    "request_status": "Pending",
    "responsible_agency": "Department of Code Enforcement",
    "final_address": "829 N Rocheblave St",
    "address_councildis": "D",
    "status": "Pending",
    "rowid": "927023",
    "final_x": "3677838.00046",
    "final_y": "536820.659528",
    "longitude": "-90.07945044421399",
    "latitude": "29.970181379144364",
    "geocoded_column": {
      "latitude": "29.970181379144364",
      "longitude": "-90.07945044421399"
    }
  },
  {
    "service_request": "2022-927022",
    "request_type": "Abandoned Vehicles",
    "request_reason": "Abandoned/Junk Vehicles",
    "date_created": "2022-10-08T09:12:52.000",
    "date_modified": "2022-10-08T09:12:52.000",
    "request_status": "Pending",
    "responsible_agency": "Department of Public Works",
    "final_address": "6215 Royal St",
    "address_councildis": "E",
    "status": "Pending",
    "rowid": "927022",
    "final_x": "3699421.58487",
    "final_y": "531716.418435",
    "longitude": "-90.01147360778077",
    "latitude": "29.955479453648728",
    "geocoded_column": {
      "latitude": "29.955479453648728",
      "longitude": "-90.01147360778077"
    }
  },
  {
    "service_request": "2022-927021",
    "request_type": "Trash/Recycling",
    "request_reason": "Replace Trash Cart",
    "date_created": "2022-10-08T09:03:38.000",
    "date_modified": "2022-10-08T09:03:39.000",
    "request_status": "Pending",
    "responsible_agency": "Department of Sanitation",
    "final_address": "3108 Esplanade Ave",
    "address_councildis": "A",
    "status": "Assigned to Contractor",
    "contractor": "Richards Disposal",
    "rowid": "927021",
    "final_x": "3676451.91112",
    "final_y": "540197.467467",
    "longitude": "-90.08371156091539",
    "latitude": "29.979508078130245",
    "geocoded_column": {
      "latitude": "29.979508078130245",
      "longitude": "-90.08371156091539"
    }
  },
  {
    "service_request": "2022-927020",
    "request_type": "Trash/Recycling",
    "request_reason": "Request a Large Item Pick Up",
    "date_created": "2022-10-08T09:02:40.000",
    "date_modified": "2022-10-08T09:02:41.000",
    "request_status": "Pending",
    "responsible_agency": "Department of Sanitation",
    "final_address": "215 Fairfax Pl",
    "address_councildis": "C",
    "status": "Assigned to Contractor",
    "contractor": "Richards Disposal",
    "rowid": "927020",
    "final_x": "3706591.88113",
    "final_y": "517362.233013",
    "longitude": "-89.98936421507268",
    "latitude": "29.91578112194171",
    "geocoded_column": {
      "latitude": "29.91578112194171",
      "longitude": "-89.98936421507268"
    }
  },
  {
    "service_request": "2022-927019",
    "request_type": "Trash/Recycling",
    "request_reason": "Missed Trash Pick-Up",
    "date_created": "2022-10-08T09:01:12.000",
    "date_modified": "2022-10-08T09:01:13.000",
    "request_status": "Pending",
    "responsible_agency": "Department of Sanitation",
    "final_address": "2500 Gentilly Blvd",
    "address_councildis": "D",
    "status": "Assigned to Contractor",
    "contractor": "Metro Disposal",
    "rowid": "927019",
    "final_x": "3681737.48245",
    "final_y": "545064.885519",
    "longitude": "-90.06684770726106",
    "latitude": "29.99273221053106",
    "geocoded_column": {
      "latitude": "29.99273221053106",
      "longitude": "-90.06684770726106"
    }
  },
  {
    "service_request": "2022-927018",
    "request_type": "Traffic Signals/Signs/Striping/Streetlights",
    "request_reason": "Street Light Outage/Malfunction",
    "date_created": "2022-10-08T09:00:14.000",
    "date_modified": "2022-10-08T09:00:15.000",
    "request_status": "Pending",
    "responsible_agency": "Department of Public Works",
    "final_address": "14 Newcomb Blvd",
    "address_councildis": "A",
    "status": "Pending",
    "contractor": "Legacy Professional Services",
    "rowid": "927018",
    "final_x": "3663670.13837",
    "final_y": "525019.677117",
    "longitude": "-90.12458739243495",
    "latitude": "29.938151196841222",
    "geocoded_column": {
      "latitude": "29.938151196841222",
      "longitude": "-90.12458739243495"
    }
  },
  {
    "service_request": "2022-927017",
    "request_type": "Trash/Recycling",
    "request_reason": "Request a Large Item Pick Up",
    "date_created": "2022-10-08T08:56:06.000",
    "date_modified": "2022-10-08T08:56:07.000",
    "request_status": "Pending",
    "responsible_agency": "Department of Sanitation",
    "final_address": "925 Washington Ave",
    "address_councildis": "B",
    "status": "Assigned to Contractor",
    "contractor": "Richards Disposal",
    "rowid": "927017",
    "final_x": "3677367.10568",
    "final_y": "520428.266104",
    "longitude": "-90.08150315515392",
    "latitude": "29.925121912022405",
    "geocoded_column": {
      "latitude": "29.925121912022405",
      "longitude": "-90.08150315515392"
    }
  },
  {
    "service_request": "2022-927016",
    "request_type": "Abandoned Vehicles",
    "request_reason": "Vehicle Blocking Your Driveway",
    "date_created": "2022-10-08T08:53:37.000",
    "date_modified": "2022-10-08T08:53:37.000",
    "request_status": "Pending",
    "responsible_agency": "Department of Public Works",
    "final_address": "4526 N Robertson St",
    "address_councildis": "D",
    "status": "Pending",
    "rowid": "927016",
    "final_x": "3693873.59043",
    "final_y": "536244.858055",
    "longitude": "-90.02882930264298",
    "latitude": "29.968105887233968",
    "geocoded_column": {
      "latitude": "29.968105887233968",
      "longitude": "-90.02882930264298"
    }
  },
  {
    "service_request": "2022-927015",
    "request_type": "Trash/Recycling",
    "request_reason": "Missed Trash Pick-Up",
    "date_created": "2022-10-08T08:45:45.000",
    "date_modified": "2022-10-08T08:45:46.000",
    "request_status": "Pending",
    "responsible_agency": "Department of Sanitation",
    "final_address": "1407 Bordeaux St",
    "address_councildis": "B",
    "status": "Assigned to Contractor",
    "contractor": "Richards Disposal",
    "rowid": "927015",
    "final_x": "3669475.30062",
    "final_y": "520259.138744",
    "longitude": "-90.1064208406862",
    "latitude": "29.92489157798654",
    "geocoded_column": {
      "latitude": "29.92489157798654",
      "longitude": "-90.1064208406862"
    }
  },
  {
    "service_request": "2022-927014",
    "request_type": "Trash/Recycling",
    "request_reason": "Illegal Dumping",
    "date_created": "2022-10-08T08:25:34.000",
    "date_modified": "2022-10-08T08:25:34.000",
    "request_status": "Pending",
    "responsible_agency": "Department of Sanitation",
    "final_address": "2550 Ursulines Ave",
    "address_councildis": "D",
    "status": "Pending",
    "rowid": "927014",
    "final_x": "3678076.69998",
    "final_y": "537716.914312",
    "longitude": "-90.07866561296773",
    "latitude": "29.97263858844416",
    "geocoded_column": {
      "latitude": "29.97263858844416",
      "longitude": "-90.07866561296773"
    }
  },
  {
    "service_request": "2022-927011",
    "request_type": "Trash/Recycling",
    "request_reason": "Missed Trash Pick-Up",
    "date_created": "2022-10-08T07:55:07.000",
    "date_modified": "2022-10-08T07:55:08.000",
    "request_status": "Pending",
    "responsible_agency": "Department of Sanitation",
    "final_address": "2432 Cumberland Ct",
    "address_councildis": "C",
    "status": "Assigned to Contractor",
    "contractor": "Richards Disposal",
    "rowid": "927011",
    "final_x": "3705119.42391",
    "final_y": "522263.435898",
    "longitude": "-89.99383097077796",
    "latitude": "29.92930513427257",
    "geocoded_column": {
      "latitude": "29.92930513427257",
      "longitude": "-89.99383097077796"
    }
  },
  {
    "service_request": "2022-927010",
    "request_type": "Abandoned Vehicles",
    "request_reason": "Abandoned/Junk Vehicles",
    "date_created": "2022-10-08T06:59:10.000",
    "date_modified": "2022-10-08T06:59:10.000",
    "request_status": "Pending",
    "responsible_agency": "Department of Public Works",
    "final_address": "3648 Meadow Park Ln",
    "address_councildis": "C",
    "status": "Pending",
    "rowid": "927010",
    "final_x": "3703880.98967",
    "final_y": "510929.996463",
    "longitude": "-89.99815733626718",
    "latitude": "29.898181814279255",
    "geocoded_column": {
      "latitude": "29.898181814279255",
      "longitude": "-89.99815733626718"
    }
  },
  {
    "service_request": "2022-927009",
    "request_type": "Abandoned Vehicles",
    "request_reason": "Abandoned/Junk Vehicles",
    "date_created": "2022-10-08T06:57:24.000",
    "date_modified": "2022-10-08T06:57:24.000",
    "request_status": "Pending",
    "responsible_agency": "Department of Public Works",
    "final_address": "3648 Meadow Park Ln",
    "address_councildis": "C",
    "status": "Pending",
    "rowid": "927009",
    "final_x": "3703880.98967",
    "final_y": "510929.996463",
    "longitude": "-89.99815733626718",
    "latitude": "29.898181814279255",
    "geocoded_column": {
      "latitude": "29.898181814279255",
      "longitude": "-89.99815733626718"
    }
  },
  {
    "service_request": "2022-927008",
    "request_type": "Trash/Recycling",
    "request_reason": "Replace Trash Cart",
    "date_created": "2022-10-08T06:51:50.000",
    "date_modified": "2022-10-08T06:51:51.000",
    "request_status": "Pending",
    "responsible_agency": "Department of Sanitation",
    "final_address": "4143 Cleveland Ave",
    "address_councildis": "A",
    "status": "Assigned to Contractor",
    "contractor": "Richards Disposal",
    "rowid": "927008",
    "final_x": "3670559.06971",
    "final_y": "538270.273481",
    "longitude": "-90.10238894818215",
    "latitude": "29.974384339539327",
    "geocoded_column": {
      "latitude": "29.974384339539327",
      "longitude": "-90.10238894818215"
    }
  },
  {
    "service_request": "2022-927007",
    "request_type": "Traffic Signals/Signs/Striping/Streetlights",
    "request_reason": "Traffic Sign Missing/Damaged",
    "date_created": "2022-10-08T05:32:47.000",
    "date_modified": "2022-10-08T05:32:47.000",
    "request_status": "Pending",
    "responsible_agency": "Department of Public Works",
    "final_address": "2846 Allen St",
    "address_councildis": "D",
    "status": "Pending",
    "rowid": "927007",
    "final_x": "3682197.06645",
    "final_y": "542790.168141",
    "longitude": "-90.06547547183365",
    "latitude": "29.98646356574015",
    "geocoded_column": {
      "latitude": "29.98646356574015",
      "longitude": "-90.06547547183365"
    }
  },
  {
    "service_request": "2022-927006",
    "request_type": "Property Maintenance",
    "request_reason": "Property Maintenance",
    "date_created": "2022-10-08T04:56:01.000",
    "date_modified": "2022-10-08T04:56:01.000",
    "request_status": "Pending",
    "responsible_agency": "Department of Code Enforcement",
    "final_address": "1801 Burgundy St",
    "address_councildis": "C",
    "status": "Pending",
    "rowid": "927006",
    "final_x": "3683601.5126",
    "final_y": "535493.51591",
    "longitude": "-90.06129522258644",
    "latitude": "29.96635751464655",
    "geocoded_column": {
      "latitude": "29.96635751464655",
      "longitude": "-90.06129522258644"
    }
  },
  {
    "service_request": "2022-927005",
    "request_type": "Law Enforcement Services",
    "request_reason": "Off Duty Officer for Hire",
    "date_created": "2022-10-08T04:48:13.000",
    "date_modified": "2022-10-08T04:48:13.000",
    "request_status": "Pending",
    "responsible_agency": "Office of Police Secondary Employment",
    "status": "Pending",
    "rowid": "927005",
    "longitude": "0.0",
    "latitude": "0.0",
    "geocoded_column": {
      "latitude": "0.0",
      "longitude": "0.0"
    }
  },
  {
    "service_request": "2022-927004",
    "request_type": "Trash/Recycling",
    "request_reason": "Request a Large Item Pick Up",
    "date_created": "2022-10-08T01:24:45.000",
    "date_modified": "2022-10-08T01:24:46.000",
    "request_status": "Pending",
    "responsible_agency": "Department of Sanitation",
    "final_address": "1224 Frenchmen St",
    "address_councildis": "C",
    "status": "Assigned to Contractor",
    "contractor": "Metro Disposal",
    "rowid": "927004",
    "final_x": "3684507.0982",
    "final_y": "536846.640456",
    "longitude": "-90.05838785663101",
    "latitude": "29.97005046423323",
    "geocoded_column": {
      "latitude": "29.97005046423323",
      "longitude": "-90.05838785663101"
    }
  },
  {
    "service_request": "2022-927003",
    "request_type": "Health Related Questions",
    "request_reason": "Noise Ordinance Complaint",
    "date_created": "2022-10-08T01:07:09.000",
    "date_modified": "2022-10-08T01:07:09.000",
    "request_status": "Pending",
    "responsible_agency": "Health Department",
    "final_address": "4010 Royal St",
    "address_councildis": "C",
    "status": "Pending",
    "rowid": "927003",
    "final_x": "3691531.04169",
    "final_y": "533744.778373",
    "longitude": "-90.03631650495889",
    "latitude": "29.961304669175572",
    "geocoded_column": {
      "latitude": "29.961304669175572",
      "longitude": "-90.03631650495889"
    }
  },
  {
    "service_request": "2022-927002",
    "request_type": "Property Maintenance",
    "request_reason": "Property Maintenance",
    "date_created": "2022-10-07T23:36:19.000",
    "date_modified": "2022-10-07T23:36:19.000",
    "request_status": "Pending",
    "responsible_agency": "Department of Code Enforcement",
    "final_address": "2348 N Galvez St",
    "address_councildis": "D",
    "status": "Pending",
    "rowid": "927002",
    "final_x": "3685918.93494",
    "final_y": "540052.894667",
    "longitude": "-90.05381607397022",
    "latitude": "29.978823270261547",
    "geocoded_column": {
      "latitude": "29.978823270261547",
      "longitude": "-90.05381607397022"
    }
  },
  {
    "service_request": "2022-927001",
    "request_type": "Trash/Recycling",
    "request_reason": "Order Recycling Cart",
    "date_created": "2022-10-07T23:01:24.000",
    "date_modified": "2022-10-07T23:01:24.000",
    "request_status": "Pending",
    "responsible_agency": "Department of Sanitation",
    "final_address": "5917 Painters St",
    "address_councildis": "D",
    "status": "Pending",
    "rowid": "927001",
    "final_x": "3686160.9878",
    "final_y": "554940.143448",
    "longitude": "-90.0525260022647",
    "latitude": "30.019750400964888",
    "geocoded_column": {
      "latitude": "30.019750400964888",
      "longitude": "-90.0525260022647"
    }
  },
  {
    "service_request": "2022-927000",
    "request_type": "Trash/Recycling",
    "request_reason": "Replace Trash Cart",
    "date_created": "2022-10-07T22:19:37.000",
    "date_modified": "2022-10-07T22:19:38.000",
    "request_status": "Pending",
    "responsible_agency": "Department of Sanitation",
    "final_address": "4020 Vincennes Pl",
    "address_councildis": "B",
    "status": "Assigned to Contractor",
    "contractor": "Richards Disposal",
    "rowid": "927000",
    "final_x": "3668365.54273",
    "final_y": "530165.263553",
    "longitude": "-90.1095900292418",
    "latitude": "29.952162859316037",
    "geocoded_column": {
      "latitude": "29.952162859316037",
      "longitude": "-90.1095900292418"
    }
  },
  {
    "service_request": "2022-926999",
    "request_type": "Traffic Signals/Signs/Striping/Streetlights",
    "request_reason": "Street Light Outage/Malfunction",
    "date_created": "2022-10-07T21:46:58.000",
    "date_modified": "2022-10-07T21:48:20.000",
    "request_status": "Pending",
    "responsible_agency": "Department of Public Works",
    "final_address": "5 Honeysuckle Ln",
    "address_councildis": "E",
    "status": "Pending",
    "contractor": "Legacy Professional Services",
    "rowid": "926999",
    "final_x": "3713140.0851",
    "final_y": "568073.025637",
    "longitude": "-89.96678687027438",
    "latitude": "30.055003766516833",
    "geocoded_column": {
      "latitude": "30.055003766516833",
      "longitude": "-89.96678687027438"
    }
  },
  {
    "service_request": "2022-926998",
    "request_type": "Property Maintenance",
    "request_reason": "Property Maintenance",
    "date_created": "2022-10-07T19:38:18.000",
    "date_modified": "2022-10-07T19:38:18.000",
    "request_status": "Pending",
    "responsible_agency": "Department of Code Enforcement",
    "final_address": "3130 Kent Dr",
    "address_councildis": "C",
    "status": "Pending",
    "rowid": "926998",
    "final_x": "3708919.92606",
    "final_y": "518578.686455",
    "longitude": "-89.98197079766479",
    "latitude": "29.919050657168096",
    "geocoded_column": {
      "latitude": "29.919050657168096",
      "longitude": "-89.98197079766479"
    }
  },
  {
    "service_request": "2022-926997",
    "request_type": "Trash/Recycling",
    "request_reason": "MIssed Recycling Pick-Up",
    "date_created": "2022-10-07T19:33:00.000",
    "date_modified": "2022-10-07T19:33:01.000",
    "request_status": "Pending",
    "responsible_agency": "Department of Sanitation",
    "final_address": "8506 Apricot St",
    "address_councildis": "A",
    "status": "Assigned to Contractor",
    "contractor": "Richards Disposal",
    "rowid": "926997",
    "final_x": "3664686.92685",
    "final_y": "533611.932741",
    "longitude": "-90.12109029887758",
    "latitude": "29.961747590287853",
    "geocoded_column": {
      "latitude": "29.961747590287853",
      "longitude": "-90.12109029887758"
    }
  },
  {
    "service_request": "2022-926996",
    "request_type": "Trash/Recycling",
    "request_reason": "Repair Trash Cart",
    "date_created": "2022-10-07T19:25:13.000",
    "date_modified": "2022-10-07T19:25:14.000",
    "request_status": "Pending",
    "responsible_agency": "Department of Sanitation",
    "final_address": "2725 Prentiss Ave",
    "address_councildis": "D",
    "status": "Assigned to Contractor",
    "contractor": "Metro Disposal",
    "rowid": "926996",
    "final_x": "3687429.42402",
    "final_y": "554197.4822",
    "longitude": "-90.04854447818354",
    "latitude": "30.017669310798432",
    "geocoded_column": {
      "latitude": "30.017669310798432",
      "longitude": "-90.04854447818354"
    }
  },
  {
    "service_request": "2022-926995",
    "request_type": "Trash/Recycling",
    "request_reason": "Missed Trash Pick-Up",
    "date_created": "2022-10-07T18:50:48.000",
    "date_modified": "2022-10-07T18:50:48.000",
    "request_status": "Pending",
    "responsible_agency": "Department of Sanitation",
    "final_address": "2848 Dryades, New Orleans Louisiana",
    "address_councildis": "B",
    "status": "Assigned to Contractor",
    "contractor": "Richards Disposal",
    "rowid": "926995",
    "final_x": "3674993.36539",
    "final_y": "523177.881275",
    "longitude": "-90.08890203628705",
    "latitude": "29.9327535575519",
    "geocoded_column": {
      "latitude": "29.9327535575519",
      "longitude": "-90.08890203628705"
    }
  },
  {
    "service_request": "2022-926994",
    "request_type": "Trash/Recycling",
    "request_reason": "Request a Large Item Pick Up",
    "date_created": "2022-10-07T18:31:11.000",
    "date_modified": "2022-10-07T18:31:11.000",
    "request_status": "Pending",
    "responsible_agency": "Department of Sanitation",
    "final_address": "4218 S Carrollton Ave",
    "address_councildis": "A",
    "status": "Assigned to Contractor",
    "contractor": "Richards Disposal",
    "rowid": "926994",
    "final_x": "3669710.16974",
    "final_y": "536641.893447",
    "longitude": "-90.10512510870625",
    "latitude": "29.96993188954803",
    "geocoded_column": {
      "latitude": "29.96993188954803",
      "longitude": "-90.10512510870625"
    }
  },
  {
    "service_request": "2022-926993",
    "request_type": "Trash/Recycling",
    "request_reason": "Replace Trash Cart",
    "date_created": "2022-10-07T18:28:29.000",
    "date_modified": "2022-10-07T18:28:30.000",
    "request_status": "Pending",
    "responsible_agency": "Department of Sanitation",
    "final_address": "3830 Annunciation St",
    "address_councildis": "B",
    "status": "Assigned to Contractor",
    "contractor": "Richards Disposal",
    "rowid": "926993",
    "final_x": "3673435.50638",
    "final_y": "517951.87999",
    "longitude": "-90.09399852423694",
    "latitude": "29.918430163130722",
    "geocoded_column": {
      "latitude": "29.918430163130722",
      "longitude": "-90.09399852423694"
    }
  },
  {
    "service_request": "2022-926992",
    "request_type": "Trash/Recycling",
    "request_reason": "MIssed Recycling Pick-Up",
    "date_created": "2022-10-07T18:26:06.000",
    "date_modified": "2022-10-07T18:26:06.000",
    "request_status": "Pending",
    "responsible_agency": "Department of Sanitation",
    "final_address": "7903 Plum St",
    "address_councildis": "A",
    "status": "Assigned to Contractor",
    "contractor": "Richards Disposal",
    "rowid": "926992",
    "final_x": "3662757.28013",
    "final_y": "528177.268416",
    "longitude": "-90.1273644637923",
    "latitude": "29.946860013110612",
    "geocoded_column": {
      "latitude": "29.946860013110612",
      "longitude": "-90.1273644637923"
    }
  },
  {
    "service_request": "2022-926990",
    "request_type": "Safety & Permits",
    "request_reason": "Licenses & Permits",
    "date_created": "2022-10-07T18:17:09.000",
    "date_modified": "2022-10-07T18:17:09.000",
    "request_status": "Pending",
    "responsible_agency": "Safety and Permits",
    "final_address": "4523 Magazine St",
    "address_councildis": "B",
    "status": "Pending",
    "rowid": "926990",
    "final_x": "3670459.91399",
    "final_y": "518764.599223",
    "longitude": "-90.10336337284775",
    "latitude": "29.920753043460966",
    "geocoded_column": {
      "latitude": "29.920753043460966",
      "longitude": "-90.10336337284775"
    }
  },
  {
    "service_request": "2022-926988",
    "request_type": "Abandoned Vehicles",
    "request_reason": "Abandoned/Junk Vehicles",
    "date_created": "2022-10-07T18:11:58.000",
    "date_modified": "2022-10-07T18:11:58.000",
    "request_status": "Pending",
    "responsible_agency": "Department of Public Works",
    "final_address": "1201 Frenchmen St, New Orleans, Louisiana, 70116",
    "address_councildis": "C",
    "status": "Pending",
    "rowid": "926988",
    "final_x": "3684591.32476",
    "final_y": "536677.153415",
    "longitude": "-90.05812781799786",
    "latitude": "29.969581856572702",
    "geocoded_column": {
      "latitude": "29.969581856572702",
      "longitude": "-90.05812781799786"
    }
  },
  {
    "service_request": "2022-926987",
    "request_type": "Property Maintenance",
    "request_reason": "Property Maintenance",
    "date_created": "2022-10-07T18:07:11.000",
    "date_modified": "2022-10-07T18:07:12.000",
    "request_status": "Pending",
    "responsible_agency": "Department of Code Enforcement",
    "final_address": "8910 Olive St",
    "address_councildis": "A",
    "status": "Pending",
    "rowid": "926987",
    "final_x": "3665058.41229",
    "final_y": "536123.051783",
    "longitude": "-90.11983322369574",
    "latitude": "29.968641528815535",
    "geocoded_column": {
      "latitude": "29.968641528815535",
      "longitude": "-90.11983322369574"
    }
  },
  {
    "service_request": "2022-926986",
    "request_type": "Trash/Recycling",
    "request_reason": "Request a Large Item Pick Up",
    "date_created": "2022-10-07T17:57:57.000",
    "date_modified": "2022-10-07T17:57:58.000",
    "request_status": "Pending",
    "responsible_agency": "Department of Sanitation",
    "final_address": "820 Dublin St",
    "address_councildis": "A",
    "status": "Assigned to Contractor",
    "contractor": "Richards Disposal",
    "rowid": "926986",
    "final_x": "3660850.74112",
    "final_y": "527747.455871",
    "longitude": "-90.1333983506592",
    "latitude": "29.94573320241151",
    "geocoded_column": {
      "latitude": "29.94573320241151",
      "longitude": "-90.1333983506592"
    }
  },
  {
    "service_request": "2022-926985",
    "request_type": "Trash/Recycling",
    "request_reason": "Missed Trash Pick-Up",
    "date_created": "2022-10-07T17:39:51.000",
    "date_modified": "2022-10-07T17:39:51.000",
    "request_status": "Pending",
    "responsible_agency": "Department of Sanitation",
    "final_address": "1529 Nashville Ave, New Orleans, Louisiana, 70115",
    "address_councildis": "A",
    "status": "Assigned to Contractor",
    "contractor": "Richards Disposal",
    "rowid": "926985",
    "final_x": "3666228.28692",
    "final_y": "521867.901114",
    "longitude": "-90.11661671233426",
    "latitude": "29.92941036615711",
    "geocoded_column": {
      "latitude": "29.92941036615711",
      "longitude": "-90.11661671233426"
    }
  },
  {
    "service_request": "2022-926984",
    "request_type": "Trash/Recycling",
    "request_reason": "Request a Large Item Pick Up",
    "date_created": "2022-10-07T17:37:47.000",
    "date_modified": "2022-10-07T17:37:47.000",
    "request_status": "Pending",
    "responsible_agency": "Department of Sanitation",
    "final_address": "5560 Bullard Ave",
    "address_councildis": "E",
    "status": "Assigned to Contractor",
    "contractor": "Metro Disposal",
    "rowid": "926984",
    "final_x": "3717199.41164",
    "final_y": "561656.874207",
    "longitude": "-89.95420042989312",
    "latitude": "30.037228231713048",
    "geocoded_column": {
      "latitude": "30.037228231713048",
      "longitude": "-89.95420042989312"
    }
  },