[
  {
    "service_request": "2021-846341",
    "request_type": "Trash/Recycling",
    "request_reason": "Request a Large Item Pick Up",
    "date_created": "2021-12-06T21:25:21.000",
    "date_modified": "2021-12-06T21:25:22.000",
    "request_status": "Pending",
    "responsible_agency": "Department of Sanitation",
    "final_address": "734 Florida Blvd",
    "address_councildis": "A",
    "status": "Assigned to Contractor",
    "contractor": "Metro Disposal",
    "rowid": "846341",
    "final_x": "3668697.19399",
    "final_y": "545219.782735",
    "longitude": "-90.10803451029795",
    "latitude": "29.99354799470546",
    "geocoded_column": {
      "latitude": "29.99354799470546",
      "longitude": "-90.10803451029795"
    }
  },
  {
    "service_request": "2021-846340",
    "request_type": "Property Maintenance",
    "request_reason": "Property Maintenance",
    "date_created": "2021-12-06T21:18:15.000",
    "date_modified": "2021-12-06T21:18:15.000",
    "request_status": "Pending",
    "responsible_agency": "Department of Code Enforcement",
    "final_address": "3043 Gentilly Blvd",
    "address_councildis": "D",
    "status": "Pending",
    "rowid": "846340",
    "final_x": "3683543.45737",
    "final_y": "546995.746193",
    "longitude": "-90.06107524626384",
    "latitude": "29.99798637856414",
    "geocoded_column": {
      "latitude": "29.99798637856414",
      "longitude": "-90.06107524626384"
    }
  },
  {
    "service_request": "2021-846339",
    "request_type": "Property Maintenance",
    "request_reason": "Property Maintenance",
    "date_created": "2021-12-06T21:05:55.000",
    "date_modified": "2021-12-06T21:05:55.000",
    "request_status": "Pending",
    "responsible_agency": "Department of Code Enforcement",
    "final_address": "2413 First St",
    "address_councildis": "B",
    "status": "Pending",
    "rowid": "846339",
    "final_x": "3675316.98965",
    "final_y": "525754.660477",
    "longitude": "-90.08779195405727",
    "latitude": "29.939829190177228",
    "geocoded_column": {
      "latitude": "29.939829190177228",
      "longitude": "-90.08779195405727"
    }
  },
  {
    "service_request": "2021-846338",
    "request_type": "Trash/Recycling",
    "request_reason": "Request a Large Item Pick Up",
    "date_created": "2021-12-06T20:27:24.000",
    "date_modified": "2021-12-06T20:27:25.000",
    "request_status": "Pending",
    "responsible_agency": "Department of Sanitation",
    "final_address": "1117 Third St",
    "address_councildis": "B",
    "status": "Assigned to Contractor",
    "contractor": "Richards Disposal",
    "rowid": "846338",
    "final_x": "3677512.07342",
    "final_y": "521342.715129",
    "longitude": "-90.08101398962002",
    "latitude": "29.927631994029102",
    "geocoded_column": {
      "latitude": "29.927631994029102",
      "longitude": "-90.08101398962002"
    }
  },
  {
    "service_request": "2021-846336",
    "request_type": "Trash/Recycling",
    "request_reason": "MIssed Recycling Pick-Up",
    "date_created": "2021-12-06T20:23:28.000",
    "date_modified": "2021-12-06T21:00:51.000",
    "request_status": "Pending",
    "responsible_agency": "Department of Sanitation",
    "final_address": "2263 N Prieur St",
    "address_councildis": "D",
    "status": "Assigned to Contractor",
    "contractor": "Metro Disposal",
    "rowid": "846336",
    "final_x": "3685386.82025",
    "final_y": "539403.500874",
    "longitude": "-90.05551956282726",
    "latitude": "29.97705399287497",
    "geocoded_column": {
      "latitude": "29.97705399287497",
      "longitude": "-90.05551956282726"
    }
  },
  {
    "service_request": "2021-846334",
    "request_type": "Property Maintenance",
    "request_reason": "Property Maintenance",
    "date_created": "2021-12-06T20:19:16.000",
    "date_modified": "2021-12-06T21:00:55.000",
    "request_status": "Pending",
    "responsible_agency": "Department of Code Enforcement",
    "final_address": "2413 First St",
    "address_councildis": "B",
    "status": "Pending",
    "rowid": "846334",
    "final_x": "3675316.98965",
    "final_y": "525754.660477",
    "longitude": "-90.08779195405727",
    "latitude": "29.939829190177228",
    "geocoded_column": {
      "latitude": "29.939829190177228",
      "longitude": "-90.08779195405727"
    }
  },
  {
    "service_request": "2021-846333",
    "request_type": "Abandoned Vehicles",
    "request_reason": "Abandoned/Junk Vehicles",
    "date_created": "2021-12-06T20:18:50.000",
    "date_modified": "2021-12-06T21:00:57.000",
    "request_status": "Pending",
    "responsible_agency": "Department of Public Works",
    "final_address": "1615 Pine St, New Orleans, Louisiana, 70118",
    "address_councildis": "A",
    "status": "Pending",
    "rowid": "846333",
    "final_x": "3664873.9138",
    "final_y": "527935.324991",
    "longitude": "-90.12068953111442",
    "latitude": "29.946133322344316",
    "geocoded_column": {
      "latitude": "29.946133322344316",
      "longitude": "-90.12068953111442"
    }
  },
  {
    "service_request": "2021-846332",
    "request_type": "Trash/Recycling",
    "request_reason": "Replace Trash Cart",
    "date_created": "2021-12-06T20:18:18.000",
    "date_modified": "2021-12-06T20:18:19.000",
    "request_status": "Pending",
    "responsible_agency": "Department of Sanitation",
    "final_address": "3914 Annunciation St",
    "address_councildis": "B",
    "status": "Assigned to Contractor",
    "contractor": "Richards Disposal",
    "rowid": "846332",
    "final_x": "3673219.4235",
    "final_y": "517920.460086",
    "longitude": "-90.09468165615047",
    "latitude": "29.91835019302061",
    "geocoded_column": {
      "latitude": "29.91835019302061",
      "longitude": "-90.09468165615047"
    }
  },
  {
    "service_request": "2021-846331",
    "request_type": "Property Maintenance",
    "request_reason": "Property Maintenance",
    "date_created": "2021-12-06T20:13:56.000",
    "date_modified": "2021-12-06T21:00:58.000",
    "request_status": "Pending",
    "responsible_agency": "Department of Code Enforcement",
    "final_address": "2254 N Prieur St",
    "address_councildis": "D",
    "status": "Pending",
    "rowid": "846331",
    "final_x": "3685346.29621",
    "final_y": "539255.699402",
    "longitude": "-90.05565275570962",
    "latitude": "29.976648833205225",
    "geocoded_column": {
      "latitude": "29.976648833205225",
      "longitude": "-90.05565275570962"
    }
  },
  {
    "service_request": "2021-846330",
    "request_type": "Trash/Recycling",
    "request_reason": "Repair Trash Cart",
    "date_created": "2021-12-06T20:13:04.000",
    "date_modified": "2021-12-06T20:13:05.000",
    "request_status": "Pending",
    "responsible_agency": "Department of Sanitation",
    "final_address": "1210 N Gayoso St",
    "address_councildis": "A",
    "status": "Assigned to Contractor",
    "contractor": "Richards Disposal",
    "rowid": "846330",
    "final_x": "3676727.35553",
    "final_y": "539398.561162",
    "longitude": "-90.08286913326694",
    "latitude": "29.977303098085574",
    "geocoded_column": {
      "latitude": "29.977303098085574",
      "longitude": "-90.08286913326694"
    }
  },
  {
    "service_request": "2021-846329",
    "request_type": "Trash/Recycling",
    "request_reason": "Missed Trash Pick-Up",
    "date_created": "2021-12-06T20:04:08.000",
    "date_modified": "2021-12-06T21:01:00.000",
    "request_status": "Pending",
    "responsible_agency": "Department of Sanitation",
    "final_address": "539 S Scott St",
    "address_councildis": "B",
    "status": "Assigned to Contractor",
    "contractor": "Richards Disposal",
    "rowid": "846329",
    "final_x": "3670569.37659",
    "final_y": "536303.657095",
    "longitude": "-90.10242311821497",
    "latitude": "29.968976501532676",
    "geocoded_column": {
      "latitude": "29.968976501532676",
      "longitude": "-90.10242311821497"
    }
  },
  {
    "service_request": "2021-846328",
    "request_type": "Trash/Recycling",
    "request_reason": "Request a Large Item Pick Up",
    "date_created": "2021-12-06T20:03:11.000",
    "date_modified": "2021-12-06T21:01:02.000",
    "request_status": "Pending",
    "responsible_agency": "Department of Sanitation",
    "final_address": "2247 N Prieur St",
    "address_councildis": "D",
    "status": "Assigned to Contractor",
    "contractor": "Metro Disposal",
    "rowid": "846328",
    "final_x": "3685308.35561",
    "final_y": "539344.587146",
    "longitude": "-90.05576945356327",
    "latitude": "29.97689440654919",
    "geocoded_column": {
      "latitude": "29.97689440654919",
      "longitude": "-90.05576945356327"
    }
  },
  {
    "service_request": "2021-846327",
    "request_type": "Trash/Recycling",
    "request_reason": "Request a Large Item Pick Up",
    "date_created": "2021-12-06T19:52:24.000",
    "date_modified": "2021-12-06T20:00:59.000",
    "request_status": "Pending",
    "responsible_agency": "Department of Sanitation",
    "final_address": "2256 N Prieur St",
    "address_councildis": "D",
    "status": "Assigned to Contractor",
    "contractor": "Metro Disposal",
    "rowid": "846327",
    "final_x": "3685364.52533",
    "final_y": "539256.220234",
    "longitude": "-90.05559516427462",
    "latitude": "29.97664970638823",
    "geocoded_column": {
      "latitude": "29.97664970638823",
      "longitude": "-90.05559516427462"
    }
  },
  {
    "service_request": "2021-846326",
    "request_type": "COVID-19",
    "request_reason": "COVID-19 Business Non-Compliance",
    "date_created": "2021-12-06T19:52:07.000",
    "date_modified": "2021-12-06T19:52:08.000",
    "request_status": "Pending",
    "responsible_agency": "Safety and Permits",
    "final_address": "1755 St Charles Ave",
    "address_councildis": "B",
    "status": "Pending",
    "rowid": "846326",
    "final_x": "3678537.36731",
    "final_y": "524594.319356",
    "longitude": "-90.07766490001445",
    "latitude": "29.9365419876982",
    "geocoded_column": {
      "latitude": "29.9365419876982",
      "longitude": "-90.07766490001445"
    }
  },
  {
    "service_request": "2021-846325",
    "request_type": "Property Maintenance",
    "request_reason": "Property Maintenance",
    "date_created": "2021-12-06T19:49:35.000",
    "date_modified": "2021-12-06T19:49:35.000",
    "request_status": "Pending",
    "responsible_agency": "Department of Code Enforcement",
    "final_address": "2413 First St",
    "address_councildis": "B",
    "status": "Pending",
    "rowid": "846325",
    "final_x": "3675316.98965",
    "final_y": "525754.660477",
    "longitude": "-90.08779195405727",
    "latitude": "29.939829190177228",
    "geocoded_column": {
      "latitude": "29.939829190177228",
      "longitude": "-90.08779195405727"
    }
  },
  {
    "service_request": "2021-846324",
    "request_type": "Trash/Recycling",
    "request_reason": "Request a Large Item Pick Up",
    "date_created": "2021-12-06T19:49:18.000",
    "date_modified": "2021-12-06T19:49:19.000",
    "request_status": "Pending",
    "responsible_agency": "Department of Sanitation",
    "final_address": "2254 N Prieur St",
    "address_councildis": "D",
    "status": "Assigned to Contractor",
    "contractor": "Metro Disposal",
    "rowid": "846324",
    "final_x": "3685346.29621",
    "final_y": "539255.699402",
    "longitude": "-90.05565275570962",
    "latitude": "29.976648833205225",
    "geocoded_column": {
      "latitude": "29.976648833205225",
      "longitude": "-90.05565275570962"
    }
  },
  {
    "service_request": "2021-846323",
    "request_type": "Trash/Recycling",
    "request_reason": "Order Trash Cart",
    "date_created": "2021-12-06T19:38:55.000",
    "date_modified": "2021-12-06T19:38:55.000",
    "request_status": "Pending",
    "responsible_agency": "Department of Sanitation",
    "final_address": "7434 Canal Blvd",
    "address_councildis": "D",
    "status": "Assigned to Contractor",
    "contractor": "Metro Disposal",
    "rowid": "846323",
    "final_x": "3669142.27841",
    "final_y": "556238.874842",
    "longitude": "-90.10625579967761",
    "latitude": "30.02383354141289",
    "geocoded_column": {
      "latitude": "30.02383354141289",
      "longitude": "-90.10625579967761"
    }
  },
  {
    "service_request": "2021-846322",
    "request_type": "Trash/Recycling",
    "request_reason": "Illegal Dumping",
    "date_created": "2021-12-06T18:46:06.000",
    "date_modified": "2021-12-06T18:46:06.000",
    "request_status": "Pending",
    "responsible_agency": "Department of Sanitation",
    "final_address": "181 Eastpoint Ct",
    "address_councildis": "E",
    "status": "Pending",
    "rowid": "846322",
    "final_x": "3720920.35481",
    "final_y": "563302.116512",
    "longitude": "-89.94237844167213",
    "latitude": "30.041628308121375",
    "geocoded_column": {
      "latitude": "30.041628308121375",
      "longitude": "-89.94237844167213"
    }
  },
  {
    "service_request": "2021-846321",
    "request_type": "Trash/Recycling",
    "request_reason": "Replace Recycling Cart",
    "date_created": "2021-12-06T18:06:00.000",
    "date_modified": "2021-12-06T19:00:18.000",
    "request_status": "Pending",
    "responsible_agency": "Department of Sanitation",
    "final_address": "3032 Napoleon Ave, New Orleans, Louisiana, 70125",
    "address_councildis": "B",
    "status": "Pending",
    "rowid": "846321",
    "final_x": "3670173.60916",
    "final_y": "526200.028542",
    "longitude": "-90.10401530690797",
    "latitude": "29.94120653753787",
    "geocoded_column": {
      "latitude": "29.94120653753787",
      "longitude": "-90.10401530690797"
    }
  },
  {
    "service_request": "2021-846320",
    "request_type": "Traffic Signals/Signs/Striping/Streetlights",
    "request_reason": "Street Light Outage/Malfunction",
    "date_created": "2021-12-06T18:02:35.000",
    "date_modified": "2021-12-06T19:00:20.000",
    "request_status": "Pending",
    "responsible_agency": "Department of Public Works",
    "final_address": "10941 Morrison Rd",
    "address_councildis": "E",
    "status": "Pending",
    "contractor": "Royal Engineering",
    "rowid": "846320",
    "final_x": "3710917.04632",
    "final_y": "564958.643682",
    "longitude": "-89.9739301483621",
    "latitude": "30.046513188538185",
    "geocoded_column": {
      "latitude": "30.046513188538185",
      "longitude": "-89.9739301483621"
    }
  },
  {
    "service_request": "2021-846319",
    "request_type": "Traffic Signals/Signs/Striping/Streetlights",
    "request_reason": "Street Light Outage/Malfunction",
    "date_created": "2021-12-06T18:02:14.000",
    "date_modified": "2021-12-06T19:00:21.000",
    "request_status": "Pending",
    "responsible_agency": "Department of Public Works",
    "final_address": "10941 Morrison Rd",
    "address_councildis": "E",
    "status": "Pending",
    "contractor": "Royal Engineering",
    "rowid": "846319",
    "final_x": "3710917.04632",
    "final_y": "564958.643682",
    "longitude": "-89.9739301483621",
    "latitude": "30.046513188538185",
    "geocoded_column": {
      "latitude": "30.046513188538185",
      "longitude": "-89.9739301483621"
    }
  },
  {
    "service_request": "2021-846318",
    "request_type": "Traffic Signals/Signs/Striping/Streetlights",
    "request_reason": "Street Light Outage/Malfunction",
    "date_created": "2021-12-06T18:01:58.000",
    "date_modified": "2021-12-06T19:00:23.000",
    "request_status": "Pending",
    "responsible_agency": "Department of Public Works",
    "final_address": "10941 Morrison Rd",
    "address_councildis": "E",
    "status": "Pending",
    "contractor": "Royal Engineering",
    "rowid": "846318",
    "final_x": "3710917.04632",
    "final_y": "564958.643682",
    "longitude": "-89.9739301483621",
    "latitude": "30.046513188538185",
    "geocoded_column": {
      "latitude": "30.046513188538185",
      "longitude": "-89.9739301483621"
    }
  },
  {
    "service_request": "2021-846317",
    "request_type": "Traffic Signals/Signs/Striping/Streetlights",
    "request_reason": "Street Light Outage/Malfunction",
    "date_created": "2021-12-06T18:01:39.000",
    "date_modified": "2021-12-06T19:00:25.000",
    "request_status": "Pending",
    "responsible_agency": "Department of Public Works",
    "final_address": "10941 Morrison Rd",
    "address_councildis": "E",
    "status": "Pending",
    "contractor": "Royal Engineering",
    "rowid": "846317",
    "final_x": "3710917.04632",
    "final_y": "564958.643682",
    "longitude": "-89.9739301483621",
    "latitude": "30.046513188538185",
    "geocoded_column": {
      "latitude": "30.046513188538185",
      "longitude": "-89.9739301483621"
    }
  },
  {
    "service_request": "2021-846316",
    "request_type": "Traffic Signals/Signs/Striping/Streetlights",
    "request_reason": "Street Light Outage/Malfunction",
    "date_created": "2021-12-06T18:01:09.000",
    "date_modified": "2021-12-06T19:00:26.000",
    "request_status": "Pending",
    "responsible_agency": "Department of Public Works",
    "final_address": "10941 Morrison Rd",
    "address_councildis": "E",
    "status": "Pending",
    "contractor": "Royal Engineering",
    "rowid": "846316",
    "final_x": "3710917.04632",
    "final_y": "564958.643682",
    "longitude": "-89.9739301483621",
    "latitude": "30.046513188538185",
    "geocoded_column": {
      "latitude": "30.046513188538185",
      "longitude": "-89.9739301483621"
    }
  },
  {
    "service_request": "2021-846315",
    "request_type": "Traffic Signals/Signs/Striping/Streetlights",
    "request_reason": "Street Light Outage/Malfunction",
    "date_created": "2021-12-06T18:00:37.000",
    "date_modified": "2021-12-06T19:00:28.000",
    "request_status": "Pending",
    "responsible_agency": "Department of Public Works",
    "final_address": "10941 Morrison Rd",
    "address_councildis": "E",
    "status": "Pending",
    "contractor": "Royal Engineering",
    "rowid": "846315",
    "final_x": "3710917.04632",
    "final_y": "564958.643682",
    "longitude": "-89.9739301483621",
    "latitude": "30.046513188538185",
    "geocoded_column": {
      "latitude": "30.046513188538185",
      "longitude": "-89.9739301483621"
    }
  },
  {
    "service_request": "2021-846314",
    "request_type": "Abandoned Vehicles",
    "request_reason": "Abandoned/Junk Vehicles",
    "date_created": "2021-12-06T17:56:36.000",
    "date_modified": "2021-12-06T17:56:36.000",
    "request_status": "Pending",
    "responsible_agency": "Department of Public Works",
    "final_address": "2512 Conti St",
    "address_councildis": "B",
    "status": "Pending",
    "rowid": "846314",
    "final_x": "3676724.20392",
    "final_y": "535481.138758",
    "longitude": "-90.08301409363433",
    "latitude": "29.966531618917713",
    "geocoded_column": {
      "latitude": "29.966531618917713",
      "longitude": "-90.08301409363433"
    }
  },
  {
    "service_request": "2021-846313",
    "request_type": "Roads/Drainage",
    "request_reason": "Pothole",
    "date_created": "2021-12-06T17:50:35.000",
    "date_modified": "2021-12-06T17:50:35.000",
    "request_status": "Pending",
    "responsible_agency": "Department of Public Works",
    "final_address": "8140 Willow St",
    "address_councildis": "A",
    "status": "Pending",
    "rowid": "846313",
    "final_x": "3662186.04723",
    "final_y": "529067.678336",
    "longitude": "-90.12913851930671",
    "latitude": "29.949324873906754",
    "geocoded_column": {
      "latitude": "29.949324873906754",
      "longitude": "-90.12913851930671"
    }
  },
  {
    "service_request": "2021-846312",
    "request_type": "Abandoned Vehicles",
    "request_reason": "Abandoned/Junk Vehicles",
    "date_created": "2021-12-06T17:49:38.000",
    "date_modified": "2021-12-06T17:49:38.000",
    "request_status": "Pending",
    "responsible_agency": "Department of Public Works",
    "final_address": "2512 Conti St",
    "address_councildis": "B",
    "status": "Pending",
    "rowid": "846312",
    "final_x": "3676724.20392",
    "final_y": "535481.138758",
    "longitude": "-90.08301409363433",
    "latitude": "29.966531618917713",
    "geocoded_column": {
      "latitude": "29.966531618917713",
      "longitude": "-90.08301409363433"
    }
  },
  {
    "service_request": "2021-846311",
    "request_type": "Trash/Recycling",
    "request_reason": "Replace Trash Cart",
    "date_created": "2021-12-06T17:18:45.000",
    "date_modified": "2021-12-06T18:00:15.000",
    "request_status": "Pending",
    "responsible_agency": "Department of Sanitation",
    "final_address": "8901 Middleboro Rd",
    "address_councildis": "E",
    "status": "Assigned to Contractor",
    "contractor": "Metro Disposal",
    "rowid": "846311",
    "final_x": "3706096.46507",
    "final_y": "560860.240414",
    "longitude": "-89.98931750866801",
    "latitude": "30.035400573927166",
    "geocoded_column": {
      "latitude": "30.035400573927166",
      "longitude": "-89.98931750866801"
    }
  },
  {
    "service_request": "2021-846309",
    "request_type": "Trash/Recycling",
    "request_reason": "Missed Trash Pick-Up",
    "date_created": "2021-12-06T17:16:32.000",
    "date_modified": "2021-12-06T17:16:33.000",
    "request_status": "Pending",
    "responsible_agency": "Department of Sanitation",
    "final_address": "4674 Venus St",
    "address_councildis": "D",
    "status": "Assigned to Contractor",
    "contractor": "Metro Disposal",
    "rowid": "846309",
    "final_x": "3686442.36399",
    "final_y": "550219.611924",
    "longitude": "-90.0518037629815",
    "latitude": "30.006762019598067",
    "geocoded_column": {
      "latitude": "30.006762019598067",
      "longitude": "-90.0518037629815"
    }
  },
  {
    "service_request": "2021-846308",
    "request_type": "Mosquito, Termite & Rodent Control",
    "request_reason": "Non-Rodent Complaint (Mice, Possums, Snakes)",
    "date_created": "2021-12-06T17:16:23.000",
    "date_modified": "2021-12-06T17:16:23.000",
    "request_status": "Pending",
    "responsible_agency": "Mosquito, Termite & Rodent Control Board",
    "final_address": "8903 Middleboro Rd",
    "address_councildis": "E",
    "status": "Pending",
    "rowid": "846308",
    "final_x": "3706120.78135",
    "final_y": "560872.781406",
    "longitude": "-89.98924020084614",
    "latitude": "30.035434272453273",
    "geocoded_column": {
      "latitude": "30.035434272453273",
      "longitude": "-89.98924020084614"
    }
  },
  {
    "service_request": "2021-846307",
    "request_type": "Trash/Recycling",
    "request_reason": "Repair Trash Cart",
    "date_created": "2021-12-06T17:07:13.000",
    "date_modified": "2021-12-06T17:07:14.000",
    "request_status": "Pending",
    "responsible_agency": "Department of Sanitation",
    "final_address": "2929 Kabel Dr",
    "address_councildis": "C",
    "status": "Assigned to Contractor",
    "contractor": "Richards Disposal",
    "rowid": "846307",
    "final_x": "3700575.60957",
    "final_y": "520395.240824",
    "longitude": "-90.00824304180405",
    "latitude": "29.924313516086716",
    "geocoded_column": {
      "latitude": "29.924313516086716",
      "longitude": "-90.00824304180405"
    }
  },
  {
    "service_request": "2021-846305",
    "request_type": "Trash/Recycling",
    "request_reason": "Request a Large Item Pick Up",
    "date_created": "2021-12-06T16:52:09.000",
    "date_modified": "2021-12-06T17:00:09.000",
    "request_status": "Pending",
    "responsible_agency": "Department of Sanitation",
    "final_address": "1401 Caton St",
    "address_councildis": "D",
    "status": "Assigned to Contractor",
    "contractor": "Metro Disposal",
    "rowid": "846305",
    "final_x": "3678107.86914",
    "final_y": "546815.545617",
    "longitude": "-90.07825242855733",
    "latitude": "29.997655719650655",
    "geocoded_column": {
      "latitude": "29.997655719650655",
      "longitude": "-90.07825242855733"
    }
  },
  {
    "service_request": "2021-846304",
    "request_type": "Trash/Recycling",
    "request_reason": "Request a Large Item Pick Up",
    "date_created": "2021-12-06T16:45:53.000",
    "date_modified": "2021-12-06T17:00:11.000",
    "request_status": "Pending",
    "responsible_agency": "Department of Sanitation",
    "final_address": "3064 St Ann St",
    "address_councildis": "A",
    "status": "Assigned to Contractor",
    "contractor": "Richards Disposal",
    "rowid": "846304",
    "final_x": "3675469.58753",
    "final_y": "538280.125257",
    "longitude": "-90.0868800098404",
    "latitude": "29.974265464018007",
    "geocoded_column": {
      "latitude": "29.974265464018007",
      "longitude": "-90.0868800098404"
    }
  },
  {
    "service_request": "2021-846303",
    "request_type": "Trash/Recycling",
    "request_reason": "Missed Trash Pick-Up",
    "date_created": "2021-12-06T16:44:09.000",
    "date_modified": "2021-12-06T17:00:12.000",
    "request_status": "Pending",
    "responsible_agency": "Department of Sanitation",
    "final_address": "3064 St Ann St",
    "address_councildis": "A",
    "status": "Assigned to Contractor",
    "contractor": "Richards Disposal",
    "rowid": "846303",
    "final_x": "3675469.58753",
    "final_y": "538280.125257",
    "longitude": "-90.0868800098404",
    "latitude": "29.974265464018007",
    "geocoded_column": {
      "latitude": "29.974265464018007",
      "longitude": "-90.0868800098404"
    }
  },
  {
    "service_request": "2021-846302",
    "request_type": "Traffic Signals/Signs/Striping/Streetlights",
    "request_reason": "Street Light Outage/Malfunction",
    "date_created": "2021-12-06T16:42:21.000",
    "date_modified": "2021-12-06T17:00:13.000",
    "request_status": "Pending",
    "responsible_agency": "Department of Public Works",
    "final_address": "7584 Elmdale Rd",
    "address_councildis": "E",
    "status": "Pending",
    "contractor": "Royal Engineering",
    "rowid": "846302",
    "final_x": "3709528.46475",
    "final_y": "564700.351138",
    "longitude": "-89.97832840323991",
    "latitude": "30.04584821146247",
    "geocoded_column": {
      "latitude": "30.04584821146247",
      "longitude": "-89.97832840323991"
    }
  },
  {
    "service_request": "2021-846301",
    "request_type": "Trash/Recycling",
    "request_reason": "Request a Large Item Pick Up",
    "date_created": "2021-12-06T16:41:52.000",
    "date_modified": "2021-12-06T17:00:15.000",
    "request_status": "Pending",
    "responsible_agency": "Department of Sanitation",
    "final_address": "3101 Cambronne St",
    "address_councildis": "A",
    "status": "Assigned to Contractor",
    "contractor": "Richards Disposal",
    "rowid": "846301",
    "final_x": "3665798.00237",
    "final_y": "534120.450437",
    "longitude": "-90.11756465050563",
    "latitude": "29.96311347864441",
    "geocoded_column": {
      "latitude": "29.96311347864441",
      "longitude": "-90.11756465050563"
    }
  },
  {
    "service_request": "2021-846300",
    "request_type": "Traffic Signals/Signs/Striping/Streetlights",
    "request_reason": "Traffic Signal Malfunctioning/Damaged",
    "date_created": "2021-12-06T16:41:05.000",
    "date_modified": "2021-12-06T16:41:06.000",
    "request_status": "Pending",
    "responsible_agency": "Department of Public Works",
    "final_address": "I 10 W ONRAMP & S CARROLLTON EXIT & AIRLINE EXIT",
    "address_councildis": "A",
    "status": "Pending",
    "rowid": "846300",
    "final_x": "3668596.33",
    "final_y": "536058.69",
    "longitude": "-90.10866241877854",
    "latitude": "29.968361056101855",
    "geocoded_column": {
      "latitude": "29.968361056101855",
      "longitude": "-90.10866241877854"
    }
  },
  {
    "service_request": "2021-846299",
    "request_type": "Trash/Recycling",
    "request_reason": "Repair Trash Cart",
    "date_created": "2021-12-06T16:40:34.000",
    "date_modified": "2021-12-06T17:00:16.000",
    "request_status": "Pending",
    "responsible_agency": "Department of Sanitation",
    "final_address": "2329 Dauphine St",
    "address_councildis": "C",
    "status": "Assigned to Contractor",
    "contractor": "Metro Disposal",
    "rowid": "846299",
    "final_x": "3685749.61967",
    "final_y": "535365.659142",
    "longitude": "-90.05451605545984",
    "latitude": "29.965940207237647",
    "geocoded_column": {
      "latitude": "29.965940207237647",
      "longitude": "-90.05451605545984"
    }
  },
  {
    "service_request": "2021-846298",
    "request_type": "Property Maintenance",
    "request_reason": "Property Maintenance",
    "date_created": "2021-12-06T16:26:35.000",
    "date_modified": "2021-12-06T16:26:35.000",
    "request_status": "Pending",
    "responsible_agency": "Department of Code Enforcement",
    "final_address": "3500 Paris Ave",
    "address_councildis": "D",
    "status": "Pending",
    "rowid": "846298",
    "final_x": "3679637.32373",
    "final_y": "545176.456847",
    "longitude": "-90.0734778516958",
    "latitude": "29.99310265231316",
    "geocoded_column": {
      "latitude": "29.99310265231316",
      "longitude": "-90.0734778516958"
    }
  },
  {
    "service_request": "2021-846297",
    "request_type": "Traffic Signals/Signs/Striping/Streetlights",
    "request_reason": "Street Light Outage/Malfunction",
    "date_created": "2021-12-06T16:24:44.000",
    "date_modified": "2021-12-06T16:24:44.000",
    "request_status": "Pending",
    "responsible_agency": "Department of Public Works",
    "final_address": "221 Maumus Ave",
    "address_councildis": "C",
    "status": "Pending",
    "contractor": "Royal Engineering",
    "rowid": "846297",
    "final_x": "3706730.74737",
    "final_y": "516679.982901",
    "longitude": "-89.98895116936177",
    "latitude": "29.913900690831156",
    "geocoded_column": {
      "latitude": "29.913900690831156",
      "longitude": "-89.98895116936177"
    }
  },
  {
    "service_request": "2021-846296",
    "request_type": "Traffic Signals/Signs/Striping/Streetlights",
    "request_reason": "Street Light Outage/Malfunction",
    "date_created": "2021-12-06T16:23:11.000",
    "date_modified": "2021-12-06T16:23:53.000",
    "request_status": "Pending",
    "responsible_agency": "Department of Public Works",
    "final_address": "221 Maumus Ave",
    "address_councildis": "C",
    "status": "Pending",
    "contractor": "Royal Engineering",
    "rowid": "846296",
    "final_x": "3706730.74737",
    "final_y": "516679.982901",
    "longitude": "-89.98895116936177",
    "latitude": "29.913900690831156",
    "geocoded_column": {
      "latitude": "29.913900690831156",
      "longitude": "-89.98895116936177"
    }
  },
  {
    "service_request": "2021-846295",
    "request_type": "Trash/Recycling",
    "request_reason": "Repair Trash Cart",
    "date_created": "2021-12-06T16:22:01.000",
    "date_modified": "2021-12-06T16:22:02.000",
    "request_status": "Pending",
    "responsible_agency": "Department of Sanitation",
    "final_address": "13200 Willowbrook Dr",
    "address_councildis": "E",
    "status": "Assigned to Contractor",
    "contractor": "Metro Disposal",
    "rowid": "846295",
    "final_x": "3726470.82477",
    "final_y": "564175.674081",
    "longitude": "-89.92480324577345",
    "latitude": "30.043843796596896",
    "geocoded_column": {
      "latitude": "30.043843796596896",
      "longitude": "-89.92480324577345"
    }
  },
  {
    "service_request": "2021-846294",
    "request_type": "Trash/Recycling",
    "request_reason": "Request a Large Item Pick Up",
    "date_created": "2021-12-06T16:14:14.000",
    "date_modified": "2021-12-06T17:00:18.000",
    "request_status": "Pending",
    "responsible_agency": "Department of Sanitation",
    "final_address": "216 S Bernadotte St",
    "address_councildis": "A",
    "status": "Assigned to Contractor",
    "contractor": "Richards Disposal",
    "rowid": "846294",
    "final_x": "3668500.03521",
    "final_y": "539570.610954",
    "longitude": "-90.10884800279219",
    "latitude": "29.978020490790858",
    "geocoded_column": {
      "latitude": "29.978020490790858",
      "longitude": "-90.10884800279219"
    }
  },
  {
    "service_request": "2021-846293",
    "request_type": "Parks & Parkways",
    "request_reason": "Request Tree Service (Right of Way/Public Property)",
    "date_created": "2021-12-06T16:09:51.000",
    "date_modified": "2021-12-06T16:09:51.000",
    "request_status": "Pending",
    "responsible_agency": "Department of Parks & Parkway",
    "final_address": "5367 Magazine St",
    "address_councildis": "B",
    "status": "Pending",
    "rowid": "846293",
    "final_x": "3666917.39073",
    "final_y": "518796.428407",
    "longitude": "-90.11454446498311",
    "latitude": "29.920944648266012",
    "geocoded_column": {
      "latitude": "29.920944648266012",
      "longitude": "-90.11454446498311"
    }
  },
  {
    "service_request": "2021-846292",
    "request_type": "Traffic Signals/Signs/Striping/Streetlights",
    "request_reason": "Street Light Outage/Malfunction",
    "date_created": "2021-12-06T16:09:48.000",
    "date_modified": "2021-12-06T17:00:20.000",
    "request_status": "Pending",
    "responsible_agency": "Department of Public Works",
    "final_address": "7115 Crowder Blvd",
    "address_councildis": "E",
    "status": "Pending",
    "contractor": "Royal Engineering",
    "rowid": "846292",
    "final_x": "3704374.79364",
    "final_y": "559933.854301",
    "longitude": "-89.99479243930472",
    "latitude": "30.03290878937679",
    "geocoded_column": {
      "latitude": "30.03290878937679",
      "longitude": "-89.99479243930472"
    }
  },
  {
    "service_request": "2021-846291",
    "request_type": "Trash/Recycling",
    "request_reason": "Request a Large Item Pick Up",
    "date_created": "2021-12-06T16:07:12.000",
    "date_modified": "2021-12-06T16:07:13.000",
    "request_status": "Pending",
    "responsible_agency": "Department of Sanitation",
    "final_address": "3549 Pin Oak Ave",
    "address_councildis": "C",
    "status": "Assigned to Contractor",
    "contractor": "Richards Disposal",
    "rowid": "846291",
    "final_x": "3703539.2257",
    "final_y": "514909.499635",
    "longitude": "-89.99908964098069",
    "latitude": "29.909135043612313",
    "geocoded_column": {
      "latitude": "29.909135043612313",
      "longitude": "-89.99908964098069"
    }
  },
  {
    "service_request": "2021-846290",
    "request_type": "Traffic Signals/Signs/Striping/Streetlights",
    "request_reason": "Street Light Outage/Malfunction",
    "date_created": "2021-12-06T16:00:23.000",
    "date_modified": "2021-12-06T17:00:21.000",
    "request_status": "Pending",
    "responsible_agency": "Department of Public Works",
    "final_address": "4777 Charlene Dr",
    "address_councildis": "E",
    "status": "Pending",
    "contractor": "Royal Engineering",
    "rowid": "846290",
    "final_x": "3707945.83185",
    "final_y": "555814.582297",
    "longitude": "-89.98366106286178",
    "latitude": "30.021467217828825",
    "geocoded_column": {
      "latitude": "30.021467217828825",
      "longitude": "-89.98366106286178"
    }
  },
  {
    "service_request": "2021-846289",
    "request_type": "Traffic Signals/Signs/Striping/Streetlights",
    "request_reason": "Street Light Outage/Malfunction",
    "date_created": "2021-12-06T15:54:59.000",
    "date_modified": "2021-12-06T16:00:11.000",
    "request_status": "Pending",
    "responsible_agency": "Department of Public Works",
    "final_address": "4631 St Ferdinand Dr",
    "address_councildis": "D",
    "status": "Pending",
    "contractor": "Royal Engineering",
    "rowid": "846289",
    "final_x": "3689489.97558",
    "final_y": "550205.621652",
    "longitude": "-90.04217608526791",
    "latitude": "30.00662947776899",
    "geocoded_column": {
      "latitude": "30.00662947776899",
      "longitude": "-90.04217608526791"
    }
  },
  {
    "service_request": "2021-846288",
    "request_type": "Mosquito, Termite & Rodent Control",
    "request_reason": "Mosquito Complaint",
    "date_created": "2021-12-06T15:48:32.000",
    "date_modified": "2021-12-06T15:48:32.000",
    "request_status": "Pending",
    "responsible_agency": "Mosquito, Termite & Rodent Control Board",
    "final_address": "3606 Timber Wolf Ln",
    "address_councildis": "C",
    "status": "Pending",
    "rowid": "846288",
    "final_x": "3704449.05777",
    "final_y": "511021.24216",
    "longitude": "-89.9963612655899",
    "latitude": "29.898414495817317",
    "geocoded_column": {
      "latitude": "29.898414495817317",
      "longitude": "-89.9963612655899"
    }
  },
  {
    "service_request": "2021-846287",
    "request_type": "Trash/Recycling",
    "request_reason": "Missed Trash Pick-Up",
    "date_created": "2021-12-06T15:44:17.000",
    "date_modified": "2021-12-06T15:44:18.000",
    "request_status": "Pending",
    "responsible_agency": "Department of Sanitation",
    "final_address": "4970 Spain St",
    "address_councildis": "D",
    "status": "Assigned to Contractor",
    "contractor": "Metro Disposal",
    "rowid": "846287",
    "final_x": "3684863.09308",
    "final_y": "551343.236821",
    "longitude": "-90.05675353773086",
    "latitude": "30.009900051783465",
    "geocoded_column": {
      "latitude": "30.009900051783465",
      "longitude": "-90.05675353773086"
    }
  },
  {
    "service_request": "2021-846286",
    "request_type": "Abandoned Vehicles",
    "request_reason": "Abandoned/Junk Vehicles",
    "date_created": "2021-12-06T15:42:55.000",
    "date_modified": "2021-12-06T16:00:14.000",
    "request_status": "Pending",
    "responsible_agency": "Department of Public Works",
    "final_address": "4738 Palmyra St",
    "address_councildis": "A",
    "status": "Pending",
    "rowid": "846286",
    "final_x": "3668324.91252",
    "final_y": "539350.20577",
    "longitude": "-90.10940853937984",
    "latitude": "29.97741959541026",
    "geocoded_column": {
      "latitude": "29.97741959541026",
      "longitude": "-90.10940853937984"
    }
  },
  {
    "service_request": "2021-846285",
    "request_type": "Traffic Signals/Signs/Striping/Streetlights",
    "request_reason": "Street Light Outage/Malfunction",
    "date_created": "2021-12-06T15:41:01.000",
    "date_modified": "2021-12-06T16:00:15.000",
    "request_status": "Pending",
    "responsible_agency": "Department of Public Works",
    "final_address": "4631 Saint Ferdinand Dr, New Orleans, Louisiana, 70126",
    "status": "Pending",
    "contractor": "Royal Engineering",
    "rowid": "846285",
    "longitude": "0.0",
    "latitude": "0.0",
    "geocoded_column": {
      "latitude": "0.0",
      "longitude": "0.0"
    }
  },
  {
    "service_request": "2021-846284",
    "request_type": "Trash/Recycling",
    "request_reason": "Request a Large Item Pick Up",
    "date_created": "2021-12-06T15:39:58.000",
    "date_modified": "2021-12-06T16:00:17.000",
    "request_status": "Pending",
    "responsible_agency": "Department of Sanitation",
    "final_address": "1009 Bellecastle St",
    "address_councildis": "B",
    "status": "Assigned to Contractor",
    "contractor": "Richards Disposal",
    "rowid": "846284",
    "final_x": "3667794.50836",
    "final_y": "519098.920823",
    "longitude": "-90.11176561313958",
    "latitude": "29.921750724569968",
    "geocoded_column": {
      "latitude": "29.921750724569968",
      "longitude": "-90.11176561313958"
    }
  },
  {
    "service_request": "2021-846283",
    "request_type": "Parks & Parkways",
    "request_reason": "Request Tree Service (Right of Way/Public Property)",
    "date_created": "2021-12-06T15:39:08.000",
    "date_modified": "2021-12-06T16:00:19.000",
    "request_status": "Pending",
    "responsible_agency": "Department of Parks & Parkway",
    "final_address": "1201 Poland Ave",
    "address_councildis": "D",
    "status": "Pending",
    "rowid": "846283",
    "final_x": "3693196.42512",
    "final_y": "535377.862662",
    "longitude": "-90.0309989273187",
    "latitude": "29.96574313692708",
    "geocoded_column": {
      "latitude": "29.96574313692708",
      "longitude": "-90.0309989273187"
    }
  },
  {
    "service_request": "2021-846282",
    "request_type": "Trash/Recycling",
    "request_reason": "Replace Recycling Cart",
    "date_created": "2021-12-06T15:36:29.000",
    "date_modified": "2021-12-06T16:00:22.000",
    "request_status": "Pending",
    "responsible_agency": "Department of Sanitation",
    "final_address": "1009 Bellecastle St",
    "address_councildis": "B",
    "status": "Pending",
    "rowid": "846282",
    "final_x": "3667794.50836",
    "final_y": "519098.920823",
    "longitude": "-90.11176561313958",
    "latitude": "29.921750724569968",
    "geocoded_column": {
      "latitude": "29.921750724569968",
      "longitude": "-90.11176561313958"
    }
  },
  {
    "service_request": "2021-846281",
    "request_type": "Trash/Recycling",
    "request_reason": "Replace Trash Cart",
    "date_created": "2021-12-06T15:34:51.000",
    "date_modified": "2021-12-06T16:00:26.000",
    "request_status": "Pending",
    "responsible_agency": "Department of Sanitation",
    "final_address": "1009 Bellecastle St",
    "address_councildis": "B",
    "status": "Assigned to Contractor",
    "contractor": "Richards Disposal",
    "rowid": "846281",
    "final_x": "3667794.50836",
    "final_y": "519098.920823",
    "longitude": "-90.11176561313958",
    "latitude": "29.921750724569968",
    "geocoded_column": {
      "latitude": "29.921750724569968",
      "longitude": "-90.11176561313958"
    }
  },
  {
    "service_request": "2021-846279",
    "request_type": "Property Maintenance",
    "request_reason": "Property Maintenance",
    "date_created": "2021-12-06T15:31:22.000",
    "date_modified": "2021-12-06T16:00:34.000",
    "request_status": "Pending",
    "responsible_agency": "Department of Code Enforcement",
    "final_address": "2521 Dryades St",
    "address_councildis": "B",
    "status": "Pending",
    "rowid": "846279",
    "final_x": "3675923.48942",
    "final_y": "523880.847356",
    "longitude": "-90.08594154690756",
    "latitude": "29.934658676203817",
    "geocoded_column": {
      "latitude": "29.934658676203817",
      "longitude": "-90.08594154690756"
    }
  },
  {
    "service_request": "2021-846277",
    "request_type": "Roads/Drainage",
    "request_reason": "Bicycle Hazardous Incident Reporting",
    "date_created": "2021-12-06T15:25:42.000",
    "date_modified": "2021-12-06T15:25:42.000",
    "request_status": "Pending",
    "responsible_agency": "Health Department",
    "final_address": "1413 N Claiborne Ave",
    "address_councildis": "D",
    "status": "Pending",
    "rowid": "846277",
    "final_x": "3681257.33045",
    "final_y": "536751.222728",
    "longitude": "-90.06865426932183",
    "latitude": "29.969887123764625",
    "geocoded_column": {
      "latitude": "29.969887123764625",
      "longitude": "-90.06865426932183"
    }
  },
  {
    "service_request": "2021-846276",
    "request_type": "Trash/Recycling",
    "request_reason": "Illegal Dumping",
    "date_created": "2021-12-06T15:22:12.000",
    "date_modified": "2021-12-06T15:22:12.000",
    "request_status": "Pending",
    "responsible_agency": "Department of Sanitation",
    "final_address": "ANNETTE ST & N ROMAN ST",
    "address_councildis": "D",
    "status": "Pending",
    "rowid": "846276",
    "final_x": "3682939.8",
    "final_y": "538727.28",
    "longitude": "-90.06327170497366",
    "latitude": "29.97526942829095",
    "geocoded_column": {
      "latitude": "29.97526942829095",
      "longitude": "-90.06327170497366"
    }
  },
  {
    "service_request": "2021-846275",
    "request_type": "Trash/Recycling",
    "request_reason": "Replace Trash Cart",
    "date_created": "2021-12-06T15:10:24.000",
    "date_modified": "2021-12-06T16:00:36.000",
    "request_status": "Pending",
    "responsible_agency": "Department of Sanitation",
    "final_address": "4826 Magazine St",
    "address_councildis": "B",
    "status": "Assigned to Contractor",
    "contractor": "Richards Disposal",
    "rowid": "846275",
    "final_x": "3669354.29447",
    "final_y": "518575.238711",
    "longitude": "-90.10685971432024",
    "latitude": "29.92026494869787",
    "geocoded_column": {
      "latitude": "29.92026494869787",
      "longitude": "-90.10685971432024"
    }
  },
  {
    "service_request": "2021-846274",
    "request_type": "Trash/Recycling",
    "request_reason": "Stop Trash Service",
    "date_created": "2021-12-06T15:08:01.000",
    "date_modified": "2021-12-06T15:08:02.000",
    "request_status": "Pending",
    "responsible_agency": "Department of Sanitation",
    "final_address": "4500 Magazine St Ste 1",
    "address_councildis": "B",
    "status": "Assigned to Contractor",
    "contractor": "Richards Disposal",
    "rowid": "846274",
    "final_x": "3670597.8146",
    "final_y": "518708.748983",
    "longitude": "-90.10292997584068",
    "latitude": "29.920595402074916",
    "geocoded_column": {
      "latitude": "29.920595402074916",
      "longitude": "-90.10292997584068"
    }
  },
  {
    "service_request": "2021-846273",
    "request_type": "Trash/Recycling",
    "request_reason": "Request a Large Item Pick Up",
    "date_created": "2021-12-06T15:03:36.000",
    "date_modified": "2021-12-06T15:03:37.000",
    "request_status": "Pending",
    "responsible_agency": "Department of Sanitation",
    "final_address": "3617 Livingston St",
    "address_councildis": "A",
    "status": "Assigned to Contractor",
    "contractor": "Richards Disposal",
    "rowid": "846273",
    "final_x": "3664218.90445",
    "final_y": "538088.970633",
    "longitude": "-90.12241883736526",
    "latitude": "29.97407157466418",
    "geocoded_column": {
      "latitude": "29.97407157466418",
      "longitude": "-90.12241883736526"
    }
  },
  {
    "service_request": "2021-846272",
    "request_type": "Trash/Recycling",
    "request_reason": "Request a Large Item Pick Up",
    "date_created": "2021-12-06T15:01:14.000",
    "date_modified": "2021-12-06T15:01:15.000",
    "request_status": "Pending",
    "responsible_agency": "Department of Sanitation",
    "final_address": "3127 Cambronne St",
    "address_councildis": "A",
    "status": "Assigned to Contractor",
    "contractor": "Richards Disposal",
    "rowid": "846272",
    "final_x": "3665916.97812",
    "final_y": "534252.444101",
    "longitude": "-90.11718451379703",
    "latitude": "29.96347294613625",
    "geocoded_column": {
      "latitude": "29.96347294613625",
      "longitude": "-90.11718451379703"
    }
  },
  {
    "service_request": "2021-846270",
    "request_type": "Roads/Drainage",
    "request_reason": "Pothole",
    "date_created": "2021-12-06T14:56:37.000",
    "date_modified": "2021-12-06T14:56:38.000",
    "request_status": "Pending",
    "responsible_agency": "Department of Public Works",
    "final_address": "1122 Columbus St",
    "address_councildis": "C",
    "status": "Pending",
    "rowid": "846270",
    "final_x": "3683079.00335",
    "final_y": "535855.527815",
    "longitude": "-90.06293262125914",
    "latitude": "29.967368861765916",
    "geocoded_column": {
      "latitude": "29.967368861765916",
      "longitude": "-90.06293262125914"
    }
  },
  {
    "service_request": "2021-846269",
    "request_type": "Trash/Recycling",
    "request_reason": "Replace Trash Cart",
    "date_created": "2021-12-06T14:54:37.000",
    "date_modified": "2021-12-06T15:00:17.000",
    "request_status": "Pending",
    "responsible_agency": "Department of Sanitation",
    "final_address": "6743 Colbert St",
    "address_councildis": "A",
    "status": "Assigned to Contractor",
    "contractor": "Metro Disposal",
    "rowid": "846269",
    "final_x": "3667971.9305",
    "final_y": "552476.414742",
    "longitude": "-90.1100808001325",
    "latitude": "30.013522517359874",
    "geocoded_column": {
      "latitude": "30.013522517359874",
      "longitude": "-90.1100808001325"
    }
  },
  {
    "service_request": "2021-846268",
    "request_type": "Trash/Recycling",
    "request_reason": "Request a Large Item Pick Up",
    "date_created": "2021-12-06T14:52:59.000",
    "date_modified": "2021-12-06T15:00:24.000",
    "request_status": "Pending",
    "responsible_agency": "Department of Sanitation",
    "final_address": "912 Dublin St",
    "address_councildis": "A",
    "status": "Assigned to Contractor",
    "contractor": "Richards Disposal",
    "rowid": "846268",
    "final_x": "3661030.24454",
    "final_y": "527932.678975",
    "longitude": "-90.13282546876816",
    "latitude": "29.946237336911732",
    "geocoded_column": {
      "latitude": "29.946237336911732",
      "longitude": "-90.13282546876816"
    }
  },
  {
    "service_request": "2021-846267",
    "request_type": "Traffic Signals/Signs/Striping/Streetlights",
    "request_reason": "Street Light Outage/Malfunction",
    "date_created": "2021-12-06T14:51:26.000",
    "date_modified": "2021-12-06T14:51:27.000",
    "request_status": "Pending",
    "responsible_agency": "Department of Public Works",
    "final_address": "1726 Washington Ave",
    "address_councildis": "B",
    "status": "Pending",
    "contractor": "Royal Engineering",
    "rowid": "846267",
    "final_x": "3675545.85934",
    "final_y": "523019.290299",
    "longitude": "-90.08716329986771",
    "latitude": "29.93230097352599",
    "geocoded_column": {
      "latitude": "29.93230097352599",
      "longitude": "-90.08716329986771"
    }
  },
  {
    "service_request": "2021-846266",
    "request_type": "Traffic Signals/Signs/Striping/Streetlights",
    "request_reason": "Street Light Outage/Malfunction",
    "date_created": "2021-12-06T14:49:51.000",
    "date_modified": "2021-12-06T15:00:27.000",
    "request_status": "Pending",
    "responsible_agency": "Department of Public Works",
    "final_address": "1805 Robert St",
    "address_councildis": "B",
    "status": "Pending",
    "contractor": "Royal Engineering",
    "rowid": "846266",
    "final_x": "3668803.73166",
    "final_y": "522224.801658",
    "longitude": "-90.10847444148813",
    "latitude": "29.93031628080378",
    "geocoded_column": {
      "latitude": "29.93031628080378",
      "longitude": "-90.10847444148813"
    }
  },
  {
    "service_request": "2021-846265",
    "request_type": "Trash/Recycling",
    "request_reason": "Request a Large Item Pick Up",
    "date_created": "2021-12-06T14:47:22.000",
    "date_modified": "2021-12-06T14:47:23.000",
    "request_status": "Pending",
    "responsible_agency": "Department of Sanitation",
    "final_address": "1720 Washington Ave Unit 4",
    "address_councildis": "B",
    "status": "Assigned to Contractor",
    "contractor": "Richards Disposal",
    "rowid": "846265",
    "final_x": "3675549.38843",
    "final_y": "522986.934331",
    "longitude": "-90.08715326974408",
    "latitude": "29.93221189960906",
    "geocoded_column": {
      "latitude": "29.93221189960906",
      "longitude": "-90.08715326974408"
    }
  },
  {
    "service_request": "2021-846264",
    "request_type": "Trash/Recycling",
    "request_reason": "Start Trash Service",
    "date_created": "2021-12-06T14:47:21.000",
    "date_modified": "2021-12-06T14:47:22.000",
    "request_status": "Pending",
    "responsible_agency": "Department of Sanitation",
    "final_address": "4844 Camp St",
    "address_councildis": "B",
    "status": "Assigned to Contractor",
    "contractor": "Richards Disposal",
    "rowid": "846264",
    "final_x": "3669143.45127",
    "final_y": "518872.279607",
    "longitude": "-90.1075152176464",
    "latitude": "29.921087921073568",
    "geocoded_column": {
      "latitude": "29.921087921073568",
      "longitude": "-90.1075152176464"
    }
  },
  {
    "service_request": "2021-846262",
    "request_type": "Trash/Recycling",
    "request_reason": "Missed Trash Pick-Up",
    "date_created": "2021-12-06T14:46:02.000",
    "date_modified": "2021-12-06T14:46:04.000",
    "request_status": "Pending",
    "responsible_agency": "Department of Sanitation",
    "final_address": "1732 Flanders St",
    "address_councildis": "C",
    "status": "Assigned to Contractor",
    "contractor": "Richards Disposal",
    "rowid": "846262",
    "final_x": "3696713.54832",
    "final_y": "524863.941308",
    "longitude": "-90.02027251795671",
    "latitude": "29.93672315214111",
    "geocoded_column": {
      "latitude": "29.93672315214111",
      "longitude": "-90.02027251795671"
    }
  },
  {
    "service_request": "2021-846261",
    "request_type": "Trash/Recycling",
    "request_reason": "Request a Large Item Pick Up",
    "date_created": "2021-12-06T14:44:34.000",
    "date_modified": "2021-12-06T15:00:32.000",
    "request_status": "Pending",
    "responsible_agency": "Department of Sanitation",
    "final_address": "3724 Silver Maple Ct",
    "address_councildis": "C",
    "status": "Assigned to Contractor",
    "contractor": "Richards Disposal",
    "rowid": "846261",
    "final_x": "3703300.00209",
    "final_y": "512711.661233",
    "longitude": "-89.99992538905167",
    "latitude": "29.90309939231965",
    "geocoded_column": {
      "latitude": "29.90309939231965",
      "longitude": "-89.99992538905167"
    }
  },
  {
    "service_request": "2021-846260",
    "request_type": "Abandoned Vehicles",
    "request_reason": "Abandoned/Junk Vehicles",
    "date_created": "2021-12-06T14:42:21.000",
    "date_modified": "2021-12-06T15:00:34.000",
    "request_status": "Pending",
    "responsible_agency": "Department of Public Works",
    "final_address": "8300 Sycamore St",
    "address_councildis": "A",
    "status": "Pending",
    "rowid": "846260",
    "final_x": "3663721.34311",
    "final_y": "531468.588483",
    "longitude": "-90.12421089110305",
    "latitude": "29.9558821455199",
    "geocoded_column": {
      "latitude": "29.9558821455199",
      "longitude": "-90.12421089110305"
    }
  },
  {
    "service_request": "2021-846258",
    "request_type": "Trash/Recycling",
    "request_reason": "Missed Trash Pick-Up",
    "date_created": "2021-12-06T14:40:31.000",
    "date_modified": "2021-12-06T15:09:08.000",
    "case_close_date": "2021-12-06T09:09:08.000",
    "request_status": "Closed",
    "responsible_agency": "Department of Sanitation",
    "final_address": "3809 Texas Dr",
    "address_councildis": "C",
    "status": "Invalid Case",
    "contractor": "Richards Disposal",
    "rowid": "846258",
    "final_x": "3696440.10109",
    "final_y": "517842.02207",
    "longitude": "-90.02138961956024",
    "latitude": "29.917423883944068",
    "geocoded_column": {
      "latitude": "29.917423883944068",
      "longitude": "-90.02138961956024"
    }
  },
  {
    "service_request": "2021-846257",
    "request_type": "Trash/Recycling",
    "request_reason": "Request a Large Item Pick Up",
    "date_created": "2021-12-06T14:40:04.000",
    "date_modified": "2021-12-06T15:00:38.000",
    "request_status": "Pending",
    "responsible_agency": "Department of Sanitation",
    "final_address": "1014 Michael St",
    "address_councildis": "C",
    "status": "Assigned to Contractor",
    "contractor": "Richards Disposal",
    "rowid": "846257",
    "final_x": "3697298.48893",
    "final_y": "527541.525311",
    "longitude": "-90.01832883169536",
    "latitude": "29.944067135287916",
    "geocoded_column": {
      "latitude": "29.944067135287916",
      "longitude": "-90.01832883169536"
    }
  },
  {
    "service_request": "2021-846256",
    "request_type": "Trash/Recycling",
    "request_reason": "Request a Large Item Pick Up",
    "date_created": "2021-12-06T14:35:53.000",
    "date_modified": "2021-12-06T15:00:40.000",
    "request_status": "Pending",
    "responsible_agency": "Department of Sanitation",
    "final_address": "2607 Marengo St",
    "address_councildis": "B",
    "status": "Assigned to Contractor",
    "contractor": "Richards Disposal",
    "rowid": "846256",
    "final_x": "3671658.85716",
    "final_y": "524582.84102",
    "longitude": "-90.09938107322459",
    "latitude": "29.936715898734636",
    "geocoded_column": {
      "latitude": "29.936715898734636",
      "longitude": "-90.09938107322459"
    }
  },
  {
    "service_request": "2021-846255",
    "request_type": "Trash/Recycling",
    "request_reason": "Illegal Dumping",
    "date_created": "2021-12-06T14:35:34.000",
    "date_modified": "2021-12-06T15:00:48.000",
    "request_status": "Pending",
    "responsible_agency": "Department of Sanitation",
    "final_address": "LAKE FOREST BLVD & PARC BRITTANY BLVD",
    "address_councildis": "E",
    "status": "Pending",
    "rowid": "846255",
    "final_x": "3703013.1",
    "final_y": "556785.28",
    "longitude": "-89.99921133030972",
    "latitude": "30.024295099116646",
    "geocoded_column": {
      "latitude": "30.024295099116646",
      "longitude": "-89.99921133030972"
    }
  },
  {
    "service_request": "2021-846254",
    "request_type": "Trash/Recycling",
    "request_reason": "Start Trash Service",
    "date_created": "2021-12-06T14:34:31.000",
    "date_modified": "2021-12-06T14:34:32.000",
    "request_status": "Pending",
    "responsible_agency": "Department of Sanitation",
    "final_address": "3419 Delachaise St",
    "address_councildis": "B",
    "status": "Assigned to Contractor",
    "contractor": "Richards Disposal",
    "rowid": "846254",
    "final_x": "3671467.9282",
    "final_y": "527560.194751",
    "longitude": "-90.09988266268614",
    "latitude": "29.94490830532054",
    "geocoded_column": {
      "latitude": "29.94490830532054",
      "longitude": "-90.09988266268614"
    }
  },
  {
    "service_request": "2021-846253",
    "request_type": "Trash/Recycling",
    "request_reason": "Order Recycling Cart",
    "date_created": "2021-12-06T14:31:44.000",
    "date_modified": "2021-12-06T15:00:50.000",
    "request_status": "Pending",
    "responsible_agency": "Department of Sanitation",
    "final_address": "2333 Andry St",
    "address_councildis": "E",
    "status": "Pending",
    "rowid": "846253",
    "final_x": "3698516.11677",
    "final_y": "538693.396617",
    "longitude": "-90.014079083208",
    "latitude": "29.97469234119386",
    "geocoded_column": {
      "latitude": "29.97469234119386",
      "longitude": "-90.014079083208"
    }
  },
  {
    "service_request": "2021-846252",
    "request_type": "Trash/Recycling",
    "request_reason": "Order Trash Cart",
    "date_created": "2021-12-06T14:31:20.000",
    "date_modified": "2021-12-06T15:00:53.000",
    "request_status": "Pending",
    "responsible_agency": "Department of Sanitation",
    "final_address": "2333 Andry St",
    "address_councildis": "E",
    "status": "Assigned to Contractor",
    "contractor": "Metro Disposal",
    "rowid": "846252",
    "final_x": "3698516.11677",
    "final_y": "538693.396617",
    "longitude": "-90.014079083208",
    "latitude": "29.97469234119386",
    "geocoded_column": {
      "latitude": "29.97469234119386",
      "longitude": "-90.014079083208"
    }
  },
  {
    "service_request": "2021-846251",
    "request_type": "Trash/Recycling",
    "request_reason": "Replace Trash Cart",
    "date_created": "2021-12-06T14:30:23.000",
    "date_modified": "2021-12-06T15:00:55.000",
    "request_status": "Pending",
    "responsible_agency": "Department of Sanitation",
    "final_address": "3505 Cleveland Ave",
    "address_councildis": "B",
    "status": "Assigned to Contractor",
    "contractor": "Richards Disposal",
    "rowid": "846251",
    "final_x": "3672581.9963",
    "final_y": "536734.196231",
    "longitude": "-90.09605243691874",
    "latitude": "29.970100736739838",
    "geocoded_column": {
      "latitude": "29.970100736739838",
      "longitude": "-90.09605243691874"
    }
  },
  {
    "service_request": "2021-846250",
    "request_type": "Roads/Drainage",
    "request_reason": "Damaged Sidewalk",
    "date_created": "2021-12-06T14:29:00.000",
    "date_modified": "2021-12-06T15:00:57.000",
    "request_status": "Pending",
    "responsible_agency": "Department of Public Works",
    "final_address": "1015 Jena St",
    "address_councildis": "B",
    "status": "Pending",
    "rowid": "846250",
    "final_x": "3670656.57447",
    "final_y": "519283.009591",
    "longitude": "-90.10272502996892",
    "latitude": "29.92217270131177",
    "geocoded_column": {
      "latitude": "29.92217270131177",
      "longitude": "-90.10272502996892"
    }
  },
  {
    "service_request": "2021-846249",
    "request_type": "Abandoned Vehicles",
    "request_reason": "Abandoned/Junk Vehicles",
    "date_created": "2021-12-06T14:28:08.000",
    "date_modified": "2021-12-06T14:28:08.000",
    "request_status": "Pending",
    "responsible_agency": "Department of Public Works",
    "final_address": "2809 St Peter St",
    "address_councildis": "A",
    "status": "Pending",
    "rowid": "846249",
    "final_x": "3676145.8548",
    "final_y": "537292.46932",
    "longitude": "-90.0847781862702",
    "latitude": "29.97152950226773",
    "geocoded_column": {
      "latitude": "29.97152950226773",
      "longitude": "-90.0847781862702"
    }
  },
  {
    "service_request": "2021-846248",
    "request_type": "Traffic Signals/Signs/Striping/Streetlights",
    "request_reason": "Street Light Outage/Malfunction",
    "date_created": "2021-12-06T14:26:32.000",
    "date_modified": "2021-12-06T14:26:33.000",
    "request_status": "Pending",
    "responsible_agency": "Department of Public Works",
    "final_address": "BIENVILLE ST & N NORMAN C FRANCIS PKWY",
    "address_councildis": "B",
    "status": "Pending",
    "contractor": "Royal Engineering",
    "rowid": "846248",
    "final_x": "3673749.11",
    "final_y": "537287.02",
    "longitude": "-90.09234765822355",
    "latitude": "29.971586110661946",
    "geocoded_column": {
      "latitude": "29.971586110661946",
      "longitude": "-90.09234765822355"
    }
  },
  {
    "service_request": "2021-846247",
    "request_type": "Traffic Signals/Signs/Striping/Streetlights",
    "request_reason": "Street Light Outage/Malfunction",
    "date_created": "2021-12-06T14:25:29.000",
    "date_modified": "2021-12-06T14:25:30.000",
    "request_status": "Pending",
    "responsible_agency": "Department of Public Works",
    "final_address": "BIENVILLE ST & N NORMAN C FRANCIS PKWY",
    "address_councildis": "B",
    "status": "Pending",
    "contractor": "Royal Engineering",
    "rowid": "846247",
    "final_x": "3673749.11",
    "final_y": "537287.02",
    "longitude": "-90.09234765822355",
    "latitude": "29.971586110661946",
    "geocoded_column": {
      "latitude": "29.971586110661946",
      "longitude": "-90.09234765822355"
    }
  },
  {
    "service_request": "2021-846246",
    "request_type": "Traffic Signals/Signs/Striping/Streetlights",
    "request_reason": "Street Light Outage/Malfunction",
    "date_created": "2021-12-06T14:24:54.000",
    "date_modified": "2021-12-06T14:24:55.000",
    "request_status": "Pending",
    "responsible_agency": "Department of Public Works",
    "final_address": "BIENVILLE ST & N NORMAN C FRANCIS PKWY",
    "address_councildis": "B",
    "status": "Pending",
    "contractor": "Royal Engineering",
    "rowid": "846246",
    "final_x": "3673749.11",
    "final_y": "537287.02",
    "longitude": "-90.09234765822355",
    "latitude": "29.971586110661946",
    "geocoded_column": {
      "latitude": "29.971586110661946",
      "longitude": "-90.09234765822355"
    }
  },
  {
    "service_request": "2021-846245",
    "request_type": "Trash/Recycling",
    "request_reason": "Replace Trash Cart",
    "date_created": "2021-12-06T14:24:08.000",
    "date_modified": "2021-12-06T14:24:09.000",
    "request_status": "Pending",
    "responsible_agency": "Department of Sanitation",
    "final_address": "2301 Magazine St",
    "address_councildis": "B",
    "status": "Assigned to Contractor",
    "contractor": "Richards Disposal",
    "rowid": "846245",
    "final_x": "3678487.91016",
    "final_y": "521851.003578",
    "longitude": "-90.07791592815494",
    "latitude": "29.929000259503336",
    "geocoded_column": {
      "latitude": "29.929000259503336",
      "longitude": "-90.07791592815494"
    }
  },
  {
    "service_request": "2021-846244",
    "request_type": "Property Maintenance",
    "request_reason": "Property Maintenance",
    "date_created": "2021-12-06T14:24:07.000",
    "date_modified": "2021-12-06T14:24:07.000",
    "request_status": "Pending",
    "responsible_agency": "Department of Code Enforcement",
    "final_address": "1563 N Johnson St",
    "address_councildis": "D",
    "status": "Pending",
    "rowid": "846244",
    "final_x": "3680901.73019",
    "final_y": "538506.849545",
    "longitude": "-90.06971614497652",
    "latitude": "29.97472527864403",
    "geocoded_column": {
      "latitude": "29.97472527864403",
      "longitude": "-90.06971614497652"
    }
  },
  {
    "service_request": "2021-846243",
    "request_type": "Trash/Recycling",
    "request_reason": "Missed Trash Pick-Up",
    "date_created": "2021-12-06T14:21:11.000",
    "date_modified": "2021-12-06T14:21:12.000",
    "request_status": "Pending",
    "responsible_agency": "Department of Sanitation",
    "final_address": "6218 Spain St",
    "address_councildis": "D",
    "status": "Assigned to Contractor",
    "contractor": "Metro Disposal",
    "rowid": "846243",
    "final_x": "3684496.47106",
    "final_y": "556089.508762",
    "longitude": "-90.0577448961377",
    "latitude": "30.0229617858896",
    "geocoded_column": {
      "latitude": "30.0229617858896",
      "longitude": "-90.0577448961377"
    }
  },
  {
    "service_request": "2021-846242",
    "request_type": "Abandoned Vehicles",
    "request_reason": "Abandoned/Junk Vehicles",
    "date_created": "2021-12-06T14:09:46.000",
    "date_modified": "2021-12-06T14:09:46.000",
    "request_status": "Pending",
    "responsible_agency": "Department of Public Works",
    "final_address": "3444 Desaix Blvd",
    "address_councildis": "A",
    "status": "Pending",
    "rowid": "846242",
    "final_x": "3676504.87931",
    "final_y": "543558.642254",
    "longitude": "-90.0834284653697",
    "latitude": "29.98874855653939",
    "geocoded_column": {
      "latitude": "29.98874855653939",
      "longitude": "-90.0834284653697"
    }
  },
  {
    "service_request": "2021-846241",
    "request_type": "Mosquito, Termite & Rodent Control",
    "request_reason": "Rodent Complaint (Rats)",
    "date_created": "2021-12-06T14:09:21.000",
    "date_modified": "2021-12-06T14:09:21.000",
    "request_status": "Pending",
    "responsible_agency": "Mosquito, Termite & Rodent Control Board",
    "final_address": "4713 Francis Dr",
    "address_councildis": "D",
    "status": "Pending",
    "rowid": "846241",
    "final_x": "3698313.02877",
    "final_y": "554175.147032",
    "longitude": "-90.01415756517792",
    "latitude": "30.0172678585887",
    "geocoded_column": {
      "latitude": "30.0172678585887",
      "longitude": "-90.01415756517792"
    }
  },
  {
    "service_request": "2021-846240",
    "request_type": "Trash/Recycling",
    "request_reason": "Repair Trash Cart",
    "date_created": "2021-12-06T14:07:44.000",
    "date_modified": "2021-12-06T15:00:58.000",
    "request_status": "Pending",
    "responsible_agency": "Department of Sanitation",
    "final_address": "2601 Cupid St",
    "address_councildis": "C",
    "status": "Assigned to Contractor",
    "contractor": "Richards Disposal",
    "rowid": "846240",
    "final_x": "3700260.24068",
    "final_y": "521559.258745",
    "longitude": "-90.00919608421107",
    "latitude": "29.927524189121126",
    "geocoded_column": {
      "latitude": "29.927524189121126",
      "longitude": "-90.00919608421107"
    }
  },
  {
    "service_request": "2021-846239",
    "request_type": "Mosquito, Termite & Rodent Control",
    "request_reason": "Rodent Complaint (Rats)",
    "date_created": "2021-12-06T14:05:30.000",
    "date_modified": "2021-12-06T14:05:30.000",
    "request_status": "Pending",
    "responsible_agency": "Mosquito, Termite & Rodent Control Board",
    "final_address": "4713 Francis Dr",
    "address_councildis": "D",
    "status": "Pending",
    "rowid": "846239",
    "final_x": "3698313.02877",
    "final_y": "554175.147032",
    "longitude": "-90.01415756517792",
    "latitude": "30.0172678585887",
    "geocoded_column": {
      "latitude": "30.0172678585887",
      "longitude": "-90.01415756517792"
    }
  },
  {
    "service_request": "2021-846238",
    "request_type": "Trash/Recycling",
    "request_reason": "Order Trash Cart",
    "date_created": "2021-12-06T14:00:06.000",
    "date_modified": "2021-12-06T14:00:08.000",
    "request_status": "Pending",
    "responsible_agency": "Department of Sanitation",
    "final_address": "4137 Gibson St",
    "address_councildis": "D",
    "status": "Assigned to Contractor",
    "contractor": "Metro Disposal",
    "rowid": "846238",
    "final_x": "3678772.49998",
    "final_y": "547588.758994",
    "longitude": "-90.07612607684402",
    "latitude": "29.999761748591496",
    "geocoded_column": {
      "latitude": "29.999761748591496",
      "longitude": "-90.07612607684402"
    }
  },
  {
    "service_request": "2021-846237",
    "request_type": "Traffic Signals/Signs/Striping/Streetlights",
    "request_reason": "Street Light Outage/Malfunction",
    "date_created": "2021-12-06T13:57:14.000",
    "date_modified": "2021-12-06T14:00:14.000",
    "request_status": "Pending",
    "responsible_agency": "Department of Public Works",
    "final_address": "1856 N Gayoso St",
    "address_councildis": "D",
    "status": "Pending",
    "contractor": "Royal Engineering",
    "rowid": "846237",
    "final_x": "3679490.67279",
    "final_y": "542413.891661",
    "longitude": "-90.07403700239007",
    "latitude": "29.985511000088625",
    "geocoded_column": {
      "latitude": "29.985511000088625",
      "longitude": "-90.07403700239007"
    }
  },
  {
    "service_request": "2021-846236",
    "request_type": "Trash/Recycling",
    "request_reason": "Request a Large Item Pick Up",
    "date_created": "2021-12-06T13:56:07.000",
    "date_modified": "2021-12-06T13:56:08.000",
    "request_status": "Pending",
    "responsible_agency": "Department of Sanitation",
    "final_address": "1536 St Mary St",
    "address_councildis": "B",
    "status": "Assigned to Contractor",
    "contractor": "Richards Disposal",
    "rowid": "846236",
    "final_x": "3678476.76475",
    "final_y": "524095.140732",
    "longitude": "-90.07787349169797",
    "latitude": "29.93517123676265",
    "geocoded_column": {
      "latitude": "29.93517123676265",
      "longitude": "-90.07787349169797"
    }
  },
  {
    "service_request": "2021-846235",
    "request_type": "Trash/Recycling",
    "request_reason": "Order Trash Cart",
    "date_created": "2021-12-06T13:51:03.000",
    "date_modified": "2021-12-06T13:51:03.000",
    "request_status": "Pending",
    "responsible_agency": "Department of Sanitation",
    "final_address": "1221 Lamanche St",
    "address_councildis": "E",
    "status": "Assigned to Contractor",
    "contractor": "Metro Disposal",
    "rowid": "846235",
    "final_x": "3698603.01879",
    "final_y": "534257.784069",
    "longitude": "-90.01396592904581",
    "latitude": "29.96249324675746",
    "geocoded_column": {
      "latitude": "29.96249324675746",
      "longitude": "-90.01396592904581"
    }
  },
  {
    "service_request": "2021-846234",
    "request_type": "Trash/Recycling",
    "request_reason": "Illegal Dumping",
    "date_created": "2021-12-06T13:49:32.000",
    "date_modified": "2021-12-06T13:49:32.000",
    "request_status": "Pending",
    "responsible_agency": "Department of Sanitation",
    "final_address": "GENTILLY BLVD & CHEF MENTEUR HWY & PEOPLES AVE",
    "address_councildis": "D",
    "status": "Pending",
    "rowid": "846234",
    "final_x": "3688339.3",
    "final_y": "548734.24",
    "longitude": "-90.04586358727227",
    "latitude": "30.002619316644004",
    "geocoded_column": {
      "latitude": "30.002619316644004",
      "longitude": "-90.04586358727227"
    }
  },
  {
    "service_request": "2021-846233",
    "request_type": "Parks & Parkways",
    "request_reason": "Tree Stump (removal, grind)",
    "date_created": "2021-12-06T13:49:08.000",
    "date_modified": "2021-12-06T13:49:08.000",
    "request_status": "Pending",
    "responsible_agency": "Department of Parks & Parkway",
    "final_address": "8411 Freret St",
    "address_councildis": "A",
    "status": "Pending",
    "rowid": "846233",
    "final_x": "3660629.65069",
    "final_y": "528692.577408",
    "longitude": "-90.13406517809884",
    "latitude": "29.94833834967985",
    "geocoded_column": {
      "latitude": "29.94833834967985",
      "longitude": "-90.13406517809884"
    }
  },
  {
    "service_request": "2021-846232",
    "request_type": "Trash/Recycling",
    "request_reason": "Request a Large Item Pick Up",
    "date_created": "2021-12-06T13:48:51.000",
    "date_modified": "2021-12-06T13:48:52.000",
    "request_status": "Pending",
    "responsible_agency": "Department of Sanitation",
    "final_address": "4900 Louisa Dr",
    "address_councildis": "D",
    "status": "Assigned to Contractor",
    "contractor": "Metro Disposal",
    "rowid": "846232",
    "final_x": "3690714.22588",
    "final_y": "551553.397397",
    "longitude": "-90.03826025040301",
    "latitude": "30.01029737620921",
    "geocoded_column": {
      "latitude": "30.01029737620921",
      "longitude": "-90.03826025040301"
    }
  },
  {
    "service_request": "2021-846231",
    "request_type": "Abandoned Vehicles",
    "request_reason": "Abandoned/Junk Vehicles",
    "date_created": "2021-12-06T13:48:45.000",
    "date_modified": "2021-12-06T13:48:45.000",
    "request_status": "Pending",
    "responsible_agency": "Department of Public Works",
    "final_address": "2309 Harmony St",
    "address_councildis": "B",
    "status": "Pending",
    "rowid": "846231",
    "final_x": "3673703.19572",
    "final_y": "524163.199164",
    "longitude": "-90.09294133358442",
    "latitude": "29.9355013266625",
    "geocoded_column": {
      "latitude": "29.9355013266625",
      "longitude": "-90.09294133358442"
    }
  },
  {
    "service_request": "2021-846230",
    "request_type": "Trash/Recycling",
    "request_reason": "Illegal Dumping",
    "date_created": "2021-12-06T13:45:46.000",
    "date_modified": "2021-12-06T13:45:46.000",
    "request_status": "Pending",
    "responsible_agency": "Department of Sanitation",
    "final_address": "3510 Franklin Ave",
    "address_councildis": "D",
    "status": "Pending",
    "rowid": "846230",
    "final_x": "3687091.49289",
    "final_y": "545849.242704",
    "longitude": "-90.04990764914271",
    "latitude": "29.994725108014077",
    "geocoded_column": {
      "latitude": "29.994725108014077",
      "longitude": "-90.04990764914271"
    }
  },
  {
    "service_request": "2021-846229",
    "request_type": "Trash/Recycling",
    "request_reason": "Repair Trash Cart",
    "date_created": "2021-12-06T13:40:47.000",
    "date_modified": "2021-12-06T14:00:18.000",
    "request_status": "Pending",
    "responsible_agency": "Department of Sanitation",
    "final_address": "1214 Burdette St",
    "address_councildis": "A",
    "status": "Assigned to Contractor",
    "contractor": "Richards Disposal",
    "rowid": "846229",
    "final_x": "3662846.81978",
    "final_y": "527732.632639",
    "longitude": "-90.12709653169244",
    "latitude": "29.945634815608283",
    "geocoded_column": {
      "latitude": "29.945634815608283",
      "longitude": "-90.12709653169244"
    }
  },
  {
    "service_request": "2021-846228",
    "request_type": "Property Maintenance",
    "request_reason": "Property Maintenance",
    "date_created": "2021-12-06T13:40:38.000",
    "date_modified": "2021-12-06T13:40:38.000",
    "request_status": "Pending",
    "responsible_agency": "Department of Code Enforcement",
    "final_address": "1807 Marigny St",
    "address_councildis": "D",
    "status": "Pending",
    "rowid": "846228",
    "final_x": "3685239.1334",
    "final_y": "538994.836554",
    "longitude": "-90.05600039270348",
    "latitude": "29.975934836979754",
    "geocoded_column": {
      "latitude": "29.975934836979754",
      "longitude": "-90.05600039270348"
    }
  },
  {
    "service_request": "2021-846227",
    "request_type": "Trash/Recycling",
    "request_reason": "Missed Trash Pick-Up",
    "date_created": "2021-12-06T13:39:36.000",
    "date_modified": "2021-12-06T13:39:36.000",
    "request_status": "Pending",
    "responsible_agency": "Department of Sanitation",
    "final_address": "1308 Moss St",
    "address_councildis": "A",
    "status": "Assigned to Contractor",
    "contractor": "Richards Disposal",
    "rowid": "846227",
    "final_x": "3675424.68917",
    "final_y": "540457.113035",
    "longitude": "-90.08694702203242",
    "latitude": "29.98025277750145",
    "geocoded_column": {
      "latitude": "29.98025277750145",
      "longitude": "-90.08694702203242"
    }
  },
  {
    "service_request": "2021-846226",
    "request_type": "Property Maintenance",
    "request_reason": "Property Maintenance",
    "date_created": "2021-12-06T13:38:16.000",
    "date_modified": "2021-12-06T13:39:04.000",
    "request_status": "Pending",
    "responsible_agency": "Department of Code Enforcement",
    "final_address": "7 Mars Pl",
    "address_councildis": "B",
    "status": "Pending",
    "rowid": "846226",
    "final_x": "3667397.94996",
    "final_y": "533296.57818",
    "longitude": "-90.11253990746481",
    "latitude": "29.9608013268185",
    "geocoded_column": {
      "latitude": "29.9608013268185",
      "longitude": "-90.11253990746481"
    }
  },
  {
    "service_request": "2021-846225",
    "request_type": "Traffic Signals/Signs/Striping/Streetlights",
    "request_reason": "Street Light Outage/Malfunction",
    "date_created": "2021-12-06T13:34:54.000",
    "date_modified": "2021-12-06T13:34:55.000",
    "request_status": "Pending",
    "responsible_agency": "Department of Public Works",
    "final_address": "2316 Broadway St",
    "address_councildis": "A",
    "status": "Pending",
    "contractor": "Royal Engineering",
    "rowid": "846225",
    "final_x": "3666470.79348",
    "final_y": "530031.852865",
    "longitude": "-90.11557726484064",
    "latitude": "29.95185152872813",
    "geocoded_column": {
      "latitude": "29.95185152872813",
      "longitude": "-90.11557726484064"
    }
  },
  {
    "service_request": "2021-846224",
    "request_type": "Trash/Recycling",
    "request_reason": "Repair Trash Cart",
    "date_created": "2021-12-06T13:34:05.000",
    "date_modified": "2021-12-06T13:34:06.000",
    "request_status": "Pending",
    "responsible_agency": "Department of Sanitation",
    "final_address": "1915 Elysian Fields Ave",
    "address_councildis": "D",
    "status": "Assigned to Contractor",
    "contractor": "Metro Disposal",
    "rowid": "846224",
    "final_x": "3684873.67189",
    "final_y": "539390.943242",
    "longitude": "-90.05714068960212",
    "latitude": "29.977035188716226",
    "geocoded_column": {
      "latitude": "29.977035188716226",
      "longitude": "-90.05714068960212"
    }
  },
  {
    "service_request": "2021-846223",
    "request_type": "Roads/Drainage",
    "request_reason": "Accessibility Ramps, Curbs and Sidewalk Repair",
    "date_created": "2021-12-06T13:33:54.000",
    "date_modified": "2021-12-06T13:33:54.000",
    "request_status": "Pending",
    "responsible_agency": "Department of Public Works",
    "final_address": "411 Bienville St",
    "address_councildis": "C",
    "status": "Pending",
    "rowid": "846223",
    "final_x": "3682381.96456",
    "final_y": "530787.44333",
    "longitude": "-90.06531099576203",
    "latitude": "29.953454592579792",
    "geocoded_column": {
      "latitude": "29.953454592579792",
      "longitude": "-90.06531099576203"
    }
  },
  {
    "service_request": "2021-846222",
    "request_type": "Abandoned Vehicles",
    "request_reason": "Abandoned/Junk Vehicles",
    "date_created": "2021-12-06T13:20:36.000",
    "date_modified": "2021-12-06T13:20:36.000",
    "request_status": "Pending",
    "responsible_agency": "Department of Public Works",
    "final_address": "NEWTON ST & TECHE ST",
    "address_councildis": "C",
    "status": "Pending",
    "rowid": "846222",
    "final_x": "3686571.1",
    "final_y": "527920.08",
    "longitude": "-90.05218474519366",
    "latitude": "29.94544218685531",
    "geocoded_column": {
      "latitude": "29.94544218685531",
      "longitude": "-90.05218474519366"
    }
  },
  {
    "service_request": "2021-846221",
    "request_type": "Trash/Recycling",
    "request_reason": "Request a Large Item Pick Up",
    "date_created": "2021-12-06T13:19:34.000",
    "date_modified": "2021-12-06T13:19:35.000",
    "request_status": "Pending",
    "responsible_agency": "Department of Sanitation",
    "final_address": "923 Amelia St",
    "address_councildis": "B",
    "status": "Assigned to Contractor",
    "contractor": "Richards Disposal",
    "rowid": "846221",
    "final_x": "3673823.59899",
    "final_y": "518608.116791",
    "longitude": "-90.0927510939268",
    "latitude": "29.920223057003504",
    "geocoded_column": {
      "latitude": "29.920223057003504",
      "longitude": "-90.0927510939268"
    }
  },
  {
    "service_request": "2021-846220",
    "request_type": "Traffic Signals/Signs/Striping/Streetlights",
    "request_reason": "Street Light Outage/Malfunction",
    "date_created": "2021-12-06T13:16:29.000",
    "date_modified": "2021-12-06T14:00:20.000",
    "request_status": "Pending",
    "responsible_agency": "Department of Public Works",
    "final_address": "7016 Orleans Ave",
    "address_councildis": "A",
    "status": "Pending",
    "contractor": "Royal Engineering",
    "rowid": "846220",
    "final_x": "3671416.19156",
    "final_y": "553936.452056",
    "longitude": "-90.09914902494785",
    "latitude": "30.017435548600353",
    "geocoded_column": {
      "latitude": "30.017435548600353",
      "longitude": "-90.09914902494785"
    }
  },
  {
    "service_request": "2021-846219",
    "request_type": "Parks & Parkways",
    "request_reason": "Request Tree Service (Right of Way/Public Property)",
    "date_created": "2021-12-06T13:13:01.000",
    "date_modified": "2021-12-06T14:00:21.000",
    "request_status": "Pending",
    "responsible_agency": "Department of Parks & Parkway",
    "final_address": "2031 St Charles Ave Ste A",
    "address_councildis": "B",
    "status": "Pending",
    "rowid": "846219",
    "final_x": "3677933.48789",
    "final_y": "524054.419644",
    "longitude": "-90.07959002236828",
    "latitude": "29.9350756233992",
    "geocoded_column": {
      "latitude": "29.9350756233992",
      "longitude": "-90.07959002236828"
    }
  },
  {
    "service_request": "2021-846218",
    "request_type": "Abandoned Vehicles",
    "request_reason": "Abandoned/Junk Vehicles",
    "date_created": "2021-12-06T13:12:43.000",
    "date_modified": "2021-12-06T13:12:43.000",
    "request_status": "Pending",
    "responsible_agency": "Department of Public Works",
    "final_address": "3726 Erato St",
    "address_councildis": "B",
    "status": "Pending",
    "rowid": "846218",
    "final_x": "3672750.60251",
    "final_y": "530267.839617",
    "longitude": "-90.09574052683949",
    "latitude": "29.952315409009078",
    "geocoded_column": {
      "latitude": "29.952315409009078",
      "longitude": "-90.09574052683949"
    }
  },
  {
    "service_request": "2021-846217",
    "request_type": "COVID-19",
    "request_reason": "COVID-19 Business Non-Compliance",
    "date_created": "2021-12-06T13:11:48.000",
    "date_modified": "2021-12-06T13:11:49.000",
    "request_status": "Pending",
    "responsible_agency": "Safety and Permits",
    "final_address": "3701 Iberville St",
    "address_councildis": "B",
    "status": "Pending",
    "rowid": "846217",
    "final_x": "3672595.6036",
    "final_y": "537800.55092",
    "longitude": "-90.0959730972056",
    "latitude": "29.973032447709773",
    "geocoded_column": {
      "latitude": "29.973032447709773",
      "longitude": "-90.0959730972056"
    }
  },
  {
    "service_request": "2021-846216",
    "request_type": "Abandoned Vehicles",
    "request_reason": "Abandoned/Junk Vehicles",
    "date_created": "2021-12-06T13:11:43.000",
    "date_modified": "2021-12-06T13:11:43.000",
    "request_status": "Pending",
    "responsible_agency": "Department of Public Works",
    "final_address": "3502 Erato St",
    "address_councildis": "B",
    "status": "Pending",
    "rowid": "846216",
    "final_x": "3673593.41236",
    "final_y": "529708.188609",
    "longitude": "-90.09309844410907",
    "latitude": "29.950751496947635",
    "geocoded_column": {
      "latitude": "29.950751496947635",
      "longitude": "-90.09309844410907"
    }
  },
  {
    "service_request": "2021-846215",
    "request_type": "Abandoned Vehicles",
    "request_reason": "Abandoned/Junk Vehicles",
    "date_created": "2021-12-06T13:10:44.000",
    "date_modified": "2021-12-06T13:10:44.000",
    "request_status": "Pending",
    "responsible_agency": "Department of Public Works",
    "final_address": "3528 Erato St",
    "address_councildis": "B",
    "status": "Pending",
    "rowid": "846215",
    "final_x": "3673395.15892",
    "final_y": "529831.649217",
    "longitude": "-90.09372021113337",
    "latitude": "29.951096871698187",
    "geocoded_column": {
      "latitude": "29.951096871698187",
      "longitude": "-90.09372021113337"
    }
  },
  {
    "service_request": "2021-846214",
    "request_type": "Abandoned Vehicles",
    "request_reason": "Abandoned/Junk Vehicles",
    "date_created": "2021-12-06T13:09:31.000",
    "date_modified": "2021-12-06T13:09:31.000",
    "request_status": "Pending",
    "responsible_agency": "Department of Public Works",
    "final_address": "3620 Erato St",
    "address_councildis": "B",
    "status": "Pending",
    "rowid": "846214",
    "final_x": "3673068.21889",
    "final_y": "530070.388097",
    "longitude": "-90.09474437806142",
    "latitude": "29.95176304611141",
    "geocoded_column": {
      "latitude": "29.95176304611141",
      "longitude": "-90.09474437806142"
    }
  },
  {
    "service_request": "2021-846213",
    "request_type": "Abandoned Vehicles",
    "request_reason": "Abandoned/Junk Vehicles",
    "date_created": "2021-12-06T13:07:52.000",
    "date_modified": "2021-12-06T13:07:52.000",
    "request_status": "Pending",
    "responsible_agency": "Department of Public Works",
    "final_address": "3623 Clio St",
    "address_councildis": "B",
    "status": "Pending",
    "rowid": "846213",
    "final_x": "3673308.72424",
    "final_y": "530504.352514",
    "longitude": "-90.09397015491179",
    "latitude": "29.952949154000944",
    "geocoded_column": {
      "latitude": "29.952949154000944",
      "longitude": "-90.09397015491179"
    }
  },
  {
    "service_request": "2021-846212",
    "request_type": "Abandoned Vehicles",
    "request_reason": "Abandoned/Junk Vehicles",
    "date_created": "2021-12-06T13:06:37.000",
    "date_modified": "2021-12-06T13:06:37.000",
    "request_status": "Pending",
    "responsible_agency": "Department of Public Works",
    "final_address": "3722 Clio St",
    "address_councildis": "B",
    "status": "Pending",
    "rowid": "846212",
    "final_x": "3672941.13441",
    "final_y": "530575.111682",
    "longitude": "-90.09512842942607",
    "latitude": "29.953154645624927",
    "geocoded_column": {
      "latitude": "29.953154645624927",
      "longitude": "-90.09512842942607"
    }
  },
  {
    "service_request": "2021-846211",
    "request_type": "Trash/Recycling",
    "request_reason": "Order Recycling Cart",
    "date_created": "2021-12-06T13:06:14.000",
    "date_modified": "2021-12-06T13:06:14.000",
    "request_status": "Pending",
    "responsible_agency": "Department of Sanitation",
    "final_address": "3200 Sabine St",
    "address_councildis": "C",
    "status": "Pending",
    "rowid": "846211",
    "final_x": "3694708.22218",
    "final_y": "518221.942582",
    "longitude": "-90.02684248467068",
    "latitude": "29.91852294812501",
    "geocoded_column": {
      "latitude": "29.91852294812501",
      "longitude": "-90.02684248467068"
    }
  },
  {
    "service_request": "2021-846210",
    "request_type": "Abandoned Vehicles",
    "request_reason": "Abandoned/Junk Vehicles",
    "date_created": "2021-12-06T13:05:14.000",
    "date_modified": "2021-12-06T13:05:14.000",
    "request_status": "Pending",
    "responsible_agency": "Department of Public Works",
    "final_address": "3717 Clio St",
    "address_councildis": "B",
    "status": "Pending",
    "rowid": "846210",
    "final_x": "3673060.80756",
    "final_y": "530599.838658",
    "longitude": "-90.09474970891398",
    "latitude": "29.95321908021416",
    "geocoded_column": {
      "latitude": "29.95321908021416",
      "longitude": "-90.09474970891398"
    }
  },
  {
    "service_request": "2021-846209",
    "request_type": "Abandoned Vehicles",
    "request_reason": "Abandoned/Junk Vehicles",
    "date_created": "2021-12-06T13:03:48.000",
    "date_modified": "2021-12-06T13:03:48.000",
    "request_status": "Pending",
    "responsible_agency": "Department of Public Works",
    "final_address": "3704 Clio St",
    "address_councildis": "B",
    "status": "Pending",
    "rowid": "846209",
    "final_x": "3673090.95835",
    "final_y": "530433.649986",
    "longitude": "-90.09466017823593",
    "latitude": "29.95276122021902",
    "geocoded_column": {
      "latitude": "29.95276122021902",
      "longitude": "-90.09466017823593"
    }
  },
  {
    "service_request": "2021-846208",
    "request_type": "Abandoned Vehicles",
    "request_reason": "Abandoned/Junk Vehicles",
    "date_created": "2021-12-06T13:01:32.000",
    "date_modified": "2021-12-06T13:01:32.000",
    "request_status": "Pending",
    "responsible_agency": "Department of Public Works",
    "final_address": "3704 Clio St",
    "address_councildis": "B",
    "status": "Pending",
    "rowid": "846208",
    "final_x": "3673090.95835",
    "final_y": "530433.649986",
    "longitude": "-90.09466017823593",
    "latitude": "29.95276122021902",
    "geocoded_column": {
      "latitude": "29.95276122021902",
      "longitude": "-90.09466017823593"
    }
  },
  {
    "service_request": "2021-846206",
    "request_type": "Trash/Recycling",
    "request_reason": "Request a Large Item Pick Up",
    "date_created": "2021-12-06T13:01:00.000",
    "date_modified": "2021-12-06T13:01:10.000",
    "request_status": "Pending",
    "responsible_agency": "Department of Sanitation",
    "final_address": "1416 St Andrew St",
    "address_councildis": "B",
    "status": "Assigned to Contractor",
    "contractor": "Richards Disposal",
    "rowid": "846206",
    "final_x": "3678697.44795",
    "final_y": "523465.006267",
    "longitude": "-90.07719860358408",
    "latitude": "29.933431923758636",
    "geocoded_column": {
      "latitude": "29.933431923758636",
      "longitude": "-90.07719860358408"
    }
  },
  {
    "service_request": "2021-846205",
    "request_type": "Abandoned Vehicles",
    "request_reason": "Abandoned/Junk Vehicles",
    "date_created": "2021-12-06T13:00:34.000",
    "date_modified": "2021-12-06T13:00:34.000",
    "request_status": "Pending",
    "responsible_agency": "Department of Public Works",
    "final_address": "2319 Magazine St",
    "address_councildis": "B",
    "status": "Pending",
    "rowid": "846205",
    "final_x": "3678395.07771",
    "final_y": "521790.482042",
    "longitude": "-90.07821107462887",
    "latitude": "29.928836641412857",
    "geocoded_column": {
      "latitude": "29.928836641412857",
      "longitude": "-90.07821107462887"
    }
  },
  {
    "service_request": "2021-846204",
    "request_type": "Trash/Recycling",
    "request_reason": "Replace Trash Cart",
    "date_created": "2021-12-06T12:57:30.000",
    "date_modified": "2021-12-06T13:01:12.000",
    "request_status": "Pending",
    "responsible_agency": "Department of Sanitation",
    "final_address": "4049 Ulloa St, New Orleans, Louisiana, 70119",
    "address_councildis": "A",
    "status": "Assigned to Contractor",
    "contractor": "Richards Disposal",
    "rowid": "846204",
    "final_x": "3669744.69415",
    "final_y": "536455.543111",
    "longitude": "-90.1050223856754",
    "latitude": "29.969418470944778",
    "geocoded_column": {
      "latitude": "29.969418470944778",
      "longitude": "-90.1050223856754"
    }
  },
  {
    "service_request": "2021-846203",
    "request_type": "Property Maintenance",
    "request_reason": "Property Maintenance",
    "date_created": "2021-12-06T12:55:28.000",
    "date_modified": "2021-12-06T13:01:13.000",
    "request_status": "Pending",
    "responsible_agency": "Department of Code Enforcement",
    "final_address": "3947 Louisiana Avenue Prkwy",
    "address_councildis": "B",
    "status": "Pending",
    "rowid": "846203",
    "final_x": "3671117.00091",
    "final_y": "529386.701697",
    "longitude": "-90.10092862474085",
    "latitude": "29.94994098379869",
    "geocoded_column": {
      "latitude": "29.94994098379869",
      "longitude": "-90.10092862474085"
    }
  },
  {
    "service_request": "2021-846202",
    "request_type": "Property Maintenance",
    "request_reason": "Property Maintenance",
    "date_created": "2021-12-06T12:54:48.000",
    "date_modified": "2021-12-06T13:01:15.000",
    "request_status": "Pending",
    "responsible_agency": "Department of Code Enforcement",
    "final_address": "2273 N Derbigny St",
    "address_councildis": "D",
    "status": "Pending",
    "rowid": "846202",
    "final_x": "3685521.43279",
    "final_y": "538598.048905",
    "longitude": "-90.05512279136902",
    "latitude": "29.974835153878672",
    "geocoded_column": {
      "latitude": "29.974835153878672",
      "longitude": "-90.05512279136902"
    }
  },
  {
    "service_request": "2021-846201",
    "request_type": "Abandoned Vehicles",
    "request_reason": "Abandoned/Junk Vehicles",
    "date_created": "2021-12-06T12:53:23.000",
    "date_modified": "2021-12-06T12:53:23.000",
    "request_status": "Pending",
    "responsible_agency": "Department of Public Works",
    "final_address": "1021 St Anthony St",
    "address_councildis": "C",
    "status": "Pending",
    "rowid": "846201",
    "final_x": "3683583.49788",
    "final_y": "535655.86567",
    "longitude": "-90.06134642129196",
    "latitude": "29.966804470340417",
    "geocoded_column": {
      "latitude": "29.966804470340417",
      "longitude": "-90.06134642129196"
    }
  },
  {
    "service_request": "2021-846200",
    "request_type": "Roads/Drainage",
    "request_reason": "Man hole cover issue",
    "date_created": "2021-12-06T12:50:20.000",
    "date_modified": "2021-12-06T13:01:16.000",
    "request_status": "Pending",
    "responsible_agency": "Department of Public Works",
    "final_address": "GRAVIER ST & S DERBIGNY ST",
    "address_councildis": "B",
    "status": "Pending",
    "rowid": "846200",
    "final_x": "3677269.1",
    "final_y": "531676.48",
    "longitude": "-90.08142458956948",
    "latitude": "29.956053732351375",
    "geocoded_column": {
      "latitude": "29.956053732351375",
      "longitude": "-90.08142458956948"
    }
  },
  {
    "service_request": "2021-846199",
    "request_type": "Abandoned Vehicles",
    "request_reason": "Abandoned/Junk Vehicles",
    "date_created": "2021-12-06T12:49:46.000",
    "date_modified": "2021-12-06T13:01:17.000",
    "request_status": "Pending",
    "responsible_agency": "Department of Public Works",
    "final_address": "1629 Mandeville St",
    "address_councildis": "D",
    "status": "Pending",
    "rowid": "846199",
    "final_x": "3685644.13014",
    "final_y": "538442.982537",
    "longitude": "-90.05474074775921",
    "latitude": "29.97440501158183",
    "geocoded_column": {
      "latitude": "29.97440501158183",
      "longitude": "-90.05474074775921"
    }
  },
  {
    "service_request": "2021-846198",
    "request_type": "Roads/Drainage",
    "request_reason": "Pothole",
    "date_created": "2021-12-06T12:47:28.000",
    "date_modified": "2021-12-06T12:47:28.000",
    "request_status": "Pending",
    "responsible_agency": "Department of Public Works",
    "final_address": "911 St Peter St",
    "address_councildis": "C",
    "status": "Pending",
    "rowid": "846198",
    "final_x": "3681901.27887",
    "final_y": "532952.467588",
    "longitude": "-90.06675323005243",
    "latitude": "29.959422291496704",
    "geocoded_column": {
      "latitude": "29.959422291496704",
      "longitude": "-90.06675323005243"
    }
  },
  {
    "service_request": "2021-846197",
    "request_type": "Mosquito, Termite & Rodent Control",
    "request_reason": "Rodent Complaint (Rats)",
    "date_created": "2021-12-06T12:47:20.000",
    "date_modified": "2021-12-06T13:01:19.000",
    "request_status": "Pending",
    "responsible_agency": "Mosquito, Termite & Rodent Control Board",
    "final_address": "5726 St Charles Ave",
    "address_councildis": "A",
    "status": "Pending",
    "rowid": "846197",
    "final_x": "3666288.55757",
    "final_y": "522017.200314",
    "longitude": "-90.1164214428881",
    "latitude": "29.929819131740146",
    "geocoded_column": {
      "latitude": "29.929819131740146",
      "longitude": "-90.1164214428881"
    }
  },
  {
    "service_request": "2021-846196",
    "request_type": "Trash/Recycling",
    "request_reason": "Start Trash Service",
    "date_created": "2021-12-06T12:45:56.000",
    "date_modified": "2021-12-06T12:45:57.000",
    "request_status": "Pending",
    "responsible_agency": "Department of Sanitation",
    "final_address": "4303 Lotus St",
    "address_councildis": "D",
    "status": "Assigned to Contractor",
    "contractor": "Metro Disposal",
    "rowid": "846196",
    "final_x": "3687744.04982",
    "final_y": "548499.484946",
    "longitude": "-90.04775237670135",
    "latitude": "30.001992202368065",
    "geocoded_column": {
      "latitude": "30.001992202368065",
      "longitude": "-90.04775237670135"
    }
  },
  {
    "service_request": "2021-846193",
    "request_type": "Trash/Recycling",
    "request_reason": "Missed Trash Pick-Up",
    "date_created": "2021-12-06T12:41:14.000",
    "date_modified": "2021-12-06T13:01:21.000",
    "request_status": "Pending",
    "responsible_agency": "Department of Sanitation",
    "final_address": "6012 Craigie Rd",
    "address_councildis": "E",
    "status": "Assigned to Contractor",
    "contractor": "Metro Disposal",
    "rowid": "846193",
    "final_x": "3695347.55984",
    "final_y": "558551.81558",
    "longitude": "-90.02336910910935",
    "latitude": "30.02939557990864",
    "geocoded_column": {
      "latitude": "30.02939557990864",
      "longitude": "-90.02336910910935"
    }
  },
  {
    "service_request": "2021-846192",
    "request_type": "Abandoned Vehicles",
    "request_reason": "Abandoned/Junk Vehicles",
    "date_created": "2021-12-06T12:38:38.000",
    "date_modified": "2021-12-06T12:38:38.000",
    "request_status": "Pending",
    "responsible_agency": "Department of Public Works",
    "final_address": "BIRCH ST & EAGLE ST",
    "address_councildis": "A",
    "status": "Pending",
    "rowid": "846192",
    "final_x": "3661070.0",
    "final_y": "531074.68",
    "longitude": "-90.13259598942751",
    "latitude": "29.954875687225588",
    "geocoded_column": {
      "latitude": "29.954875687225588",
      "longitude": "-90.13259598942751"
    }
  },