[
  {
    "service_request": "2024-1142318",
    "request_type": "Street and Traffic Signs",
    "request_reason": "Street Name Sign Damaged or Missing",
    "date_created": "2024-10-18T23:17:02.000",
    "date_modified": "2024-10-18T23:17:02.000",
    "request_status": "Pending",
    "responsible_agency": "Department of Public Works",
    "final_address": "DANNEEL ST & AMELIA ST",
    "address_councildis": "B",
    "status": "Pending",
    "rowid": "1142318",
    "final_x": "3672798.5",
    "final_y": "522564.08",
    "longitude": "-90.09585199208594",
    "latitude": "29.931131164300016",
    "geocoded_column": {
      "latitude": "29.931131164300016",
      "longitude": "-90.09585199208594"
    }
  },
  {
    "service_request": "2024-1142317",
    "request_type": "Street and Traffic Signs",
    "request_reason": "Street Name Sign Damaged or Missing",
    "date_created": "2024-10-18T23:16:23.000",
    "date_modified": "2024-10-18T23:16:23.000",
    "request_status": "Pending",
    "responsible_agency": "Department of Public Works",
    "final_address": "BARONNE ST & DELACHAISE ST",
    "address_councildis": "B",
    "status": "Pending",
    "rowid": "1142317",
    "final_x": "3673543.1",
    "final_y": "522074.98",
    "longitude": "-90.09351808987154",
    "latitude": "29.929764164830203",
    "geocoded_column": {
      "latitude": "29.929764164830203",
      "longitude": "-90.09351808987154"
    }
  },
  {
    "service_request": "2024-1142316",
    "request_type": "Street and Traffic Signs",
    "request_reason": "Street Name Sign Damaged or Missing",
    "date_created": "2024-10-18T23:15:24.000",
    "date_modified": "2024-10-18T23:15:24.000",
    "request_status": "Pending",
    "responsible_agency": "Department of Public Works",
    "final_address": "AMELIA ST & DRYADES ST",
    "address_councildis": "B",
    "status": "Pending",
    "rowid": "1142316",
    "final_x": "3672881.2",
    "final_y": "522221.88",
    "longitude": "-90.09560258765065",
    "latitude": "29.93018776861975",
    "geocoded_column": {
      "latitude": "29.93018776861975",
      "longitude": "-90.09560258765065"
    }
  },
  {
    "service_request": "2024-1142315",
    "request_type": "Trash/Recycling",
    "request_reason": "Order Trash Cart",
    "date_created": "2024-10-18T22:44:23.000",
    "date_modified": "2024-10-18T22:44:25.000",
    "request_status": "Pending",
    "responsible_agency": "Department of Sanitation",
    "final_address": "1927 Montegut St",
    "address_councildis": "D",
    "status": "Assigned to Contractor",
    "contractor": "IV Waste",
    "rowid": "1142315",
    "final_x": "3689282.67203",
    "final_y": "539351.79617",
    "longitude": "-90.04321708434199",
    "latitude": "29.97679178779378",
    "geocoded_column": {
      "latitude": "29.97679178779378",
      "longitude": "-90.04321708434199"
    }
  },
  {
    "service_request": "2024-1142314",
    "request_type": "Health Related Request",
    "request_reason": "Noise Ordinance Complaint",
    "date_created": "2024-10-18T22:37:10.000",
    "date_modified": "2024-10-18T22:37:10.000",
    "request_status": "Pending",
    "responsible_agency": "Health Department",
    "final_address": "720 Bourbon St",
    "address_councildis": "C",
    "status": "Pending",
    "rowid": "1142314",
    "final_x": "3682374.28066",
    "final_y": "532772.126212",
    "longitude": "-90.06526590560847",
    "latitude": "29.958912029365468",
    "geocoded_column": {
      "latitude": "29.958912029365468",
      "longitude": "-90.06526590560847"
    }
  },
  {
    "service_request": "2024-1142313",
    "request_type": "Abandoned Vehicles",
    "request_reason": "Abandoned/Junk Vehicles",
    "date_created": "2024-10-18T22:18:52.000",
    "date_modified": "2024-10-18T22:18:52.000",
    "request_status": "Pending",
    "responsible_agency": "Department of Public Works",
    "final_address": "0 Lake Forest Blvd",
    "address_councildis": "E",
    "status": "Pending",
    "rowid": "1142313",
    "final_x": "3721635.50322",
    "final_y": "563651.762465",
    "longitude": "-89.94010490465875",
    "latitude": "30.042565801236677",
    "geocoded_column": {
      "latitude": "30.042565801236677",
      "longitude": "-89.94010490465875"
    }
  },
  {
    "service_request": "2024-1142312",
    "request_type": "Trash/Recycling",
    "request_reason": "Request a Large Item Pick Up",
    "date_created": "2024-10-18T21:31:49.000",
    "date_modified": "2024-10-18T21:31:50.000",
    "request_status": "Pending",
    "responsible_agency": "Department of Sanitation",
    "final_address": "13001 Sevres St",
    "address_councildis": "E",
    "status": "Assigned to Contractor",
    "contractor": "Waste Pro",
    "rowid": "1142312",
    "final_x": "3723874.14854",
    "final_y": "560182.019037",
    "longitude": "-89.93316399353245",
    "latitude": "30.032950398591936",
    "geocoded_column": {
      "latitude": "30.032950398591936",
      "longitude": "-89.93316399353245"
    }
  },
  {
    "service_request": "2024-1142311",
    "request_type": "Health Related Request",
    "request_reason": "Noise Ordinance Complaint",
    "date_created": "2024-10-18T20:45:09.000",
    "date_modified": "2024-10-18T20:45:09.000",
    "request_status": "Pending",
    "responsible_agency": "Health Department",
    "final_address": "316 Chartres St, New Orleans, Louisiana, 70130",
    "address_councildis": "C",
    "status": "Pending",
    "rowid": "1142311",
    "final_x": "3682048.77532",
    "final_y": "531162.123394",
    "longitude": "-90.06634998337161",
    "latitude": "29.954494970034958",
    "geocoded_column": {
      "latitude": "29.954494970034958",
      "longitude": "-90.06634998337161"
    }
  },
  {
    "service_request": "2024-1142310",
    "request_type": "Street and Traffic Signs",
    "request_reason": "Traffic or Parking Sign Damaged or Missing",
    "date_created": "2024-10-18T20:15:41.000",
    "date_modified": "2024-10-18T20:15:41.000",
    "request_status": "Pending",
    "responsible_agency": "Department of Public Works",
    "final_address": "OLEANDER ST & S CARROLLTON AVE",
    "address_councildis": "A",
    "status": "Pending",
    "rowid": "1142310",
    "final_x": "3666813.3",
    "final_y": "533628.48",
    "longitude": "-90.11437497684159",
    "latitude": "29.961731062080478",
    "geocoded_column": {
      "latitude": "29.961731062080478",
      "longitude": "-90.11437497684159"
    }
  },
  {
    "service_request": "2024-1142309",
    "request_type": "Trash/Recycling",
    "request_reason": "Request a Large Item Pick Up",
    "date_created": "2024-10-18T20:11:07.000",
    "date_modified": "2024-10-18T20:11:08.000",
    "request_status": "Pending",
    "responsible_agency": "Department of Sanitation",
    "final_address": "6238 Bellaire Dr",
    "address_councildis": "A",
    "status": "Assigned to Contractor",
    "contractor": "IV Waste",
    "rowid": "1142309",
    "final_x": "3664300.01684",
    "final_y": "549210.513939",
    "longitude": "-90.1217912805853",
    "latitude": "30.00464969709109",
    "geocoded_column": {
      "latitude": "30.00464969709109",
      "longitude": "-90.1217912805853"
    }
  },
  {
    "service_request": "2024-1142308",
    "request_type": "General Services",
    "request_reason": "General Service Request",
    "date_created": "2024-10-18T19:47:56.000",
    "date_modified": "2024-10-18T19:47:56.000",
    "request_status": "Pending",
    "responsible_agency": "Orleans Parish Communication District",
    "final_address": "600 BLK Saint Philip St",
    "address_councildis": "C",
    "status": "Pending",
    "rowid": "1142308",
    "final_x": "3683363.21788",
    "final_y": "533228.489105",
    "longitude": "-90.06212710757202",
    "latitude": "29.960136741069505",
    "geocoded_column": {
      "latitude": "29.960136741069505",
      "longitude": "-90.06212710757202"
    }
  },
  {
    "service_request": "2024-1142307",
    "request_type": "Health Related Request",
    "request_reason": "Noise Ordinance Complaint",
    "date_created": "2024-10-18T19:02:54.000",
    "date_modified": "2024-10-18T19:02:54.000",
    "request_status": "Pending",
    "responsible_agency": "Health Department",
    "final_address": "720 Bourbon St",
    "address_councildis": "C",
    "status": "Pending",
    "rowid": "1142307",
    "final_x": "3682374.28066",
    "final_y": "532772.126212",
    "longitude": "-90.06526590560847",
    "latitude": "29.958912029365468",
    "geocoded_column": {
      "latitude": "29.958912029365468",
      "longitude": "-90.06526590560847"
    }
  },
  {
    "service_request": "2024-1142306",
    "request_type": "Roads and Streets",
    "request_reason": "Sidewalk Damaged or Missing",
    "date_created": "2024-10-18T18:33:52.000",
    "date_modified": "2024-10-18T18:33:52.000",
    "request_status": "Pending",
    "responsible_agency": "Department of Public Works",
    "final_address": "2805 Carondelet St",
    "address_councildis": "B",
    "status": "Pending",
    "rowid": "1142306",
    "final_x": "3675614.71253",
    "final_y": "522855.212091",
    "longitude": "-90.08695157086846",
    "latitude": "29.931847752664915",
    "geocoded_column": {
      "latitude": "29.931847752664915",
      "longitude": "-90.08695157086846"
    }
  },
  {
    "service_request": "2024-1142305",
    "request_type": "Health Related Request",
    "request_reason": "Noise Ordinance Complaint",
    "date_created": "2024-10-18T17:49:55.000",
    "date_modified": "2024-10-18T17:49:55.000",
    "request_status": "Pending",
    "responsible_agency": "Health Department",
    "final_address": "720 Bourbon St",
    "address_councildis": "C",
    "status": "Pending",
    "rowid": "1142305",
    "final_x": "3682374.28066",
    "final_y": "532772.126212",
    "longitude": "-90.06526590560847",
    "latitude": "29.958912029365468",
    "geocoded_column": {
      "latitude": "29.958912029365468",
      "longitude": "-90.06526590560847"
    }
  },
  {
    "service_request": "2024-1142304",
    "request_type": "Healthy Homes",
    "request_reason": "Healthy Homes",
    "date_created": "2024-10-18T17:45:25.000",
    "date_modified": "2024-10-18T17:45:25.000",
    "request_status": "Pending",
    "responsible_agency": "Department of Code Enforcement",
    "final_address": "5700 BLK Saint Anthony Ave",
    "address_councildis": "D",
    "status": "Pending",
    "rowid": "1142304",
    "final_x": "3682037.17592",
    "final_y": "554183.713271",
    "longitude": "-90.06558233718552",
    "latitude": "30.01779659554501",
    "geocoded_column": {
      "latitude": "30.01779659554501",
      "longitude": "-90.06558233718552"
    }
  },
  {
    "service_request": "2024-1142303",
    "request_type": "Street and Traffic Signs",
    "request_reason": "Traffic or Parking Sign Damaged or Missing",
    "date_created": "2024-10-18T17:33:08.000",
    "date_modified": "2024-10-18T17:33:08.000",
    "request_status": "Pending",
    "responsible_agency": "Department of Public Works",
    "final_address": "3800 BLK Canal St",
    "address_councildis": "A",
    "status": "Pending",
    "rowid": "1142303",
    "final_x": "3671905.05051",
    "final_y": "537688.101249",
    "longitude": "-90.09815783148073",
    "latitude": "29.972743735477913",
    "geocoded_column": {
      "latitude": "29.972743735477913",
      "longitude": "-90.09815783148073"
    }
  },
  {
    "service_request": "2024-1142302",
    "request_type": "Trash/Recycling",
    "request_reason": "Return Trash Cart",
    "date_created": "2024-10-18T17:32:21.000",
    "date_modified": "2024-10-18T17:32:23.000",
    "request_status": "Pending",
    "responsible_agency": "Department of Sanitation",
    "final_address": "2506 Upperline St",
    "address_councildis": "B",
    "status": "Assigned to Contractor",
    "contractor": "IV Waste",
    "rowid": "1142302",
    "final_x": "3669124.47617",
    "final_y": "523984.191548",
    "longitude": "-90.10740247487317",
    "latitude": "29.93514460779688",
    "geocoded_column": {
      "latitude": "29.93514460779688",
      "longitude": "-90.10740247487317"
    }
  },
  {
    "service_request": "2024-1142301",
    "request_type": "Mosquito, Termite & Rodent Control",
    "request_reason": "Mosquito Complaint",
    "date_created": "2024-10-18T17:27:22.000",
    "date_modified": "2024-10-18T17:27:22.000",
    "request_status": "Pending",
    "responsible_agency": "Mosquito, Termite & Rodent Control Board",
    "final_address": "1336 Bartholomew St",
    "address_councildis": "D",
    "status": "Pending",
    "rowid": "1142301",
    "final_x": "3692022.60432",
    "final_y": "536346.700039",
    "longitude": "-90.03467112068562",
    "latitude": "29.968443730121805",
    "geocoded_column": {
      "latitude": "29.968443730121805",
      "longitude": "-90.03467112068562"
    }
  },
  {
    "service_request": "2024-1142300",
    "request_type": "Trash/Recycling",
    "request_reason": "Request a Large Item Pick Up",
    "date_created": "2024-10-18T17:15:14.000",
    "date_modified": "2024-10-18T17:15:16.000",
    "request_status": "Pending",
    "responsible_agency": "Department of Sanitation",
    "final_address": "4000 Bienville Ave",
    "address_councildis": "A",
    "status": "Assigned to Contractor",
    "contractor": "IV Waste",
    "rowid": "1142300",
    "final_x": "3671797.08327",
    "final_y": "538697.403209",
    "longitude": "-90.09846446053696",
    "latitude": "29.975522174117746",
    "geocoded_column": {
      "latitude": "29.975522174117746",
      "longitude": "-90.09846446053696"
    }
  },
  {
    "service_request": "2024-1142299",
    "request_type": "Trash/Recycling",
    "request_reason": "Request a Large Item Pick Up",
    "date_created": "2024-10-18T17:08:39.000",
    "date_modified": "2024-10-18T17:08:40.000",
    "request_status": "Pending",
    "responsible_agency": "Department of Sanitation",
    "final_address": "400 40Th St",
    "address_councildis": "A",
    "status": "Assigned to Contractor",
    "contractor": "IV Waste",
    "rowid": "1142299",
    "final_x": "3665011.32884",
    "final_y": "553309.459607",
    "longitude": "-90.11940690867381",
    "latitude": "30.01589967280443",
    "geocoded_column": {
      "latitude": "30.01589967280443",
      "longitude": "-90.11940690867381"
    }
  },
  {
    "service_request": "2024-1142298",
    "request_type": "Trash/Recycling",
    "request_reason": "Missed Trash Pick-Up",
    "date_created": "2024-10-18T16:47:11.000",
    "date_modified": "2024-10-18T16:47:13.000",
    "request_status": "Pending",
    "responsible_agency": "Department of Sanitation",
    "final_address": "6912 Lake Willow Dr",
    "address_councildis": "E",
    "status": "Assigned to Contractor",
    "contractor": "Waste Pro",
    "rowid": "1142298",
    "final_x": "3703139.14039",
    "final_y": "558601.178204",
    "longitude": "-89.99874623796288",
    "latitude": "30.029284080414914",
    "geocoded_column": {
      "latitude": "30.029284080414914",
      "longitude": "-89.99874623796288"
    }
  },
  {
    "service_request": "2024-1142297",
    "request_type": "Drainage",
    "request_reason": "Catch Basin Clogged",
    "date_created": "2024-10-18T16:34:48.000",
    "date_modified": "2024-10-18T16:34:49.000",
    "request_status": "Pending",
    "responsible_agency": "Department of Public Works",
    "final_address": "4737 Bancroft Dr",
    "address_councildis": "D",
    "status": "Pending",
    "rowid": "1142297",
    "final_x": "3676400.2724",
    "final_y": "549702.118292",
    "longitude": "-90.08354722943483",
    "latitude": "30.005644092969806",
    "geocoded_column": {
      "latitude": "30.005644092969806",
      "longitude": "-90.08354722943483"
    }
  },
  {
    "service_request": "2024-1142296",
    "request_type": "Street and Traffic Signs",
    "request_reason": "Disabled Parking Sign Missing or Damaged",
    "date_created": "2024-10-18T16:33:10.000",
    "date_modified": "2024-10-18T16:33:10.000",
    "request_status": "Pending",
    "responsible_agency": "Department of Public Works",
    "final_address": "1721 Nashville Ave",
    "address_councildis": "A",
    "status": "Pending",
    "rowid": "1142296",
    "final_x": "3666512.55802",
    "final_y": "522764.596346",
    "longitude": "-90.11568923685391",
    "latitude": "29.93186769024428",
    "geocoded_column": {
      "latitude": "29.93186769024428",
      "longitude": "-90.11568923685391"
    }
  },
  {
    "service_request": "2024-1142295",
    "request_type": "Trash/Recycling",
    "request_reason": "Missed Trash Pick-Up",
    "date_created": "2024-10-18T16:31:48.000",
    "date_modified": "2024-10-18T16:31:49.000",
    "request_status": "Pending",
    "responsible_agency": "Department of Sanitation",
    "final_address": "1901 Alabo St",
    "address_councildis": "E",
    "status": "Assigned to Contractor",
    "contractor": "Waste Pro",
    "rowid": "1142295",
    "final_x": "3699751.63216",
    "final_y": "536557.371591",
    "longitude": "-90.01025494038566",
    "latitude": "29.9687798719203",
    "geocoded_column": {
      "latitude": "29.9687798719203",
      "longitude": "-90.01025494038566"
    }
  },
  {
    "service_request": "2024-1142294",
    "request_type": "Trash/Recycling",
    "request_reason": "Request a Large Item Pick Up",
    "date_created": "2024-10-18T16:23:46.000",
    "date_modified": "2024-10-18T16:23:47.000",
    "request_status": "Pending",
    "responsible_agency": "Department of Sanitation",
    "final_address": "6027 Wales St",
    "address_councildis": "E",
    "status": "Assigned to Contractor",
    "contractor": "Waste Pro",
    "rowid": "1142294",
    "final_x": "3695119.75875",
    "final_y": "559496.333853",
    "longitude": "-90.0240548487072",
    "latitude": "30.031999803345194",
    "geocoded_column": {
      "latitude": "30.031999803345194",
      "longitude": "-90.0240548487072"
    }
  },
  {
    "service_request": "2024-1142293",
    "request_type": "Trash/Recycling",
    "request_reason": "Request a Large Item Pick Up",
    "date_created": "2024-10-18T16:22:25.000",
    "date_modified": "2024-10-18T16:22:27.000",
    "request_status": "Pending",
    "responsible_agency": "Department of Sanitation",
    "final_address": "560 Chapelle St",
    "address_councildis": "A",
    "status": "Assigned to Contractor",
    "contractor": "IV Waste",
    "rowid": "1142293",
    "final_x": "3668800.90401",
    "final_y": "552637.474966",
    "longitude": "-90.10745622513073",
    "latitude": "30.013941016437947",
    "geocoded_column": {
      "latitude": "30.013941016437947",
      "longitude": "-90.10745622513073"
    }
  },
  {
    "service_request": "2024-1142292",
    "request_type": "Drainage",
    "request_reason": "Catch Basin Damaged",
    "date_created": "2024-10-18T16:19:38.000",
    "date_modified": "2024-10-18T16:19:39.000",
    "request_status": "Pending",
    "responsible_agency": "Department of Public Works",
    "final_address": "2418 Dante St",
    "address_councildis": "A",
    "status": "Pending",
    "rowid": "1142292",
    "final_x": "3664397.94554",
    "final_y": "532183.425475",
    "longitude": "-90.12205054535195",
    "latitude": "29.957828065373725",
    "geocoded_column": {
      "latitude": "29.957828065373725",
      "longitude": "-90.12205054535195"
    }
  },
  {
    "service_request": "2024-1142291",
    "request_type": "Trash/Recycling",
    "request_reason": "Order Trash Cart",
    "date_created": "2024-10-18T16:18:26.000",
    "date_modified": "2024-10-18T16:18:27.000",
    "request_status": "Pending",
    "responsible_agency": "Department of Sanitation",
    "final_address": "2418 Dante St",
    "address_councildis": "A",
    "status": "Assigned to Contractor",
    "contractor": "IV Waste",
    "rowid": "1142291",
    "final_x": "3664397.94554",
    "final_y": "532183.425475",
    "longitude": "-90.12205054535195",
    "latitude": "29.957828065373725",
    "geocoded_column": {
      "latitude": "29.957828065373725",
      "longitude": "-90.12205054535195"
    }
  },
  {
    "service_request": "2024-1142290",
    "request_type": "Trash/Recycling",
    "request_reason": "Order Trash Cart",
    "date_created": "2024-10-18T16:18:15.000",
    "date_modified": "2024-10-18T16:18:16.000",
    "request_status": "Pending",
    "responsible_agency": "Department of Sanitation",
    "final_address": "2416 Dante St",
    "address_councildis": "A",
    "status": "Assigned to Contractor",
    "contractor": "IV Waste",
    "rowid": "1142290",
    "final_x": "3664348.62119",
    "final_y": "532133.174915",
    "longitude": "-90.12220797539325",
    "latitude": "29.95769132633309",
    "geocoded_column": {
      "latitude": "29.95769132633309",
      "longitude": "-90.12220797539325"
    }
  },
  {
    "service_request": "2024-1142289",
    "request_type": "Streetlights",
    "request_reason": "Streetlight Outage/Malfunction",
    "date_created": "2024-10-18T16:18:11.000",
    "date_modified": "2024-10-18T16:18:12.000",
    "request_status": "Pending",
    "responsible_agency": "Department of Public Works",
    "final_address": "700 N Galvez St",
    "address_councildis": "D",
    "status": "Pending",
    "contractor": "Legacy Professional Services",
    "rowid": "1142289",
    "final_x": "3678477.11803",
    "final_y": "535545.688006",
    "longitude": "-90.07747617453106",
    "latitude": "29.96665639691571",
    "geocoded_column": {
      "latitude": "29.96665639691571",
      "longitude": "-90.07747617453106"
    }
  },
  {
    "service_request": "2024-1142288",
    "request_type": "Trash/Recycling",
    "request_reason": "Request a Large Item Pick Up",
    "date_created": "2024-10-18T16:11:39.000",
    "date_modified": "2024-10-18T16:21:37.000",
    "request_status": "Pending",
    "responsible_agency": "Department of Sanitation",
    "final_address": "7736 Berg Rd",
    "address_councildis": "E",
    "status": "Assigned to Contractor",
    "contractor": "Waste Pro",
    "rowid": "1142288",
    "final_x": "3711569.97208",
    "final_y": "567234.12938",
    "longitude": "-89.97178112710132",
    "latitude": "30.052748537348467",
    "geocoded_column": {
      "latitude": "30.052748537348467",
      "longitude": "-89.97178112710132"
    }
  },
  {
    "service_request": "2024-1142287",
    "request_type": "Roads and Streets",
    "request_reason": "Sidewalk Damaged or Missing",
    "date_created": "2024-10-18T16:11:39.000",
    "date_modified": "2024-10-18T16:11:39.000",
    "request_status": "Pending",
    "responsible_agency": "Department of Public Works",
    "final_address": "3691 Clermont Dr",
    "address_councildis": "D",
    "status": "Pending",
    "rowid": "1142287",
    "final_x": "3685682.48975",
    "final_y": "546236.429712",
    "longitude": "-90.05434486250678",
    "latitude": "29.99583305277528",
    "geocoded_column": {
      "latitude": "29.99583305277528",
      "longitude": "-90.05434486250678"
    }
  },
  {
    "service_request": "2024-1142286",
    "request_type": "Roads and Streets",
    "request_reason": "Push-up/Pavement Expansion",
    "date_created": "2024-10-18T16:08:26.000",
    "date_modified": "2024-10-18T16:08:26.000",
    "request_status": "Pending",
    "responsible_agency": "Department of Public Works",
    "final_address": "3691 Clermont Dr",
    "address_councildis": "D",
    "status": "Pending",
    "rowid": "1142286",
    "final_x": "3685682.48975",
    "final_y": "546236.429712",
    "longitude": "-90.05434486250678",
    "latitude": "29.99583305277528",
    "geocoded_column": {
      "latitude": "29.99583305277528",
      "longitude": "-90.05434486250678"
    }
  },
  {
    "service_request": "2024-1142285",
    "request_type": "Abandoned Vehicles",
    "request_reason": "Abandoned/Junk Vehicles",
    "date_created": "2024-10-18T16:06:50.000",
    "date_modified": "2024-10-18T16:06:51.000",
    "request_status": "Pending",
    "responsible_agency": "Department of Public Works",
    "final_address": "7100 BLK Parkside Ct",
    "address_councildis": "E",
    "status": "Pending",
    "rowid": "1142285",
    "final_x": "3704514.98037",
    "final_y": "560115.795566",
    "longitude": "-89.99434272128488",
    "latitude": "30.03340455307902",
    "geocoded_column": {
      "latitude": "30.03340455307902",
      "longitude": "-89.99434272128488"
    }
  },
  {
    "service_request": "2024-1142284",
    "request_type": "Mosquito, Termite & Rodent Control",
    "request_reason": "Rodent Complaint (Rats)",
    "date_created": "2024-10-18T16:04:07.000",
    "date_modified": "2024-10-18T16:04:07.000",
    "request_status": "Pending",
    "responsible_agency": "Mosquito, Termite & Rodent Control Board",
    "final_address": "3691 Clermont Dr",
    "address_councildis": "D",
    "status": "Pending",
    "rowid": "1142284",
    "final_x": "3685682.48975",
    "final_y": "546236.429712",
    "longitude": "-90.05434486250678",
    "latitude": "29.99583305277528",
    "geocoded_column": {
      "latitude": "29.99583305277528",
      "longitude": "-90.05434486250678"
    }
  },
  {
    "service_request": "2024-1142283",
    "request_type": "Abandoned Vehicles",
    "request_reason": "Abandoned/Junk Vehicles",
    "date_created": "2024-10-18T16:03:24.000",
    "date_modified": "2024-10-18T16:03:24.000",
    "request_status": "Pending",
    "responsible_agency": "Department of Public Works",
    "final_address": "1216 Milan St",
    "address_councildis": "B",
    "status": "Pending",
    "rowid": "1142283",
    "final_x": "3671646.51252",
    "final_y": "520048.424248",
    "longitude": "-90.0995741836057",
    "latitude": "29.924248076522314",
    "geocoded_column": {
      "latitude": "29.924248076522314",
      "longitude": "-90.0995741836057"
    }
  },
  {
    "service_request": "2024-1142282",
    "request_type": "Trash/Recycling",
    "request_reason": "Missed Trash Pick-Up",
    "date_created": "2024-10-18T16:02:59.000",
    "date_modified": "2024-10-18T16:03:00.000",
    "request_status": "Pending",
    "responsible_agency": "Department of Sanitation",
    "final_address": "3923 N Robertson St",
    "address_councildis": "D",
    "status": "Assigned to Contractor",
    "contractor": "IV Waste",
    "rowid": "1142282",
    "final_x": "3692053.66301",
    "final_y": "536864.35604",
    "longitude": "-90.0345545063906",
    "latitude": "29.969866133271026",
    "geocoded_column": {
      "latitude": "29.969866133271026",
      "longitude": "-90.0345545063906"
    }
  },
  {
    "service_request": "2024-1142281",
    "request_type": "Mosquito, Termite & Rodent Control",
    "request_reason": "Mosquito Complaint",
    "date_created": "2024-10-18T15:59:57.000",
    "date_modified": "2024-10-18T15:59:57.000",
    "request_status": "Pending",
    "responsible_agency": "Mosquito, Termite & Rodent Control Board",
    "final_address": "3691 Clermont Dr",
    "address_councildis": "D",
    "status": "Pending",
    "rowid": "1142281",
    "final_x": "3685682.48975",
    "final_y": "546236.429712",
    "longitude": "-90.05434486250678",
    "latitude": "29.99583305277528",
    "geocoded_column": {
      "latitude": "29.99583305277528",
      "longitude": "-90.05434486250678"
    }
  },
  {
    "service_request": "2024-1142280",
    "request_type": "Trash/Recycling",
    "request_reason": "Order Recycling Cart",
    "date_created": "2024-10-18T15:57:55.000",
    "date_modified": "2024-10-18T15:57:55.000",
    "request_status": "Pending",
    "responsible_agency": "Department of Sanitation",
    "final_address": "5130 Pauline Dr",
    "address_councildis": "D",
    "status": "Pending",
    "rowid": "1142280",
    "final_x": "3692397.17571",
    "final_y": "553003.504407",
    "longitude": "-90.03289120695435",
    "latitude": "30.014232222693437",
    "geocoded_column": {
      "latitude": "30.014232222693437",
      "longitude": "-90.03289120695435"
    }
  },
  {
    "service_request": "2024-1142279",
    "request_type": "Abandoned Vehicles",
    "request_reason": "Abandoned/Junk Vehicles",
    "date_created": "2024-10-18T15:56:21.000",
    "date_modified": "2024-10-18T16:02:47.000",
    "request_status": "Pending",
    "responsible_agency": "Department of Public Works",
    "final_address": "2318 Chippewa St",
    "address_councildis": "B",
    "status": "Pending",
    "rowid": "1142279",
    "final_x": "3679321.7044",
    "final_y": "520562.510392",
    "longitude": "-90.0753284618938",
    "latitude": "29.92543217884726",
    "geocoded_column": {
      "latitude": "29.92543217884726",
      "longitude": "-90.0753284618938"
    }
  },
  {
    "service_request": "2024-1142278",
    "request_type": "Trash/Recycling",
    "request_reason": "Repair Trash Cart",
    "date_created": "2024-10-18T15:50:56.000",
    "date_modified": "2024-10-18T15:50:57.000",
    "request_status": "Pending",
    "responsible_agency": "Department of Sanitation",
    "final_address": "622 First St",
    "address_councildis": "B",
    "status": "Assigned to Contractor",
    "contractor": "IV Waste",
    "rowid": "1142278",
    "final_x": "3678931.60347",
    "final_y": "520117.2062",
    "longitude": "-90.07657530686691",
    "latitude": "29.92421950804244",
    "geocoded_column": {
      "latitude": "29.92421950804244",
      "longitude": "-90.07657530686691"
    }
  },
  {
    "service_request": "2024-1142277",
    "request_type": "Trash/Recycling",
    "request_reason": "Illegal Dumping",
    "date_created": "2024-10-18T15:45:55.000",
    "date_modified": "2024-10-18T15:45:56.000",
    "request_status": "Pending",
    "responsible_agency": "Department of Sanitation",
    "final_address": "7510 Pineridge St",
    "address_councildis": "E",
    "status": "Pending",
    "rowid": "1142277",
    "final_x": "3719362.35634",
    "final_y": "571502.16452",
    "longitude": "-89.94698868192387",
    "latitude": "30.064226958746573",
    "geocoded_column": {
      "latitude": "30.064226958746573",
      "longitude": "-89.94698868192387"
    }
  },
  {
    "service_request": "2024-1142276",
    "request_type": "Abandoned Vehicles",
    "request_reason": "Abandoned/Junk Vehicles",
    "date_created": "2024-10-18T15:36:15.000",
    "date_modified": "2024-10-18T15:36:58.000",
    "request_status": "Pending",
    "responsible_agency": "Department of Public Works",
    "final_address": "BANKS ST & S BERNADOTTE ST",
    "address_councildis": "A",
    "status": "Pending",
    "rowid": "1142276",
    "final_x": "3668083.2",
    "final_y": "539091.18",
    "longitude": "-90.11018068361487",
    "latitude": "29.976714458673086",
    "geocoded_column": {
      "latitude": "29.976714458673086",
      "longitude": "-90.11018068361487"
    }
  },
  {
    "service_request": "2024-1142275",
    "request_type": "Trash/Recycling",
    "request_reason": "Repair Recycling Cart",
    "date_created": "2024-10-18T15:30:02.000",
    "date_modified": "2024-10-18T15:30:03.000",
    "request_status": "Pending",
    "responsible_agency": "Department of Sanitation",
    "final_address": "7549 Kingsport Blvd",
    "address_councildis": "E",
    "status": "Pending",
    "rowid": "1142275",
    "final_x": "3720428.59519",
    "final_y": "572806.422057",
    "longitude": "-89.9435682504658",
    "latitude": "30.067777604162508",
    "geocoded_column": {
      "latitude": "30.067777604162508",
      "longitude": "-89.9435682504658"
    }
  },
  {
    "service_request": "2024-1142274",
    "request_type": "Trash/Recycling",
    "request_reason": "Repair Trash Cart",
    "date_created": "2024-10-18T15:28:06.000",
    "date_modified": "2024-10-18T15:28:07.000",
    "request_status": "Pending",
    "responsible_agency": "Department of Sanitation",
    "final_address": "7549 Kingsport Blvd",
    "address_councildis": "E",
    "status": "Assigned to Contractor",
    "contractor": "Waste Pro",
    "rowid": "1142274",
    "final_x": "3720428.59519",
    "final_y": "572806.422057",
    "longitude": "-89.9435682504658",
    "latitude": "30.067777604162508",
    "geocoded_column": {
      "latitude": "30.067777604162508",
      "longitude": "-89.9435682504658"
    }
  },
  {
    "service_request": "2024-1142273",
    "request_type": "Trash/Recycling",
    "request_reason": "Request a Large Item Pick Up",
    "date_created": "2024-10-18T15:26:13.000",
    "date_modified": "2024-10-18T15:26:14.000",
    "request_status": "Pending",
    "responsible_agency": "Department of Sanitation",
    "final_address": "7558 Lafourche St",
    "address_councildis": "E",
    "status": "Assigned to Contractor",
    "contractor": "Waste Pro",
    "rowid": "1142273",
    "final_x": "3710383.48549",
    "final_y": "565170.788514",
    "longitude": "-89.9756085180776",
    "latitude": "30.047113895845946",
    "geocoded_column": {
      "latitude": "30.047113895845946",
      "longitude": "-89.9756085180776"
    }
  },
  {
    "service_request": "2024-1142272",
    "request_type": "Trash/Recycling",
    "request_reason": "Missed Trash Pick-Up",
    "date_created": "2024-10-18T15:26:05.000",
    "date_modified": "2024-10-18T15:26:06.000",
    "request_status": "Pending",
    "responsible_agency": "Department of Sanitation",
    "final_address": "1625 France St",
    "address_councildis": "D",
    "status": "Assigned to Contractor",
    "contractor": "IV Waste",
    "rowid": "1142272",
    "final_x": "3692939.84233",
    "final_y": "537240.337672",
    "longitude": "-90.03174239223361",
    "latitude": "29.97087230051563",
    "geocoded_column": {
      "latitude": "29.97087230051563",
      "longitude": "-90.03174239223361"
    }
  },
  {
    "service_request": "2024-1142271",
    "request_type": "Trash/Recycling",
    "request_reason": "Request a Large Item Pick Up",
    "date_created": "2024-10-18T15:25:02.000",
    "date_modified": "2024-10-18T15:25:03.000",
    "request_status": "Pending",
    "responsible_agency": "Department of Sanitation",
    "final_address": "2624 N Derbigny St",
    "address_councildis": "D",
    "status": "Assigned to Contractor",
    "contractor": "IV Waste",
    "rowid": "1142271",
    "final_x": "3687843.61027",
    "final_y": "538634.809161",
    "longitude": "-90.04778748667871",
    "latitude": "29.974864799165026",
    "geocoded_column": {
      "latitude": "29.974864799165026",
      "longitude": "-90.04778748667871"
    }
  },
  {
    "service_request": "2024-1142270",
    "request_type": "Property Maintenance",
    "request_reason": "Property Maintenance",
    "date_created": "2024-10-18T15:23:48.000",
    "date_modified": "2024-10-18T15:23:49.000",
    "request_status": "Pending",
    "responsible_agency": "Department of Code Enforcement",
    "final_address": "4842 Piety Dr",
    "address_councildis": "D",
    "status": "Pending",
    "rowid": "1142270",
    "final_x": "3691512.74588",
    "final_y": "551536.203797",
    "longitude": "-90.035738051102",
    "latitude": "30.01022526002233",
    "geocoded_column": {
      "latitude": "30.01022526002233",
      "longitude": "-90.035738051102"
    }
  },
  {
    "service_request": "2024-1142269",
    "request_type": "Trash/Recycling",
    "request_reason": "Request a Large Item Pick Up",
    "date_created": "2024-10-18T15:23:23.000",
    "date_modified": "2024-10-18T15:23:24.000",
    "request_status": "Pending",
    "responsible_agency": "Department of Sanitation",
    "final_address": "9844 E Wheaton Cir",
    "address_councildis": "E",
    "status": "Assigned to Contractor",
    "contractor": "Waste Pro",
    "rowid": "1142269",
    "final_x": "3708789.53585",
    "final_y": "562636.0232",
    "longitude": "-89.98074078249012",
    "latitude": "30.040196140201026",
    "geocoded_column": {
      "latitude": "30.040196140201026",
      "longitude": "-89.98074078249012"
    }
  },
  {
    "service_request": "2024-1142268",
    "request_type": "Trash/Recycling",
    "request_reason": "Request a Large Item Pick Up",
    "date_created": "2024-10-18T15:22:24.000",
    "date_modified": "2024-10-18T15:22:25.000",
    "request_status": "Pending",
    "responsible_agency": "Department of Sanitation",
    "final_address": "1625 France St",
    "address_councildis": "D",
    "status": "Assigned to Contractor",
    "contractor": "IV Waste",
    "rowid": "1142268",
    "final_x": "3692939.84233",
    "final_y": "537240.337672",
    "longitude": "-90.03174239223361",
    "latitude": "29.97087230051563",
    "geocoded_column": {
      "latitude": "29.97087230051563",
      "longitude": "-90.03174239223361"
    }
  },
  {
    "service_request": "2024-1142267",
    "request_type": "Health Related Request",
    "request_reason": "Noise Ordinance Complaint",
    "date_created": "2024-10-18T15:22:14.000",
    "date_modified": "2024-10-18T15:22:14.000",
    "request_status": "Pending",
    "responsible_agency": "Health Department",
    "final_address": "538 Hagan St",
    "address_councildis": "A",
    "status": "Pending",
    "rowid": "1142267",
    "final_x": "3674398.87508",
    "final_y": "538070.229257",
    "longitude": "-90.09026876657985",
    "latitude": "29.97372030406642",
    "geocoded_column": {
      "latitude": "29.97372030406642",
      "longitude": "-90.09026876657985"
    }
  },
  {
    "service_request": "2024-1142266",
    "request_type": "Trash/Recycling",
    "request_reason": "Missed Trash Pick-Up",
    "date_created": "2024-10-18T15:21:33.000",
    "date_modified": "2024-10-18T15:21:35.000",
    "request_status": "Pending",
    "responsible_agency": "Department of Sanitation",
    "final_address": "1625 France St",
    "address_councildis": "D",
    "status": "Assigned to Contractor",
    "contractor": "IV Waste",
    "rowid": "1142266",
    "final_x": "3692939.84233",
    "final_y": "537240.337672",
    "longitude": "-90.03174239223361",
    "latitude": "29.97087230051563",
    "geocoded_column": {
      "latitude": "29.97087230051563",
      "longitude": "-90.03174239223361"
    }
  },
  {
    "service_request": "2024-1142265",
    "request_type": "Trash/Recycling",
    "request_reason": "Order Recycling Cart",
    "date_created": "2024-10-18T15:21:21.000",
    "date_modified": "2024-10-18T15:21:22.000",
    "request_status": "Pending",
    "responsible_agency": "Department of Sanitation",
    "final_address": "2716 Comet St",
    "address_councildis": "C",
    "status": "Pending",
    "rowid": "1142265",
    "final_x": "3699864.72349",
    "final_y": "520911.669433",
    "longitude": "-90.01046822815259",
    "latitude": "29.925756103072064",
    "geocoded_column": {
      "latitude": "29.925756103072064",
      "longitude": "-90.01046822815259"
    }
  },
  {
    "service_request": "2024-1142264",
    "request_type": "Trash/Recycling",
    "request_reason": "Request a Large Item Pick Up",
    "date_created": "2024-10-18T15:20:29.000",
    "date_modified": "2024-10-18T15:20:30.000",
    "request_status": "Pending",
    "responsible_agency": "Department of Sanitation",
    "final_address": "2716 Comet St",
    "address_councildis": "C",
    "status": "Assigned to Contractor",
    "contractor": "Richards Disposal",
    "rowid": "1142264",
    "final_x": "3699864.72349",
    "final_y": "520911.669433",
    "longitude": "-90.01046822815259",
    "latitude": "29.925756103072064",
    "geocoded_column": {
      "latitude": "29.925756103072064",
      "longitude": "-90.01046822815259"
    }
  },
  {
    "service_request": "2024-1142263",
    "request_type": "Trash/Recycling",
    "request_reason": "Repair Trash Cart",
    "date_created": "2024-10-18T15:19:19.000",
    "date_modified": "2024-10-18T15:19:20.000",
    "request_status": "Pending",
    "responsible_agency": "Department of Sanitation",
    "final_address": "326 S Scott St",
    "address_councildis": "A",
    "status": "Assigned to Contractor",
    "contractor": "IV Waste",
    "rowid": "1142263",
    "final_x": "3671191.29991",
    "final_y": "536953.35156",
    "longitude": "-90.10043696164409",
    "latitude": "29.970744557883105",
    "geocoded_column": {
      "latitude": "29.970744557883105",
      "longitude": "-90.10043696164409"
    }
  },
  {
    "service_request": "2024-1142262",
    "request_type": "Trash/Recycling",
    "request_reason": "Request a Large Item Pick Up",
    "date_created": "2024-10-18T15:17:18.000",
    "date_modified": "2024-10-18T15:17:19.000",
    "request_status": "Pending",
    "responsible_agency": "Department of Sanitation",
    "final_address": "3620 Rue Delphine",
    "address_councildis": "C",
    "status": "Assigned to Contractor",
    "contractor": "Richards Disposal",
    "rowid": "1142262",
    "final_x": "3703090.70212",
    "final_y": "517277.205749",
    "longitude": "-90.00041831951722",
    "latitude": "29.915659779074407",
    "geocoded_column": {
      "latitude": "29.915659779074407",
      "longitude": "-90.00041831951722"
    }
  },
  {
    "service_request": "2024-1142261",
    "request_type": "Streetlights",
    "request_reason": "Streetlight Outage/Malfunction",
    "date_created": "2024-10-18T15:10:49.000",
    "date_modified": "2024-10-18T15:11:28.000",
    "request_status": "Pending",
    "responsible_agency": "Department of Public Works",
    "final_address": "4850 Piety Dr",
    "address_councildis": "D",
    "status": "Pending",
    "contractor": "Legacy Professional Services",
    "rowid": "1142261",
    "final_x": "3691488.06006",
    "final_y": "551590.796053",
    "longitude": "-90.03581408942536",
    "latitude": "30.010376137180607",
    "geocoded_column": {
      "latitude": "30.010376137180607",
      "longitude": "-90.03581408942536"
    }
  },
  {
    "service_request": "2024-1142260",
    "request_type": "Street and Traffic Signs",
    "request_reason": "Stop Sign Missing or Damaged",
    "date_created": "2024-10-18T15:08:01.000",
    "date_modified": "2024-10-18T15:08:01.000",
    "request_status": "Pending",
    "responsible_agency": "Department of Public Works",
    "final_address": "1629 Conery St",
    "address_councildis": "B",
    "status": "Pending",
    "rowid": "1142260",
    "final_x": "3675549.34075",
    "final_y": "522667.935994",
    "longitude": "-90.08716437249724",
    "latitude": "29.931334759374074",
    "geocoded_column": {
      "latitude": "29.931334759374074",
      "longitude": "-90.08716437249724"
    }
  },
  {
    "service_request": "2024-1142259",
    "request_type": "Trash/Recycling",
    "request_reason": "Repair Trash Cart",
    "date_created": "2024-10-18T15:07:48.000",
    "date_modified": "2024-10-18T15:07:50.000",
    "request_status": "Pending",
    "responsible_agency": "Department of Sanitation",
    "final_address": "4450 Kennon Ave",
    "address_councildis": "D",
    "status": "Assigned to Contractor",
    "contractor": "IV Waste",
    "rowid": "1142259",
    "final_x": "3677370.77902",
    "final_y": "548850.178963",
    "longitude": "-90.0805106041848",
    "latitude": "30.003272420638844",
    "geocoded_column": {
      "latitude": "30.003272420638844",
      "longitude": "-90.0805106041848"
    }
  },
  {
    "service_request": "2024-1142258",
    "request_type": "Trash/Recycling",
    "request_reason": "Request a Large Item Pick Up",
    "date_created": "2024-10-18T15:06:56.000",
    "date_modified": "2024-10-18T15:06:58.000",
    "request_status": "Pending",
    "responsible_agency": "Department of Sanitation",
    "final_address": "1625 France St",
    "address_councildis": "D",
    "status": "Assigned to Contractor",
    "contractor": "IV Waste",
    "rowid": "1142258",
    "final_x": "3692939.84233",
    "final_y": "537240.337672",
    "longitude": "-90.03174239223361",
    "latitude": "29.97087230051563",
    "geocoded_column": {
      "latitude": "29.97087230051563",
      "longitude": "-90.03174239223361"
    }
  },
  {
    "service_request": "2024-1142257",
    "request_type": "Road Striping",
    "request_reason": "Lane Striping or other Pavement Markings",
    "date_created": "2024-10-18T15:03:39.000",
    "date_modified": "2024-10-18T15:03:39.000",
    "request_status": "Pending",
    "responsible_agency": "Department of Public Works",
    "final_address": "S WHITE ST & WASHINGTON AVE",
    "address_councildis": "B",
    "status": "Pending",
    "rowid": "1142257",
    "final_x": "3671097.4",
    "final_y": "530020.58",
    "longitude": "-90.10096898824528",
    "latitude": "29.951684520434593",
    "geocoded_column": {
      "latitude": "29.951684520434593",
      "longitude": "-90.10096898824528"
    }
  },
  {
    "service_request": "2024-1142256",
    "request_type": "Abandoned Vehicles",
    "request_reason": "Abandoned/Junk Vehicles",
    "date_created": "2024-10-18T14:59:31.000",
    "date_modified": "2024-10-18T14:59:31.000",
    "request_status": "Pending",
    "responsible_agency": "Department of Public Works",
    "final_address": "1216 Milan St",
    "address_councildis": "B",
    "status": "Pending",
    "rowid": "1142256",
    "final_x": "3671646.51252",
    "final_y": "520048.424248",
    "longitude": "-90.0995741836057",
    "latitude": "29.924248076522314",
    "geocoded_column": {
      "latitude": "29.924248076522314",
      "longitude": "-90.0995741836057"
    }
  },
  {
    "service_request": "2024-1142255",
    "request_type": "Streetlights",
    "request_reason": "Streetlight Outage/Malfunction",
    "date_created": "2024-10-18T14:56:30.000",
    "date_modified": "2024-10-18T14:56:31.000",
    "request_status": "Pending",
    "responsible_agency": "Department of Public Works",
    "final_address": "6434 Marshal Foch St",
    "address_councildis": "A",
    "status": "Pending",
    "contractor": "Legacy Professional Services",
    "rowid": "1142255",
    "final_x": "3670037.20609",
    "final_y": "550234.213716",
    "longitude": "-90.10363161805888",
    "latitude": "30.007296467699128",
    "geocoded_column": {
      "latitude": "30.007296467699128",
      "longitude": "-90.10363161805888"
    }
  },
  {
    "service_request": "2024-1142254",
    "request_type": "Health Related Request",
    "request_reason": "Noise Ordinance Complaint",
    "date_created": "2024-10-18T14:55:34.000",
    "date_modified": "2024-10-18T14:56:30.000",
    "request_status": "Pending",
    "responsible_agency": "Health Department",
    "final_address": "501 Moss St",
    "address_councildis": "A",
    "status": "Pending",
    "rowid": "1142254",
    "final_x": "3673919.37851",
    "final_y": "538106.515273",
    "longitude": "-90.09178188132455",
    "latitude": "29.973834372774853",
    "geocoded_column": {
      "latitude": "29.973834372774853",
      "longitude": "-90.09178188132455"
    }
  },
  {
    "service_request": "2024-1142253",
    "request_type": "Streetlights",
    "request_reason": "Streetlight Outage/Malfunction",
    "date_created": "2024-10-18T14:55:00.000",
    "date_modified": "2024-10-18T14:55:01.000",
    "request_status": "Pending",
    "responsible_agency": "Department of Public Works",
    "final_address": "600 Belleville St",
    "address_councildis": "C",
    "status": "Pending",
    "contractor": "Legacy Professional Services",
    "rowid": "1142253",
    "final_x": "3687884.38044",
    "final_y": "529453.431361",
    "longitude": "-90.04798400004897",
    "latitude": "29.949617939228034",
    "geocoded_column": {
      "latitude": "29.949617939228034",
      "longitude": "-90.04798400004897"
    }
  },
  {
    "service_request": "2024-1142252",
    "request_type": "Traffic Signals",
    "request_reason": "Traffic Signal Malfunctioning or Damaged",
    "date_created": "2024-10-18T14:51:02.000",
    "date_modified": "2024-10-18T14:51:03.000",
    "request_status": "Pending",
    "responsible_agency": "Department of Public Works",
    "final_address": "CANAL ST & S RAMPART ST",
    "address_councildis": "B",
    "status": "Pending",
    "rowid": "1142252",
    "final_x": "3679972.7",
    "final_y": "531544.98",
    "longitude": "-90.07289211617753",
    "latitude": "29.955610653469453",
    "geocoded_column": {
      "latitude": "29.955610653469453",
      "longitude": "-90.07289211617753"
    }
  },
  {
    "service_request": "2024-1142251",
    "request_type": "Abandoned Vehicles",
    "request_reason": "Abandoned/Junk Vehicles",
    "date_created": "2024-10-18T14:50:47.000",
    "date_modified": "2024-10-18T14:50:47.000",
    "request_status": "Pending",
    "responsible_agency": "Department of Public Works",
    "final_address": "6218 Memphis St",
    "address_councildis": "A",
    "status": "Pending",
    "rowid": "1142251",
    "final_x": "3669248.20666",
    "final_y": "548710.656211",
    "longitude": "-90.1061758448413",
    "latitude": "30.003130475260274",
    "geocoded_column": {
      "latitude": "30.003130475260274",
      "longitude": "-90.1061758448413"
    }
  },
  {
    "service_request": "2024-1142250",
    "request_type": "Streetlights",
    "request_reason": "Streetlight Outage/Malfunction",
    "date_created": "2024-10-18T14:49:51.000",
    "date_modified": "2024-10-18T14:49:52.000",
    "request_status": "Pending",
    "responsible_agency": "Department of Public Works",
    "final_address": "6458 Marshal Foch St",
    "address_councildis": "A",
    "status": "Pending",
    "contractor": "Legacy Professional Services",
    "rowid": "1142250",
    "final_x": "3670025.67066",
    "final_y": "550386.91394",
    "longitude": "-90.10366288463597",
    "latitude": "30.00771668015856",
    "geocoded_column": {
      "latitude": "30.00771668015856",
      "longitude": "-90.10366288463597"
    }
  },
  {
    "service_request": "2024-1142249",
    "request_type": "Streetlights",
    "request_reason": "Streetlight Outage/Malfunction",
    "date_created": "2024-10-18T14:49:09.000",
    "date_modified": "2024-10-18T14:49:10.000",
    "request_status": "Pending",
    "responsible_agency": "Department of Public Works",
    "final_address": "325 Polk St",
    "address_councildis": "A",
    "status": "Pending",
    "contractor": "Legacy Professional Services",
    "rowid": "1142249",
    "final_x": "3667295.1426",
    "final_y": "547451.521617",
    "longitude": "-90.11238827014232",
    "latitude": "29.999725659537958",
    "geocoded_column": {
      "latitude": "29.999725659537958",
      "longitude": "-90.11238827014232"
    }
  },
  {
    "service_request": "2024-1142248",
    "request_type": "Drainage",
    "request_reason": "Drainage Manhole Cover Missing or Damaged",
    "date_created": "2024-10-18T14:48:46.000",
    "date_modified": "2024-10-18T14:48:46.000",
    "request_status": "Pending",
    "responsible_agency": "Department of Public Works",
    "final_address": "8426 Fig St",
    "address_councildis": "A",
    "status": "Pending",
    "rowid": "1142248",
    "final_x": "3665294.05568",
    "final_y": "533961.318085",
    "longitude": "-90.11916138563676",
    "latitude": "29.962690609846113",
    "geocoded_column": {
      "latitude": "29.962690609846113",
      "longitude": "-90.11916138563676"
    }
  },
  {
    "service_request": "2024-1142247",
    "request_type": "Abandoned Vehicles",
    "request_reason": "Abandoned/Junk Vehicles",
    "date_created": "2024-10-18T14:44:49.000",
    "date_modified": "2024-10-18T14:44:49.000",
    "request_status": "Pending",
    "responsible_agency": "Department of Public Works",
    "final_address": "5223 Pratt Dr",
    "address_councildis": "D",
    "status": "Pending",
    "rowid": "1142247",
    "final_x": "3680536.81883",
    "final_y": "551655.852949",
    "longitude": "-90.07041091395104",
    "latitude": "30.01089145374708",
    "geocoded_column": {
      "latitude": "30.01089145374708",
      "longitude": "-90.07041091395104"
    }
  },
  {
    "service_request": "2024-1142246",
    "request_type": "Property Maintenance",
    "request_reason": "Property Maintenance",
    "date_created": "2024-10-18T14:44:14.000",
    "date_modified": "2024-10-18T14:44:14.000",
    "request_status": "Pending",
    "responsible_agency": "Department of Code Enforcement",
    "final_address": "829 Roosevelt Pl",
    "address_councildis": "A",
    "status": "Pending",
    "rowid": "1142246",
    "final_x": "3673537.28897",
    "final_y": "539871.84897",
    "longitude": "-90.09292825191247",
    "latitude": "29.978699817310915",
    "geocoded_column": {
      "latitude": "29.978699817310915",
      "longitude": "-90.09292825191247"
    }
  },
  {
    "service_request": "2024-1142245",
    "request_type": "Abandoned Vehicles",
    "request_reason": "Abandoned/Junk Vehicles",
    "date_created": "2024-10-18T14:43:04.000",
    "date_modified": "2024-10-18T14:43:04.000",
    "request_status": "Pending",
    "responsible_agency": "Department of Public Works",
    "final_address": "5223 Pratt Dr",
    "address_councildis": "D",
    "status": "Pending",
    "rowid": "1142245",
    "final_x": "3680536.81883",
    "final_y": "551655.852949",
    "longitude": "-90.07041091395104",
    "latitude": "30.01089145374708",
    "geocoded_column": {
      "latitude": "30.01089145374708",
      "longitude": "-90.07041091395104"
    }
  },
  {
    "service_request": "2024-1142244",
    "request_type": "Street and Traffic Signs",
    "request_reason": "Street Name Sign Damaged or Missing",
    "date_created": "2024-10-18T14:42:58.000",
    "date_modified": "2024-10-18T14:42:59.000",
    "request_status": "Pending",
    "responsible_agency": "Department of Public Works",
    "final_address": "HOMER ST & BROOKLYN AVE",
    "address_councildis": "C",
    "status": "Pending",
    "rowid": "1142244",
    "final_x": "3686164.3",
    "final_y": "528274.48",
    "longitude": "-90.05345664253284",
    "latitude": "29.946429166815307",
    "geocoded_column": {
      "latitude": "29.946429166815307",
      "longitude": "-90.05345664253284"
    }
  },
  {
    "service_request": "2024-1142243",
    "request_type": "Trash/Recycling",
    "request_reason": "Repair Trash Cart",
    "date_created": "2024-10-18T14:41:22.000",
    "date_modified": "2024-10-18T14:41:24.000",
    "request_status": "Pending",
    "responsible_agency": "Department of Sanitation",
    "final_address": "1715 Napoleon Ave",
    "address_councildis": "B",
    "status": "Assigned to Contractor",
    "contractor": "IV Waste",
    "rowid": "1142243",
    "final_x": "3670895.63527",
    "final_y": "521367.396921",
    "longitude": "-90.10189970176178",
    "latitude": "29.927897039594587",
    "geocoded_column": {
      "latitude": "29.927897039594587",
      "longitude": "-90.10189970176178"
    }
  },
  {
    "service_request": "2024-1142242",
    "request_type": "Roads and Streets",
    "request_reason": "Pothole",
    "date_created": "2024-10-18T14:40:36.000",
    "date_modified": "2024-10-18T14:40:37.000",
    "request_status": "Pending",
    "responsible_agency": "Department of Public Works",
    "final_address": "MARTIN LUTHER KING JR BLVD & S MIRO ST",
    "address_councildis": "B",
    "status": "Pending",
    "rowid": "1142242",
    "final_x": "3673309.9",
    "final_y": "529291.98",
    "longitude": "-90.0940078470197",
    "latitude": "29.949615495540836",
    "geocoded_column": {
      "latitude": "29.949615495540836",
      "longitude": "-90.0940078470197"
    }
  },
  {
    "service_request": "2024-1142241",
    "request_type": "Drainage",
    "request_reason": "Catch Basin Clogged",
    "date_created": "2024-10-18T14:38:55.000",
    "date_modified": "2024-10-18T14:38:55.000",
    "request_status": "Pending",
    "responsible_agency": "Department of Public Works",
    "final_address": "60 Audubon Blvd",
    "address_councildis": "A",
    "status": "Pending",
    "rowid": "1142241",
    "final_x": "3665540.81703",
    "final_y": "527498.249087",
    "longitude": "-90.1185985095898",
    "latitude": "29.944912080853367",
    "geocoded_column": {
      "latitude": "29.944912080853367",
      "longitude": "-90.1185985095898"
    }
  },
  {
    "service_request": "2024-1142240",
    "request_type": "Trash/Recycling",
    "request_reason": "Repair Recycling Cart",
    "date_created": "2024-10-18T14:38:40.000",
    "date_modified": "2024-10-18T14:38:41.000",
    "request_status": "Pending",
    "responsible_agency": "Department of Sanitation",
    "final_address": "1715 Napoleon Ave",
    "address_councildis": "B",
    "status": "Pending",
    "rowid": "1142240",
    "final_x": "3670895.63527",
    "final_y": "521367.396921",
    "longitude": "-90.10189970176178",
    "latitude": "29.927897039594587",
    "geocoded_column": {
      "latitude": "29.927897039594587",
      "longitude": "-90.10189970176178"
    }
  },
  {
    "service_request": "2024-1142239",
    "request_type": "Trash/Recycling",
    "request_reason": "Request a Large Item Pick Up",
    "date_created": "2024-10-18T14:38:02.000",
    "date_modified": "2024-10-18T14:38:03.000",
    "request_status": "Pending",
    "responsible_agency": "Department of Sanitation",
    "final_address": "2300 Ap Tureaud Ave",
    "address_councildis": "D",
    "status": "Assigned to Contractor",
    "contractor": "IV Waste",
    "rowid": "1142239",
    "final_x": "3681570.40296",
    "final_y": "540502.767883",
    "longitude": "-90.06753467645952",
    "latitude": "29.98019306699278",
    "geocoded_column": {
      "latitude": "29.98019306699278",
      "longitude": "-90.06753467645952"
    }
  },
  {
    "service_request": "2024-1142238",
    "request_type": "Trash/Recycling",
    "request_reason": "Missed Trash Pick-Up",
    "date_created": "2024-10-18T14:31:57.000",
    "date_modified": "2024-10-18T14:31:58.000",
    "request_status": "Pending",
    "responsible_agency": "Department of Sanitation",
    "final_address": "933 Fats Domino Ave",
    "address_councildis": "E",
    "status": "Assigned to Contractor",
    "contractor": "Waste Pro",
    "rowid": "1142238",
    "final_x": "3697940.70339",
    "final_y": "533242.6089",
    "longitude": "-90.01609427017287",
    "latitude": "29.95972282843731",
    "geocoded_column": {
      "latitude": "29.95972282843731",
      "longitude": "-90.01609427017287"
    }
  },
  {
    "service_request": "2024-1142237",
    "request_type": "Trash/Recycling",
    "request_reason": "Order Recycling Cart",
    "date_created": "2024-10-18T14:29:52.000",
    "date_modified": "2024-10-18T14:29:53.000",
    "request_status": "Pending",
    "responsible_agency": "Department of Sanitation",
    "final_address": "3619 Herald St",
    "address_councildis": "C",
    "status": "Pending",
    "rowid": "1142237",
    "final_x": "3702147.02788",
    "final_y": "517750.127606",
    "longitude": "-90.00337956704409",
    "latitude": "29.9169903028119",
    "geocoded_column": {
      "latitude": "29.9169903028119",
      "longitude": "-90.00337956704409"
    }
  },
  {
    "service_request": "2024-1142236",
    "request_type": "Trash/Recycling",
    "request_reason": "Order Second Trash Cart",
    "date_created": "2024-10-18T14:28:21.000",
    "date_modified": "2024-10-18T14:28:22.000",
    "request_status": "Pending",
    "responsible_agency": "Department of Sanitation",
    "final_address": "3619 Herald St",
    "address_councildis": "C",
    "status": "Assigned to Contractor",
    "contractor": "Richards Disposal",
    "rowid": "1142236",
    "final_x": "3702147.02788",
    "final_y": "517750.127606",
    "longitude": "-90.00337956704409",
    "latitude": "29.9169903028119",
    "geocoded_column": {
      "latitude": "29.9169903028119",
      "longitude": "-90.00337956704409"
    }
  },
  {
    "service_request": "2024-1142235",
    "request_type": "General Services",
    "request_reason": "General Service Request",
    "date_created": "2024-10-18T14:26:17.000",
    "date_modified": "2024-10-18T15:20:20.000",
    "case_close_date": "2024-10-18T10:20:20.000",
    "request_status": "Closed",
    "responsible_agency": "Orleans Parish Communication District",
    "final_address": "3300 Robert St",
    "address_councildis": "B",
    "status": "Question Answered.",
    "rowid": "1142235",
    "final_x": "3668844.86023",
    "final_y": "526985.111166",
    "longitude": "-90.10818392769013",
    "latitude": "29.94340439173352",
    "geocoded_column": {
      "latitude": "29.94340439173352",
      "longitude": "-90.10818392769013"
    }
  },
  {
    "service_request": "2024-1142234",
    "request_type": "Parks & Parkways",
    "request_reason": "Request Tree Service (Right of Way/Public Property)",
    "date_created": "2024-10-18T14:22:08.000",
    "date_modified": "2024-10-18T14:22:09.000",
    "request_status": "Pending",
    "responsible_agency": "Department of Parks & Parkway",
    "final_address": "311 Audubon Blvd",
    "address_councildis": "A",
    "status": "Pending",
    "rowid": "1142234",
    "final_x": "3667213.28129",
    "final_y": "529876.464065",
    "longitude": "-90.11323805733733",
    "latitude": "29.951402541978517",
    "geocoded_column": {
      "latitude": "29.951402541978517",
      "longitude": "-90.11323805733733"
    }
  },
  {
    "service_request": "2024-1142233",
    "request_type": "Roads and Streets",
    "request_reason": "Debris in Driving Lanes",
    "date_created": "2024-10-18T14:17:59.000",
    "date_modified": "2024-10-18T14:17:59.000",
    "request_status": "Pending",
    "responsible_agency": "Department of Public Works",
    "final_address": "6900 BLK Saint Charles Ave",
    "address_councildis": "A",
    "status": "Pending",
    "rowid": "1142233",
    "final_x": "3663560.5964",
    "final_y": "524256.576931",
    "longitude": "-90.12495863464517",
    "latitude": "29.936056090568915",
    "geocoded_column": {
      "latitude": "29.936056090568915",
      "longitude": "-90.12495863464517"
    }
  },
  {
    "service_request": "2024-1142232",
    "request_type": "Safety & Permits",
    "request_reason": "Zoning Enforcement",
    "date_created": "2024-10-18T14:14:13.000",
    "date_modified": "2024-10-18T14:14:13.000",
    "request_status": "Pending",
    "responsible_agency": "Safety and Permits",
    "final_address": "2885 Ridgeway Blvd",
    "address_councildis": "E",
    "rowid": "1142232",
    "final_x": "3744129.45173",
    "final_y": "595598.780798",
    "longitude": "-89.867725202822",
    "latitude": "30.129634412475347",
    "geocoded_column": {
      "latitude": "30.129634412475347",
      "longitude": "-89.867725202822"
    }
  },
  {
    "service_request": "2024-1142231",
    "request_type": "Trash/Recycling",
    "request_reason": "Request a Large Item Pick Up",
    "date_created": "2024-10-18T14:08:46.000",
    "date_modified": "2024-10-18T14:08:48.000",
    "request_status": "Pending",
    "responsible_agency": "Department of Sanitation",
    "final_address": "924 St Mary St",
    "address_councildis": "B",
    "status": "Assigned to Contractor",
    "contractor": "IV Waste",
    "rowid": "1142231",
    "final_x": "3680093.68981",
    "final_y": "522397.477242",
    "longitude": "-90.07282782405085",
    "latitude": "29.93045440889596",
    "geocoded_column": {
      "latitude": "29.93045440889596",
      "longitude": "-90.07282782405085"
    }
  },
  {
    "service_request": "2024-1142230",
    "request_type": "Trash/Recycling",
    "request_reason": "Request a Large Item Pick Up",
    "date_created": "2024-10-18T14:08:30.000",
    "date_modified": "2024-10-18T14:08:31.000",
    "request_status": "Pending",
    "responsible_agency": "Department of Sanitation",
    "final_address": "7860 Means Ave",
    "address_councildis": "E",
    "status": "Assigned to Contractor",
    "contractor": "Waste Pro",
    "rowid": "1142230",
    "final_x": "3707652.16299",
    "final_y": "565376.757474",
    "longitude": "-89.98423323458805",
    "latitude": "30.047768933330353",
    "geocoded_column": {
      "latitude": "30.047768933330353",
      "longitude": "-89.98423323458805"
    }
  },
  {
    "service_request": "2024-1142229",
    "request_type": "Trash/Recycling",
    "request_reason": "Request a Large Item Pick Up",
    "date_created": "2024-10-18T14:06:52.000",
    "date_modified": "2024-10-18T14:06:53.000",
    "request_status": "Pending",
    "responsible_agency": "Department of Sanitation",
    "final_address": "7890 Means Ave",
    "address_councildis": "E",
    "status": "Assigned to Contractor",
    "contractor": "Waste Pro",
    "rowid": "1142229",
    "final_x": "3707593.2003",
    "final_y": "565482.809186",
    "longitude": "-89.98441564231584",
    "latitude": "30.048062441752617",
    "geocoded_column": {
      "latitude": "30.048062441752617",
      "longitude": "-89.98441564231584"
    }
  },
  {
    "service_request": "2024-1142228",
    "request_type": "Trash/Recycling",
    "request_reason": "Replace Trash Cart",
    "date_created": "2024-10-18T14:06:47.000",
    "date_modified": "2024-10-18T14:06:48.000",
    "request_status": "Pending",
    "responsible_agency": "Department of Sanitation",
    "final_address": "1923 Elysian Fields Ave A",
    "address_councildis": "D",
    "status": "Assigned to Contractor",
    "contractor": "IV Waste",
    "rowid": "1142228",
    "final_x": "3684891.31503",
    "final_y": "539457.925578",
    "longitude": "-90.0570826107016",
    "latitude": "29.977218826343012",
    "geocoded_column": {
      "latitude": "29.977218826343012",
      "longitude": "-90.0570826107016"
    }
  },
  {
    "service_request": "2024-1142227",
    "request_type": "Safety & Permits",
    "request_reason": "Zoning Enforcement",
    "date_created": "2024-10-18T14:06:40.000",
    "date_modified": "2024-10-18T14:06:40.000",
    "request_status": "Pending",
    "responsible_agency": "Safety and Permits",
    "final_address": "1010 Treme St",
    "address_councildis": "C",
    "rowid": "1142227",
    "final_x": "3681581.12284",
    "final_y": "534758.908358",
    "longitude": "-90.06770119986327",
    "latitude": "29.96439911341683",
    "geocoded_column": {
      "latitude": "29.96439911341683",
      "longitude": "-90.06770119986327"
    }
  },
  {
    "service_request": "2024-1142226",
    "request_type": "Safety & Permits",
    "request_reason": "Zoning Enforcement",
    "date_created": "2024-10-18T14:04:11.000",
    "date_modified": "2024-10-18T14:04:11.000",
    "request_status": "Pending",
    "responsible_agency": "Safety and Permits",
    "final_address": "7530 Hurst St",
    "address_councildis": "A",
    "status": "Pending",
    "rowid": "1142226",
    "final_x": "3660963.76416",
    "final_y": "524496.321468",
    "longitude": "-90.13314901519195",
    "latitude": "29.93679035836854",
    "geocoded_column": {
      "latitude": "29.93679035836854",
      "longitude": "-90.13314901519195"
    }
  },
  {
    "service_request": "2024-1142225",
    "request_type": "Roads and Streets",
    "request_reason": "Pothole",
    "date_created": "2024-10-18T14:03:20.000",
    "date_modified": "2024-10-18T14:03:21.000",
    "request_status": "Pending",
    "responsible_agency": "Department of Public Works",
    "final_address": "PHILIP ST & S ROBERTSON ST",
    "address_councildis": "B",
    "status": "Pending",
    "rowid": "1142225",
    "final_x": "3675150.4",
    "final_y": "526357.98",
    "longitude": "-90.08829720562106",
    "latitude": "29.94149309902687",
    "geocoded_column": {
      "latitude": "29.94149309902687",
      "longitude": "-90.08829720562106"
    }
  },
  {
    "service_request": "2024-1142224",
    "request_type": "Property Maintenance",
    "request_reason": "Property Maintenance",
    "date_created": "2024-10-18T13:59:53.000",
    "date_modified": "2024-10-18T13:59:53.000",
    "request_status": "Pending",
    "responsible_agency": "Department of Code Enforcement",
    "final_address": "4323 Downman Rd",
    "address_councildis": "D",
    "status": "Pending",
    "rowid": "1142224",
    "final_x": "3696207.92855",
    "final_y": "553046.302999",
    "longitude": "-90.02084964972676",
    "latitude": "30.014230432858835",
    "geocoded_column": {
      "latitude": "30.014230432858835",
      "longitude": "-90.02084964972676"
    }
  },
  {
    "service_request": "2024-1142223",
    "request_type": "Traffic Signals",
    "request_reason": "Traffic Signal Malfunctioning or Damaged",
    "date_created": "2024-10-18T13:59:01.000",
    "date_modified": "2024-10-18T13:59:01.000",
    "request_status": "Pending",
    "responsible_agency": "Department of Public Works",
    "final_address": "ESPLANADE AVE & N CLAIBORNE AVE",
    "address_councildis": "D",
    "status": "Pending",
    "rowid": "1142223",
    "final_x": "3681314.4",
    "final_y": "536499.88",
    "longitude": "-90.06848280042382",
    "latitude": "29.969194285734545",
    "geocoded_column": {
      "latitude": "29.969194285734545",
      "longitude": "-90.06848280042382"
    }
  },
  {
    "service_request": "2024-1142222",
    "request_type": "Roads and Streets",
    "request_reason": "Pothole",
    "date_created": "2024-10-18T13:57:53.000",
    "date_modified": "2024-10-18T13:57:53.000",
    "request_status": "Pending",
    "responsible_agency": "Department of Public Works",
    "final_address": "8622 Gervais St",
    "address_councildis": "E",
    "status": "Pending",
    "rowid": "1142222",
    "final_x": "3704048.17463",
    "final_y": "562742.689952",
    "longitude": "-89.99572096016718",
    "latitude": "30.04064247218363",
    "geocoded_column": {
      "latitude": "30.04064247218363",
      "longitude": "-89.99572096016718"
    }
  },
  {
    "service_request": "2024-1142221",
    "request_type": "Streetlights",
    "request_reason": "Streetlight Outage/Malfunction",
    "date_created": "2024-10-18T13:56:54.000",
    "date_modified": "2024-10-18T13:56:55.000",
    "request_status": "Pending",
    "responsible_agency": "Department of Public Works",
    "final_address": "4323 Downman Rd",
    "address_councildis": "D",
    "status": "Pending",
    "contractor": "Legacy Professional Services",
    "rowid": "1142221",
    "final_x": "3696207.92855",
    "final_y": "553046.302999",
    "longitude": "-90.02084964972676",
    "latitude": "30.014230432858835",
    "geocoded_column": {
      "latitude": "30.014230432858835",
      "longitude": "-90.02084964972676"
    }
  },
  {
    "service_request": "2024-1142220",
    "request_type": "Trash/Recycling",
    "request_reason": "Repair Trash Cart",
    "date_created": "2024-10-18T13:54:29.000",
    "date_modified": "2024-10-18T13:54:30.000",
    "request_status": "Pending",
    "responsible_agency": "Department of Sanitation",
    "final_address": "5820 Hurst St",
    "address_councildis": "A",
    "status": "Assigned to Contractor",
    "contractor": "IV Waste",
    "rowid": "1142220",
    "final_x": "3665881.5394",
    "final_y": "521666.973177",
    "longitude": "-90.11771806353475",
    "latitude": "29.928867997550743",
    "geocoded_column": {
      "latitude": "29.928867997550743",
      "longitude": "-90.11771806353475"
    }
  },
  {
    "service_request": "2024-1142219",
    "request_type": "Roads and Streets",
    "request_reason": "Pothole",
    "date_created": "2024-10-18T13:54:20.000",
    "date_modified": "2024-10-18T13:54:20.000",
    "request_status": "Pending",
    "responsible_agency": "Department of Public Works",
    "final_address": "8622 Gervais St",
    "address_councildis": "E",
    "status": "Pending",
    "rowid": "1142219",
    "final_x": "3704048.17463",
    "final_y": "562742.689952",
    "longitude": "-89.99572096016718",
    "latitude": "30.04064247218363",
    "geocoded_column": {
      "latitude": "30.04064247218363",
      "longitude": "-89.99572096016718"
    }
  },
  {
    "service_request": "2024-1142218",
    "request_type": "Trash/Recycling",
    "request_reason": "Request a Large Item Pick Up",
    "date_created": "2024-10-18T13:51:30.000",
    "date_modified": "2024-10-18T13:51:31.000",
    "request_status": "Pending",
    "responsible_agency": "Department of Sanitation",
    "final_address": "222 S Scott St",
    "address_councildis": "A",
    "status": "Assigned to Contractor",
    "contractor": "IV Waste",
    "rowid": "1142218",
    "final_x": "3671433.79419",
    "final_y": "537303.96148",
    "longitude": "-90.09965921175747",
    "latitude": "29.971701440463963",
    "geocoded_column": {
      "latitude": "29.971701440463963",
      "longitude": "-90.09965921175747"
    }
  },
  {
    "service_request": "2024-1142217",
    "request_type": "Safety & Permits",
    "request_reason": "Construction permit",
    "date_created": "2024-10-18T13:49:42.000",
    "date_modified": "2024-10-18T13:49:42.000",
    "request_status": "Pending",
    "responsible_agency": "Safety and Permits",
    "final_address": "2512 Pressburg St",
    "address_councildis": "D",
    "status": "Pending",
    "rowid": "1142217",
    "final_x": "3685847.11401",
    "final_y": "554734.719896",
    "longitude": "-90.05352498878806",
    "latitude": "30.019195205203346",
    "geocoded_column": {
      "latitude": "30.019195205203346",
      "longitude": "-90.05352498878806"
    }
  },
  {
    "service_request": "2024-1142216",
    "request_type": "Roads and Streets",
    "request_reason": "Street Subsidence (Sinking)",
    "date_created": "2024-10-18T13:49:06.000",
    "date_modified": "2024-10-18T13:49:06.000",
    "request_status": "Pending",
    "responsible_agency": "Department of Public Works",
    "final_address": "5740 Abbey Dr",
    "address_councildis": "C",
    "status": "Pending",
    "rowid": "1142216",
    "final_x": "3704897.2163",
    "final_y": "521118.667833",
    "longitude": "-89.99457465509587",
    "latitude": "29.92616456226961",
    "geocoded_column": {
      "latitude": "29.92616456226961",
      "longitude": "-89.99457465509587"
    }
  },
  {
    "service_request": "2024-1142215",
    "request_type": "Trash/Recycling",
    "request_reason": "Repair Trash Cart",
    "date_created": "2024-10-18T13:46:27.000",
    "date_modified": "2024-10-18T13:46:29.000",
    "request_status": "Pending",
    "responsible_agency": "Department of Sanitation",
    "final_address": "6601 Dwyer Rd",
    "address_councildis": "E",
    "status": "Assigned to Contractor",
    "contractor": "Waste Pro",
    "rowid": "1142215",
    "final_x": "3699075.96036",
    "final_y": "555563.316377",
    "longitude": "-90.01169643514045",
    "latitude": "30.021060623196124",
    "geocoded_column": {
      "latitude": "30.021060623196124",
      "longitude": "-90.01169643514045"
    }
  },
  {
    "service_request": "2024-1142214",
    "request_type": "Trash/Recycling",
    "request_reason": "Repair Trash Cart",
    "date_created": "2024-10-18T13:46:16.000",
    "date_modified": "2024-10-18T13:46:17.000",
    "request_status": "Pending",
    "responsible_agency": "Department of Sanitation",
    "final_address": "2524 S Robertson St",
    "address_councildis": "B",
    "status": "Assigned to Contractor",
    "contractor": "IV Waste",
    "rowid": "1142214",
    "final_x": "3674545.01364",
    "final_y": "525922.354493",
    "longitude": "-90.09022345333467",
    "latitude": "29.940313344984766",
    "geocoded_column": {
      "latitude": "29.940313344984766",
      "longitude": "-90.09022345333467"
    }
  },
  {
    "service_request": "2024-1142213",
    "request_type": "Trash/Recycling",
    "request_reason": "Repair Trash Cart",
    "date_created": "2024-10-18T13:45:10.000",
    "date_modified": "2024-10-18T13:45:11.000",
    "request_status": "Pending",
    "responsible_agency": "Department of Sanitation",
    "final_address": "9700 W Wheaton Cir",
    "address_councildis": "E",
    "status": "Assigned to Contractor",
    "contractor": "Waste Pro",
    "rowid": "1142213",
    "final_x": "3708609.24017",
    "final_y": "562111.863903",
    "longitude": "-89.98133011517388",
    "latitude": "30.03876076132549",
    "geocoded_column": {
      "latitude": "30.03876076132549",
      "longitude": "-89.98133011517388"
    }
  },
  {
    "service_request": "2024-1142212",
    "request_type": "Trash/Recycling",
    "request_reason": "Request a Large Item Pick Up",
    "date_created": "2024-10-18T13:45:05.000",
    "date_modified": "2024-10-18T13:45:06.000",
    "request_status": "Pending",
    "responsible_agency": "Department of Sanitation",
    "final_address": "505 Andry St",
    "address_councildis": "E",
    "status": "Assigned to Contractor",
    "contractor": "Waste Pro",
    "rowid": "1142212",
    "final_x": "3696639.15664",
    "final_y": "531882.277827",
    "longitude": "-90.02025346377071",
    "latitude": "29.95602347523454",
    "geocoded_column": {
      "latitude": "29.95602347523454",
      "longitude": "-90.02025346377071"
    }
  },
  {
    "service_request": "2024-1142211",
    "request_type": "Trash/Recycling",
    "request_reason": "Request a Large Item Pick Up",
    "date_created": "2024-10-18T13:42:24.000",
    "date_modified": "2024-10-18T13:42:25.000",
    "request_status": "Pending",
    "responsible_agency": "Department of Sanitation",
    "final_address": "425 River Oaks Dr",
    "address_councildis": "C",
    "status": "Assigned to Contractor",
    "contractor": "Richards Disposal",
    "rowid": "1142211",
    "final_x": "3701494.30321",
    "final_y": "521698.585913",
    "longitude": "-90.00529538046133",
    "latitude": "29.9278680203176",
    "geocoded_column": {
      "latitude": "29.9278680203176",
      "longitude": "-90.00529538046133"
    }
  },
  {
    "service_request": "2024-1142210",
    "request_type": "Trash/Recycling",
    "request_reason": "Illegal Dumping",
    "date_created": "2024-10-18T13:40:36.000",
    "date_modified": "2024-10-18T13:40:38.000",
    "request_status": "Pending",
    "responsible_agency": "Department of Sanitation",
    "final_address": "PHILIP ST & S ROBERTSON ST",
    "address_councildis": "B",
    "status": "Pending",
    "rowid": "1142210",
    "final_x": "3675150.4",
    "final_y": "526357.98",
    "longitude": "-90.08829720562106",
    "latitude": "29.94149309902687",
    "geocoded_column": {
      "latitude": "29.94149309902687",
      "longitude": "-90.08829720562106"
    }
  },
  {
    "service_request": "2024-1142209",
    "request_type": "Property Maintenance",
    "request_reason": "Property Maintenance",
    "date_created": "2024-10-18T13:39:36.000",
    "date_modified": "2024-10-18T13:39:38.000",
    "request_status": "Pending",
    "responsible_agency": "Department of Code Enforcement",
    "final_address": "4223 Willow St",
    "address_councildis": "B",
    "status": "Pending",
    "rowid": "1142209",
    "final_x": "3670943.54407",
    "final_y": "525542.257277",
    "longitude": "-90.10160679543516",
    "latitude": "29.93937514462316",
    "geocoded_column": {
      "latitude": "29.93937514462316",
      "longitude": "-90.10160679543516"
    }
  },
  {
    "service_request": "2024-1142208",
    "request_type": "Healthy Homes",
    "request_reason": "Healthy Homes",
    "date_created": "2024-10-18T13:37:13.000",
    "date_modified": "2024-10-18T15:09:11.000",
    "case_close_date": "2024-10-18T10:09:11.000",
    "request_status": "Closed",
    "responsible_agency": "Department of Code Enforcement",
    "final_address": "4512 Papania Dr Apt 42",
    "address_councildis": "E",
    "status": "Referred to Code Enforcement",
    "rowid": "1142208",
    "final_x": "3715434.89343",
    "final_y": "555929.037529",
    "longitude": "-89.95999359692166",
    "latitude": "30.021537245906746",
    "geocoded_column": {
      "latitude": "30.021537245906746",
      "longitude": "-89.95999359692166"
    }
  },
  {
    "service_request": "2024-1142207",
    "request_type": "Trash/Recycling",
    "request_reason": "Request a Large Item Pick Up",
    "date_created": "2024-10-18T13:32:01.000",
    "date_modified": "2024-10-18T13:32:02.000",
    "request_status": "Pending",
    "responsible_agency": "Department of Sanitation",
    "final_address": "4701 Owens Blvd",
    "address_councildis": "D",
    "status": "Assigned to Contractor",
    "contractor": "IV Waste",
    "rowid": "1142207",
    "final_x": "3676583.26337",
    "final_y": "549482.856531",
    "longitude": "-90.08297667769446",
    "latitude": "30.00503571168145",
    "geocoded_column": {
      "latitude": "30.00503571168145",
      "longitude": "-90.08297667769446"
    }
  },
  {
    "service_request": "2024-1142206",
    "request_type": "Trash/Recycling",
    "request_reason": "Request a Large Item Pick Up",
    "date_created": "2024-10-18T13:30:08.000",
    "date_modified": "2024-10-18T13:30:09.000",
    "request_status": "Pending",
    "responsible_agency": "Department of Sanitation",
    "final_address": "2617 Columbus St",
    "address_councildis": "D",
    "status": "Assigned to Contractor",
    "contractor": "IV Waste",
    "rowid": "1142206",
    "final_x": "3678522.55758",
    "final_y": "539708.625226",
    "longitude": "-90.0771885559381",
    "latitude": "29.978101676106274",
    "geocoded_column": {
      "latitude": "29.978101676106274",
      "longitude": "-90.0771885559381"
    }
  },
  {
    "service_request": "2024-1142205",
    "request_type": "Drainage",
    "request_reason": "Street Flooding",
    "date_created": "2024-10-18T13:28:21.000",
    "date_modified": "2024-10-18T13:28:21.000",
    "request_status": "Closed",
    "responsible_agency": "Department of Public Works",
    "final_address": "3525 Red Oak Ct",
    "address_councildis": "C",
    "status": "Referred to External Agency",
    "rowid": "1142205",
    "final_x": "3703385.97962",
    "final_y": "513531.26053",
    "longitude": "-89.99962394015704",
    "latitude": "29.90535026089742",
    "geocoded_column": {
      "latitude": "29.90535026089742",
      "longitude": "-89.99962394015704"
    }
  },
  {
    "service_request": "2024-1142204",
    "request_type": "Trash/Recycling",
    "request_reason": "Illegal Dumping",
    "date_created": "2024-10-18T13:21:38.000",
    "date_modified": "2024-10-18T13:21:39.000",
    "request_status": "Pending",
    "responsible_agency": "Department of Sanitation",
    "final_address": "1042 Ursulines Ave",
    "address_councildis": "C",
    "status": "Pending",
    "rowid": "1142204",
    "final_x": "3682325.81621",
    "final_y": "534459.697157",
    "longitude": "-90.06535997476816",
    "latitude": "29.96355374700568",
    "geocoded_column": {
      "latitude": "29.96355374700568",
      "longitude": "-90.06535997476816"
    }
  },
  {
    "service_request": "2024-1142203",
    "request_type": "Trash/Recycling",
    "request_reason": "Request a Large Item Pick Up",
    "date_created": "2024-10-18T13:14:45.000",
    "date_modified": "2024-10-18T13:14:46.000",
    "request_status": "Pending",
    "responsible_agency": "Department of Sanitation",
    "final_address": "3611 Hollygrove St",
    "address_councildis": "A",
    "status": "Assigned to Contractor",
    "contractor": "IV Waste",
    "rowid": "1142203",
    "final_x": "3665499.00935",
    "final_y": "536922.68564",
    "longitude": "-90.11841501256912",
    "latitude": "29.97082741920069",
    "geocoded_column": {
      "latitude": "29.97082741920069",
      "longitude": "-90.11841501256912"
    }
  },
  {
    "service_request": "2024-1142202",
    "request_type": "Parks & Parkways",
    "request_reason": "Request Tree Service (Right of Way/Public Property)",
    "date_created": "2024-10-18T13:10:53.000",
    "date_modified": "2024-10-18T13:10:55.000",
    "request_status": "Pending",
    "responsible_agency": "Department of Parks & Parkway",
    "final_address": "4665 St Ferdinand Dr",
    "address_councildis": "D",
    "status": "Pending",
    "rowid": "1142202",
    "final_x": "3689421.65583",
    "final_y": "550432.887444",
    "longitude": "-90.04238383518445",
    "latitude": "30.007256491987516",
    "geocoded_column": {
      "latitude": "30.007256491987516",
      "longitude": "-90.04238383518445"
    }
  },
  {
    "service_request": "2024-1142201",
    "request_type": "Trash/Recycling",
    "request_reason": "Request a Large Item Pick Up",
    "date_created": "2024-10-18T13:07:51.000",
    "date_modified": "2024-10-18T13:07:52.000",
    "request_status": "Pending",
    "responsible_agency": "Department of Sanitation",
    "final_address": "11251 Waverly Dr",
    "address_councildis": "E",
    "status": "Assigned to Contractor",
    "contractor": "Waste Pro",
    "rowid": "1142201",
    "final_x": "3717293.94514",
    "final_y": "560232.442589",
    "longitude": "-89.95395587584497",
    "latitude": "30.033308490898364",
    "geocoded_column": {
      "latitude": "30.033308490898364",
      "longitude": "-89.95395587584497"
    }
  },
  {
    "service_request": "2024-1142200",
    "request_type": "Roads and Streets",
    "request_reason": "Sidewalk Damaged or Missing",
    "date_created": "2024-10-18T13:03:40.000",
    "date_modified": "2024-10-18T13:03:40.000",
    "request_status": "Pending",
    "responsible_agency": "Department of Public Works",
    "final_address": "513 Patterson St",
    "address_councildis": "C",
    "status": "Pending",
    "rowid": "1142200",
    "final_x": "3686918.26486",
    "final_y": "531379.175554",
    "longitude": "-90.05096640901736",
    "latitude": "29.95494284024043",
    "geocoded_column": {
      "latitude": "29.95494284024043",
      "longitude": "-90.05096640901736"
    }
  },
  {
    "service_request": "2024-1142199",
    "request_type": "Abandoned Vehicles",
    "request_reason": "Abandoned/Junk Vehicles",
    "date_created": "2024-10-18T13:03:25.000",
    "date_modified": "2024-10-18T13:03:26.000",
    "request_status": "Pending",
    "responsible_agency": "Department of Public Works",
    "final_address": "2339 Ursulines Ave",
    "address_councildis": "D",
    "status": "Pending",
    "rowid": "1142199",
    "final_x": "3678772.89435",
    "final_y": "537331.066376",
    "longitude": "-90.07648027023875",
    "latitude": "29.971556659635425",
    "geocoded_column": {
      "latitude": "29.971556659635425",
      "longitude": "-90.07648027023875"
    }
  },
  {
    "service_request": "2024-1142198",
    "request_type": "Streetlights",
    "request_reason": "Streetlight Outage/Malfunction",
    "date_created": "2024-10-18T12:59:23.000",
    "date_modified": "2024-10-18T12:59:25.000",
    "request_status": "Pending",
    "responsible_agency": "Department of Public Works",
    "final_address": "2200 BLK Pauger St",
    "address_councildis": "C",
    "status": "Pending",
    "contractor": "Legacy Professional Services",
    "rowid": "1142198",
    "final_x": "3683745.99927",
    "final_y": "537809.843131",
    "longitude": "-90.0607576968484",
    "latitude": "29.972722200818357",
    "geocoded_column": {
      "latitude": "29.972722200818357",
      "longitude": "-90.0607576968484"
    }
  },
  {
    "service_request": "2024-1142197",
    "request_type": "Abandoned Vehicles",
    "request_reason": "Vehicle Blocking Your Driveway",
    "date_created": "2024-10-18T12:55:22.000",
    "date_modified": "2024-10-18T12:55:22.000",
    "request_status": "Pending",
    "responsible_agency": "Department of Public Works",
    "final_address": "6238 N Rampart St",
    "address_councildis": "E",
    "status": "Pending",
    "rowid": "1142197",
    "final_x": "3699924.66928",
    "final_y": "532611.12762",
    "longitude": "-90.00985242735707",
    "latitude": "29.95792361833792",
    "geocoded_column": {
      "latitude": "29.95792361833792",
      "longitude": "-90.00985242735707"
    }
  },
  {
    "service_request": "2024-1142196",
    "request_type": "Trash/Recycling",
    "request_reason": "Request a Large Item Pick Up",
    "date_created": "2024-10-18T12:52:18.000",
    "date_modified": "2024-10-18T12:52:20.000",
    "request_status": "Pending",
    "responsible_agency": "Department of Sanitation",
    "final_address": "6623 Foch Rd",
    "address_councildis": "D",
    "status": "Assigned to Contractor",
    "contractor": "Waste Pro",
    "rowid": "1142196",
    "final_x": "3696980.26282",
    "final_y": "555705.460121",
    "longitude": "-90.01831305289907",
    "latitude": "30.021517762753394",
    "geocoded_column": {
      "latitude": "30.021517762753394",
      "longitude": "-90.01831305289907"
    }
  },
  {
    "service_request": "2024-1142195",
    "request_type": "Property Maintenance",
    "request_reason": "Property Maintenance",
    "date_created": "2024-10-18T12:50:52.000",
    "date_modified": "2024-10-18T12:50:52.000",
    "request_status": "Pending",
    "responsible_agency": "Department of Code Enforcement",
    "final_address": "1220 Chartres St",
    "address_councildis": "C",
    "status": "Pending",
    "rowid": "1142195",
    "final_x": "3684058.49353",
    "final_y": "533798.817413",
    "longitude": "-90.05991156357899",
    "latitude": "29.961683720426556",
    "geocoded_column": {
      "latitude": "29.961683720426556",
      "longitude": "-90.05991156357899"
    }
  },
  {
    "service_request": "2024-1142194",
    "request_type": "Trash/Recycling",
    "request_reason": "Request a Large Item Pick Up",
    "date_created": "2024-10-18T12:47:09.000",
    "date_modified": "2024-10-18T12:47:10.000",
    "request_status": "Pending",
    "responsible_agency": "Department of Sanitation",
    "final_address": "7636 Shorewood Blvd",
    "address_councildis": "E",
    "status": "Assigned to Contractor",
    "contractor": "Waste Pro",
    "rowid": "1142194",
    "final_x": "3719693.38713",
    "final_y": "572702.317545",
    "longitude": "-89.9458963425588",
    "latitude": "30.067515858773984",
    "geocoded_column": {
      "latitude": "30.067515858773984",
      "longitude": "-89.9458963425588"
    }
  },
  {
    "service_request": "2024-1142193",
    "request_type": "Streetlights",
    "request_reason": "Streetlight Outage/Malfunction",
    "date_created": "2024-10-18T12:44:50.000",
    "date_modified": "2024-10-18T12:44:51.000",
    "request_status": "Pending",
    "responsible_agency": "Department of Public Works",
    "final_address": "1220 Chartres St",
    "address_councildis": "C",
    "status": "Pending",
    "contractor": "Legacy Professional Services",
    "rowid": "1142193",
    "final_x": "3684058.49353",
    "final_y": "533798.817413",
    "longitude": "-90.05991156357899",
    "latitude": "29.961683720426556",
    "geocoded_column": {
      "latitude": "29.961683720426556",
      "longitude": "-90.05991156357899"
    }
  },
  {
    "service_request": "2024-1142192",
    "request_type": "Drainage",
    "request_reason": "Street Flooding",
    "date_created": "2024-10-18T12:42:29.000",
    "date_modified": "2024-10-18T12:42:29.000",
    "request_status": "Pending",
    "responsible_agency": "Department of Public Works",
    "final_address": "1100 BLK Chartres St",
    "address_councildis": "C",
    "status": "Pending",
    "rowid": "1142192",
    "final_x": "3683775.4851",
    "final_y": "533472.521097",
    "longitude": "-90.06081669948749",
    "latitude": "29.960795162722707",
    "geocoded_column": {
      "latitude": "29.960795162722707",
      "longitude": "-90.06081669948749"
    }
  },
  {
    "service_request": "2024-1142191",
    "request_type": "Trash/Recycling",
    "request_reason": "Request a Large Item Pick Up",
    "date_created": "2024-10-18T12:42:24.000",
    "date_modified": "2024-10-18T12:42:25.000",
    "request_status": "Pending",
    "responsible_agency": "Department of Sanitation",
    "final_address": "1221 Aline St",
    "address_councildis": "B",
    "status": "Assigned to Contractor",
    "contractor": "IV Waste",
    "rowid": "1142191",
    "final_x": "3674327.89428",
    "final_y": "519917.485048",
    "longitude": "-90.09111446437606",
    "latitude": "29.92380837704597",
    "geocoded_column": {
      "latitude": "29.92380837704597",
      "longitude": "-90.09111446437606"
    }
  },
  {
    "service_request": "2024-1142190",
    "request_type": "Trash/Recycling",
    "request_reason": "Illegal Dumping",
    "date_created": "2024-10-18T12:38:52.000",
    "date_modified": "2024-10-18T12:38:53.000",
    "request_status": "Pending",
    "responsible_agency": "Department of Sanitation",
    "final_address": "2335 Deslonde St",
    "address_councildis": "E",
    "status": "Pending",
    "rowid": "1142190",
    "final_x": "3696753.39293",
    "final_y": "539175.54145",
    "longitude": "-90.01962871292316",
    "latitude": "29.976073752314814",
    "geocoded_column": {
      "latitude": "29.976073752314814",
      "longitude": "-90.01962871292316"
    }
  },
  {
    "service_request": "2024-1142189",
    "request_type": "Trash/Recycling",
    "request_reason": "Request a Large Item Pick Up",
    "date_created": "2024-10-18T12:37:55.000",
    "date_modified": "2024-10-18T12:37:56.000",
    "request_status": "Pending",
    "responsible_agency": "Department of Sanitation",
    "final_address": "2614 Behrman Hwy",
    "address_councildis": "C",
    "status": "Assigned to Contractor",
    "contractor": "Richards Disposal",
    "rowid": "1142189",
    "final_x": "3692791.88374",
    "final_y": "520815.060345",
    "longitude": "-90.03279842388262",
    "latitude": "29.92571309145661",
    "geocoded_column": {
      "latitude": "29.92571309145661",
      "longitude": "-90.03279842388262"
    }
  },
  {
    "service_request": "2024-1142188",
    "request_type": "Trash/Recycling",
    "request_reason": "Return Trash Cart",
    "date_created": "2024-10-18T12:37:21.000",
    "date_modified": "2024-10-18T12:37:23.000",
    "request_status": "Pending",
    "responsible_agency": "Department of Sanitation",
    "final_address": "2710 Prancer St",
    "address_councildis": "C",
    "status": "Assigned to Contractor",
    "contractor": "Richards Disposal",
    "rowid": "1142188",
    "final_x": "3699632.55127",
    "final_y": "520982.081401",
    "longitude": "-90.0111985567048",
    "latitude": "29.925957079993584",
    "geocoded_column": {
      "latitude": "29.925957079993584",
      "longitude": "-90.0111985567048"
    }
  },
  {
    "service_request": "2024-1142187",
    "request_type": "Trash/Recycling",
    "request_reason": "Request a Large Item Pick Up",
    "date_created": "2024-10-18T12:36:47.000",
    "date_modified": "2024-10-18T12:36:48.000",
    "request_status": "Pending",
    "responsible_agency": "Department of Sanitation",
    "final_address": "2026 Baronne St",
    "address_councildis": "B",
    "status": "Assigned to Contractor",
    "contractor": "IV Waste",
    "rowid": "1142187",
    "final_x": "3677425.13422",
    "final_y": "524709.097852",
    "longitude": "-90.08117230675592",
    "latitude": "29.936891058056386",
    "geocoded_column": {
      "latitude": "29.936891058056386",
      "longitude": "-90.08117230675592"
    }
  },
  {
    "service_request": "2024-1142186",
    "request_type": "Trash/Recycling",
    "request_reason": "Request a Large Item Pick Up",
    "date_created": "2024-10-18T12:35:16.000",
    "date_modified": "2024-10-18T12:35:17.000",
    "request_status": "Pending",
    "responsible_agency": "Department of Sanitation",
    "final_address": "7401 Wales St",
    "address_councildis": "E",
    "status": "Assigned to Contractor",
    "contractor": "Waste Pro",
    "rowid": "1142186",
    "final_x": "3699856.68548",
    "final_y": "561306.598494",
    "longitude": "-90.00901984506345",
    "latitude": "30.036827652815564",
    "geocoded_column": {
      "latitude": "30.036827652815564",
      "longitude": "-90.00901984506345"
    }
  },
  {
    "service_request": "2024-1142185",
    "request_type": "Trash/Recycling",
    "request_reason": "Missed Trash Pick-Up",
    "date_created": "2024-10-18T12:31:41.000",
    "date_modified": "2024-10-18T12:31:42.000",
    "request_status": "Pending",
    "responsible_agency": "Department of Sanitation",
    "final_address": "7221 Westhaven Rd",
    "address_councildis": "E",
    "status": "Assigned to Contractor",
    "contractor": "Waste Pro",
    "rowid": "1142185",
    "final_x": "3703557.32196",
    "final_y": "560428.75075",
    "longitude": "-89.99735747053288",
    "latitude": "30.03429579348168",
    "geocoded_column": {
      "latitude": "30.03429579348168",
      "longitude": "-89.99735747053288"
    }
  },
  {
    "service_request": "2024-1142184",
    "request_type": "Roads and Streets",
    "request_reason": "Pothole",
    "date_created": "2024-10-18T12:30:25.000",
    "date_modified": "2024-10-18T12:30:26.000",
    "request_status": "Pending",
    "responsible_agency": "Department of Public Works",
    "final_address": "400 BLK Alix St",
    "address_councildis": "C",
    "status": "Pending",
    "rowid": "1142184",
    "final_x": "3686816.39962",
    "final_y": "530253.754897",
    "longitude": "-90.05132781969527",
    "latitude": "29.951851453467924",
    "geocoded_column": {
      "latitude": "29.951851453467924",
      "longitude": "-90.05132781969527"
    }
  },
  {
    "service_request": "2024-1142183",
    "request_type": "Trash/Recycling",
    "request_reason": "Repair Trash Cart",
    "date_created": "2024-10-18T12:28:25.000",
    "date_modified": "2024-10-18T12:29:34.000",
    "request_status": "Pending",
    "responsible_agency": "Department of Sanitation",
    "final_address": "7708 Edward St",
    "address_councildis": "E",
    "status": "Assigned to Contractor",
    "contractor": "Waste Pro",
    "rowid": "1142183",
    "final_x": "3700878.8369",
    "final_y": "561164.021214",
    "longitude": "-90.00579486836959",
    "latitude": "30.03640309830535",
    "geocoded_column": {
      "latitude": "30.03640309830535",
      "longitude": "-90.00579486836959"
    }
  },
  {
    "service_request": "2024-1142182",
    "request_type": "Trash/Recycling",
    "request_reason": "Illegal Dumping",
    "date_created": "2024-10-18T12:28:16.000",
    "date_modified": "2024-10-18T12:28:18.000",
    "request_status": "Pending",
    "responsible_agency": "Department of Sanitation",
    "final_address": "10880 Morrison Rd",
    "address_councildis": "E",
    "status": "Pending",
    "rowid": "1142182",
    "final_x": "3710874.24664",
    "final_y": "564678.834402",
    "longitude": "-89.97407590688428",
    "latitude": "30.045745221820557",
    "geocoded_column": {
      "latitude": "30.045745221820557",
      "longitude": "-89.97407590688428"
    }
  },
  {
    "service_request": "2024-1142181",
    "request_type": "Roads and Streets",
    "request_reason": "Sidewalk Damaged or Missing",
    "date_created": "2024-10-18T12:26:54.000",
    "date_modified": "2024-10-18T12:26:54.000",
    "request_status": "Pending",
    "responsible_agency": "Department of Public Works",
    "final_address": "5000 BLK Howard Ave",
    "address_councildis": "B",
    "status": "Pending",
    "rowid": "1142181",
    "final_x": "3669827.71608",
    "final_y": "534793.539781",
    "longitude": "-90.10481646960662",
    "latitude": "29.964846069463132",
    "geocoded_column": {
      "latitude": "29.964846069463132",
      "longitude": "-90.10481646960662"
    }
  },
  {
    "service_request": "2024-1142180",
    "request_type": "Property Maintenance",
    "request_reason": "Property Maintenance",
    "date_created": "2024-10-18T12:24:25.000",
    "date_modified": "2024-10-18T12:24:26.000",
    "request_status": "Pending",
    "responsible_agency": "Department of Code Enforcement",
    "final_address": "3070 Elmwood Park Dr",
    "address_councildis": "C",
    "status": "Pending",
    "rowid": "1142180",
    "final_x": "3694291.11299",
    "final_y": "519030.727671",
    "longitude": "-90.02812999180773",
    "latitude": "29.92075990531495",
    "geocoded_column": {
      "latitude": "29.92075990531495",
      "longitude": "-90.02812999180773"
    }
  },