[
  {
    "service_request": "2025-1208422",
    "request_type": "General Services",
    "request_reason": "General Service Request",
    "date_created": "2025-07-10T23:31:20.000",
    "date_modified": "2025-07-10T23:31:22.000",
    "request_status": "Pending",
    "responsible_agency": "Orleans Parish Communication District",
    "final_address": "2716 Dauphine St",
    "address_councildis": "C",
    "status": "Pending",
    "rowid": "1208422",
    "final_x": "3687285.01154",
    "final_y": "535182.71591",
    "longitude": "-90.04967381750194",
    "latitude": "29.965389970188745",
    "geocoded_column": {
      "latitude": "29.965389970188745",
      "longitude": "-90.04967381750194"
    }
  },
  {
    "service_request": "2025-1208421",
    "request_type": "Trash/Recycling",
    "request_reason": "Missed Trash Pick-Up",
    "date_created": "2025-07-10T23:10:15.000",
    "date_modified": "2025-07-10T23:10:17.000",
    "request_status": "Pending",
    "responsible_agency": "Department of Sanitation",
    "final_address": "1935 Napoleon Ave",
    "address_councildis": "B",
    "status": "Assigned to Contractor",
    "contractor": "IV Waste",
    "rowid": "1208421",
    "final_x": "3670801.73646",
    "final_y": "522235.180922",
    "longitude": "-90.10216668530292",
    "latitude": "29.930285941979566",
    "geocoded_column": {
      "latitude": "29.930285941979566",
      "longitude": "-90.10216668530292"
    }
  },
  {
    "service_request": "2025-1208419",
    "request_type": "Trash/Recycling",
    "request_reason": "Request a Large Item Pick Up",
    "date_created": "2025-07-10T22:24:07.000",
    "date_modified": "2025-07-10T22:24:10.000",
    "request_status": "Pending",
    "responsible_agency": "Department of Sanitation",
    "final_address": "2831 Constance St",
    "address_councildis": "B",
    "status": "Assigned to Contractor",
    "contractor": "IV Waste",
    "rowid": "1208419",
    "final_x": "3677008.29819",
    "final_y": "520422.637432",
    "longitude": "-90.08263598996045",
    "latitude": "29.92511720876469",
    "geocoded_column": {
      "latitude": "29.92511720876469",
      "longitude": "-90.08263598996045"
    }
  },
  {
    "service_request": "2025-1208418",
    "request_type": "Abandoned Vehicles",
    "request_reason": "Abandoned/Junk Vehicles",
    "date_created": "2025-07-10T22:16:02.000",
    "date_modified": "2025-07-10T22:16:11.000",
    "request_status": "Pending",
    "responsible_agency": "Department of Public Works",
    "final_address": "4708 Odin St",
    "address_councildis": "D",
    "status": "Pending",
    "rowid": "1208418",
    "final_x": "3691123.36099",
    "final_y": "553709.452823",
    "longitude": "-90.03689057319326",
    "latitude": "30.016213007985968",
    "geocoded_column": {
      "latitude": "30.016213007985968",
      "longitude": "-90.03689057319326"
    }
  },
  {
    "service_request": "2025-1208417",
    "request_type": "Property Maintenance",
    "request_reason": "Property Maintenance",
    "date_created": "2025-07-10T22:13:41.000",
    "date_modified": "2025-07-10T22:13:43.000",
    "request_status": "Pending",
    "responsible_agency": "Department of Code Enforcement",
    "final_address": "3100 Blair St",
    "address_councildis": "C",
    "status": "Pending",
    "rowid": "1208417",
    "final_x": "3709564.77835",
    "final_y": "519424.303607",
    "longitude": "-89.97990382171014",
    "latitude": "29.921354880669544",
    "geocoded_column": {
      "latitude": "29.921354880669544",
      "longitude": "-89.97990382171014"
    }
  },
  {
    "service_request": "2025-1208416",
    "request_type": "Streetlights",
    "request_reason": "Streetlight Outage/Malfunction",
    "date_created": "2025-07-10T22:11:29.000",
    "date_modified": "2025-07-10T22:11:31.000",
    "request_status": "Pending",
    "responsible_agency": "Department of Public Works",
    "final_address": "1811 Third St",
    "address_councildis": "B",
    "status": "Pending",
    "contractor": "Legacy Professional Services",
    "rowid": "1208416",
    "final_x": "3675999.62689",
    "final_y": "523601.954811",
    "longitude": "-90.08571076882497",
    "latitude": "29.933889533491335",
    "geocoded_column": {
      "latitude": "29.933889533491335",
      "longitude": "-90.08571076882497"
    }
  },
  {
    "service_request": "2025-1208415",
    "request_type": "Parks & Parkways",
    "request_reason": "Request Grass Cutting Service (City Owned Property)",
    "date_created": "2025-07-10T22:10:50.000",
    "date_modified": "2025-07-10T22:10:51.000",
    "request_status": "Pending",
    "responsible_agency": "Department of Parks & Parkway",
    "final_address": "3100 Blair St",
    "address_councildis": "C",
    "status": "Pending",
    "rowid": "1208415",
    "final_x": "3709564.77835",
    "final_y": "519424.303607",
    "longitude": "-89.97990382171014",
    "latitude": "29.921354880669544",
    "geocoded_column": {
      "latitude": "29.921354880669544",
      "longitude": "-89.97990382171014"
    }
  },
  {
    "service_request": "2025-1208414",
    "request_type": "Trash/Recycling",
    "request_reason": "Request a Large Item Pick Up",
    "date_created": "2025-07-10T22:10:34.000",
    "date_modified": "2025-07-10T22:10:35.000",
    "request_status": "Pending",
    "responsible_agency": "Department of Sanitation",
    "final_address": "5721 Wright Rd",
    "address_councildis": "E",
    "status": "Assigned to Contractor",
    "contractor": "Waste Pro",
    "rowid": "1208414",
    "final_x": "3714724.35083",
    "final_y": "561050.372766",
    "longitude": "-89.9620450366768",
    "latitude": "30.03564227483661",
    "geocoded_column": {
      "latitude": "30.03564227483661",
      "longitude": "-89.9620450366768"
    }
  },
  {
    "service_request": "2025-1208413",
    "request_type": "Trash/Recycling",
    "request_reason": "Request a Large Item Pick Up",
    "date_created": "2025-07-10T22:02:14.000",
    "date_modified": "2025-07-10T22:02:16.000",
    "request_status": "Pending",
    "responsible_agency": "Department of Sanitation",
    "final_address": "8311 Lomond Rd",
    "address_councildis": "E",
    "status": "Assigned to Contractor",
    "contractor": "Waste Pro",
    "rowid": "1208413",
    "final_x": "3703106.11018",
    "final_y": "561858.607263",
    "longitude": "-89.99873072114866",
    "latitude": "30.038241796872054",
    "geocoded_column": {
      "latitude": "30.038241796872054",
      "longitude": "-89.99873072114866"
    }
  },
  {
    "service_request": "2025-1208412",
    "request_type": "Streetlights",
    "request_reason": "Streetlight Outage/Malfunction",
    "date_created": "2025-07-10T22:01:21.000",
    "date_modified": "2025-07-10T22:01:23.000",
    "request_status": "Pending",
    "responsible_agency": "Department of Public Works",
    "final_address": "32 Olympic Ct",
    "address_councildis": "C",
    "status": "Pending",
    "contractor": "Legacy Professional Services",
    "rowid": "1208412",
    "final_x": "3699734.25834",
    "final_y": "515853.775156",
    "longitude": "-90.01106431060758",
    "latitude": "29.91185276043689",
    "geocoded_column": {
      "latitude": "29.91185276043689",
      "longitude": "-90.01106431060758"
    }
  },
  {
    "service_request": "2025-1208411",
    "request_type": "Roads and Streets",
    "request_reason": "Sidewalk Damaged or Missing",
    "date_created": "2025-07-10T21:57:47.000",
    "date_modified": "2025-07-10T21:57:48.000",
    "request_status": "Pending",
    "responsible_agency": "Department of Public Works",
    "final_address": "700 BLK Saint Louis St",
    "address_councildis": "C",
    "status": "Pending",
    "rowid": "1208411",
    "final_x": "3681956.02286",
    "final_y": "531974.41845",
    "longitude": "-90.06661450416557",
    "latitude": "29.956731325347633",
    "geocoded_column": {
      "latitude": "29.956731325347633",
      "longitude": "-90.06661450416557"
    }
  },
  {
    "service_request": "2025-1208410",
    "request_type": "Abandoned Vehicles",
    "request_reason": "Abandoned/Junk Vehicles",
    "date_created": "2025-07-10T21:57:42.000",
    "date_modified": "2025-07-10T21:57:44.000",
    "request_status": "Pending",
    "responsible_agency": "Department of Public Works",
    "final_address": "934 Port St",
    "address_councildis": "C",
    "status": "Pending",
    "rowid": "1208410",
    "final_x": "3687264.99522",
    "final_y": "535893.784327",
    "longitude": "-90.04971187264331",
    "latitude": "29.967345777334884",
    "geocoded_column": {
      "latitude": "29.967345777334884",
      "longitude": "-90.04971187264331"
    }
  },
  {
    "service_request": "2025-1208409",
    "request_type": "Trash/Recycling",
    "request_reason": "Request a Large Item Pick Up",
    "date_created": "2025-07-10T21:42:24.000",
    "date_modified": "2025-07-10T21:42:26.000",
    "request_status": "Pending",
    "responsible_agency": "Department of Sanitation",
    "final_address": "1026 Dumaine St Apt 2A",
    "address_councildis": "C",
    "status": "Assigned to Contractor",
    "contractor": "IV Waste",
    "rowid": "1208409",
    "final_x": "3681944.08898",
    "final_y": "533821.938693",
    "longitude": "-90.06658769304912",
    "latitude": "29.961811738935552",
    "geocoded_column": {
      "latitude": "29.961811738935552",
      "longitude": "-90.06658769304912"
    }
  },
  {
    "service_request": "2025-1208408",
    "request_type": "Trash/Recycling",
    "request_reason": "Replace Trash Cart",
    "date_created": "2025-07-10T21:24:47.000",
    "date_modified": "2025-07-10T21:24:49.000",
    "request_status": "Pending",
    "responsible_agency": "Department of Sanitation",
    "final_address": "1129 Lauradale Dr",
    "address_councildis": "C",
    "status": "Assigned to Contractor",
    "contractor": "Richards Disposal",
    "rowid": "1208408",
    "final_x": "3692797.82985",
    "final_y": "527105.973375",
    "longitude": "-90.03255421674561",
    "latitude": "29.94301077300336",
    "geocoded_column": {
      "latitude": "29.94301077300336",
      "longitude": "-90.03255421674561"
    }
  },
  {
    "service_request": "2025-1208407",
    "request_type": "Streetlights",
    "request_reason": "Streetlight Outage/Malfunction",
    "date_created": "2025-07-10T21:16:17.000",
    "date_modified": "2025-07-10T21:16:19.000",
    "request_status": "Pending",
    "responsible_agency": "Department of Public Works",
    "final_address": "1921 Peniston St",
    "address_councildis": "B",
    "status": "Pending",
    "contractor": "Legacy Professional Services",
    "rowid": "1208407",
    "final_x": "3672635.61864",
    "final_y": "522359.34713",
    "longitude": "-90.09637316536005",
    "latitude": "29.93057305084078",
    "geocoded_column": {
      "latitude": "29.93057305084078",
      "longitude": "-90.09637316536005"
    }
  },
  {
    "service_request": "2025-1208406",
    "request_type": "Trash/Recycling",
    "request_reason": "Request a Large Item Pick Up",
    "date_created": "2025-07-10T20:57:14.000",
    "date_modified": "2025-07-10T20:57:20.000",
    "request_status": "Pending",
    "responsible_agency": "Department of Sanitation",
    "final_address": "7861 Sail St",
    "address_councildis": "E",
    "status": "Assigned to Contractor",
    "contractor": "Waste Pro",
    "rowid": "1208406",
    "final_x": "3719922.09234",
    "final_y": "574275.192938",
    "longitude": "-89.94511313279678",
    "latitude": "30.0718329858278",
    "geocoded_column": {
      "latitude": "30.0718329858278",
      "longitude": "-89.94511313279678"
    }
  },
  {
    "service_request": "2025-1208405",
    "request_type": "Roads and Streets",
    "request_reason": "Sidewalk Damaged or Missing",
    "date_created": "2025-07-10T20:24:30.000",
    "date_modified": "2025-07-10T20:24:31.000",
    "request_status": "Pending",
    "responsible_agency": "Department of Public Works",
    "final_address": "6248 Providence Pl",
    "address_councildis": "D",
    "status": "Pending",
    "rowid": "1208405",
    "final_x": "3688052.86351",
    "final_y": "556225.182298",
    "longitude": "-90.0465027083956",
    "latitude": "30.023225497442244",
    "geocoded_column": {
      "latitude": "30.023225497442244",
      "longitude": "-90.0465027083956"
    }
  },
  {
    "service_request": "2025-1208404",
    "request_type": "Trash/Recycling",
    "request_reason": "Replace Trash Cart",
    "date_created": "2025-07-10T20:21:05.000",
    "date_modified": "2025-07-10T20:21:06.000",
    "request_status": "Pending",
    "responsible_agency": "Department of Sanitation",
    "final_address": "1504 Pauline St",
    "address_councildis": "D",
    "status": "Assigned to Contractor",
    "contractor": "IV Waste",
    "rowid": "1208404",
    "final_x": "3691565.94012",
    "final_y": "537010.377352",
    "longitude": "-90.03608955477985",
    "latitude": "29.970282831928213",
    "geocoded_column": {
      "latitude": "29.970282831928213",
      "longitude": "-90.03608955477985"
    }
  },
  {
    "service_request": "2025-1208403",
    "request_type": "Trash/Recycling",
    "request_reason": "Order Trash Cart",
    "date_created": "2025-07-10T20:07:47.000",
    "date_modified": "2025-07-10T20:07:49.000",
    "request_status": "Pending",
    "responsible_agency": "Department of Sanitation",
    "final_address": "1841 Flood St",
    "address_councildis": "E",
    "status": "Assigned to Contractor",
    "contractor": "Waste Pro",
    "rowid": "1208403",
    "final_x": "3698515.01885",
    "final_y": "536676.668999",
    "longitude": "-90.0141558789875",
    "latitude": "29.96914710109498",
    "geocoded_column": {
      "latitude": "29.96914710109498",
      "longitude": "-90.0141558789875"
    }
  },
  {
    "service_request": "2025-1208402",
    "request_type": "Property Maintenance",
    "request_reason": "Property Maintenance",
    "date_created": "2025-07-10T20:06:59.000",
    "date_modified": "2025-07-10T20:07:01.000",
    "request_status": "Pending",
    "responsible_agency": "Department of Code Enforcement",
    "final_address": "7600 Gannon Rd",
    "address_councildis": "E",
    "status": "Pending",
    "rowid": "1208402",
    "final_x": "3716469.08671",
    "final_y": "569659.73431",
    "longitude": "-89.95620443875303",
    "latitude": "30.059256974348585",
    "geocoded_column": {
      "latitude": "30.059256974348585",
      "longitude": "-89.95620443875303"
    }
  },
  {
    "service_request": "2025-1208401",
    "request_type": "Property Maintenance",
    "request_reason": "Property Maintenance",
    "date_created": "2025-07-10T19:59:53.000",
    "date_modified": "2025-07-10T19:59:55.000",
    "request_status": "Pending",
    "responsible_agency": "Department of Code Enforcement",
    "final_address": "13618 Dwyer Blvd",
    "address_councildis": "E",
    "status": "Pending",
    "rowid": "1208401",
    "final_x": "3726555.83974",
    "final_y": "562091.909407",
    "longitude": "-89.92461552963579",
    "latitude": "30.038111434345478",
    "geocoded_column": {
      "latitude": "30.038111434345478",
      "longitude": "-89.92461552963579"
    }
  },
  {
    "service_request": "2025-1208400",
    "request_type": "Roads and Streets",
    "request_reason": "Pothole",
    "date_created": "2025-07-10T19:56:23.000",
    "date_modified": "2025-07-10T19:56:25.000",
    "request_status": "Pending",
    "responsible_agency": "Department of Public Works",
    "final_address": "1000 BLK Joliet St",
    "address_councildis": "A",
    "status": "Pending",
    "rowid": "1208400",
    "final_x": "3660551.816",
    "final_y": "528944.489143",
    "longitude": "-90.13430261261787",
    "latitude": "29.949033266244804",
    "geocoded_column": {
      "latitude": "29.949033266244804",
      "longitude": "-90.13430261261787"
    }
  },
  {
    "service_request": "2025-1208399",
    "request_type": "Drainage",
    "request_reason": "Catch Basin Clogged",
    "date_created": "2025-07-10T19:51:27.000",
    "date_modified": "2025-07-10T19:51:29.000",
    "request_status": "Pending",
    "responsible_agency": "Sewerage & Water Board",
    "final_address": "5177 Feliciana Dr",
    "address_councildis": "D",
    "status": "Pending",
    "rowid": "1208399",
    "final_x": "3690091.79644",
    "final_y": "552668.000278",
    "longitude": "-90.04018699022848",
    "latitude": "30.013381451362985",
    "geocoded_column": {
      "latitude": "30.013381451362985",
      "longitude": "-90.04018699022848"
    }
  },
  {
    "service_request": "2025-1208398",
    "request_type": "Trash/Recycling",
    "request_reason": "Repair Recycling Cart",
    "date_created": "2025-07-10T19:48:55.000",
    "date_modified": "2025-07-10T19:48:56.000",
    "request_status": "Pending",
    "responsible_agency": "Department of Sanitation",
    "final_address": "3630 Rue Colette",
    "address_councildis": "C",
    "status": "Pending",
    "rowid": "1208398",
    "final_x": "3704567.61028",
    "final_y": "516953.195957",
    "longitude": "-89.9957686112282",
    "latitude": "29.914721540772536",
    "geocoded_column": {
      "latitude": "29.914721540772536",
      "longitude": "-89.9957686112282"
    }
  },
  {
    "service_request": "2025-1208397",
    "request_type": "Trash/Recycling",
    "request_reason": "Missed Trash Pick-Up",
    "date_created": "2025-07-10T19:46:19.000",
    "date_modified": "2025-07-10T19:46:21.000",
    "request_status": "Pending",
    "responsible_agency": "Department of Sanitation",
    "final_address": "3952 Pauger St",
    "address_councildis": "D",
    "status": "Assigned to Contractor",
    "contractor": "IV Waste",
    "rowid": "1208397",
    "final_x": "3683081.39093",
    "final_y": "545506.98888",
    "longitude": "-90.06258706167682",
    "latitude": "29.993906925671883",
    "geocoded_column": {
      "latitude": "29.993906925671883",
      "longitude": "-90.06258706167682"
    }
  },
  {
    "service_request": "2025-1208396",
    "request_type": "Property Maintenance",
    "request_reason": "Property Maintenance",
    "date_created": "2025-07-10T19:46:03.000",
    "date_modified": "2025-07-10T19:46:05.000",
    "request_status": "Pending",
    "responsible_agency": "Department of Code Enforcement",
    "final_address": "5177 Feliciana Dr",
    "address_councildis": "D",
    "status": "Pending",
    "rowid": "1208396",
    "final_x": "3690091.79644",
    "final_y": "552668.000278",
    "longitude": "-90.04018699022848",
    "latitude": "30.013381451362985",
    "geocoded_column": {
      "latitude": "30.013381451362985",
      "longitude": "-90.04018699022848"
    }
  },
  {
    "service_request": "2025-1208395",
    "request_type": "Trash/Recycling",
    "request_reason": "Request a Large Item Pick Up",
    "date_created": "2025-07-10T19:37:32.000",
    "date_modified": "2025-07-10T19:37:34.000",
    "request_status": "Pending",
    "responsible_agency": "Department of Sanitation",
    "final_address": "3121 Orleans Ave",
    "address_councildis": "A",
    "status": "Assigned to Contractor",
    "contractor": "IV Waste",
    "rowid": "1208395",
    "final_x": "3675182.12865",
    "final_y": "538290.144969",
    "longitude": "-90.08778752934143",
    "latitude": "29.974301609846606",
    "geocoded_column": {
      "latitude": "29.974301609846606",
      "longitude": "-90.08778752934143"
    }
  },
  {
    "service_request": "2025-1208394",
    "request_type": "Trash/Recycling",
    "request_reason": "Request a Large Item Pick Up",
    "date_created": "2025-07-10T19:34:13.000",
    "date_modified": "2025-07-10T19:34:16.000",
    "request_status": "Pending",
    "responsible_agency": "Department of Sanitation",
    "final_address": "523 Atlantic Ave",
    "address_councildis": "C",
    "status": "Assigned to Contractor",
    "contractor": "Richards Disposal",
    "rowid": "1208394",
    "final_x": "3688751.96399",
    "final_y": "529711.562817",
    "longitude": "-90.04523549071311",
    "latitude": "29.95030092355476",
    "geocoded_column": {
      "latitude": "29.95030092355476",
      "longitude": "-90.04523549071311"
    }
  },
  {
    "service_request": "2025-1208393",
    "request_type": "Trash/Recycling",
    "request_reason": "Order Recycling Cart",
    "date_created": "2025-07-10T19:16:50.000",
    "date_modified": "2025-07-10T19:16:52.000",
    "request_status": "Pending",
    "responsible_agency": "Department of Sanitation",
    "final_address": "1309 Dauphine St Apt 7",
    "address_councildis": "C",
    "status": "Pending",
    "rowid": "1208393",
    "final_x": "3683277.22524",
    "final_y": "534768.799366",
    "longitude": "-90.062344701556",
    "latitude": "29.96437468860304",
    "geocoded_column": {
      "latitude": "29.96437468860304",
      "longitude": "-90.062344701556"
    }
  },
  {
    "service_request": "2025-1208392",
    "request_type": "Trash/Recycling",
    "request_reason": "Order Recycling Cart",
    "date_created": "2025-07-10T19:15:38.000",
    "date_modified": "2025-07-10T19:15:40.000",
    "request_status": "Pending",
    "responsible_agency": "Department of Sanitation",
    "final_address": "1309 Dauphine St",
    "address_councildis": "C",
    "status": "Pending",
    "rowid": "1208392",
    "final_x": "3683328.33058",
    "final_y": "534727.719174",
    "longitude": "-90.0621847542875",
    "latitude": "29.964260173408874",
    "geocoded_column": {
      "latitude": "29.964260173408874",
      "longitude": "-90.0621847542875"
    }
  },
  {
    "service_request": "2025-1208391",
    "request_type": "Trash/Recycling",
    "request_reason": "Order Recycling Cart",
    "date_created": "2025-07-10T19:14:14.000",
    "date_modified": "2025-07-10T19:14:15.000",
    "request_status": "Pending",
    "responsible_agency": "Department of Sanitation",
    "final_address": "1309 Dauphine St Apt 9",
    "address_councildis": "C",
    "status": "Pending",
    "rowid": "1208391",
    "final_x": "3683269.77685",
    "final_y": "534775.183686",
    "longitude": "-90.0623679993256",
    "latitude": "29.964392470458698",
    "geocoded_column": {
      "latitude": "29.964392470458698",
      "longitude": "-90.0623679993256"
    }
  },
  {
    "service_request": "2025-1208390",
    "request_type": "Trash/Recycling",
    "request_reason": "Request a Large Item Pick Up",
    "date_created": "2025-07-10T19:12:32.000",
    "date_modified": "2025-07-10T19:12:34.000",
    "request_status": "Pending",
    "responsible_agency": "Department of Sanitation",
    "final_address": "4663 Tulip St",
    "address_councildis": "E",
    "status": "Assigned to Contractor",
    "contractor": "Waste Pro",
    "rowid": "1208390",
    "final_x": "3702196.07549",
    "final_y": "553926.475415",
    "longitude": "-90.00189792511182",
    "latitude": "30.016460614140556",
    "geocoded_column": {
      "latitude": "30.016460614140556",
      "longitude": "-90.00189792511182"
    }
  },
  {
    "service_request": "2025-1208389",
    "request_type": "Trash/Recycling",
    "request_reason": "Order Recycling Cart",
    "date_created": "2025-07-10T19:11:14.000",
    "date_modified": "2025-07-10T19:11:17.000",
    "request_status": "Pending",
    "responsible_agency": "Department of Sanitation",
    "final_address": "1309 Dauphine St Apt 3",
    "address_councildis": "C",
    "status": "Pending",
    "rowid": "1208389",
    "final_x": "3683302.40802",
    "final_y": "534748.582214",
    "longitude": "-90.06226588464422",
    "latitude": "29.964318330297647",
    "geocoded_column": {
      "latitude": "29.964318330297647",
      "longitude": "-90.06226588464422"
    }
  },
  {
    "service_request": "2025-1208388",
    "request_type": "Trash/Recycling",
    "request_reason": "Order Trash Cart",
    "date_created": "2025-07-10T18:54:02.000",
    "date_modified": "2025-07-10T18:54:03.000",
    "request_status": "Pending",
    "responsible_agency": "Department of Sanitation",
    "final_address": "516 Jackson Ave",
    "address_councildis": "B",
    "status": "Assigned to Contractor",
    "contractor": "IV Waste",
    "rowid": "1208388",
    "final_x": "3680081.84111",
    "final_y": "520391.151288",
    "longitude": "-90.0729348974559",
    "latitude": "29.924938028132317",
    "geocoded_column": {
      "latitude": "29.924938028132317",
      "longitude": "-90.0729348974559"
    }
  },
  {
    "service_request": "2025-1208387",
    "request_type": "Trash/Recycling",
    "request_reason": "Request a Large Item Pick Up",
    "date_created": "2025-07-10T18:49:45.000",
    "date_modified": "2025-07-10T18:49:47.000",
    "request_status": "Pending",
    "responsible_agency": "Department of Sanitation",
    "final_address": "1823 Josephine St",
    "address_councildis": "B",
    "status": "Assigned to Contractor",
    "contractor": "IV Waste",
    "rowid": "1208387",
    "final_x": "3677236.62664",
    "final_y": "524884.210684",
    "longitude": "-90.08176139668545",
    "latitude": "29.93737822373899",
    "geocoded_column": {
      "latitude": "29.93737822373899",
      "longitude": "-90.08176139668545"
    }
  },
  {
    "service_request": "2025-1208386",
    "request_type": "Abandoned Vehicles",
    "request_reason": "Abandoned/Junk Vehicles",
    "date_created": "2025-07-10T18:38:59.000",
    "date_modified": "2025-07-10T18:39:00.000",
    "request_status": "Pending",
    "responsible_agency": "Department of Public Works",
    "final_address": "636 Nashville Ave, New Orleans, Louisiana, 70115",
    "address_councildis": "A",
    "status": "Pending",
    "rowid": "1208386",
    "final_x": "3665349.99258",
    "final_y": "518651.694199",
    "longitude": "-90.11949689107604",
    "latitude": "29.920592423678873",
    "geocoded_column": {
      "latitude": "29.920592423678873",
      "longitude": "-90.11949689107604"
    }
  },
  {
    "service_request": "2025-1208385",
    "request_type": "Streetlights",
    "request_reason": "Streetlight Outage/Malfunction",
    "date_created": "2025-07-10T18:36:17.000",
    "date_modified": "2025-07-10T18:36:18.000",
    "request_status": "Pending",
    "responsible_agency": "Department of Public Works",
    "final_address": "2918 Hamilton St",
    "address_councildis": "A",
    "status": "Pending",
    "contractor": "Legacy Professional Services",
    "rowid": "1208385",
    "final_x": "3663534.96435",
    "final_y": "535396.686406",
    "longitude": "-90.12466857660675",
    "latitude": "29.966688538313754",
    "geocoded_column": {
      "latitude": "29.966688538313754",
      "longitude": "-90.12466857660675"
    }
  },
  {
    "service_request": "2025-1208384",
    "request_type": "Drainage",
    "request_reason": "Catch Basin Clogged",
    "date_created": "2025-07-10T18:31:52.000",
    "date_modified": "2025-07-10T18:31:53.000",
    "request_status": "Pending",
    "responsible_agency": "Sewerage & Water Board",
    "final_address": "5415 Bellaire Dr",
    "address_councildis": "A",
    "status": "Pending",
    "rowid": "1208384",
    "final_x": "3664075.03303",
    "final_y": "543747.530894",
    "longitude": "-90.12268439979964",
    "latitude": "29.98963489841442",
    "geocoded_column": {
      "latitude": "29.98963489841442",
      "longitude": "-90.12268439979964"
    }
  },
  {
    "service_request": "2025-1208383",
    "request_type": "Parks & Parkways",
    "request_reason": "Request Tree Service (Right of Way/Public Property)",
    "date_created": "2025-07-10T18:18:02.000",
    "date_modified": "2025-07-10T18:18:04.000",
    "request_status": "Pending",
    "responsible_agency": "Department of Parks & Parkway",
    "final_address": "2814 State St",
    "address_councildis": "A",
    "status": "Pending",
    "rowid": "1208383",
    "final_x": "3667108.10477",
    "final_y": "526843.290558",
    "longitude": "-90.11367209754397",
    "latitude": "29.9430653769519",
    "geocoded_column": {
      "latitude": "29.9430653769519",
      "longitude": "-90.11367209754397"
    }
  },
  {
    "service_request": "2025-1208382",
    "request_type": "Property Maintenance",
    "request_reason": "Property Maintenance",
    "date_created": "2025-07-10T18:16:30.000",
    "date_modified": "2025-07-10T18:16:32.000",
    "request_status": "Pending",
    "responsible_agency": "Department of Code Enforcement",
    "final_address": "2101 Louisiana Ave",
    "address_councildis": "B",
    "status": "Pending",
    "rowid": "1208382",
    "final_x": "3673541.95835",
    "final_y": "523268.250171",
    "longitude": "-90.09348093374489",
    "latitude": "29.933045305739597",
    "geocoded_column": {
      "latitude": "29.933045305739597",
      "longitude": "-90.09348093374489"
    }
  },
  {
    "service_request": "2025-1208381",
    "request_type": "Roads and Streets",
    "request_reason": "Street Subsidence (Sinking)",
    "date_created": "2025-07-10T18:07:03.000",
    "date_modified": "2025-07-10T18:07:06.000",
    "request_status": "Pending",
    "responsible_agency": "Department of Public Works",
    "final_address": "1724 Leon C Simon Dr",
    "address_councildis": "D",
    "status": "Pending",
    "rowid": "1208381",
    "final_x": "3679821.48808",
    "final_y": "555781.052185",
    "longitude": "-90.07252751715974",
    "latitude": "30.02225591498599",
    "geocoded_column": {
      "latitude": "30.02225591498599",
      "longitude": "-90.07252751715974"
    }
  },
  {
    "service_request": "2025-1208380",
    "request_type": "Trash/Recycling",
    "request_reason": "Request a Large Item Pick Up",
    "date_created": "2025-07-10T18:02:36.000",
    "date_modified": "2025-07-10T18:02:37.000",
    "request_status": "Pending",
    "responsible_agency": "Department of Sanitation",
    "final_address": "7231 Queensway Dr",
    "address_councildis": "E",
    "status": "Assigned to Contractor",
    "contractor": "Waste Pro",
    "rowid": "1208380",
    "final_x": "3718634.65765",
    "final_y": "570269.282663",
    "longitude": "-89.9493360422512",
    "latitude": "30.06086123686576",
    "geocoded_column": {
      "latitude": "30.06086123686576",
      "longitude": "-89.9493360422512"
    }
  },
  {
    "service_request": "2025-1208379",
    "request_type": "Roads and Streets",
    "request_reason": "Debris in Driving Lanes",
    "date_created": "2025-07-10T17:55:39.000",
    "date_modified": "2025-07-10T17:55:41.000",
    "request_status": "Pending",
    "responsible_agency": "Department of Public Works",
    "final_address": "1441 Jackson Ave",
    "address_councildis": "B",
    "status": "Pending",
    "rowid": "1208379",
    "final_x": "3678037.95112",
    "final_y": "523243.762555",
    "longitude": "-90.0792882416217",
    "latitude": "29.93284343911363",
    "geocoded_column": {
      "latitude": "29.93284343911363",
      "longitude": "-90.0792882416217"
    }
  },
  {
    "service_request": "2025-1208378",
    "request_type": "Trash/Recycling",
    "request_reason": "Damaged Caused By Contractor",
    "date_created": "2025-07-10T17:43:17.000",
    "date_modified": "2025-07-10T17:43:19.000",
    "request_status": "Pending",
    "responsible_agency": "Department of Sanitation",
    "final_address": "4068 Clermont Dr",
    "address_councildis": "D",
    "status": "Assigned to Contractor",
    "contractor": "IV Waste",
    "rowid": "1208378",
    "final_x": "3684744.61353",
    "final_y": "547526.217554",
    "longitude": "-90.05726215639169",
    "latitude": "29.999408258240408",
    "geocoded_column": {
      "latitude": "29.999408258240408",
      "longitude": "-90.05726215639169"
    }
  },
  {
    "service_request": "2025-1208377",
    "request_type": "Trash/Recycling",
    "request_reason": "Request a Large Item Pick Up",
    "date_created": "2025-07-10T17:36:26.000",
    "date_modified": "2025-07-10T17:36:28.000",
    "request_status": "Pending",
    "responsible_agency": "Department of Sanitation",
    "final_address": "6635 Coventry St",
    "address_councildis": "E",
    "status": "Assigned to Contractor",
    "contractor": "Waste Pro",
    "rowid": "1208377",
    "final_x": "3697730.2929",
    "final_y": "559373.122973",
    "longitude": "-90.01580992205524",
    "latitude": "30.03157874409579",
    "geocoded_column": {
      "latitude": "30.03157874409579",
      "longitude": "-90.01580992205524"
    }
  },
  {
    "service_request": "2025-1208376",
    "request_type": "Streetlights",
    "request_reason": "Streetlight Outage/Malfunction",
    "date_created": "2025-07-10T17:32:30.000",
    "date_modified": "2025-07-10T17:32:32.000",
    "request_status": "Pending",
    "responsible_agency": "Department of Public Works",
    "final_address": "0 BLK Annandale Ct",
    "address_councildis": "C",
    "status": "Pending",
    "contractor": "Legacy Professional Services",
    "rowid": "1208376",
    "final_x": "3722818.92178",
    "final_y": "512165.663777",
    "longitude": "-89.93834584390989",
    "latitude": "29.900959104990605",
    "geocoded_column": {
      "latitude": "29.900959104990605",
      "longitude": "-89.93834584390989"
    }
  },
  {
    "service_request": "2025-1208375",
    "request_type": "Drainage",
    "request_reason": "Street Flooding",
    "date_created": "2025-07-10T17:20:51.000",
    "date_modified": "2025-07-10T17:20:54.000",
    "request_status": "Pending",
    "responsible_agency": "Sewerage & Water Board",
    "final_address": "5876 Orleans Ave",
    "address_councildis": "A",
    "status": "Pending",
    "rowid": "1208375",
    "final_x": "3670766.3202",
    "final_y": "546347.321552",
    "longitude": "-90.10146015462688",
    "latitude": "29.99658733499558",
    "geocoded_column": {
      "latitude": "29.99658733499558",
      "longitude": "-90.10146015462688"
    }
  },
  {
    "service_request": "2025-1208374",
    "request_type": "Property Maintenance",
    "request_reason": "Property Maintenance",
    "date_created": "2025-07-10T17:15:04.000",
    "date_modified": "2025-07-10T17:15:06.000",
    "request_status": "Pending",
    "responsible_agency": "Department of Code Enforcement",
    "final_address": "107 Kingston Ct",
    "address_councildis": "C",
    "status": "Pending",
    "rowid": "1208374",
    "final_x": "3705824.1715",
    "final_y": "517703.543862",
    "longitude": "-89.99177476798187",
    "latitude": "29.916744346023812",
    "geocoded_column": {
      "latitude": "29.916744346023812",
      "longitude": "-89.99177476798187"
    }
  },
  {
    "service_request": "2025-1208373",
    "request_type": "Trash/Recycling",
    "request_reason": "Request a Large Item Pick Up",
    "date_created": "2025-07-10T17:03:01.000",
    "date_modified": "2025-07-10T17:03:03.000",
    "request_status": "Pending",
    "responsible_agency": "Department of Sanitation",
    "final_address": "5 Yosemite Dr",
    "address_councildis": "C",
    "status": "Assigned to Contractor",
    "contractor": "Richards Disposal",
    "rowid": "1208373",
    "final_x": "3699429.76663",
    "final_y": "517716.636406",
    "longitude": "-90.01195755558766",
    "latitude": "29.916984654818734",
    "geocoded_column": {
      "latitude": "29.916984654818734",
      "longitude": "-90.01195755558766"
    }
  },
  {
    "service_request": "2025-1208372",
    "request_type": "Utility Poles",
    "request_reason": "Wires Sagging/Hanging Low",
    "date_created": "2025-07-10T16:59:13.000",
    "date_modified": "2025-07-10T16:59:15.000",
    "request_status": "Pending",
    "responsible_agency": "Utility Company Collective",
    "final_address": "1808 Hastings Pl",
    "address_councildis": "B",
    "status": "Pending",
    "rowid": "1208372",
    "final_x": "3680008.42504",
    "final_y": "522912.772667",
    "longitude": "-90.07307910050173",
    "latitude": "29.931873880747595",
    "geocoded_column": {
      "latitude": "29.931873880747595",
      "longitude": "-90.07307910050173"
    }
  },
  {
    "service_request": "2025-1208371",
    "request_type": "Streetlights",
    "request_reason": "Streetlight Outage/Malfunction",
    "date_created": "2025-07-10T16:58:54.000",
    "date_modified": "2025-07-10T16:58:57.000",
    "request_status": "Pending",
    "responsible_agency": "Department of Public Works",
    "final_address": "1224 N Rendon St",
    "address_councildis": "A",
    "status": "Pending",
    "contractor": "Legacy Professional Services",
    "rowid": "1208371",
    "final_x": "3676043.88859",
    "final_y": "539716.941962",
    "longitude": "-90.0850167946905",
    "latitude": "29.978199027210213",
    "geocoded_column": {
      "latitude": "29.978199027210213",
      "longitude": "-90.0850167946905"
    }
  },
  {
    "service_request": "2025-1208370",
    "request_type": "Drainage",
    "request_reason": "Street Flooding",
    "date_created": "2025-07-10T16:52:06.000",
    "date_modified": "2025-07-10T16:52:38.000",
    "request_status": "Pending",
    "responsible_agency": "Sewerage & Water Board",
    "final_address": "2109 Bartholomew St",
    "address_councildis": "D",
    "status": "Pending",
    "rowid": "1208370",
    "final_x": "3692805.86909",
    "final_y": "539185.725322",
    "longitude": "-90.03209572509253",
    "latitude": "29.976225608354085",
    "geocoded_column": {
      "latitude": "29.976225608354085",
      "longitude": "-90.03209572509253"
    }
  },
  {
    "service_request": "2025-1208369",
    "request_type": "Trash/Recycling",
    "request_reason": "Request a Large Item Pick Up",
    "date_created": "2025-07-10T16:51:58.000",
    "date_modified": "2025-07-10T16:51:59.000",
    "request_status": "Pending",
    "responsible_agency": "Department of Sanitation",
    "final_address": "2400 Somerset Dr",
    "address_councildis": "C",
    "status": "Assigned to Contractor",
    "contractor": "Richards Disposal",
    "rowid": "1208369",
    "final_x": "3702957.99735",
    "final_y": "522243.239482",
    "longitude": "-90.0006548778803",
    "latitude": "29.929318900978416",
    "geocoded_column": {
      "latitude": "29.929318900978416",
      "longitude": "-90.0006548778803"
    }
  },
  {
    "service_request": "2025-1208368",
    "request_type": "Roads and Streets",
    "request_reason": "Debris in Driving Lanes",
    "date_created": "2025-07-10T16:51:48.000",
    "date_modified": "2025-07-10T16:51:50.000",
    "request_status": "Pending",
    "responsible_agency": "Department of Public Works",
    "final_address": "3016 N Johnson St",
    "address_councildis": "D",
    "status": "Pending",
    "rowid": "1208368",
    "final_x": "3689415.84681",
    "final_y": "539405.18433",
    "longitude": "-90.04279457880779",
    "latitude": "29.976934462739326",
    "geocoded_column": {
      "latitude": "29.976934462739326",
      "longitude": "-90.04279457880779"
    }
  },
  {
    "service_request": "2025-1208367",
    "request_type": "Abandoned Vehicles",
    "request_reason": "Abandoned/Junk Vehicles",
    "date_created": "2025-07-10T16:49:36.000",
    "date_modified": "2025-07-10T16:50:41.000",
    "request_status": "Pending",
    "responsible_agency": "Department of Public Works",
    "final_address": "4920 Willow St",
    "address_councildis": "B",
    "status": "Pending",
    "rowid": "1208367",
    "final_x": "3669026.38241",
    "final_y": "525418.177661",
    "longitude": "-90.10766373253676",
    "latitude": "29.939090493415932",
    "geocoded_column": {
      "latitude": "29.939090493415932",
      "longitude": "-90.10766373253676"
    }
  },
  {
    "service_request": "2025-1208366",
    "request_type": "Abandoned Vehicles",
    "request_reason": "Abandoned/Junk Vehicles",
    "date_created": "2025-07-10T16:44:29.000",
    "date_modified": "2025-07-10T16:44:31.000",
    "request_status": "Pending",
    "responsible_agency": "Department of Public Works",
    "final_address": "4200 BLK MacArthur Blvd",
    "address_councildis": "C",
    "status": "Pending",
    "rowid": "1208366",
    "final_x": "3699711.12285",
    "final_y": "520353.436771",
    "longitude": "-90.01097343243623",
    "latitude": "29.924226030043013",
    "geocoded_column": {
      "latitude": "29.924226030043013",
      "longitude": "-90.01097343243623"
    }
  },
  {
    "service_request": "2025-1208365",
    "request_type": "Trash/Recycling",
    "request_reason": "Request a Large Item Pick Up",
    "date_created": "2025-07-10T16:41:26.000",
    "date_modified": "2025-07-10T16:41:28.000",
    "request_status": "Pending",
    "responsible_agency": "Department of Sanitation",
    "final_address": "2636 Elysian Fields Ave",
    "address_councildis": "D",
    "status": "Assigned to Contractor",
    "contractor": "IV Waste",
    "rowid": "1208365",
    "final_x": "3684439.94185",
    "final_y": "542078.102412",
    "longitude": "-90.05841611692662",
    "latitude": "29.984437207569645",
    "geocoded_column": {
      "latitude": "29.984437207569645",
      "longitude": "-90.05841611692662"
    }
  },
  {
    "service_request": "2025-1208364",
    "request_type": "Trash/Recycling",
    "request_reason": "Request a Large Item Pick Up",
    "date_created": "2025-07-10T16:40:30.000",
    "date_modified": "2025-07-10T16:40:32.000",
    "request_status": "Pending",
    "responsible_agency": "Department of Sanitation",
    "final_address": "6235 Brunswick Ct",
    "address_councildis": "C",
    "status": "Assigned to Contractor",
    "contractor": "Richards Disposal",
    "rowid": "1208364",
    "final_x": "3707187.23064",
    "final_y": "516995.620405",
    "longitude": "-89.98749867135967",
    "latitude": "29.9147538501564",
    "geocoded_column": {
      "latitude": "29.9147538501564",
      "longitude": "-89.98749867135967"
    }
  },
  {
    "service_request": "2025-1208363",
    "request_type": "Drainage",
    "request_reason": "Ditch and Culvert Maintenance",
    "date_created": "2025-07-10T16:39:09.000",
    "date_modified": "2025-07-10T16:39:10.000",
    "request_status": "Pending",
    "responsible_agency": "Department of Public Works",
    "final_address": "4540 General Early Dr",
    "address_councildis": "D",
    "status": "Pending",
    "rowid": "1208363",
    "final_x": "3691130.92003",
    "final_y": "550797.577877",
    "longitude": "-90.03697077821109",
    "latitude": "30.00820619509401",
    "geocoded_column": {
      "latitude": "30.00820619509401",
      "longitude": "-90.03697077821109"
    }
  },
  {
    "service_request": "2025-1208362",
    "request_type": "Mosquito, Termite & Rodent Control",
    "request_reason": "Rodent Complaint (Mice & Rats)",
    "date_created": "2025-07-10T16:38:29.000",
    "date_modified": "2025-07-10T16:38:31.000",
    "request_status": "Pending",
    "responsible_agency": "Mosquito, Termite & Rodent Control Board",
    "final_address": "7411 Canal Blvd",
    "address_councildis": "D",
    "status": "Pending",
    "rowid": "1208362",
    "final_x": "3669436.43668",
    "final_y": "556070.452058",
    "longitude": "-90.10533201800503",
    "latitude": "30.023361773908313",
    "geocoded_column": {
      "latitude": "30.023361773908313",
      "longitude": "-90.10533201800503"
    }
  },
  {
    "service_request": "2025-1208361",
    "request_type": "Trash/Recycling",
    "request_reason": "Repair Trash Cart",
    "date_created": "2025-07-10T16:37:58.000",
    "date_modified": "2025-07-10T16:43:52.000",
    "request_status": "Pending",
    "responsible_agency": "Department of Sanitation",
    "final_address": "6654 Curran Rd",
    "address_councildis": "E",
    "status": "Assigned to Contractor",
    "contractor": "Waste Pro",
    "rowid": "1208361",
    "final_x": "3697685.41847",
    "final_y": "559839.837533",
    "longitude": "-90.01593477009823",
    "latitude": "30.03286344821977",
    "geocoded_column": {
      "latitude": "30.03286344821977",
      "longitude": "-90.01593477009823"
    }
  },
  {
    "service_request": "2025-1208360",
    "request_type": "Drainage",
    "request_reason": "Catch Basin Clogged",
    "date_created": "2025-07-10T16:35:43.000",
    "date_modified": "2025-07-10T16:35:45.000",
    "request_status": "Pending",
    "responsible_agency": "Sewerage & Water Board",
    "final_address": "5630 Woodlawn Pl",
    "address_councildis": "A",
    "status": "Pending",
    "rowid": "1208360",
    "final_x": "3667433.75585",
    "final_y": "544895.732431",
    "longitude": "-90.11203643912808",
    "latitude": "29.992694056058927",
    "geocoded_column": {
      "latitude": "29.992694056058927",
      "longitude": "-90.11203643912808"
    }
  },
  {
    "service_request": "2025-1208359",
    "request_type": "Streetlights",
    "request_reason": "Streetlight Outage/Malfunction",
    "date_created": "2025-07-10T16:34:27.000",
    "date_modified": "2025-07-10T16:34:29.000",
    "request_status": "Pending",
    "responsible_agency": "Department of Public Works",
    "final_address": "214 Chartres St",
    "address_councildis": "C",
    "status": "Pending",
    "contractor": "Legacy Professional Services",
    "rowid": "1208359",
    "final_x": "3681824.41308",
    "final_y": "530883.364994",
    "longitude": "-90.0670681580384",
    "latitude": "29.953735298415854",
    "geocoded_column": {
      "latitude": "29.953735298415854",
      "longitude": "-90.0670681580384"
    }
  },
  {
    "service_request": "2025-1208358",
    "request_type": "Trash/Recycling",
    "request_reason": "Illegal Dumping",
    "date_created": "2025-07-10T16:32:34.000",
    "date_modified": "2025-07-10T16:32:36.000",
    "request_status": "Pending",
    "responsible_agency": "Department of Sanitation",
    "final_address": "4500 St Claude Ave",
    "address_councildis": "C",
    "status": "Pending",
    "rowid": "1208358",
    "final_x": "3693331.32003",
    "final_y": "534874.487622",
    "longitude": "-90.03059100897664",
    "latitude": "29.964354816759187",
    "geocoded_column": {
      "latitude": "29.964354816759187",
      "longitude": "-90.03059100897664"
    }
  },
  {
    "service_request": "2025-1208357",
    "request_type": "Trash/Recycling",
    "request_reason": "Request a Large Item Pick Up",
    "date_created": "2025-07-10T16:28:13.000",
    "date_modified": "2025-07-10T16:28:14.000",
    "request_status": "Pending",
    "responsible_agency": "Department of Sanitation",
    "final_address": "7815 Willow St",
    "address_councildis": "A",
    "status": "Assigned to Contractor",
    "contractor": "IV Waste",
    "rowid": "1208357",
    "final_x": "3663179.03245",
    "final_y": "528269.801856",
    "longitude": "-90.12602975240165",
    "latitude": "29.947102238295514",
    "geocoded_column": {
      "latitude": "29.947102238295514",
      "longitude": "-90.12602975240165"
    }
  },
  {
    "service_request": "2025-1208356",
    "request_type": "Trash/Recycling",
    "request_reason": "Repair Trash Cart",
    "date_created": "2025-07-10T16:26:20.000",
    "date_modified": "2025-07-10T16:26:59.000",
    "request_status": "Pending",
    "responsible_agency": "Department of Sanitation",
    "final_address": "2422 Wisteria St",
    "address_councildis": "D",
    "status": "Assigned to Contractor",
    "contractor": "IV Waste",
    "rowid": "1208356",
    "final_x": "3685753.85084",
    "final_y": "548243.207442",
    "longitude": "-90.0540486641625",
    "latitude": "30.001348778794565",
    "geocoded_column": {
      "latitude": "30.001348778794565",
      "longitude": "-90.0540486641625"
    }
  },
  {
    "service_request": "2025-1208355",
    "request_type": "Parks & Parkways",
    "request_reason": "Request Tree Service (Right of Way/Public Property)",
    "date_created": "2025-07-10T16:25:21.000",
    "date_modified": "2025-07-10T16:25:23.000",
    "request_status": "Pending",
    "responsible_agency": "Department of Parks & Parkway",
    "final_address": "13009 Deauville Ct",
    "address_councildis": "E",
    "status": "Pending",
    "rowid": "1208355",
    "final_x": "3723878.4583",
    "final_y": "560722.478878",
    "longitude": "-89.93312950420571",
    "latitude": "30.03443629729148",
    "geocoded_column": {
      "latitude": "30.03443629729148",
      "longitude": "-89.93312950420571"
    }
  },
  {
    "service_request": "2025-1208354",
    "request_type": "Mosquito, Termite & Rodent Control",
    "request_reason": "Rodent Complaint (Mice & Rats)",
    "date_created": "2025-07-10T16:17:13.000",
    "date_modified": "2025-07-10T16:17:14.000",
    "request_status": "Pending",
    "responsible_agency": "Mosquito, Termite & Rodent Control Board",
    "final_address": "1331 S Roman St",
    "address_councildis": "B",
    "status": "Pending",
    "rowid": "1208354",
    "final_x": "3674551.98094",
    "final_y": "528873.906688",
    "longitude": "-90.09010035074371",
    "latitude": "29.948428934293165",
    "geocoded_column": {
      "latitude": "29.948428934293165",
      "longitude": "-90.09010035074371"
    }
  },
  {
    "service_request": "2025-1208353",
    "request_type": "Trash/Recycling",
    "request_reason": "Request a Large Item Pick Up",
    "date_created": "2025-07-10T16:17:03.000",
    "date_modified": "2025-07-10T16:17:05.000",
    "request_status": "Pending",
    "responsible_agency": "Department of Sanitation",
    "final_address": "5601 Brighton Pl",
    "address_councildis": "C",
    "status": "Assigned to Contractor",
    "contractor": "Richards Disposal",
    "rowid": "1208353",
    "final_x": "3704251.10007",
    "final_y": "520380.716152",
    "longitude": "-89.99664141705443",
    "latitude": "29.92415619291044",
    "geocoded_column": {
      "latitude": "29.92415619291044",
      "longitude": "-89.99664141705443"
    }
  },
  {
    "service_request": "2025-1208352",
    "request_type": "Utility Poles",
    "request_reason": "Utility Pole Leaning",
    "date_created": "2025-07-10T16:15:50.000",
    "date_modified": "2025-07-10T16:15:52.000",
    "request_status": "Pending",
    "responsible_agency": "Utility Company Collective",
    "final_address": "3948 Chestnut St",
    "address_councildis": "B",
    "status": "Pending",
    "rowid": "1208352",
    "final_x": "3672509.88609",
    "final_y": "519589.815096",
    "longitude": "-90.09686443036577",
    "latitude": "29.922961458294903",
    "geocoded_column": {
      "latitude": "29.922961458294903",
      "longitude": "-90.09686443036577"
    }
  },
  {
    "service_request": "2025-1208351",
    "request_type": "Trash/Recycling",
    "request_reason": "Replace Trash Cart",
    "date_created": "2025-07-10T16:15:03.000",
    "date_modified": "2025-07-10T16:15:05.000",
    "request_status": "Pending",
    "responsible_agency": "Department of Sanitation",
    "final_address": "2313 Delachaise St",
    "address_councildis": "B",
    "status": "Assigned to Contractor",
    "contractor": "IV Waste",
    "rowid": "1208351",
    "final_x": "3672814.53768",
    "final_y": "523813.263227",
    "longitude": "-90.09575877091778",
    "latitude": "29.934565537885934",
    "geocoded_column": {
      "latitude": "29.934565537885934",
      "longitude": "-90.09575877091778"
    }
  },
  {
    "service_request": "2025-1208350",
    "request_type": "Abandoned Vehicles",
    "request_reason": "Abandoned/Junk Vehicles",
    "date_created": "2025-07-10T16:14:39.000",
    "date_modified": "2025-07-10T16:14:40.000",
    "request_status": "Pending",
    "responsible_agency": "Department of Public Works",
    "final_address": "8631 Bill St",
    "address_councildis": "E",
    "status": "Pending",
    "rowid": "1208350",
    "final_x": "3703866.4433",
    "final_y": "563317.660128",
    "longitude": "-89.99627408454155",
    "latitude": "30.04222924537202",
    "geocoded_column": {
      "latitude": "30.04222924537202",
      "longitude": "-89.99627408454155"
    }
  },
  {
    "service_request": "2025-1208349",
    "request_type": "Abandoned Vehicles",
    "request_reason": "Abandoned/Junk Vehicles",
    "date_created": "2025-07-10T16:08:41.000",
    "date_modified": "2025-07-10T16:08:42.000",
    "request_status": "Pending",
    "responsible_agency": "Department of Public Works",
    "final_address": "4511 Shalimar Dr",
    "address_councildis": "D",
    "status": "Pending",
    "rowid": "1208349",
    "final_x": "3697361.91235",
    "final_y": "552984.481751",
    "longitude": "-90.0172059025856",
    "latitude": "30.014024052249297",
    "geocoded_column": {
      "latitude": "30.014024052249297",
      "longitude": "-90.0172059025856"
    }
  },
  {
    "service_request": "2025-1208348",
    "request_type": "Mosquito, Termite & Rodent Control",
    "request_reason": "Mosquito Complaint",
    "date_created": "2025-07-10T16:08:36.000",
    "date_modified": "2025-07-10T16:08:37.000",
    "request_status": "Pending",
    "responsible_agency": "Mosquito, Termite & Rodent Control Board",
    "final_address": "1346 Crescent St",
    "address_councildis": "D",
    "status": "Pending",
    "rowid": "1208348",
    "final_x": "3677420.34171",
    "final_y": "552296.413078",
    "longitude": "-90.08023496511679",
    "latitude": "30.01274684412268",
    "geocoded_column": {
      "latitude": "30.01274684412268",
      "longitude": "-90.08023496511679"
    }
  },
  {
    "service_request": "2025-1208347",
    "request_type": "Trash/Recycling",
    "request_reason": "Replace Trash Cart",
    "date_created": "2025-07-10T16:07:44.000",
    "date_modified": "2025-07-10T16:07:46.000",
    "request_status": "Pending",
    "responsible_agency": "Department of Sanitation",
    "final_address": "237 Broadway St",
    "address_councildis": "A",
    "status": "Assigned to Contractor",
    "contractor": "IV Waste",
    "rowid": "1208347",
    "final_x": "3661302.10605",
    "final_y": "522134.258106",
    "longitude": "-90.13215902064022",
    "latitude": "29.930285677891927",
    "geocoded_column": {
      "latitude": "29.930285677891927",
      "longitude": "-90.13215902064022"
    }
  },
  {
    "service_request": "2025-1208346",
    "request_type": "Trash/Recycling",
    "request_reason": "Request a Large Item Pick Up",
    "date_created": "2025-07-10T16:07:39.000",
    "date_modified": "2025-07-10T16:07:40.000",
    "request_status": "Pending",
    "responsible_agency": "Department of Sanitation",
    "final_address": "3327 River Oaks Dr",
    "address_councildis": "C",
    "status": "Assigned to Contractor",
    "contractor": "Richards Disposal",
    "rowid": "1208346",
    "final_x": "3701364.34609",
    "final_y": "518848.887287",
    "longitude": "-90.00580984360721",
    "latitude": "29.920036471583398",
    "geocoded_column": {
      "latitude": "29.920036471583398",
      "longitude": "-90.00580984360721"
    }
  },
  {
    "service_request": "2025-1208345",
    "request_type": "Abandoned Vehicles",
    "request_reason": "Abandoned/Junk Vehicles",
    "date_created": "2025-07-10T16:07:04.000",
    "date_modified": "2025-07-10T16:07:06.000",
    "request_status": "Pending",
    "responsible_agency": "Department of Public Works",
    "final_address": "8631 Bill St",
    "address_councildis": "E",
    "status": "Pending",
    "rowid": "1208345",
    "final_x": "3703866.4433",
    "final_y": "563317.660128",
    "longitude": "-89.99627408454155",
    "latitude": "30.04222924537202",
    "geocoded_column": {
      "latitude": "30.04222924537202",
      "longitude": "-89.99627408454155"
    }
  },
  {
    "service_request": "2025-1208344",
    "request_type": "Street and Traffic Signs",
    "request_reason": "Additional Signage Request",
    "date_created": "2025-07-10T16:06:03.000",
    "date_modified": "2025-07-10T16:06:05.000",
    "request_status": "Pending",
    "responsible_agency": "Department of Public Works",
    "final_address": "CLEMATIS AVE & MYRTLE ST",
    "address_councildis": "D",
    "status": "Pending",
    "rowid": "1208344",
    "final_x": "3686417.7",
    "final_y": "545994.28",
    "longitude": "-90.05203095326384",
    "latitude": "29.99514464280968",
    "geocoded_column": {
      "latitude": "29.99514464280968",
      "longitude": "-90.05203095326384"
    }
  },
  {
    "service_request": "2025-1208343",
    "request_type": "Abandoned Vehicles",
    "request_reason": "Abandoned/Junk Vehicles",
    "date_created": "2025-07-10T16:05:18.000",
    "date_modified": "2025-07-10T16:05:20.000",
    "request_status": "Pending",
    "responsible_agency": "Department of Public Works",
    "final_address": "8603 Bill St",
    "address_councildis": "E",
    "status": "Pending",
    "rowid": "1208343",
    "final_x": "3703728.47895",
    "final_y": "563251.28368",
    "longitude": "-89.99671254890941",
    "latitude": "30.04205116216645",
    "geocoded_column": {
      "latitude": "30.04205116216645",
      "longitude": "-89.99671254890941"
    }
  },
  {
    "service_request": "2025-1208342",
    "request_type": "Trash/Recycling",
    "request_reason": "Request a Large Item Pick Up",
    "date_created": "2025-07-10T16:05:01.000",
    "date_modified": "2025-07-10T16:05:03.000",
    "request_status": "Pending",
    "responsible_agency": "Department of Sanitation",
    "final_address": "7710 W Laverne St",
    "address_councildis": "D",
    "status": "Assigned to Contractor",
    "contractor": "Waste Pro",
    "rowid": "1208342",
    "final_x": "3695021.53501",
    "final_y": "558893.278172",
    "longitude": "-90.02438700992424",
    "latitude": "30.030344716249836",
    "geocoded_column": {
      "latitude": "30.030344716249836",
      "longitude": "-90.02438700992424"
    }
  },
  {
    "service_request": "2025-1208341",
    "request_type": "Street and Traffic Signs",
    "request_reason": "Additional Signage Request",
    "date_created": "2025-07-10T16:04:44.000",
    "date_modified": "2025-07-10T16:04:47.000",
    "request_status": "Pending",
    "responsible_agency": "Department of Public Works",
    "final_address": "CLEMATIS AVE & VERBENA ST",
    "address_councildis": "D",
    "status": "Pending",
    "rowid": "1208341",
    "final_x": "3685459.4",
    "final_y": "547663.28",
    "longitude": "-90.05499929832826",
    "latitude": "29.999763223373073",
    "geocoded_column": {
      "latitude": "29.999763223373073",
      "longitude": "-90.05499929832826"
    }
  },
  {
    "service_request": "2025-1208340",
    "request_type": "Trash/Recycling",
    "request_reason": "Request a Large Item Pick Up",
    "date_created": "2025-07-10T16:03:40.000",
    "date_modified": "2025-07-10T16:03:41.000",
    "request_status": "Pending",
    "responsible_agency": "Department of Sanitation",
    "final_address": "10680 Lincoln Beach Blvd",
    "address_councildis": "E",
    "status": "Assigned to Contractor",
    "contractor": "Waste Pro",
    "rowid": "1208340",
    "final_x": "3708720.11428",
    "final_y": "566440.840995",
    "longitude": "-89.98081824247406",
    "latitude": "30.050660118191985",
    "geocoded_column": {
      "latitude": "30.050660118191985",
      "longitude": "-89.98081824247406"
    }
  },
  {
    "service_request": "2025-1208339",
    "request_type": "Trash/Recycling",
    "request_reason": "Repair Trash Cart",
    "date_created": "2025-07-10T16:01:02.000",
    "date_modified": "2025-07-10T16:01:04.000",
    "request_status": "Pending",
    "responsible_agency": "Department of Sanitation",
    "final_address": "2011 Jefferson Ave",
    "address_councildis": "B",
    "status": "Assigned to Contractor",
    "contractor": "IV Waste",
    "rowid": "1208339",
    "final_x": "3667808.94279",
    "final_y": "523037.779387",
    "longitude": "-90.1115874802406",
    "latitude": "29.932580912636496",
    "geocoded_column": {
      "latitude": "29.932580912636496",
      "longitude": "-90.1115874802406"
    }
  },
  {
    "service_request": "2025-1208338",
    "request_type": "Trash/Recycling",
    "request_reason": "Request a Large Item Pick Up",
    "date_created": "2025-07-10T15:56:11.000",
    "date_modified": "2025-07-10T15:56:13.000",
    "request_status": "Pending",
    "responsible_agency": "Department of Sanitation",
    "final_address": "3940 Mimosa Dr",
    "address_councildis": "C",
    "status": "Assigned to Contractor",
    "contractor": "Richards Disposal",
    "rowid": "1208338",
    "final_x": "3704629.61188",
    "final_y": "512838.671729",
    "longitude": "-89.99572451729841",
    "latitude": "29.90340601645107",
    "geocoded_column": {
      "latitude": "29.90340601645107",
      "longitude": "-89.99572451729841"
    }
  },
  {
    "service_request": "2025-1208337",
    "request_type": "Trash/Recycling",
    "request_reason": "Replace Trash Cart",
    "date_created": "2025-07-10T15:55:50.000",
    "date_modified": "2025-07-10T15:55:52.000",
    "request_status": "Pending",
    "responsible_agency": "Department of Sanitation",
    "final_address": "2938 Hudson St",
    "address_councildis": "C",
    "status": "Assigned to Contractor",
    "contractor": "Richards Disposal",
    "rowid": "1208337",
    "final_x": "3694107.26128",
    "final_y": "520364.189368",
    "longitude": "-90.02866239897334",
    "latitude": "29.924432231882566",
    "geocoded_column": {
      "latitude": "29.924432231882566",
      "longitude": "-90.02866239897334"
    }
  },
  {
    "service_request": "2025-1208336",
    "request_type": "Mosquito, Termite & Rodent Control",
    "request_reason": "Rodent Complaint (Mice & Rats)",
    "date_created": "2025-07-10T15:54:43.000",
    "date_modified": "2025-07-10T15:54:45.000",
    "request_status": "Pending",
    "responsible_agency": "Mosquito, Termite & Rodent Control Board",
    "final_address": "2534 Elder St",
    "address_councildis": "D",
    "status": "Pending",
    "rowid": "1208336",
    "final_x": "3686905.25711",
    "final_y": "545719.224464",
    "longitude": "-90.05050054269783",
    "latitude": "29.99437333894701",
    "geocoded_column": {
      "latitude": "29.99437333894701",
      "longitude": "-90.05050054269783"
    }
  },
  {
    "service_request": "2025-1208335",
    "request_type": "Trash/Recycling",
    "request_reason": "Request a Large Item Pick Up",
    "date_created": "2025-07-10T15:51:23.000",
    "date_modified": "2025-07-10T15:51:26.000",
    "request_status": "Pending",
    "responsible_agency": "Department of Sanitation",
    "final_address": "4501 Shalimar Dr",
    "address_councildis": "D",
    "status": "Assigned to Contractor",
    "contractor": "Waste Pro",
    "rowid": "1208335",
    "final_x": "3697332.69507",
    "final_y": "552941.898071",
    "longitude": "-90.01729975911951",
    "latitude": "30.01390788588709",
    "geocoded_column": {
      "latitude": "30.01390788588709",
      "longitude": "-90.01729975911951"
    }
  },
  {
    "service_request": "2025-1208334",
    "request_type": "Trash/Recycling",
    "request_reason": "Repair Trash Cart",
    "date_created": "2025-07-10T15:50:18.000",
    "date_modified": "2025-07-10T15:50:19.000",
    "request_status": "Pending",
    "responsible_agency": "Department of Sanitation",
    "final_address": "2822 Mercedes Blvd",
    "address_councildis": "C",
    "status": "Assigned to Contractor",
    "contractor": "Richards Disposal",
    "rowid": "1208334",
    "final_x": "3698062.81642",
    "final_y": "520871.096569",
    "longitude": "-90.01615774580998",
    "latitude": "29.925701619663812",
    "geocoded_column": {
      "latitude": "29.925701619663812",
      "longitude": "-90.01615774580998"
    }
  },
  {
    "service_request": "2025-1208333",
    "request_type": "Property Maintenance",
    "request_reason": "Property Maintenance",
    "date_created": "2025-07-10T15:49:54.000",
    "date_modified": "2025-07-10T16:04:01.000",
    "case_close_date": "2025-07-10T11:04:00.000",
    "request_status": "Closed",
    "responsible_agency": "Department of Code Enforcement",
    "final_address": "4123 Clara St",
    "address_councildis": "B",
    "status": "Referred to Code Enforcement",
    "rowid": "1208333",
    "final_x": "3671386.9323",
    "final_y": "525281.540093",
    "longitude": "-90.1002158160566",
    "latitude": "29.938645143984797",
    "geocoded_column": {
      "latitude": "29.938645143984797",
      "longitude": "-90.1002158160566"
    }
  },
  {
    "service_request": "2025-1208332",
    "request_type": "Trash/Recycling",
    "request_reason": "Order Second Trash Cart",
    "date_created": "2025-07-10T15:49:08.000",
    "date_modified": "2025-07-10T15:49:09.000",
    "request_status": "Pending",
    "responsible_agency": "Department of Sanitation",
    "final_address": "4643 Gabriel Dr",
    "address_councildis": "E",
    "status": "Assigned to Contractor",
    "contractor": "Waste Pro",
    "rowid": "1208332",
    "final_x": "3709012.08836",
    "final_y": "555113.446105",
    "longitude": "-89.98031817260923",
    "latitude": "30.019504789933045",
    "geocoded_column": {
      "latitude": "30.019504789933045",
      "longitude": "-89.98031817260923"
    }
  },
  {
    "service_request": "2025-1208331",
    "request_type": "Property Maintenance",
    "request_reason": "Property Maintenance",
    "date_created": "2025-07-10T15:48:32.000",
    "date_modified": "2025-07-10T15:48:34.000",
    "request_status": "Pending",
    "responsible_agency": "Department of Code Enforcement",
    "final_address": "2837 Milan St",
    "address_councildis": "B",
    "status": "Pending",
    "rowid": "1208331",
    "final_x": "3671183.03867",
    "final_y": "525465.503805",
    "longitude": "-90.10085328448618",
    "latitude": "29.93915701639153",
    "geocoded_column": {
      "latitude": "29.93915701639153",
      "longitude": "-90.10085328448618"
    }
  },
  {
    "service_request": "2025-1208330",
    "request_type": "Abandoned Vehicles",
    "request_reason": "Abandoned/Junk Vehicles",
    "date_created": "2025-07-10T15:45:01.000",
    "date_modified": "2025-07-10T15:45:03.000",
    "request_status": "Pending",
    "responsible_agency": "Department of Public Works",
    "final_address": "2628 Third St",
    "address_councildis": "B",
    "status": "Pending",
    "rowid": "1208330",
    "final_x": "3674279.55156",
    "final_y": "526079.980542",
    "longitude": "-90.09105616538332",
    "latitude": "29.94075468129887",
    "geocoded_column": {
      "latitude": "29.94075468129887",
      "longitude": "-90.09105616538332"
    }
  },
  {
    "service_request": "2025-1208329",
    "request_type": "Trash/Recycling",
    "request_reason": "Repair Trash Cart",
    "date_created": "2025-07-10T15:38:32.000",
    "date_modified": "2025-07-10T15:38:34.000",
    "request_status": "Pending",
    "responsible_agency": "Department of Sanitation",
    "final_address": "4801 Piety Dr",
    "address_councildis": "D",
    "status": "Assigned to Contractor",
    "contractor": "IV Waste",
    "rowid": "1208329",
    "final_x": "3691734.22102",
    "final_y": "551292.474773",
    "longitude": "-90.03504705608543",
    "latitude": "30.009548197201195",
    "geocoded_column": {
      "latitude": "30.009548197201195",
      "longitude": "-90.03504705608543"
    }
  },
  {
    "service_request": "2025-1208328",
    "request_type": "Trash/Recycling",
    "request_reason": "Repair Trash Cart",
    "date_created": "2025-07-10T15:34:41.000",
    "date_modified": "2025-07-10T15:34:43.000",
    "request_status": "Pending",
    "responsible_agency": "Department of Sanitation",
    "final_address": "1965 Abundance St",
    "address_councildis": "D",
    "status": "Assigned to Contractor",
    "contractor": "IV Waste",
    "rowid": "1208328",
    "final_x": "3682789.91317",
    "final_y": "543575.232846",
    "longitude": "-90.06357541742634",
    "latitude": "29.98860416625433",
    "geocoded_column": {
      "latitude": "29.98860416625433",
      "longitude": "-90.06357541742634"
    }
  },
  {
    "service_request": "2025-1208327",
    "request_type": "Trash/Recycling",
    "request_reason": "Order Recycling Cart",
    "date_created": "2025-07-10T15:34:01.000",
    "date_modified": "2025-07-10T15:34:03.000",
    "request_status": "Pending",
    "responsible_agency": "Department of Sanitation",
    "final_address": "4710 Hickerson Dr",
    "address_councildis": "E",
    "status": "Pending",
    "rowid": "1208327",
    "final_x": "3710254.45259",
    "final_y": "555504.965529",
    "longitude": "-89.97637810440813",
    "latitude": "30.020540920148896",
    "geocoded_column": {
      "latitude": "30.020540920148896",
      "longitude": "-89.97637810440813"
    }
  },
  {
    "service_request": "2025-1208326",
    "request_type": "Trash/Recycling",
    "request_reason": "Replace Trash Cart",
    "date_created": "2025-07-10T15:33:47.000",
    "date_modified": "2025-07-10T15:33:49.000",
    "request_status": "Pending",
    "responsible_agency": "Department of Sanitation",
    "final_address": "4822 Cleveland Ave",
    "address_councildis": "A",
    "status": "Assigned to Contractor",
    "contractor": "IV Waste",
    "rowid": "1208326",
    "final_x": "3668365.69857",
    "final_y": "539808.562826",
    "longitude": "-90.10926425820907",
    "latitude": "29.97867872482772",
    "geocoded_column": {
      "latitude": "29.97867872482772",
      "longitude": "-90.10926425820907"
    }
  },
  {
    "service_request": "2025-1208325",
    "request_type": "Trash/Recycling",
    "request_reason": "Return Trash Cart",
    "date_created": "2025-07-10T15:32:28.000",
    "date_modified": "2025-07-10T15:32:31.000",
    "request_status": "Pending",
    "responsible_agency": "Department of Sanitation",
    "final_address": "1630 Clouet St",
    "address_councildis": "D",
    "status": "Assigned to Contractor",
    "contractor": "IV Waste",
    "rowid": "1208325",
    "final_x": "3689489.29961",
    "final_y": "538133.640457",
    "longitude": "-90.04260782949522",
    "latitude": "29.973435891685835",
    "geocoded_column": {
      "latitude": "29.973435891685835",
      "longitude": "-90.04260782949522"
    }
  },
  {
    "service_request": "2025-1208324",
    "request_type": "Roads and Streets",
    "request_reason": "Pothole",
    "date_created": "2025-07-10T15:28:25.000",
    "date_modified": "2025-07-10T15:28:27.000",
    "request_status": "Pending",
    "responsible_agency": "Department of Public Works",
    "final_address": "1400 Elysian Fields Ave",
    "address_councildis": "C",
    "status": "Pending",
    "rowid": "1208324",
    "final_x": "3684832.35612",
    "final_y": "537433.838216",
    "longitude": "-90.05734001051651",
    "latitude": "29.971655098640323",
    "geocoded_column": {
      "latitude": "29.971655098640323",
      "longitude": "-90.05734001051651"
    }
  },
  {
    "service_request": "2025-1208323",
    "request_type": "Streetlights",
    "request_reason": "Streetlight Outage/Malfunction",
    "date_created": "2025-07-10T15:25:44.000",
    "date_modified": "2025-07-10T15:26:25.000",
    "request_status": "Pending",
    "responsible_agency": "Department of Public Works",
    "final_address": "2743 Pressburg St",
    "address_councildis": "D",
    "status": "Pending",
    "contractor": "Legacy Professional Services",
    "rowid": "1208323",
    "final_x": "3687654.59292",
    "final_y": "555004.000728",
    "longitude": "-90.04780444508968",
    "latitude": "30.01987999414171",
    "geocoded_column": {
      "latitude": "30.01987999414171",
      "longitude": "-90.04780444508968"
    }
  },
  {
    "service_request": "2025-1208322",
    "request_type": "Trash/Recycling",
    "request_reason": "Request a Large Item Pick Up",
    "date_created": "2025-07-10T15:24:37.000",
    "date_modified": "2025-07-10T15:24:39.000",
    "request_status": "Pending",
    "responsible_agency": "Department of Sanitation",
    "final_address": "4740 Sherwood Dr",
    "address_councildis": "E",
    "status": "Assigned to Contractor",
    "contractor": "Waste Pro",
    "rowid": "1208322",
    "final_x": "3717936.25932",
    "final_y": "556904.797082",
    "longitude": "-89.95205288478644",
    "latitude": "30.024137524794895",
    "geocoded_column": {
      "latitude": "30.024137524794895",
      "longitude": "-89.95205288478644"
    }
  },
  {
    "service_request": "2025-1208321",
    "request_type": "Abandoned Vehicles",
    "request_reason": "Abandoned/Junk Vehicles",
    "date_created": "2025-07-10T15:24:07.000",
    "date_modified": "2025-07-10T15:24:10.000",
    "request_status": "Pending",
    "responsible_agency": "Department of Public Works",
    "final_address": "20 Christopher Ct",
    "address_councildis": "E",
    "status": "Pending",
    "rowid": "1208321",
    "final_x": "3716721.08415",
    "final_y": "570363.839207",
    "longitude": "-89.95538113830784",
    "latitude": "30.061184640889554",
    "geocoded_column": {
      "latitude": "30.061184640889554",
      "longitude": "-89.95538113830784"
    }
  },
  {
    "service_request": "2025-1208320",
    "request_type": "Street and Traffic Signs",
    "request_reason": "Street Name Sign Damaged or Missing",
    "date_created": "2025-07-10T15:22:01.000",
    "date_modified": "2025-07-10T15:22:03.000",
    "request_status": "Pending",
    "responsible_agency": "Department of Public Works",
    "final_address": "MARAIS ST & ELYSIAN FIELDS AVE",
    "address_councildis": "C",
    "status": "Pending",
    "rowid": "1208320",
    "final_x": "3685036.6",
    "final_y": "536675.38",
    "longitude": "-90.05672166554228",
    "latitude": "29.969563346956768",
    "geocoded_column": {
      "latitude": "29.969563346956768",
      "longitude": "-90.05672166554228"
    }
  },
  {
    "service_request": "2025-1208319",
    "request_type": "Trash/Recycling",
    "request_reason": "Request a Large Item Pick Up",
    "date_created": "2025-07-10T15:18:49.000",
    "date_modified": "2025-07-10T15:18:51.000",
    "request_status": "Pending",
    "responsible_agency": "Department of Sanitation",
    "final_address": "156 Middle Park Pl",
    "address_councildis": "A",
    "status": "Assigned to Contractor",
    "contractor": "IV Waste",
    "rowid": "1208319",
    "final_x": "3669962.70983",
    "final_y": "544586.880399",
    "longitude": "-90.10405837979879",
    "latitude": "29.991770460258177",
    "geocoded_column": {
      "latitude": "29.991770460258177",
      "longitude": "-90.10405837979879"
    }
  },
  {
    "service_request": "2025-1208318",
    "request_type": "Trash/Recycling",
    "request_reason": "Request a Large Item Pick Up",
    "date_created": "2025-07-10T15:16:05.000",
    "date_modified": "2025-07-10T15:16:08.000",
    "request_status": "Pending",
    "responsible_agency": "Department of Sanitation",
    "final_address": "2127 S Saratoga St",
    "address_councildis": "B",
    "status": "Assigned to Contractor",
    "contractor": "IV Waste",
    "rowid": "1208318",
    "final_x": "3676564.66798",
    "final_y": "525325.872765",
    "longitude": "-90.08386761214247",
    "latitude": "29.93861281387845",
    "geocoded_column": {
      "latitude": "29.93861281387845",
      "longitude": "-90.08386761214247"
    }
  },
  {
    "service_request": "2025-1208317",
    "request_type": "Trash/Recycling",
    "request_reason": "Illegal Dumping",
    "date_created": "2025-07-10T15:06:23.000",
    "date_modified": "2025-07-10T15:06:25.000",
    "request_status": "Pending",
    "responsible_agency": "Department of Sanitation",
    "final_address": "7912 W Laverne St",
    "address_councildis": "D",
    "status": "Pending",
    "rowid": "1208317",
    "final_x": "3694817.90378",
    "final_y": "559486.669469",
    "longitude": "-90.02500907336783",
    "latitude": "30.031982710275088",
    "geocoded_column": {
      "latitude": "30.031982710275088",
      "longitude": "-90.02500907336783"
    }
  },
  {
    "service_request": "2025-1208316",
    "request_type": "Trash/Recycling",
    "request_reason": "Missed Trash Pick-Up",
    "date_created": "2025-07-10T15:05:12.000",
    "date_modified": "2025-07-10T15:38:23.000",
    "case_close_date": "2025-07-10T10:38:21.000",
    "request_status": "Closed",
    "responsible_agency": "Department of Sanitation",
    "final_address": "8500 BLK Palmetto St",
    "address_councildis": "A",
    "status": "Invalid Request",
    "contractor": "IV Waste",
    "contractor_action": "Invalid",
    "rowid": "1208316",
    "final_x": "3666931.08572",
    "final_y": "536210.428023",
    "longitude": "-90.11391625809827",
    "latitude": "29.968827118871587",
    "geocoded_column": {
      "latitude": "29.968827118871587",
      "longitude": "-90.11391625809827"
    }
  },
  {
    "service_request": "2025-1208315",
    "request_type": "Trash/Recycling",
    "request_reason": "Request a Large Item Pick Up",
    "date_created": "2025-07-10T15:04:40.000",
    "date_modified": "2025-07-10T15:04:42.000",
    "request_status": "Pending",
    "responsible_agency": "Department of Sanitation",
    "final_address": "7525 Scottwood Dr",
    "address_councildis": "E",
    "status": "Assigned to Contractor",
    "contractor": "Waste Pro",
    "rowid": "1208315",
    "final_x": "3717698.97676",
    "final_y": "570303.615847",
    "longitude": "-89.95229236412173",
    "latitude": "30.060986680515455",
    "geocoded_column": {
      "latitude": "30.060986680515455",
      "longitude": "-89.95229236412173"
    }
  },
  {
    "service_request": "2025-1208314",
    "request_type": "Utility Poles",
    "request_reason": "Wires Sagging/Hanging Low",
    "date_created": "2025-07-10T15:02:28.000",
    "date_modified": "2025-07-10T15:02:31.000",
    "request_status": "Pending",
    "responsible_agency": "Utility Company Collective",
    "final_address": "5217 Coliseum St",
    "address_councildis": "B",
    "status": "Pending",
    "rowid": "1208314",
    "final_x": "3667921.2809",
    "final_y": "519707.062328",
    "longitude": "-90.11134497290969",
    "latitude": "29.923419204860625",
    "geocoded_column": {
      "latitude": "29.923419204860625",
      "longitude": "-90.11134497290969"
    }
  },
  {
    "service_request": "2025-1208313",
    "request_type": "Streetlights",
    "request_reason": "Streetlight Outage/Malfunction",
    "date_created": "2025-07-10T15:01:04.000",
    "date_modified": "2025-07-10T15:01:07.000",
    "request_status": "Pending",
    "responsible_agency": "Department of Public Works",
    "final_address": "5809 Memphis St",
    "address_councildis": "A",
    "status": "Pending",
    "contractor": "Legacy Professional Services",
    "rowid": "1208313",
    "final_x": "3669162.25332",
    "final_y": "546000.007504",
    "longitude": "-90.1065390684757",
    "latitude": "29.995679661546703",
    "geocoded_column": {
      "latitude": "29.995679661546703",
      "longitude": "-90.1065390684757"
    }
  },
  {
    "service_request": "2025-1208311",
    "request_type": "Trash/Recycling",
    "request_reason": "Repair Trash Cart",
    "date_created": "2025-07-10T14:53:17.000",
    "date_modified": "2025-07-10T14:53:19.000",
    "request_status": "Pending",
    "responsible_agency": "Department of Sanitation",
    "final_address": "5710 St Bernard Ave",
    "address_councildis": "D",
    "status": "Assigned to Contractor",
    "contractor": "IV Waste",
    "rowid": "1208311",
    "final_x": "3676761.79445",
    "final_y": "553418.291159",
    "longitude": "-90.0822769154463",
    "latitude": "30.015851392177428",
    "geocoded_column": {
      "latitude": "30.015851392177428",
      "longitude": "-90.0822769154463"
    }
  },
  {
    "service_request": "2025-1208310",
    "request_type": "Trash/Recycling",
    "request_reason": "Dead Animal Pick Up",
    "date_created": "2025-07-10T14:51:37.000",
    "date_modified": "2025-07-10T14:51:40.000",
    "request_status": "Pending",
    "responsible_agency": "Department of Sanitation",
    "final_address": "8640 Chase St",
    "address_councildis": "E",
    "status": "Assigned to Contractor",
    "contractor": "Waste Pro",
    "rowid": "1208310",
    "final_x": "3703847.54154",
    "final_y": "563490.678816",
    "longitude": "-89.99632744064843",
    "latitude": "30.04270558489277",
    "geocoded_column": {
      "latitude": "30.04270558489277",
      "longitude": "-89.99632744064843"
    }
  },
  {
    "service_request": "2025-1208309",
    "request_type": "Trash/Recycling",
    "request_reason": "Request a Large Item Pick Up",
    "date_created": "2025-07-10T14:51:13.000",
    "date_modified": "2025-07-10T14:51:15.000",
    "request_status": "Pending",
    "responsible_agency": "Department of Sanitation",
    "final_address": "7641 Eastmore Rd",
    "address_councildis": "E",
    "status": "Assigned to Contractor",
    "contractor": "Waste Pro",
    "rowid": "1208309",
    "final_x": "3700241.83607",
    "final_y": "560703.500894",
    "longitude": "-90.0078247418031",
    "latitude": "30.035157123544433",
    "geocoded_column": {
      "latitude": "30.035157123544433",
      "longitude": "-90.0078247418031"
    }
  },
  {
    "service_request": "2025-1208308",
    "request_type": "Trash/Recycling",
    "request_reason": "Return Trash Cart",
    "date_created": "2025-07-10T14:47:00.000",
    "date_modified": "2025-07-10T14:47:03.000",
    "request_status": "Pending",
    "responsible_agency": "Department of Sanitation",
    "final_address": "8234 Plum St",
    "address_councildis": "A",
    "status": "Assigned to Contractor",
    "contractor": "IV Waste",
    "rowid": "1208308",
    "final_x": "3661686.16269",
    "final_y": "529042.105472",
    "longitude": "-90.13071773271973",
    "latitude": "29.949268992438018",
    "geocoded_column": {
      "latitude": "29.949268992438018",
      "longitude": "-90.13071773271973"
    }
  },
  {
    "service_request": "2025-1208307",
    "request_type": "Trash/Recycling",
    "request_reason": "Missed Trash Pick-Up",
    "date_created": "2025-07-10T14:46:52.000",
    "date_modified": "2025-07-10T16:15:08.000",
    "case_close_date": "2025-07-10T11:15:07.000",
    "request_status": "Closed",
    "responsible_agency": "Department of Sanitation",
    "final_address": "2010 Egania St A",
    "address_councildis": "E",
    "status": "Invalid Request",
    "contractor": "Waste Pro",
    "contractor_action": "Invalid",
    "rowid": "1208307",
    "final_x": "3697732.35261",
    "final_y": "537519.824008",
    "longitude": "-90.01659698234134",
    "latitude": "29.971490227827847",
    "geocoded_column": {
      "latitude": "29.971490227827847",
      "longitude": "-90.01659698234134"
    }
  },
  {
    "service_request": "2025-1208306",
    "request_type": "Drainage",
    "request_reason": "Catch Basin Clogged",
    "date_created": "2025-07-10T14:46:32.000",
    "date_modified": "2025-07-10T14:46:34.000",
    "request_status": "Pending",
    "responsible_agency": "Sewerage & Water Board",
    "final_address": "3942 Chestnut St",
    "address_councildis": "B",
    "status": "Pending",
    "rowid": "1208306",
    "final_x": "3672554.78145",
    "final_y": "519594.134712",
    "longitude": "-90.09672256574893",
    "latitude": "29.922972003665507",
    "geocoded_column": {
      "latitude": "29.922972003665507",
      "longitude": "-90.09672256574893"
    }
  },
  {
    "service_request": "2025-1208305",
    "request_type": "Trash/Recycling",
    "request_reason": "Request a Large Item Pick Up",
    "date_created": "2025-07-10T14:43:57.000",
    "date_modified": "2025-07-10T14:43:58.000",
    "request_status": "Pending",
    "responsible_agency": "Department of Sanitation",
    "final_address": "7922 Marquis St",
    "address_councildis": "E",
    "status": "Assigned to Contractor",
    "contractor": "Waste Pro",
    "rowid": "1208305",
    "final_x": "3710579.37041",
    "final_y": "567198.887652",
    "longitude": "-89.97491343131185",
    "latitude": "30.052683965056456",
    "geocoded_column": {
      "latitude": "30.052683965056456",
      "longitude": "-89.97491343131185"
    }
  },
  {
    "service_request": "2025-1208304",
    "request_type": "Trash/Recycling",
    "request_reason": "Request a Large Item Pick Up",
    "date_created": "2025-07-10T14:39:09.000",
    "date_modified": "2025-07-10T14:39:11.000",
    "request_status": "Pending",
    "responsible_agency": "Department of Sanitation",
    "final_address": "11287 Waverly Dr",
    "address_councildis": "E",
    "status": "Assigned to Contractor",
    "contractor": "Waste Pro",
    "rowid": "1208304",
    "final_x": "3717663.75205",
    "final_y": "560449.17443",
    "longitude": "-89.95277901000061",
    "latitude": "30.033892170168336",
    "geocoded_column": {
      "latitude": "30.033892170168336",
      "longitude": "-89.95277901000061"
    }
  },
  {
    "service_request": "2025-1208303",
    "request_type": "Trash/Recycling",
    "request_reason": "Request a Large Item Pick Up",
    "date_created": "2025-07-10T14:38:32.000",
    "date_modified": "2025-07-10T14:38:35.000",
    "request_status": "Pending",
    "responsible_agency": "Department of Sanitation",
    "final_address": "4562 Gallier Dr",
    "address_councildis": "D",
    "status": "Assigned to Contractor",
    "contractor": "IV Waste",
    "rowid": "1208303",
    "final_x": "3692070.05283",
    "final_y": "551406.767125",
    "longitude": "-90.03398195503156",
    "latitude": "30.009851991903787",
    "geocoded_column": {
      "latitude": "30.009851991903787",
      "longitude": "-90.03398195503156"
    }
  },
  {
    "service_request": "2025-1208302",
    "request_type": "Trash/Recycling",
    "request_reason": "Illegal Dumping",
    "date_created": "2025-07-10T14:36:51.000",
    "date_modified": "2025-07-10T14:36:53.000",
    "request_status": "Pending",
    "responsible_agency": "Department of Sanitation",
    "final_address": "1941 Fats Domino Ave",
    "address_councildis": "E",
    "status": "Pending",
    "rowid": "1208302",
    "final_x": "3698951.7976",
    "final_y": "537042.4274",
    "longitude": "-90.01276319644795",
    "latitude": "29.970138971282754",
    "geocoded_column": {
      "latitude": "29.970138971282754",
      "longitude": "-90.01276319644795"
    }
  },
  {
    "service_request": "2025-1208301",
    "request_type": "Trash/Recycling",
    "request_reason": "Repair Recycling Cart",
    "date_created": "2025-07-10T14:35:08.000",
    "date_modified": "2025-07-10T14:35:10.000",
    "request_status": "Pending",
    "responsible_agency": "Department of Sanitation",
    "final_address": "3701 Delgado Dr",
    "address_councildis": "A",
    "status": "Pending",
    "rowid": "1208301",
    "final_x": "3674311.29409",
    "final_y": "540561.876555",
    "longitude": "-90.09046001124534",
    "latitude": "29.980574095172003",
    "geocoded_column": {
      "latitude": "29.980574095172003",
      "longitude": "-90.09046001124534"
    }
  },
  {
    "service_request": "2025-1208300",
    "request_type": "Trash/Recycling",
    "request_reason": "Request a Large Item Pick Up",
    "date_created": "2025-07-10T14:35:05.000",
    "date_modified": "2025-07-10T14:37:16.000",
    "request_status": "Pending",
    "responsible_agency": "Department of Sanitation",
    "final_address": "1651 Rousselin Dr",
    "address_councildis": "D",
    "status": "Assigned to Contractor",
    "contractor": "IV Waste",
    "rowid": "1208300",
    "final_x": "3679580.81845",
    "final_y": "540348.826251",
    "longitude": "-90.07382396679525",
    "latitude": "29.979830064848045",
    "geocoded_column": {
      "latitude": "29.979830064848045",
      "longitude": "-90.07382396679525"
    }
  },
  {
    "service_request": "2025-1208299",
    "request_type": "Trash/Recycling",
    "request_reason": "Request a Large Item Pick Up",
    "date_created": "2025-07-10T14:33:45.000",
    "date_modified": "2025-07-10T14:33:47.000",
    "request_status": "Pending",
    "responsible_agency": "Department of Sanitation",
    "final_address": "9231 Fig St",
    "address_councildis": "A",
    "status": "Assigned to Contractor",
    "contractor": "IV Waste",
    "rowid": "1208299",
    "final_x": "3663258.3273",
    "final_y": "535975.349895",
    "longitude": "-90.12552293640599",
    "latitude": "29.968287693374062",
    "geocoded_column": {
      "latitude": "29.968287693374062",
      "longitude": "-90.12552293640599"
    }
  },
  {
    "service_request": "2025-1208298",
    "request_type": "Health Related Request",
    "request_reason": "Noise Ordinance Complaint",
    "date_created": "2025-07-10T14:32:48.000",
    "date_modified": "2025-07-10T14:32:49.000",
    "request_status": "Pending",
    "responsible_agency": "Health Department",
    "final_address": "709 Austerlitz St",
    "address_councildis": "B",
    "status": "Pending",
    "rowid": "1208298",
    "final_x": "3672978.0027",
    "final_y": "518328.357238",
    "longitude": "-90.09542978428509",
    "latitude": "29.91947895402078",
    "geocoded_column": {
      "latitude": "29.91947895402078",
      "longitude": "-90.09542978428509"
    }
  },
  {
    "service_request": "2025-1208297",
    "request_type": "Trash/Recycling",
    "request_reason": "Return Trash Cart",
    "date_created": "2025-07-10T14:31:37.000",
    "date_modified": "2025-07-10T14:32:03.000",
    "request_status": "Pending",
    "responsible_agency": "Department of Sanitation",
    "final_address": "6010 Kensington Blvd",
    "address_councildis": "E",
    "status": "Assigned to Contractor",
    "contractor": "Waste Pro",
    "rowid": "1208297",
    "final_x": "3713424.18091",
    "final_y": "561650.461791",
    "longitude": "-89.96613113307166",
    "latitude": "30.03733499869554",
    "geocoded_column": {
      "latitude": "30.03733499869554",
      "longitude": "-89.96613113307166"
    }
  },
  {
    "service_request": "2025-1208296",
    "request_type": "Trash/Recycling",
    "request_reason": "Replace Trash Cart",
    "date_created": "2025-07-10T14:31:33.000",
    "date_modified": "2025-07-10T14:31:34.000",
    "request_status": "Pending",
    "responsible_agency": "Department of Sanitation",
    "final_address": "6759 Vicksburg St",
    "address_councildis": "A",
    "status": "Assigned to Contractor",
    "contractor": "IV Waste",
    "rowid": "1208296",
    "final_x": "3669427.1298",
    "final_y": "552405.762006",
    "longitude": "-90.105485509965",
    "latitude": "30.013285450975662",
    "geocoded_column": {
      "latitude": "30.013285450975662",
      "longitude": "-90.105485509965"
    }
  },
  {
    "service_request": "2025-1208295",
    "request_type": "Property Maintenance",
    "request_reason": "Property Maintenance",
    "date_created": "2025-07-10T14:28:49.000",
    "date_modified": "2025-07-10T14:48:24.000",
    "case_close_date": "2025-07-10T09:48:22.000",
    "request_status": "Closed",
    "responsible_agency": "Department of Code Enforcement",
    "final_address": "2724 Edna St",
    "address_councildis": "D",
    "status": "Referred to Code Enforcement",
    "rowid": "1208295",
    "final_x": "3689588.1631",
    "final_y": "545222.343375",
    "longitude": "-90.04204330523102",
    "latitude": "29.992924232490584",
    "geocoded_column": {
      "latitude": "29.992924232490584",
      "longitude": "-90.04204330523102"
    }
  },
  {
    "service_request": "2025-1208294",
    "request_type": "Trash/Recycling",
    "request_reason": "Return Recycling Cart",
    "date_created": "2025-07-10T14:27:54.000",
    "date_modified": "2025-07-10T14:27:56.000",
    "request_status": "Pending",
    "responsible_agency": "Department of Sanitation",
    "final_address": "15 Glacier Ct",
    "address_councildis": "C",
    "status": "Pending",
    "rowid": "1208294",
    "final_x": "3699955.14167",
    "final_y": "516083.780852",
    "longitude": "-90.01035876815719",
    "latitude": "29.912478187535275",
    "geocoded_column": {
      "latitude": "29.912478187535275",
      "longitude": "-90.01035876815719"
    }
  },
  {
    "service_request": "2025-1208293",
    "request_type": "Trash/Recycling",
    "request_reason": "Request a Large Item Pick Up",
    "date_created": "2025-07-10T14:26:04.000",
    "date_modified": "2025-07-10T14:26:06.000",
    "request_status": "Pending",
    "responsible_agency": "Department of Sanitation",
    "final_address": "4525 Skyview Dr",
    "address_councildis": "D",
    "status": "Assigned to Contractor",
    "contractor": "Waste Pro",
    "rowid": "1208293",
    "final_x": "3696857.05603",
    "final_y": "553051.970519",
    "longitude": "-90.01879853760175",
    "latitude": "30.014225556020197",
    "geocoded_column": {
      "latitude": "30.014225556020197",
      "longitude": "-90.01879853760175"
    }
  },
  {
    "service_request": "2025-1208292",
    "request_type": "Trash/Recycling",
    "request_reason": "Replace Trash Cart",
    "date_created": "2025-07-10T14:24:24.000",
    "date_modified": "2025-07-10T14:24:26.000",
    "request_status": "Pending",
    "responsible_agency": "Department of Sanitation",
    "final_address": "7222 Freret St",
    "address_councildis": "A",
    "status": "Assigned to Contractor",
    "contractor": "IV Waste",
    "rowid": "1208292",
    "final_x": "3663565.90835",
    "final_y": "526002.99251",
    "longitude": "-90.12488371716037",
    "latitude": "29.940858024002683",
    "geocoded_column": {
      "latitude": "29.940858024002683",
      "longitude": "-90.12488371716037"
    }
  },
  {
    "service_request": "2025-1208291",
    "request_type": "Trash/Recycling",
    "request_reason": "Request a Large Item Pick Up",
    "date_created": "2025-07-10T14:23:42.000",
    "date_modified": "2025-07-10T14:23:45.000",
    "request_status": "Pending",
    "responsible_agency": "Department of Sanitation",
    "final_address": "2127 S Saratoga St",
    "address_councildis": "B",
    "status": "Assigned to Contractor",
    "contractor": "IV Waste",
    "rowid": "1208291",
    "final_x": "3676564.66798",
    "final_y": "525325.872765",
    "longitude": "-90.08386761214247",
    "latitude": "29.93861281387845",
    "geocoded_column": {
      "latitude": "29.93861281387845",
      "longitude": "-90.08386761214247"
    }
  },
  {
    "service_request": "2025-1208290",
    "request_type": "Trash/Recycling",
    "request_reason": "Request a Large Item Pick Up",
    "date_created": "2025-07-10T14:23:29.000",
    "date_modified": "2025-07-10T14:23:31.000",
    "request_status": "Pending",
    "responsible_agency": "Department of Sanitation",
    "final_address": "1636 Amelia St",
    "address_councildis": "B",
    "status": "Assigned to Contractor",
    "contractor": "IV Waste",
    "rowid": "1208290",
    "final_x": "3672994.69972",
    "final_y": "521404.061369",
    "longitude": "-90.09527218168577",
    "latitude": "29.927935659253567",
    "geocoded_column": {
      "latitude": "29.927935659253567",
      "longitude": "-90.09527218168577"
    }
  },
  {
    "service_request": "2025-1208289",
    "request_type": "Property Maintenance",
    "request_reason": "Property Maintenance",
    "date_created": "2025-07-10T14:20:40.000",
    "date_modified": "2025-07-10T14:51:36.000",
    "case_close_date": "2025-07-10T09:51:34.000",
    "request_status": "Closed",
    "responsible_agency": "Department of Code Enforcement",
    "final_address": "2728 Edna St",
    "address_councildis": "D",
    "status": "Referred to Code Enforcement",
    "rowid": "1208289",
    "final_x": "3689630.08726",
    "final_y": "545226.753231",
    "longitude": "-90.04191071758748",
    "latitude": "29.992935058842267",
    "geocoded_column": {
      "latitude": "29.992935058842267",
      "longitude": "-90.04191071758748"
    }
  },
  {
    "service_request": "2025-1208288",
    "request_type": "Property Maintenance",
    "request_reason": "Property Maintenance",
    "date_created": "2025-07-10T14:15:35.000",
    "date_modified": "2025-07-10T15:00:47.000",
    "case_close_date": "2025-07-10T10:00:45.000",
    "request_status": "Closed",
    "responsible_agency": "Department of Code Enforcement",
    "final_address": "3263 Law St",
    "address_councildis": "D",
    "status": "Referred to Code Enforcement",
    "rowid": "1208288",
    "final_x": "3691193.76892",
    "final_y": "541510.29006",
    "longitude": "-90.03710414346116",
    "latitude": "29.982667572375117",
    "geocoded_column": {
      "latitude": "29.982667572375117",
      "longitude": "-90.03710414346116"
    }
  },
  {
    "service_request": "2025-1208287",
    "request_type": "Trash/Recycling",
    "request_reason": "Request a Large Item Pick Up",
    "date_created": "2025-07-10T14:14:17.000",
    "date_modified": "2025-07-10T14:14:18.000",
    "request_status": "Pending",
    "responsible_agency": "Department of Sanitation",
    "final_address": "2631 S Robertson St",
    "address_councildis": "B",
    "status": "Assigned to Contractor",
    "contractor": "IV Waste",
    "rowid": "1208287",
    "final_x": "3674208.15208",
    "final_y": "525774.870397",
    "longitude": "-90.0912920278753",
    "latitude": "29.93991785655873",
    "geocoded_column": {
      "latitude": "29.93991785655873",
      "longitude": "-90.0912920278753"
    }
  },
  {
    "service_request": "2025-1208286",
    "request_type": "Trash/Recycling",
    "request_reason": "Request a Large Item Pick Up",
    "date_created": "2025-07-10T14:12:11.000",
    "date_modified": "2025-07-10T14:12:13.000",
    "request_status": "Pending",
    "responsible_agency": "Department of Sanitation",
    "final_address": "3000 Dumaine St",
    "address_councildis": "A",
    "status": "Assigned to Contractor",
    "contractor": "IV Waste",
    "rowid": "1208286",
    "final_x": "3676073.10158",
    "final_y": "538227.305737",
    "longitude": "-90.08497578691512",
    "latitude": "29.974102162911016",
    "geocoded_column": {
      "latitude": "29.974102162911016",
      "longitude": "-90.08497578691512"
    }
  },
  {
    "service_request": "2025-1208285",
    "request_type": "Streetlights",
    "request_reason": "Streetlight Outage/Malfunction",
    "date_created": "2025-07-10T14:11:22.000",
    "date_modified": "2025-07-10T14:11:24.000",
    "request_status": "Pending",
    "responsible_agency": "Department of Public Works",
    "final_address": "3200 BLK Almonaster Ave",
    "address_councildis": "D",
    "status": "Pending",
    "contractor": "Legacy Professional Services",
    "rowid": "1208285",
    "final_x": "3689432.72444",
    "final_y": "545508.900568",
    "longitude": "-90.04252411011409",
    "latitude": "29.993716976981915",
    "geocoded_column": {
      "latitude": "29.993716976981915",
      "longitude": "-90.04252411011409"
    }
  },
  {
    "service_request": "2025-1208284",
    "request_type": "Abandoned Vehicles",
    "request_reason": "Abandoned/Junk Vehicles",
    "date_created": "2025-07-10T14:10:10.000",
    "date_modified": "2025-07-10T14:10:12.000",
    "request_status": "Pending",
    "responsible_agency": "Department of Public Works",
    "final_address": "1016 Second St",
    "address_councildis": "B",
    "status": "Pending",
    "rowid": "1208284",
    "final_x": "3677915.5915",
    "final_y": "521129.032889",
    "longitude": "-90.0797475597072",
    "latitude": "29.927032304795638",
    "geocoded_column": {
      "latitude": "29.927032304795638",
      "longitude": "-90.0797475597072"
    }
  },
  {
    "service_request": "2025-1208283",
    "request_type": "Roads and Streets",
    "request_reason": "Pothole",
    "date_created": "2025-07-10T14:07:40.000",
    "date_modified": "2025-07-10T14:07:42.000",
    "request_status": "Pending",
    "responsible_agency": "Department of Public Works",
    "final_address": "1744 St Ferdinand St",
    "address_councildis": "D",
    "status": "Pending",
    "rowid": "1208283",
    "final_x": "3688346.22051",
    "final_y": "538904.397962",
    "longitude": "-90.04619055663395",
    "latitude": "29.975590558712646",
    "geocoded_column": {
      "latitude": "29.975590558712646",
      "longitude": "-90.04619055663395"
    }
  },