[
  {
    "service_request": "2022-864084",
    "request_type": "Traffic Signals/Signs/Striping/Streetlights",
    "request_reason": "Street Light Outage/Malfunction",
    "date_created": "2022-03-03T01:02:42.000",
    "date_modified": "2022-03-03T01:02:43.000",
    "request_status": "Pending",
    "responsible_agency": "Department of Public Works",
    "final_address": "300 Bourbon St NEW ORLEANS LOUISIANA 70130",
    "address_councildis": "C",
    "status": "Pending",
    "contractor": "Royal Engineering",
    "rowid": "864084",
    "final_x": "3681523.24488",
    "final_y": "531576.031683",
    "longitude": "-90.06799496884169",
    "latitude": "29.9556490451343",
    "geocoded_column": {
      "latitude": "29.9556490451343",
      "longitude": "-90.06799496884169"
    }
  },
  {
    "service_request": "2022-864083",
    "request_type": "Trash/Recycling",
    "request_reason": "Request a Large Item Pick Up",
    "date_created": "2022-03-03T00:30:29.000",
    "date_modified": "2022-03-03T00:30:30.000",
    "request_status": "Pending",
    "responsible_agency": "Department of Sanitation",
    "final_address": "328 Alix St",
    "address_councildis": "C",
    "status": "Assigned to Contractor",
    "contractor": "Richards Disposal",
    "rowid": "864083",
    "final_x": "3686605.29628",
    "final_y": "530141.505345",
    "longitude": "-90.05199834559315",
    "latitude": "29.951549298310393",
    "geocoded_column": {
      "latitude": "29.951549298310393",
      "longitude": "-90.05199834559315"
    }
  },
  {
    "service_request": "2022-864082",
    "request_type": "Health Related Questions",
    "request_reason": "Noise Ordinance Complaint",
    "date_created": "2022-03-02T22:31:51.000",
    "date_modified": "2022-03-02T22:31:51.000",
    "request_status": "Pending",
    "responsible_agency": "Health Department",
    "final_address": "1724 Martin Luther King Jr Blvd, New Orleans, Louisiana, 70113",
    "status": "Pending",
    "rowid": "864082",
    "longitude": "0.0",
    "latitude": "0.0",
    "geocoded_column": {
      "latitude": "0.0",
      "longitude": "0.0"
    }
  },
  {
    "service_request": "2022-864081",
    "request_type": "Trash/Recycling",
    "request_reason": "Missed Trash Pick-Up",
    "date_created": "2022-03-02T21:32:43.000",
    "date_modified": "2022-03-02T21:32:44.000",
    "request_status": "Pending",
    "responsible_agency": "Department of Sanitation",
    "final_address": "2831 Audubon St",
    "address_councildis": "B",
    "status": "Assigned to Contractor",
    "contractor": "Richards Disposal",
    "rowid": "864081",
    "final_x": "3667694.17434",
    "final_y": "531295.870018",
    "longitude": "-90.11167184375363",
    "latitude": "29.955291355719048",
    "geocoded_column": {
      "latitude": "29.955291355719048",
      "longitude": "-90.11167184375363"
    }
  },
  {
    "service_request": "2022-864080",
    "request_type": "Trash/Recycling",
    "request_reason": "Replace Trash Cart",
    "date_created": "2022-03-02T21:30:34.000",
    "date_modified": "2022-03-02T21:30:35.000",
    "request_status": "Pending",
    "responsible_agency": "Department of Sanitation",
    "final_address": "7222 Morrison Rd",
    "address_councildis": "E",
    "status": "Assigned to Contractor",
    "contractor": "Metro Disposal",
    "rowid": "864080",
    "final_x": "3700269.72356",
    "final_y": "559164.32054",
    "longitude": "-90.00779288207386",
    "latitude": "30.030924086829987",
    "geocoded_column": {
      "latitude": "30.030924086829987",
      "longitude": "-90.00779288207386"
    }
  },
  {
    "service_request": "2022-864079",
    "request_type": "Trash/Recycling",
    "request_reason": "Missed Trash Pick-Up",
    "date_created": "2022-03-02T21:08:51.000",
    "date_modified": "2022-03-02T21:08:52.000",
    "request_status": "Pending",
    "responsible_agency": "Department of Sanitation",
    "final_address": "3108 College Ct",
    "address_councildis": "B",
    "status": "Assigned to Contractor",
    "contractor": "Richards Disposal",
    "rowid": "864079",
    "final_x": "3668438.72218",
    "final_y": "531824.666499",
    "longitude": "-90.10930299017294",
    "latitude": "29.956723524055274",
    "geocoded_column": {
      "latitude": "29.956723524055274",
      "longitude": "-90.10930299017294"
    }
  },
  {
    "service_request": "2022-864078",
    "request_type": "Trash/Recycling",
    "request_reason": "Missed Trash Pick-Up",
    "date_created": "2022-03-02T21:07:27.000",
    "date_modified": "2022-03-02T21:07:28.000",
    "request_status": "Pending",
    "responsible_agency": "Department of Sanitation",
    "final_address": "4133 Vincennes Pl",
    "address_councildis": "B",
    "status": "Assigned to Contractor",
    "contractor": "Richards Disposal",
    "rowid": "864078",
    "final_x": "3668690.06023",
    "final_y": "530771.10797",
    "longitude": "-90.10854490304123",
    "latitude": "29.953819199199952",
    "geocoded_column": {
      "latitude": "29.953819199199952",
      "longitude": "-90.10854490304123"
    }
  },
  {
    "service_request": "2022-864077",
    "request_type": "Roads/Drainage",
    "request_reason": "Man hole cover issue",
    "date_created": "2022-03-02T20:42:08.000",
    "date_modified": "2022-03-02T20:42:08.000",
    "request_status": "Pending",
    "responsible_agency": "Department of Public Works",
    "final_address": "3726 Banks St",
    "address_councildis": "B",
    "status": "Pending",
    "rowid": "864077",
    "final_x": "3671392.32718",
    "final_y": "536513.423623",
    "longitude": "-90.09981704797417",
    "latitude": "29.969528955004463",
    "geocoded_column": {
      "latitude": "29.969528955004463",
      "longitude": "-90.09981704797417"
    }
  },
  {
    "service_request": "2022-864075",
    "request_type": "Abandoned Vehicles",
    "request_reason": "Abandoned/Junk Vehicles",
    "date_created": "2022-03-02T19:44:26.000",
    "date_modified": "2022-03-02T19:44:26.000",
    "request_status": "Pending",
    "responsible_agency": "Department of Public Works",
    "final_address": "636 Seguin St",
    "address_councildis": "C",
    "status": "Pending",
    "rowid": "864075",
    "final_x": "3686843.99785",
    "final_y": "529438.089793",
    "longitude": "-90.05126949447741",
    "latitude": "29.949607804132864",
    "geocoded_column": {
      "latitude": "29.949607804132864",
      "longitude": "-90.05126949447741"
    }
  },
  {
    "service_request": "2022-864074",
    "request_type": "Traffic Signals/Signs/Striping/Streetlights",
    "request_reason": "Street Light Outage/Malfunction",
    "date_created": "2022-03-02T19:41:26.000",
    "date_modified": "2022-03-02T19:41:27.000",
    "request_status": "Pending",
    "responsible_agency": "Department of Public Works",
    "final_address": "1112 Chartres St",
    "address_councildis": "C",
    "status": "Pending",
    "contractor": "Royal Engineering",
    "rowid": "864074",
    "final_x": "3683828.99644",
    "final_y": "533481.221636",
    "longitude": "-90.06064741604884",
    "latitude": "29.960817452066276",
    "geocoded_column": {
      "latitude": "29.960817452066276",
      "longitude": "-90.06064741604884"
    }
  },
  {
    "service_request": "2022-864073",
    "request_type": "Traffic Signals/Signs/Striping/Streetlights",
    "request_reason": "Street Light Outage/Malfunction",
    "date_created": "2022-03-02T19:29:09.000",
    "date_modified": "2022-03-02T19:29:10.000",
    "request_status": "Pending",
    "responsible_agency": "Department of Public Works",
    "final_address": "4401 St Roch Ave",
    "address_councildis": "D",
    "status": "Pending",
    "contractor": "Royal Engineering",
    "rowid": "864073",
    "final_x": "3685536.98601",
    "final_y": "548927.187923",
    "longitude": "-90.0547096471598",
    "latitude": "30.00323613364496",
    "geocoded_column": {
      "latitude": "30.00323613364496",
      "longitude": "-90.0547096471598"
    }
  },
  {
    "service_request": "2022-864072",
    "request_type": "Trash/Recycling",
    "request_reason": "Replace Trash Cart",
    "date_created": "2022-03-02T19:16:03.000",
    "date_modified": "2022-03-02T19:16:04.000",
    "request_status": "Pending",
    "responsible_agency": "Department of Sanitation",
    "final_address": "4729 Camp St",
    "address_councildis": "B",
    "status": "Assigned to Contractor",
    "contractor": "Richards Disposal",
    "rowid": "864072",
    "final_x": "3669656.9042",
    "final_y": "519054.292855",
    "longitude": "-90.10588831784725",
    "latitude": "29.921573286137974",
    "geocoded_column": {
      "latitude": "29.921573286137974",
      "longitude": "-90.10588831784725"
    }
  },
  {
    "service_request": "2022-864071",
    "request_type": "Trash/Recycling",
    "request_reason": "Request a Large Item Pick Up",
    "date_created": "2022-03-02T19:01:43.000",
    "date_modified": "2022-03-02T19:01:44.000",
    "request_status": "Pending",
    "responsible_agency": "Department of Sanitation",
    "final_address": "1430 Tita St",
    "address_councildis": "C",
    "status": "Assigned to Contractor",
    "contractor": "Richards Disposal",
    "rowid": "864071",
    "final_x": "3695707.96675",
    "final_y": "526092.788862",
    "longitude": "-90.02340281818778",
    "latitude": "29.940133706244264",
    "geocoded_column": {
      "latitude": "29.940133706244264",
      "longitude": "-90.02340281818778"
    }
  },
  {
    "service_request": "2022-864070",
    "request_type": "Trash/Recycling",
    "request_reason": "Request a Large Item Pick Up",
    "date_created": "2022-03-02T18:59:04.000",
    "date_modified": "2022-03-02T18:59:05.000",
    "request_status": "Pending",
    "responsible_agency": "Department of Sanitation",
    "final_address": "3011 Royal St",
    "address_councildis": "C",
    "status": "Assigned to Contractor",
    "contractor": "Metro Disposal",
    "rowid": "864070",
    "final_x": "3688182.0918",
    "final_y": "534650.194758",
    "longitude": "-90.04685976871461",
    "latitude": "29.9638980585104",
    "geocoded_column": {
      "latitude": "29.9638980585104",
      "longitude": "-90.04685976871461"
    }
  },
  {
    "service_request": "2022-864068",
    "request_type": "Trash/Recycling",
    "request_reason": "Request a Large Item Pick Up",
    "date_created": "2022-03-02T18:34:52.000",
    "date_modified": "2022-03-02T18:34:53.000",
    "request_status": "Pending",
    "responsible_agency": "Department of Sanitation",
    "final_address": "1418 Hendee St",
    "address_councildis": "C",
    "status": "Assigned to Contractor",
    "contractor": "Richards Disposal",
    "rowid": "864068",
    "final_x": "3690763.69513",
    "final_y": "525981.665405",
    "longitude": "-90.03901655227057",
    "latitude": "29.939982648345435",
    "geocoded_column": {
      "latitude": "29.939982648345435",
      "longitude": "-90.03901655227057"
    }
  },
  {
    "service_request": "2022-864067",
    "request_type": "Trash/Recycling",
    "request_reason": "Request a Large Item Pick Up",
    "date_created": "2022-03-02T18:30:03.000",
    "date_modified": "2022-03-02T18:30:04.000",
    "request_status": "Pending",
    "responsible_agency": "Department of Sanitation",
    "final_address": "1416 Hendee St",
    "address_councildis": "C",
    "status": "Assigned to Contractor",
    "contractor": "Richards Disposal",
    "rowid": "864067",
    "final_x": "3690765.51356",
    "final_y": "526015.53555",
    "longitude": "-90.0390096033379",
    "latitude": "29.94007572321138",
    "geocoded_column": {
      "latitude": "29.94007572321138",
      "longitude": "-90.0390096033379"
    }
  },
  {
    "service_request": "2022-864066",
    "request_type": "Abandoned Vehicles",
    "request_reason": "Abandoned/Junk Vehicles",
    "date_created": "2022-03-02T18:29:00.000",
    "date_modified": "2022-03-02T18:29:00.000",
    "request_status": "Pending",
    "responsible_agency": "Department of Public Works",
    "final_address": "2021 Royal St",
    "address_councildis": "C",
    "status": "Pending",
    "rowid": "864066",
    "final_x": "3684527.59791",
    "final_y": "534848.98311",
    "longitude": "-90.05839331258237",
    "latitude": "29.964556970942553",
    "geocoded_column": {
      "latitude": "29.964556970942553",
      "longitude": "-90.05839331258237"
    }
  },
  {
    "service_request": "2022-864065",
    "request_type": "Trash/Recycling",
    "request_reason": "Missed Trash Pick-Up",
    "date_created": "2022-03-02T18:24:22.000",
    "date_modified": "2022-03-02T18:24:23.000",
    "request_status": "Pending",
    "responsible_agency": "Department of Sanitation",
    "final_address": "1032 Adams St",
    "address_councildis": "A",
    "status": "Assigned to Contractor",
    "contractor": "Richards Disposal",
    "rowid": "864065",
    "final_x": "3662729.62842",
    "final_y": "527087.770495",
    "longitude": "-90.12748797172529",
    "latitude": "29.943865042565374",
    "geocoded_column": {
      "latitude": "29.943865042565374",
      "longitude": "-90.12748797172529"
    }
  },
  {
    "service_request": "2022-864063",
    "request_type": "Trash/Recycling",
    "request_reason": "Missed Trash Pick-Up",
    "date_created": "2022-03-02T18:22:34.000",
    "date_modified": "2022-03-02T18:22:35.000",
    "request_status": "Pending",
    "responsible_agency": "Department of Sanitation",
    "final_address": "379 Broadway St",
    "address_councildis": "A",
    "status": "Assigned to Contractor",
    "contractor": "Richards Disposal",
    "rowid": "864063",
    "final_x": "3661974.07962",
    "final_y": "523113.353531",
    "longitude": "-90.13000523589692",
    "latitude": "29.932958496159685",
    "geocoded_column": {
      "latitude": "29.932958496159685",
      "longitude": "-90.13000523589692"
    }
  },
  {
    "service_request": "2022-864062",
    "request_type": "Safety & Permits",
    "request_reason": "Licenses & Permits",
    "date_created": "2022-03-02T18:18:48.000",
    "date_modified": "2022-03-02T18:18:49.000",
    "request_status": "Pending",
    "responsible_agency": "Safety and Permits",
    "final_address": "2377 Rousseau St",
    "address_councildis": "B",
    "status": "Pending",
    "rowid": "864062",
    "final_x": "3679361.64648",
    "final_y": "519686.39052",
    "longitude": "-90.07523274310176",
    "latitude": "29.923021928728236",
    "geocoded_column": {
      "latitude": "29.923021928728236",
      "longitude": "-90.07523274310176"
    }
  },
  {
    "service_request": "2022-864061",
    "request_type": "Trash/Recycling",
    "request_reason": "Request a Large Item Pick Up",
    "date_created": "2022-03-02T18:10:50.000",
    "date_modified": "2022-03-02T18:10:50.000",
    "request_status": "Pending",
    "responsible_agency": "Department of Sanitation",
    "final_address": "5614 Camp St",
    "address_councildis": "A",
    "status": "Assigned to Contractor",
    "contractor": "Richards Disposal",
    "rowid": "864061",
    "final_x": "3666049.89588",
    "final_y": "519212.656439",
    "longitude": "-90.11726882034654",
    "latitude": "29.92211448811807",
    "geocoded_column": {
      "latitude": "29.92211448811807",
      "longitude": "-90.11726882034654"
    }
  },
  {
    "service_request": "2022-864059",
    "request_type": "Trash/Recycling",
    "request_reason": "Start Trash Service",
    "date_created": "2022-03-02T18:02:36.000",
    "date_modified": "2022-03-02T18:02:37.000",
    "request_status": "Pending",
    "responsible_agency": "Department of Sanitation",
    "final_address": "4640 Bonita Dr",
    "address_councildis": "E",
    "status": "Assigned to Contractor",
    "contractor": "Metro Disposal",
    "rowid": "864059",
    "final_x": "3704491.77322",
    "final_y": "554657.494552",
    "longitude": "-89.99461757973802",
    "latitude": "30.01839708863543",
    "geocoded_column": {
      "latitude": "30.01839708863543",
      "longitude": "-89.99461757973802"
    }
  },
  {
    "service_request": "2022-864058",
    "request_type": "Trash/Recycling",
    "request_reason": "Order Trash Cart",
    "date_created": "2022-03-02T18:02:25.000",
    "date_modified": "2022-03-02T18:02:25.000",
    "request_status": "Pending",
    "responsible_agency": "Department of Sanitation",
    "final_address": "4640 Bonita Dr",
    "address_councildis": "E",
    "status": "Assigned to Contractor",
    "contractor": "Metro Disposal",
    "rowid": "864058",
    "final_x": "3704491.77322",
    "final_y": "554657.494552",
    "longitude": "-89.99461757973802",
    "latitude": "30.01839708863543",
    "geocoded_column": {
      "latitude": "30.01839708863543",
      "longitude": "-89.99461757973802"
    }
  },
  {
    "service_request": "2022-864057",
    "request_type": "Trash/Recycling",
    "request_reason": "Order Trash Cart",
    "date_created": "2022-03-02T18:02:05.000",
    "date_modified": "2022-03-02T18:02:06.000",
    "request_status": "Pending",
    "responsible_agency": "Department of Sanitation",
    "final_address": "4638 Bonita Dr",
    "address_councildis": "E",
    "status": "Assigned to Contractor",
    "contractor": "Metro Disposal",
    "rowid": "864057",
    "final_x": "3704492.07454",
    "final_y": "554634.759704",
    "longitude": "-89.9946174669359",
    "latitude": "30.01833456686869",
    "geocoded_column": {
      "latitude": "30.01833456686869",
      "longitude": "-89.9946174669359"
    }
  },
  {
    "service_request": "2022-864056",
    "request_type": "Trash/Recycling",
    "request_reason": "Start Trash Service",
    "date_created": "2022-03-02T18:01:45.000",
    "date_modified": "2022-03-02T18:01:47.000",
    "request_status": "Pending",
    "responsible_agency": "Department of Sanitation",
    "final_address": "4638 Bonita Dr",
    "address_councildis": "E",
    "status": "Assigned to Contractor",
    "contractor": "Metro Disposal",
    "rowid": "864056",
    "final_x": "3704492.07454",
    "final_y": "554634.759704",
    "longitude": "-89.9946174669359",
    "latitude": "30.01833456686869",
    "geocoded_column": {
      "latitude": "30.01833456686869",
      "longitude": "-89.9946174669359"
    }
  },
  {
    "service_request": "2022-864055",
    "request_type": "Trash/Recycling",
    "request_reason": "Missed Trash Pick-Up",
    "date_created": "2022-03-02T17:58:46.000",
    "date_modified": "2022-03-02T17:58:47.000",
    "request_status": "Pending",
    "responsible_agency": "Department of Sanitation",
    "final_address": "2416 Broadway St",
    "address_councildis": "A",
    "status": "Assigned to Contractor",
    "contractor": "Richards Disposal",
    "rowid": "864055",
    "final_x": "3666634.66746",
    "final_y": "530275.214657",
    "longitude": "-90.11505165675878",
    "latitude": "29.952515904601903",
    "geocoded_column": {
      "latitude": "29.952515904601903",
      "longitude": "-90.11505165675878"
    }
  },
  {
    "service_request": "2022-864054",
    "request_type": "Trash/Recycling",
    "request_reason": "Start Trash Service",
    "date_created": "2022-03-02T17:33:12.000",
    "date_modified": "2022-03-02T17:33:13.000",
    "request_status": "Pending",
    "responsible_agency": "Department of Sanitation",
    "final_address": "34 Fontainebleau Dr",
    "address_councildis": "A",
    "status": "Assigned to Contractor",
    "contractor": "Richards Disposal",
    "rowid": "864054",
    "final_x": "3665953.86042",
    "final_y": "531423.031235",
    "longitude": "-90.11716287710053",
    "latitude": "29.95569191209907",
    "geocoded_column": {
      "latitude": "29.95569191209907",
      "longitude": "-90.11716287710053"
    }
  },
  {
    "service_request": "2022-864053",
    "request_type": "Trash/Recycling",
    "request_reason": "Missed Trash Pick-Up",
    "date_created": "2022-03-02T17:21:43.000",
    "date_modified": "2022-03-02T17:21:44.000",
    "request_status": "Pending",
    "responsible_agency": "Department of Sanitation",
    "final_address": "225 Walnut St",
    "address_councildis": "A",
    "status": "Assigned to Contractor",
    "contractor": "Richards Disposal",
    "rowid": "864053",
    "final_x": "3661395.55418",
    "final_y": "521207.350969",
    "longitude": "-90.13189469890942",
    "latitude": "29.927734279295464",
    "geocoded_column": {
      "latitude": "29.927734279295464",
      "longitude": "-90.13189469890942"
    }
  },
  {
    "service_request": "2022-864052",
    "request_type": "Traffic Signals/Signs/Striping/Streetlights",
    "request_reason": "Traffic Signal Malfunctioning/Damaged",
    "date_created": "2022-03-02T17:21:03.000",
    "date_modified": "2022-03-02T17:21:04.000",
    "request_status": "Pending",
    "responsible_agency": "Department of Public Works",
    "final_address": "CHEF MENTEUR HWY & WILSON AVE",
    "address_councildis": "E",
    "status": "Pending",
    "rowid": "864052",
    "final_x": "3703240.7",
    "final_y": "552478.68",
    "longitude": "-89.99865066841369",
    "latitude": "30.0124463124892",
    "geocoded_column": {
      "latitude": "30.0124463124892",
      "longitude": "-89.99865066841369"
    }
  },
  {
    "service_request": "2022-864051",
    "request_type": "Trash/Recycling",
    "request_reason": "Request a Large Item Pick Up",
    "date_created": "2022-03-02T17:16:51.000",
    "date_modified": "2022-03-02T17:16:51.000",
    "request_status": "Pending",
    "responsible_agency": "Department of Sanitation",
    "final_address": "2435 First St",
    "address_councildis": "B",
    "status": "Assigned to Contractor",
    "contractor": "Richards Disposal",
    "rowid": "864051",
    "final_x": "3675228.47931",
    "final_y": "525888.432317",
    "longitude": "-90.08806680446573",
    "latitude": "29.94019966406219",
    "geocoded_column": {
      "latitude": "29.94019966406219",
      "longitude": "-90.08806680446573"
    }
  },
  {
    "service_request": "2022-864050",
    "request_type": "Trash/Recycling",
    "request_reason": "Request a Large Item Pick Up",
    "date_created": "2022-03-02T17:07:13.000",
    "date_modified": "2022-03-02T17:07:14.000",
    "request_status": "Pending",
    "responsible_agency": "Department of Sanitation",
    "final_address": "New Orleans, Louisiana",
    "status": "Assigned to Contractor",
    "rowid": "864050",
    "longitude": "0.0",
    "latitude": "0.0",
    "geocoded_column": {
      "latitude": "0.0",
      "longitude": "0.0"
    }
  },
  {
    "service_request": "2022-864049",
    "request_type": "Trash/Recycling",
    "request_reason": "Missed Trash Pick-Up",
    "date_created": "2022-03-02T17:04:04.000",
    "date_modified": "2022-03-02T17:04:05.000",
    "request_status": "Pending",
    "responsible_agency": "Department of Sanitation",
    "final_address": "4873 Tchoupitoulas St",
    "address_councildis": "B",
    "status": "Assigned to Contractor",
    "contractor": "Richards Disposal",
    "rowid": "864049",
    "final_x": "3669099.27002",
    "final_y": "517274.975029",
    "longitude": "-90.10770860895748",
    "latitude": "29.91669713685114",
    "geocoded_column": {
      "latitude": "29.91669713685114",
      "longitude": "-90.10770860895748"
    }
  },
  {
    "service_request": "2022-864048",
    "request_type": "Trash/Recycling",
    "request_reason": "Request a Large Item Pick Up",
    "date_created": "2022-03-02T16:58:42.000",
    "date_modified": "2022-03-02T16:58:43.000",
    "request_status": "Pending",
    "responsible_agency": "Department of Sanitation",
    "final_address": "1219 Frenchmen St, New Orleans, Louisiana, 70116",
    "address_councildis": "C",
    "status": "Assigned to Contractor",
    "contractor": "Metro Disposal",
    "rowid": "864048",
    "final_x": "3684579.25487",
    "final_y": "536801.129928",
    "longitude": "-90.05816157848079",
    "latitude": "29.96992311828069",
    "geocoded_column": {
      "latitude": "29.96992311828069",
      "longitude": "-90.05816157848079"
    }
  },
  {
    "service_request": "2022-864047",
    "request_type": "Trash/Recycling",
    "request_reason": "Missed Trash Pick-Up",
    "date_created": "2022-03-02T16:56:32.000",
    "date_modified": "2022-03-02T16:56:33.000",
    "request_status": "Pending",
    "responsible_agency": "Department of Sanitation",
    "final_address": "2610 Lowerline St",
    "address_councildis": "A",
    "status": "Assigned to Contractor",
    "contractor": "Richards Disposal",
    "rowid": "864047",
    "final_x": "3666554.79956",
    "final_y": "531267.441026",
    "longitude": "-90.11527053947395",
    "latitude": "29.955246538159813",
    "geocoded_column": {
      "latitude": "29.955246538159813",
      "longitude": "-90.11527053947395"
    }
  },
  {
    "service_request": "2022-864046",
    "request_type": "Trash/Recycling",
    "request_reason": "Order Trash Cart",
    "date_created": "2022-03-02T16:50:44.000",
    "date_modified": "2022-03-02T16:50:45.000",
    "request_status": "Pending",
    "responsible_agency": "Department of Sanitation",
    "final_address": "New Orleans,LA",
    "status": "Assigned to Contractor",
    "rowid": "864046",
    "longitude": "0.0",
    "latitude": "0.0",
    "geocoded_column": {
      "latitude": "0.0",
      "longitude": "0.0"
    }
  },
  {
    "service_request": "2022-864045",
    "request_type": "Mayor's Request",
    "request_reason": "Requests to the Mayor",
    "date_created": "2022-03-02T16:49:54.000",
    "date_modified": "2022-03-02T16:49:54.000",
    "request_status": "Pending",
    "responsible_agency": "Executive Office of the Mayor",
    "status": "Pending",
    "rowid": "864045",
    "longitude": "0.0",
    "latitude": "0.0",
    "geocoded_column": {
      "latitude": "0.0",
      "longitude": "0.0"
    }
  },
  {
    "service_request": "2022-864044",
    "request_type": "Trash/Recycling",
    "request_reason": "Missed Trash Pick-Up",
    "date_created": "2022-03-02T16:49:30.000",
    "date_modified": "2022-03-02T16:49:31.000",
    "request_status": "Pending",
    "responsible_agency": "Department of Sanitation",
    "final_address": "3900 BLK State Street Dr",
    "address_councildis": "B",
    "status": "Assigned to Contractor",
    "contractor": "Richards Disposal",
    "rowid": "864044",
    "final_x": "3668200.57006",
    "final_y": "530258.745044",
    "longitude": "-90.11010778678163",
    "latitude": "29.95242474642864",
    "geocoded_column": {
      "latitude": "29.95242474642864",
      "longitude": "-90.11010778678163"
    }
  },
  {
    "service_request": "2022-864043",
    "request_type": "Trash/Recycling",
    "request_reason": "Request a Large Item Pick Up",
    "date_created": "2022-03-02T16:41:49.000",
    "date_modified": "2022-03-02T16:41:50.000",
    "request_status": "Pending",
    "responsible_agency": "Department of Sanitation",
    "final_address": "3037 Robert St",
    "address_councildis": "B",
    "status": "Assigned to Contractor",
    "contractor": "Richards Disposal",
    "rowid": "864043",
    "final_x": "3668950.5897",
    "final_y": "526646.861822",
    "longitude": "-90.10786153310926",
    "latitude": "29.942471206773632",
    "geocoded_column": {
      "latitude": "29.942471206773632",
      "longitude": "-90.10786153310926"
    }
  },
  {
    "service_request": "2022-864042",
    "request_type": "Traffic Signals/Signs/Striping/Streetlights",
    "request_reason": "Traffic Sign Missing/Damaged",
    "date_created": "2022-03-02T16:38:42.000",
    "date_modified": "2022-03-02T16:38:42.000",
    "request_status": "Pending",
    "responsible_agency": "Department of Public Works",
    "final_address": "1131 Annunciation St",
    "address_councildis": "B",
    "status": "Pending",
    "rowid": "864042",
    "final_x": "3681484.31535",
    "final_y": "525859.677053",
    "longitude": "-90.06831717004344",
    "latitude": "29.939932173456224",
    "geocoded_column": {
      "latitude": "29.939932173456224",
      "longitude": "-90.06831717004344"
    }
  },
  {
    "service_request": "2022-864041",
    "request_type": "Trash/Recycling",
    "request_reason": "Request a Large Item Pick Up",
    "date_created": "2022-03-02T16:36:52.000",
    "date_modified": "2022-03-02T16:36:53.000",
    "request_status": "Pending",
    "responsible_agency": "Department of Sanitation",
    "final_address": "6035 Camp St",
    "address_councildis": "A",
    "status": "Assigned to Contractor",
    "contractor": "Richards Disposal",
    "rowid": "864041",
    "final_x": "3664522.59975",
    "final_y": "519749.266488",
    "longitude": "-90.12207197426896",
    "latitude": "29.92363447886401",
    "geocoded_column": {
      "latitude": "29.92363447886401",
      "longitude": "-90.12207197426896"
    }
  },
  {
    "service_request": "2022-864040",
    "request_type": "Trash/Recycling",
    "request_reason": "Request a Large Item Pick Up",
    "date_created": "2022-03-02T16:32:41.000",
    "date_modified": "2022-03-02T16:32:42.000",
    "request_status": "Pending",
    "responsible_agency": "Department of Sanitation",
    "final_address": "4135 Erickson Ave",
    "address_councildis": "C",
    "status": "Assigned to Contractor",
    "contractor": "Richards Disposal",
    "rowid": "864040",
    "final_x": "3701149.09674",
    "final_y": "519460.655671",
    "longitude": "-90.00646691617534",
    "latitude": "29.921725480052388",
    "geocoded_column": {
      "latitude": "29.921725480052388",
      "longitude": "-90.00646691617534"
    }
  },
  {
    "service_request": "2022-864039",
    "request_type": "Traffic Signals/Signs/Striping/Streetlights",
    "request_reason": "Street Light Outage/Malfunction",
    "date_created": "2022-03-02T16:31:42.000",
    "date_modified": "2022-03-02T16:31:43.000",
    "request_status": "Pending",
    "responsible_agency": "Department of Public Works",
    "final_address": "1967 Abundance St",
    "address_councildis": "D",
    "status": "Pending",
    "contractor": "Royal Engineering",
    "rowid": "864039",
    "final_x": "3682814.35765",
    "final_y": "543576.34395",
    "longitude": "-90.06349816613518",
    "latitude": "29.988606476549162",
    "geocoded_column": {
      "latitude": "29.988606476549162",
      "longitude": "-90.06349816613518"
    }
  },
  {
    "service_request": "2022-864038",
    "request_type": "Trash/Recycling",
    "request_reason": "MIssed Recycling Pick-Up",
    "date_created": "2022-03-02T16:29:11.000",
    "date_modified": "2022-03-02T16:29:12.000",
    "request_status": "Pending",
    "responsible_agency": "Department of Sanitation",
    "final_address": "1618 S Liberty St",
    "address_councildis": "B",
    "status": "Assigned to Contractor",
    "contractor": "Richards Disposal",
    "rowid": "864038",
    "final_x": "3676745.19873",
    "final_y": "526531.537982",
    "longitude": "-90.08325613022687",
    "latitude": "29.941922581934552",
    "geocoded_column": {
      "latitude": "29.941922581934552",
      "longitude": "-90.08325613022687"
    }
  },
  {
    "service_request": "2022-864037",
    "request_type": "Trash/Recycling",
    "request_reason": "Request a Large Item Pick Up",
    "date_created": "2022-03-02T16:27:49.000",
    "date_modified": "2022-03-02T16:27:49.000",
    "request_status": "Pending",
    "responsible_agency": "Department of Sanitation",
    "final_address": "3425 Joliet St",
    "address_councildis": "A",
    "status": "Assigned to Contractor",
    "contractor": "Richards Disposal",
    "rowid": "864037",
    "final_x": "3666307.98004",
    "final_y": "535201.99847",
    "longitude": "-90.11591790807896",
    "latitude": "29.96607249038967",
    "geocoded_column": {
      "latitude": "29.96607249038967",
      "longitude": "-90.11591790807896"
    }
  },
  {
    "service_request": "2022-864036",
    "request_type": "Trash/Recycling",
    "request_reason": "Illegal Dumping",
    "date_created": "2022-03-02T16:11:53.000",
    "date_modified": "2022-03-02T16:11:53.000",
    "request_status": "Pending",
    "responsible_agency": "Department of Code Enforcement",
    "final_address": "2338 Touro St",
    "address_councildis": "D",
    "status": "Pending",
    "rowid": "864036",
    "final_x": "3683825.22242",
    "final_y": "540979.843979",
    "longitude": "-90.06039627669566",
    "latitude": "29.981436175686433",
    "geocoded_column": {
      "latitude": "29.981436175686433",
      "longitude": "-90.06039627669566"
    }
  },
  {
    "service_request": "2022-864035",
    "request_type": "Parks & Parkways",
    "request_reason": "Request Tree Service (Right of Way/Public Property)",
    "date_created": "2022-03-02T16:10:35.000",
    "date_modified": "2022-03-02T16:10:35.000",
    "request_status": "Pending",
    "responsible_agency": "Department of Parks & Parkway",
    "final_address": "106 Maumus Ave",
    "address_councildis": "C",
    "status": "Pending",
    "rowid": "864035",
    "final_x": "3705787.83665",
    "final_y": "516847.803701",
    "longitude": "-89.99192107566446",
    "latitude": "29.91439252582104",
    "geocoded_column": {
      "latitude": "29.91439252582104",
      "longitude": "-89.99192107566446"
    }
  },
  {
    "service_request": "2022-864034",
    "request_type": "Parks & Parkways",
    "request_reason": "Request Tree Service (Right of Way/Public Property)",
    "date_created": "2022-03-02T16:10:35.000",
    "date_modified": "2022-03-02T16:10:35.000",
    "request_status": "Pending",
    "responsible_agency": "Department of Parks & Parkway",
    "final_address": "106 Maumus Ave",
    "address_councildis": "C",
    "status": "Pending",
    "rowid": "864034",
    "final_x": "3705787.83665",
    "final_y": "516847.803701",
    "longitude": "-89.99192107566446",
    "latitude": "29.91439252582104",
    "geocoded_column": {
      "latitude": "29.91439252582104",
      "longitude": "-89.99192107566446"
    }
  },
  {
    "service_request": "2022-864033",
    "request_type": "Trash/Recycling",
    "request_reason": "Order Trash Cart",
    "date_created": "2022-03-02T16:07:12.000",
    "date_modified": "2022-03-02T16:07:13.000",
    "request_status": "Pending",
    "responsible_agency": "Department of Sanitation",
    "final_address": "3033 Robert St",
    "address_councildis": "B",
    "status": "Assigned to Contractor",
    "contractor": "Richards Disposal",
    "rowid": "864033",
    "final_x": "3668948.64116",
    "final_y": "526610.991678",
    "longitude": "-90.10786889631333",
    "latitude": "29.942372632794417",
    "geocoded_column": {
      "latitude": "29.942372632794417",
      "longitude": "-90.10786889631333"
    }
  },
  {
    "service_request": "2022-864032",
    "request_type": "Trash/Recycling",
    "request_reason": "Request a Large Item Pick Up",
    "date_created": "2022-03-02T16:02:38.000",
    "date_modified": "2022-03-02T16:02:39.000",
    "request_status": "Pending",
    "responsible_agency": "Department of Sanitation",
    "final_address": "7724 Vincent Rd",
    "address_councildis": "E",
    "status": "Assigned to Contractor",
    "contractor": "Metro Disposal",
    "rowid": "864032",
    "final_x": "3717991.40517",
    "final_y": "572021.8506",
    "longitude": "-89.95130250650108",
    "latitude": "30.065701414732306",
    "geocoded_column": {
      "latitude": "30.065701414732306",
      "longitude": "-89.95130250650108"
    }
  },
  {
    "service_request": "2022-864031",
    "request_type": "Trash/Recycling",
    "request_reason": "Request a Large Item Pick Up",
    "date_created": "2022-03-02T16:00:49.000",
    "date_modified": "2022-03-02T16:00:51.000",
    "request_status": "Pending",
    "responsible_agency": "Department of Sanitation",
    "final_address": "613 Philip St",
    "address_councildis": "B",
    "status": "Assigned to Contractor",
    "contractor": "Richards Disposal",
    "rowid": "864031",
    "final_x": "3679607.55874",
    "final_y": "520512.309688",
    "longitude": "-90.07442784981517",
    "latitude": "29.92528551072822",
    "geocoded_column": {
      "latitude": "29.92528551072822",
      "longitude": "-90.07442784981517"
    }
  },
  {
    "service_request": "2022-864030",
    "request_type": "Roads/Drainage",
    "request_reason": "Pothole",
    "date_created": "2022-03-02T15:59:42.000",
    "date_modified": "2022-03-02T15:59:42.000",
    "request_status": "Pending",
    "responsible_agency": "Department of Public Works",
    "final_address": "712 Arabella St",
    "address_councildis": "A",
    "status": "Pending",
    "rowid": "864030",
    "final_x": "3665739.976",
    "final_y": "518731.771767",
    "longitude": "-90.11826320908037",
    "latitude": "29.920801246509168",
    "geocoded_column": {
      "latitude": "29.920801246509168",
      "longitude": "-90.11826320908037"
    }
  },
  {
    "service_request": "2022-864029",
    "request_type": "Roads/Drainage",
    "request_reason": "Street Subsidence (Sinking)",
    "date_created": "2022-03-02T15:57:21.000",
    "date_modified": "2022-03-02T15:57:21.000",
    "request_status": "Pending",
    "responsible_agency": "Department of Public Works",
    "final_address": "4314 Annunciation St, New Orleans, Louisiana, 70115",
    "address_councildis": "B",
    "status": "Pending",
    "rowid": "864029",
    "final_x": "3671425.02331",
    "final_y": "517743.383094",
    "longitude": "-90.10035164522479",
    "latitude": "29.917916502197677",
    "geocoded_column": {
      "latitude": "29.917916502197677",
      "longitude": "-90.10035164522479"
    }
  },
  {
    "service_request": "2022-864028",
    "request_type": "Trash/Recycling",
    "request_reason": "Order Recycling Cart",
    "date_created": "2022-03-02T15:50:08.000",
    "date_modified": "2022-03-02T15:50:08.000",
    "request_status": "Pending",
    "responsible_agency": "Department of Sanitation",
    "final_address": "7211 Westhaven Rd",
    "address_councildis": "E",
    "status": "Pending",
    "rowid": "864028",
    "final_x": "3703629.33335",
    "final_y": "560383.41955",
    "longitude": "-89.9971315770522",
    "latitude": "30.034168841605336",
    "geocoded_column": {
      "latitude": "30.034168841605336",
      "longitude": "-89.9971315770522"
    }
  },
  {
    "service_request": "2022-864027",
    "request_type": "Trash/Recycling",
    "request_reason": "Order Trash Cart",
    "date_created": "2022-03-02T15:49:50.000",
    "date_modified": "2022-03-02T15:49:51.000",
    "request_status": "Pending",
    "responsible_agency": "Department of Sanitation",
    "final_address": "7211 Westhaven Rd",
    "address_councildis": "E",
    "status": "Assigned to Contractor",
    "contractor": "Metro Disposal",
    "rowid": "864027",
    "final_x": "3703629.33335",
    "final_y": "560383.41955",
    "longitude": "-89.9971315770522",
    "latitude": "30.034168841605336",
    "geocoded_column": {
      "latitude": "30.034168841605336",
      "longitude": "-89.9971315770522"
    }
  },
  {
    "service_request": "2022-864026",
    "request_type": "Trash/Recycling",
    "request_reason": "Start Trash Service",
    "date_created": "2022-03-02T15:49:41.000",
    "date_modified": "2022-03-02T15:49:41.000",
    "request_status": "Pending",
    "responsible_agency": "Department of Sanitation",
    "final_address": "7211 Westhaven Rd",
    "address_councildis": "E",
    "status": "Assigned to Contractor",
    "contractor": "Metro Disposal",
    "rowid": "864026",
    "final_x": "3703629.33335",
    "final_y": "560383.41955",
    "longitude": "-89.9971315770522",
    "latitude": "30.034168841605336",
    "geocoded_column": {
      "latitude": "30.034168841605336",
      "longitude": "-89.9971315770522"
    }
  },
  {
    "service_request": "2022-864025",
    "request_type": "Tax and Revenue",
    "request_reason": "Sales Tax Question",
    "date_created": "2022-03-02T15:47:27.000",
    "date_modified": "2022-03-02T16:24:39.000",
    "request_status": "Pending",
    "responsible_agency": "Bureau of Revenue",
    "final_address": "New Orleans,LA",
    "rowid": "864025",
    "longitude": "0.0",
    "latitude": "0.0",
    "geocoded_column": {
      "latitude": "0.0",
      "longitude": "0.0"
    }
  },
  {
    "service_request": "2022-864024",
    "request_type": "Roads/Drainage",
    "request_reason": "Damaged Sidewalk",
    "date_created": "2022-03-02T15:42:40.000",
    "date_modified": "2022-03-02T15:42:40.000",
    "request_status": "Pending",
    "responsible_agency": "Department of Public Works",
    "final_address": "6338 Music St",
    "address_councildis": "D",
    "status": "Pending",
    "rowid": "864024",
    "final_x": "3685155.99759",
    "final_y": "556560.127066",
    "longitude": "-90.05564436220845",
    "latitude": "30.024235607498646",
    "geocoded_column": {
      "latitude": "30.024235607498646",
      "longitude": "-90.05564436220845"
    }
  },
  {
    "service_request": "2022-864023",
    "request_type": "Trash/Recycling",
    "request_reason": "Replace Trash Cart",
    "date_created": "2022-03-02T15:41:26.000",
    "date_modified": "2022-03-02T15:41:27.000",
    "request_status": "Pending",
    "responsible_agency": "Department of Sanitation",
    "final_address": "8808 Apricot St",
    "address_councildis": "A",
    "status": "Assigned to Contractor",
    "contractor": "Richards Disposal",
    "rowid": "864023",
    "final_x": "3663893.39002",
    "final_y": "534329.059717",
    "longitude": "-90.12357226177183",
    "latitude": "29.963742514839",
    "geocoded_column": {
      "latitude": "29.963742514839",
      "longitude": "-90.12357226177183"
    }
  },
  {
    "service_request": "2022-864021",
    "request_type": "Trash/Recycling",
    "request_reason": "Replace Trash Cart",
    "date_created": "2022-03-02T15:37:51.000",
    "date_modified": "2022-03-02T15:37:51.000",
    "request_status": "Pending",
    "responsible_agency": "Department of Sanitation",
    "final_address": "2445 Charbonnet St",
    "address_councildis": "E",
    "status": "Assigned to Contractor",
    "contractor": "Metro Disposal",
    "rowid": "864021",
    "final_x": "3700065.72612",
    "final_y": "538809.251465",
    "longitude": "-90.00918083681147",
    "latitude": "29.974961751697144",
    "geocoded_column": {
      "latitude": "29.974961751697144",
      "longitude": "-90.00918083681147"
    }
  },
  {
    "service_request": "2022-864019",
    "request_type": "Trash/Recycling",
    "request_reason": "Missed Trash Pick-Up",
    "date_created": "2022-03-02T15:35:40.000",
    "date_modified": "2022-03-02T15:35:41.000",
    "request_status": "Pending",
    "responsible_agency": "Department of Sanitation",
    "final_address": "237 Adams St",
    "address_councildis": "A",
    "status": "Assigned to Contractor",
    "contractor": "Richards Disposal",
    "rowid": "864019",
    "final_x": "3660917.43552",
    "final_y": "524980.091837",
    "longitude": "-90.13327928222685",
    "latitude": "29.938121908461333",
    "geocoded_column": {
      "latitude": "29.938121908461333",
      "longitude": "-90.13327928222685"
    }
  },
  {
    "service_request": "2022-864018",
    "request_type": "Trash/Recycling",
    "request_reason": "Missed Trash Pick-Up",
    "date_created": "2022-03-02T15:28:12.000",
    "date_modified": "2022-03-02T15:28:13.000",
    "request_status": "Pending",
    "responsible_agency": "Department of Sanitation",
    "final_address": "625 Lowerline St",
    "address_councildis": "A",
    "status": "Assigned to Contractor",
    "contractor": "Richards Disposal",
    "rowid": "864018",
    "final_x": "3662696.29882",
    "final_y": "525189.753853",
    "longitude": "-90.12765625785514",
    "latitude": "29.938647065437827",
    "geocoded_column": {
      "latitude": "29.938647065437827",
      "longitude": "-90.12765625785514"
    }
  },
  {
    "service_request": "2022-864017",
    "request_type": "Mayor's Request",
    "request_reason": "Requests to the Mayor",
    "date_created": "2022-03-02T15:25:38.000",
    "date_modified": "2022-03-02T15:25:38.000",
    "request_status": "Pending",
    "responsible_agency": "Executive Office of the Mayor",
    "status": "Pending",
    "rowid": "864017",
    "longitude": "0.0",
    "latitude": "0.0",
    "geocoded_column": {
      "latitude": "0.0",
      "longitude": "0.0"
    }
  },
  {
    "service_request": "2022-864016",
    "request_type": "Trash/Recycling",
    "request_reason": "Illegal Dumping",
    "date_created": "2022-03-02T15:23:57.000",
    "date_modified": "2022-03-02T15:23:57.000",
    "request_status": "Pending",
    "responsible_agency": "Department of Sanitation",
    "final_address": "2929 Banks St",
    "address_councildis": "B",
    "status": "Pending",
    "rowid": "864016",
    "final_x": "3673717.87054",
    "final_y": "534917.360774",
    "longitude": "-90.0925273570839",
    "latitude": "29.965071278101945",
    "geocoded_column": {
      "latitude": "29.965071278101945",
      "longitude": "-90.0925273570839"
    }
  },
  {
    "service_request": "2022-864015",
    "request_type": "Trash/Recycling",
    "request_reason": "Replace Trash Cart",
    "date_created": "2022-03-02T15:21:26.000",
    "date_modified": "2022-03-02T15:21:27.000",
    "request_status": "Pending",
    "responsible_agency": "Department of Sanitation",
    "final_address": "30 Audubon Blvd",
    "address_councildis": "A",
    "status": "Assigned to Contractor",
    "contractor": "Richards Disposal",
    "rowid": "864015",
    "final_x": "3665341.69831",
    "final_y": "527126.731647",
    "longitude": "-90.11923961938602",
    "latitude": "29.94389633018863",
    "geocoded_column": {
      "latitude": "29.94389633018863",
      "longitude": "-90.11923961938602"
    }
  },
  {
    "service_request": "2022-864014",
    "request_type": "Trash/Recycling",
    "request_reason": "Replace Trash Cart",
    "date_created": "2022-03-02T15:09:56.000",
    "date_modified": "2022-03-02T15:09:57.000",
    "request_status": "Pending",
    "responsible_agency": "Department of Sanitation",
    "final_address": "919 Fourth St",
    "address_councildis": "B",
    "status": "Assigned to Contractor",
    "contractor": "Richards Disposal",
    "rowid": "864014",
    "final_x": "3677664.15278",
    "final_y": "520534.55564",
    "longitude": "-90.08056180400247",
    "latitude": "29.925405247045102",
    "geocoded_column": {
      "latitude": "29.925405247045102",
      "longitude": "-90.08056180400247"
    }
  },
  {
    "service_request": "2022-864013",
    "request_type": "Trash/Recycling",
    "request_reason": "Replace Trash Cart",
    "date_created": "2022-03-02T15:07:14.000",
    "date_modified": "2022-03-02T15:07:16.000",
    "request_status": "Pending",
    "responsible_agency": "Department of Sanitation",
    "final_address": "2223 Fourth St",
    "address_councildis": "B",
    "status": "Assigned to Contractor",
    "contractor": "Richards Disposal",
    "rowid": "864013",
    "final_x": "3674924.62043",
    "final_y": "524668.757564",
    "longitude": "-90.08906795030173",
    "latitude": "29.936855034227783",
    "geocoded_column": {
      "latitude": "29.936855034227783",
      "longitude": "-90.08906795030173"
    }
  },
  {
    "service_request": "2022-864012",
    "request_type": "Trash/Recycling",
    "request_reason": "Order Recycling Cart",
    "date_created": "2022-03-02T15:03:09.000",
    "date_modified": "2022-03-02T15:03:09.000",
    "request_status": "Pending",
    "responsible_agency": "Department of Sanitation",
    "final_address": "1045 Verret St",
    "address_councildis": "C",
    "status": "Pending",
    "rowid": "864012",
    "final_x": "3687225.43247",
    "final_y": "527621.324607",
    "longitude": "-90.05012937551287",
    "latitude": "29.944600578311164",
    "geocoded_column": {
      "latitude": "29.944600578311164",
      "longitude": "-90.05012937551287"
    }
  },
  {
    "service_request": "2022-864011",
    "request_type": "Abandoned Vehicles",
    "request_reason": "Abandoned/Junk Vehicles",
    "date_created": "2022-03-02T14:55:42.000",
    "date_modified": "2022-03-02T14:59:01.000",
    "request_status": "Pending",
    "responsible_agency": "Department of Public Works",
    "final_address": "2311 S Johnson St",
    "address_councildis": "B",
    "status": "Pending",
    "rowid": "864011",
    "final_x": "3673605.37768",
    "final_y": "528728.905664",
    "longitude": "-90.09309413181799",
    "latitude": "29.948058436115023",
    "geocoded_column": {
      "latitude": "29.948058436115023",
      "longitude": "-90.09309413181799"
    }
  },
  {
    "service_request": "2022-864010",
    "request_type": "Trash/Recycling",
    "request_reason": "Request a Large Item Pick Up",
    "date_created": "2022-03-02T14:53:12.000",
    "date_modified": "2022-03-02T14:53:13.000",
    "request_status": "Pending",
    "responsible_agency": "Department of Sanitation",
    "final_address": "4625 Chestnut St",
    "address_councildis": "B",
    "status": "Assigned to Contractor",
    "contractor": "Richards Disposal",
    "rowid": "864010",
    "final_x": "3670016.20257",
    "final_y": "519486.273207",
    "longitude": "-90.10473954483835",
    "latitude": "29.922750506996362",
    "geocoded_column": {
      "latitude": "29.922750506996362",
      "longitude": "-90.10473954483835"
    }
  },
  {
    "service_request": "2022-864009",
    "request_type": "Roads/Drainage",
    "request_reason": "Pothole",
    "date_created": "2022-03-02T14:51:01.000",
    "date_modified": "2022-03-02T14:51:01.000",
    "request_status": "Pending",
    "responsible_agency": "Department of Public Works",
    "final_address": "1155 Eagle St",
    "address_councildis": "A",
    "status": "Pending",
    "rowid": "864009",
    "final_x": "3660102.93216",
    "final_y": "529810.155969",
    "longitude": "-90.13569137375498",
    "latitude": "29.951426481453346",
    "geocoded_column": {
      "latitude": "29.951426481453346",
      "longitude": "-90.13569137375498"
    }
  },
  {
    "service_request": "2022-864008",
    "request_type": "Traffic Signals/Signs/Striping/Streetlights",
    "request_reason": "Additional signage",
    "date_created": "2022-03-02T14:50:59.000",
    "date_modified": "2022-03-02T14:50:59.000",
    "request_status": "Pending",
    "responsible_agency": "Department of Public Works",
    "final_address": "1118 Elysian Fields Ave",
    "address_councildis": "C",
    "status": "Pending",
    "rowid": "864008",
    "final_x": "3684856.69948",
    "final_y": "536457.635719",
    "longitude": "-90.05729746360124",
    "latitude": "29.968970135762046",
    "geocoded_column": {
      "latitude": "29.968970135762046",
      "longitude": "-90.05729746360124"
    }
  },
  {
    "service_request": "2022-864007",
    "request_type": "Safety & Permits",
    "request_reason": "Licenses & Permits",
    "date_created": "2022-03-02T14:49:31.000",
    "date_modified": "2022-03-02T17:01:29.000",
    "request_status": "Pending",
    "responsible_agency": "Safety and Permits",
    "final_address": "New Orleans,LA",
    "address_councildis": "C",
    "rowid": "864007",
    "final_x": "3683066.1",
    "final_y": "532554.28",
    "longitude": "-90.06308894292094",
    "latitude": "29.95829195672603",
    "geocoded_column": {
      "latitude": "29.95829195672603",
      "longitude": "-90.06308894292094"
    }
  },
  {
    "service_request": "2022-864006",
    "request_type": "Roads/Drainage",
    "request_reason": "Pothole",
    "date_created": "2022-03-02T14:48:58.000",
    "date_modified": "2022-03-02T14:48:58.000",
    "request_status": "Pending",
    "responsible_agency": "Department of Public Works",
    "final_address": "5931 St Charles Ave",
    "address_councildis": "A",
    "status": "Pending",
    "rowid": "864006",
    "final_x": "3665886.53236",
    "final_y": "522492.169274",
    "longitude": "-90.11767466464067",
    "latitude": "29.93113687975978",
    "geocoded_column": {
      "latitude": "29.93113687975978",
      "longitude": "-90.11767466464067"
    }
  },
  {
    "service_request": "2022-864005",
    "request_type": "Traffic Signals/Signs/Striping/Streetlights",
    "request_reason": "Street Light Outage/Malfunction",
    "date_created": "2022-03-02T14:48:53.000",
    "date_modified": "2022-03-02T14:48:54.000",
    "request_status": "Pending",
    "responsible_agency": "Department of Public Works",
    "final_address": "4420 Dodt Ave",
    "address_councildis": "E",
    "status": "Pending",
    "contractor": "Royal Engineering",
    "rowid": "864005",
    "final_x": "3705532.23844",
    "final_y": "553518.163031",
    "longitude": "-89.99137228024391",
    "latitude": "30.015230899850938",
    "geocoded_column": {
      "latitude": "30.015230899850938",
      "longitude": "-89.99137228024391"
    }
  },
  {
    "service_request": "2022-864004",
    "request_type": "Trash/Recycling",
    "request_reason": "Replace Trash Cart",
    "date_created": "2022-03-02T14:46:04.000",
    "date_modified": "2022-03-02T14:46:04.000",
    "request_status": "Pending",
    "responsible_agency": "Department of Sanitation",
    "final_address": "5613 Annunciation St",
    "address_councildis": "A",
    "status": "Assigned to Contractor",
    "contractor": "Richards Disposal",
    "rowid": "864004",
    "final_x": "3665705.94426",
    "final_y": "517601.013622",
    "longitude": "-90.11840847703158",
    "latitude": "29.917693007564562",
    "geocoded_column": {
      "latitude": "29.917693007564562",
      "longitude": "-90.11840847703158"
    }
  },
  {
    "service_request": "2022-864003",
    "request_type": "Abandoned Vehicles",
    "request_reason": "Abandoned/Junk Vehicles",
    "date_created": "2022-03-02T14:36:17.000",
    "date_modified": "2022-03-02T14:36:17.000",
    "request_status": "Pending",
    "responsible_agency": "Department of Public Works",
    "final_address": "226 N Norman C Francis Prkwy",
    "address_councildis": "B",
    "status": "Pending",
    "rowid": "864003",
    "final_x": "3673702.9586",
    "final_y": "537129.463496",
    "longitude": "-90.09249879985602",
    "latitude": "29.971154257954677",
    "geocoded_column": {
      "latitude": "29.971154257954677",
      "longitude": "-90.09249879985602"
    }
  },
  {
    "service_request": "2022-864002",
    "request_type": "Property Maintenance",
    "request_reason": "Property Maintenance",
    "date_created": "2022-03-02T14:35:06.000",
    "date_modified": "2022-03-02T14:35:06.000",
    "request_status": "Pending",
    "responsible_agency": "Department of Code Enforcement",
    "final_address": "7106 Warfield St",
    "address_councildis": "E",
    "status": "Pending",
    "rowid": "864002",
    "final_x": "3701475.44906",
    "final_y": "552991.412887",
    "longitude": "-90.00420904864657",
    "latitude": "30.01391255239277",
    "geocoded_column": {
      "latitude": "30.01391255239277",
      "longitude": "-90.00420904864657"
    }
  },
  {
    "service_request": "2022-864001",
    "request_type": "Property Maintenance",
    "request_reason": "Property Maintenance",
    "date_created": "2022-03-02T14:34:48.000",
    "date_modified": "2022-03-02T14:34:48.000",
    "request_status": "Pending",
    "responsible_agency": "Department of Code Enforcement",
    "final_address": "11755 Chef Menteur Hwy",
    "address_councildis": "E",
    "status": "Pending",
    "rowid": "864001",
    "final_x": "3719159.97906",
    "final_y": "557090.575898",
    "longitude": "-89.94817911175872",
    "latitude": "30.02460772396782",
    "geocoded_column": {
      "latitude": "30.02460772396782",
      "longitude": "-89.94817911175872"
    }
  },
  {
    "service_request": "2022-864000",
    "request_type": "Property Maintenance",
    "request_reason": "Property Maintenance",
    "date_created": "2022-03-02T14:29:34.000",
    "date_modified": "2022-03-02T14:29:34.000",
    "request_status": "Pending",
    "responsible_agency": "Department of Code Enforcement",
    "final_address": "13056 Laval St",
    "address_councildis": "E",
    "status": "Pending",
    "rowid": "864000",
    "final_x": "3723995.74566",
    "final_y": "562389.665951",
    "longitude": "-89.9326944643854",
    "latitude": "30.039016435992693",
    "geocoded_column": {
      "latitude": "30.039016435992693",
      "longitude": "-89.9326944643854"
    }
  },
  {
    "service_request": "2022-863999",
    "request_type": "Safety & Permits",
    "request_reason": "Licenses & Permits",
    "date_created": "2022-03-02T14:28:14.000",
    "date_modified": "2022-03-02T14:28:14.000",
    "request_status": "Pending",
    "responsible_agency": "Safety and Permits",
    "final_address": "927 N Galvez St",
    "address_councildis": "D",
    "status": "Pending",
    "rowid": "863999",
    "final_x": "3678862.4948",
    "final_y": "536513.505031",
    "longitude": "-90.07622562575192",
    "latitude": "29.96930594341322",
    "geocoded_column": {
      "latitude": "29.96930594341322",
      "longitude": "-90.07622562575192"
    }
  },
  {
    "service_request": "2022-863998",
    "request_type": "Trash/Recycling",
    "request_reason": "Request a Large Item Pick Up",
    "date_created": "2022-03-02T14:27:33.000",
    "date_modified": "2022-03-02T14:27:33.000",
    "request_status": "Pending",
    "responsible_agency": "Department of Sanitation",
    "final_address": "4533 Lafon Dr",
    "address_councildis": "E",
    "status": "Assigned to Contractor",
    "contractor": "Metro Disposal",
    "rowid": "863998",
    "final_x": "3701336.29085",
    "final_y": "553141.102551",
    "longitude": "-90.00464323037744",
    "latitude": "30.01432857973379",
    "geocoded_column": {
      "latitude": "30.01432857973379",
      "longitude": "-90.00464323037744"
    }
  },
  {
    "service_request": "2022-863997",
    "request_type": "Trash/Recycling",
    "request_reason": "Replace Trash Cart",
    "date_created": "2022-03-02T14:25:46.000",
    "date_modified": "2022-03-02T14:25:47.000",
    "request_status": "Pending",
    "responsible_agency": "Department of Sanitation",
    "final_address": "1319 Port St",
    "address_councildis": "C",
    "status": "Assigned to Contractor",
    "contractor": "Metro Disposal",
    "rowid": "863997",
    "final_x": "3687757.91836",
    "final_y": "537246.29908",
    "longitude": "-90.04810730975983",
    "latitude": "29.971049527294447",
    "geocoded_column": {
      "latitude": "29.971049527294447",
      "longitude": "-90.04810730975983"
    }
  },
  {
    "service_request": "2022-863996",
    "request_type": "Roads/Drainage",
    "request_reason": "Debris in Roadway",
    "date_created": "2022-03-02T14:23:46.000",
    "date_modified": "2022-03-02T14:23:46.000",
    "request_status": "Pending",
    "responsible_agency": "Department of Public Works",
    "final_address": "1021 Louisa St",
    "address_councildis": "C",
    "status": "Pending",
    "rowid": "863996",
    "final_x": "3689528.10268",
    "final_y": "535581.857286",
    "longitude": "-90.04257606470674",
    "latitude": "29.966418182970468",
    "geocoded_column": {
      "latitude": "29.966418182970468",
      "longitude": "-90.04257606470674"
    }
  },
  {
    "service_request": "2022-863995",
    "request_type": "Roads/Drainage",
    "request_reason": "Pothole",
    "date_created": "2022-03-02T14:08:55.000",
    "date_modified": "2022-03-02T14:08:55.000",
    "request_status": "Pending",
    "responsible_agency": "Department of Public Works",
    "final_address": "1500 BLK Mithra St",
    "address_councildis": "D",
    "status": "Pending",
    "rowid": "863995",
    "final_x": "3678807.38907",
    "final_y": "552193.106359",
    "longitude": "-90.07585623634519",
    "latitude": "30.01242100607039",
    "geocoded_column": {
      "latitude": "30.01242100607039",
      "longitude": "-90.07585623634519"
    }
  },
  {
    "service_request": "2022-863994",
    "request_type": "Safety & Permits",
    "request_reason": "Licenses & Permits",
    "date_created": "2022-03-02T14:05:57.000",
    "date_modified": "2022-03-02T15:57:41.000",
    "request_status": "Pending",
    "responsible_agency": "Safety and Permits",
    "final_address": "4957 Venus St",
    "address_councildis": "D",
    "status": "Wrong Agency",
    "rowid": "863994",
    "final_x": "3686505.49826",
    "final_y": "551473.950421",
    "longitude": "-90.05155997673839",
    "latitude": "30.010209051207404",
    "geocoded_column": {
      "latitude": "30.010209051207404",
      "longitude": "-90.05155997673839"
    }
  },
  {
    "service_request": "2022-863993",
    "request_type": "Trash/Recycling",
    "request_reason": "Illegal Dumping",
    "date_created": "2022-03-02T14:03:32.000",
    "date_modified": "2022-03-02T14:03:32.000",
    "request_status": "Pending",
    "responsible_agency": "Department of Sanitation",
    "final_address": "1201 Oretha Castle Haley Blvd",
    "address_councildis": "B",
    "status": "Pending",
    "rowid": "863993",
    "final_x": "3678429.03189",
    "final_y": "527070.588798",
    "longitude": "-90.07792126684954",
    "latitude": "29.94335417378562",
    "geocoded_column": {
      "latitude": "29.94335417378562",
      "longitude": "-90.07792126684954"
    }
  },
  {
    "service_request": "2022-863992",
    "request_type": "Abandoned Vehicles",
    "request_reason": "Abandoned/Junk Vehicles",
    "date_created": "2022-03-02T13:58:39.000",
    "date_modified": "2022-03-02T15:00:43.000",
    "case_close_date": "2022-03-01T18:00:00.000",
    "request_status": "Closed",
    "responsible_agency": "Department of Public Works",
    "final_address": "BASIN ST & BIENVILLE ST",
    "address_councildis": "C",
    "status": "Inspected",
    "rowid": "863992",
    "final_x": "3680243.4",
    "final_y": "532383.38",
    "longitude": "-90.07200820048608",
    "latitude": "29.957907779103575",
    "geocoded_column": {
      "latitude": "29.957907779103575",
      "longitude": "-90.07200820048608"
    }
  },
  {
    "service_request": "2022-863990",
    "request_type": "Trash/Recycling",
    "request_reason": "Request a Large Item Pick Up",
    "date_created": "2022-03-02T13:47:22.000",
    "date_modified": "2022-03-02T13:47:27.000",
    "request_status": "Pending",
    "responsible_agency": "Department of Sanitation",
    "final_address": "2706 Castiglione St",
    "address_councildis": "D",
    "status": "Assigned to Contractor",
    "contractor": "Metro Disposal",
    "rowid": "863990",
    "final_x": "3679843.25307",
    "final_y": "541864.194508",
    "longitude": "-90.07294244452576",
    "latitude": "29.98398886554335",
    "geocoded_column": {
      "latitude": "29.98398886554335",
      "longitude": "-90.07294244452576"
    }
  },
  {
    "service_request": "2022-863989",
    "request_type": "Trash/Recycling",
    "request_reason": "Repair Trash Cart",
    "date_created": "2022-03-02T13:44:40.000",
    "date_modified": "2022-03-02T13:44:41.000",
    "request_status": "Pending",
    "responsible_agency": "Department of Sanitation",
    "final_address": "818 Bordeaux St",
    "address_councildis": "B",
    "status": "Assigned to Contractor",
    "contractor": "Richards Disposal",
    "rowid": "863989",
    "final_x": "3669564.27969",
    "final_y": "518429.819446",
    "longitude": "-90.10620180454744",
    "latitude": "29.919858909799583",
    "geocoded_column": {
      "latitude": "29.919858909799583",
      "longitude": "-90.10620180454744"
    }
  },
  {
    "service_request": "2022-863988",
    "request_type": "Health Related Questions",
    "request_reason": "Smoke-Free Ordinance Complaint",
    "date_created": "2022-03-02T13:42:39.000",
    "date_modified": "2022-03-02T13:42:40.000",
    "request_status": "Pending",
    "responsible_agency": "Health Department",
    "final_address": "3233 N Galvez St",
    "address_councildis": "D",
    "status": "Pending",
    "rowid": "863988",
    "final_x": "3690762.1384",
    "final_y": "539607.714314",
    "longitude": "-90.03853534833276",
    "latitude": "29.977449586476123",
    "geocoded_column": {
      "latitude": "29.977449586476123",
      "longitude": "-90.03853534833276"
    }
  },
  {
    "service_request": "2022-863987",
    "request_type": "Abandoned Vehicles",
    "request_reason": "Abandoned/Junk Vehicles",
    "date_created": "2022-03-02T13:41:36.000",
    "date_modified": "2022-03-02T13:41:36.000",
    "request_status": "Pending",
    "responsible_agency": "Department of Public Works",
    "final_address": "1555 Poydras St",
    "address_councildis": "B",
    "status": "Pending",
    "rowid": "863987",
    "final_x": "3677963.7917",
    "final_y": "530354.310466",
    "longitude": "-90.079276682772",
    "latitude": "29.95239732174202",
    "geocoded_column": {
      "latitude": "29.95239732174202",
      "longitude": "-90.079276682772"
    }
  },
  {
    "service_request": "2022-863986",
    "request_type": "Traffic Signals/Signs/Striping/Streetlights",
    "request_reason": "Traffic Sign Missing/Damaged",
    "date_created": "2022-03-02T13:36:43.000",
    "date_modified": "2022-03-02T13:36:43.000",
    "request_status": "Pending",
    "responsible_agency": "Department of Public Works",
    "final_address": "940 Caffin Ave",
    "address_councildis": "E",
    "status": "Pending",
    "rowid": "863986",
    "final_x": "3697827.9576",
    "final_y": "533296.204164",
    "longitude": "-90.01644834875762",
    "latitude": "29.9598737597701",
    "geocoded_column": {
      "latitude": "29.9598737597701",
      "longitude": "-90.01644834875762"
    }
  },
  {
    "service_request": "2022-863985",
    "request_type": "Abandoned Vehicles",
    "request_reason": "Abandoned/Junk Vehicles",
    "date_created": "2022-03-02T13:27:19.000",
    "date_modified": "2022-03-02T13:28:41.000",
    "request_status": "Pending",
    "responsible_agency": "Department of Public Works",
    "final_address": "612 St Maurice Ave",
    "address_councildis": "E",
    "status": "Pending",
    "rowid": "863985",
    "final_x": "3699123.20637",
    "final_y": "531551.227395",
    "longitude": "-90.01242178675521",
    "latitude": "29.955034698113078",
    "geocoded_column": {
      "latitude": "29.955034698113078",
      "longitude": "-90.01242178675521"
    }
  },
  {
    "service_request": "2022-863984",
    "request_type": "Trash/Recycling",
    "request_reason": "Missed Trash Pick-Up",
    "date_created": "2022-03-02T13:26:37.000",
    "date_modified": "2022-03-02T13:26:37.000",
    "request_status": "Pending",
    "responsible_agency": "Department of Sanitation",
    "final_address": "7430 Maple St",
    "address_councildis": "A",
    "status": "Assigned to Contractor",
    "contractor": "Richards Disposal",
    "rowid": "863984",
    "final_x": "3662661.58803",
    "final_y": "525788.465789",
    "longitude": "-90.12774595646306",
    "latitude": "29.940294337303854",
    "geocoded_column": {
      "latitude": "29.940294337303854",
      "longitude": "-90.12774595646306"
    }
  },
  {
    "service_request": "2022-863983",
    "request_type": "Trash/Recycling",
    "request_reason": "Request a Large Item Pick Up",
    "date_created": "2022-03-02T13:25:36.000",
    "date_modified": "2022-03-02T13:25:37.000",
    "request_status": "Pending",
    "responsible_agency": "Department of Sanitation",
    "final_address": "3125 N Villere St",
    "address_councildis": "C",
    "status": "Assigned to Contractor",
    "contractor": "Metro Disposal",
    "rowid": "863983",
    "final_x": "3689496.02499",
    "final_y": "537095.01172",
    "longitude": "-90.04262353861344",
    "latitude": "29.97057982024269",
    "geocoded_column": {
      "latitude": "29.97057982024269",
      "longitude": "-90.04262353861344"
    }
  },
  {
    "service_request": "2022-863982",
    "request_type": "Traffic Signals/Signs/Striping/Streetlights",
    "request_reason": "Street Light Knocked Down/Leaning",
    "date_created": "2022-03-02T13:23:51.000",
    "date_modified": "2022-03-02T14:13:22.000",
    "request_status": "Pending",
    "responsible_agency": "Department of Public Works",
    "final_address": "New Orleans,LA",
    "status": "Pending",
    "contractor": "Royal Engineering",
    "rowid": "863982",
    "longitude": "0.0",
    "latitude": "0.0",
    "geocoded_column": {
      "latitude": "0.0",
      "longitude": "0.0"
    }
  },
  {
    "service_request": "2022-863981",
    "request_type": "Trash/Recycling",
    "request_reason": "Request a Large Item Pick Up",
    "date_created": "2022-03-02T13:22:16.000",
    "date_modified": "2022-03-02T13:22:17.000",
    "request_status": "Pending",
    "responsible_agency": "Department of Sanitation",
    "final_address": "1227 Franklin Ave, New Orleans, Louisiana, 70117",
    "address_councildis": "C",
    "status": "Assigned to Contractor",
    "contractor": "Metro Disposal",
    "rowid": "863981",
    "final_x": "3687297.62217",
    "final_y": "537028.886216",
    "longitude": "-90.04956867500458",
    "latitude": "29.97046590612601",
    "geocoded_column": {
      "latitude": "29.97046590612601",
      "longitude": "-90.04956867500458"
    }
  },
  {
    "service_request": "2022-863980",
    "request_type": "Trash/Recycling",
    "request_reason": "Change Size of Trash Cart",
    "date_created": "2022-03-02T13:22:05.000",
    "date_modified": "2022-03-02T13:22:06.000",
    "request_status": "Pending",
    "responsible_agency": "Department of Sanitation",
    "final_address": "4421 Chestnut St",
    "address_councildis": "B",
    "status": "Assigned to Contractor",
    "contractor": "Richards Disposal",
    "rowid": "863980",
    "final_x": "3670748.5026",
    "final_y": "519537.626359",
    "longitude": "-90.10242621631632",
    "latitude": "29.92287010140258",
    "geocoded_column": {
      "latitude": "29.92287010140258",
      "longitude": "-90.10242621631632"
    }
  },
  {
    "service_request": "2022-863978",
    "request_type": "Trash/Recycling",
    "request_reason": "Replace Trash Cart",
    "date_created": "2022-03-02T13:10:06.000",
    "date_modified": "2022-03-02T13:10:10.000",
    "request_status": "Pending",
    "responsible_agency": "Department of Sanitation",
    "final_address": "6551 Marshal Foch St",
    "address_councildis": "A",
    "status": "Assigned to Contractor",
    "contractor": "Metro Disposal",
    "rowid": "863978",
    "final_x": "3670262.78266",
    "final_y": "550978.392021",
    "longitude": "-90.10289371012509",
    "latitude": "30.00933603823823",
    "geocoded_column": {
      "latitude": "30.00933603823823",
      "longitude": "-90.10289371012509"
    }
  },
  {
    "service_request": "2022-863977",
    "request_type": "Trash/Recycling",
    "request_reason": "Order Trash Cart",
    "date_created": "2022-03-02T13:09:45.000",
    "date_modified": "2022-03-02T13:09:46.000",
    "request_status": "Pending",
    "responsible_agency": "Department of Sanitation",
    "final_address": "6326 Oxford St",
    "address_councildis": "C",
    "status": "Assigned to Contractor",
    "contractor": "Richards Disposal",
    "rowid": "863977",
    "final_x": "3707614.74987",
    "final_y": "519797.129336",
    "longitude": "-89.98604531146685",
    "latitude": "29.922443210559017",
    "geocoded_column": {
      "latitude": "29.922443210559017",
      "longitude": "-89.98604531146685"
    }
  },
  {
    "service_request": "2022-863976",
    "request_type": "Abandoned Vehicles",
    "request_reason": "Abandoned/Junk Vehicles",
    "date_created": "2022-03-02T13:03:45.000",
    "date_modified": "2022-03-02T13:03:45.000",
    "request_status": "Pending",
    "responsible_agency": "Department of Public Works",
    "final_address": "1ST ST & LAUREL ST",
    "address_councildis": "B",
    "status": "Pending",
    "rowid": "863976",
    "final_x": "3678488.5",
    "final_y": "520891.48",
    "longitude": "-90.07794725224049",
    "latitude": "29.92636186492744",
    "geocoded_column": {
      "latitude": "29.92636186492744",
      "longitude": "-90.07794725224049"
    }
  },
  {
    "service_request": "2022-863975",
    "request_type": "Trash/Recycling",
    "request_reason": "Order Recycling Cart",
    "date_created": "2022-03-02T12:56:36.000",
    "date_modified": "2022-03-02T13:22:29.000",
    "request_status": "Pending",
    "responsible_agency": "Department of Sanitation",
    "final_address": "1714 Fern St, New Orleans, Louisiana, 70118",
    "address_councildis": "A",
    "rowid": "863975",
    "final_x": "3663778.13479",
    "final_y": "529274.242497",
    "longitude": "-90.12410468496573",
    "latitude": "29.94984675615018",
    "geocoded_column": {
      "latitude": "29.94984675615018",
      "longitude": "-90.12410468496573"
    }
  },
  {
    "service_request": "2022-863974",
    "request_type": "Trash/Recycling",
    "request_reason": "Replace Recycling Cart",
    "date_created": "2022-03-02T12:56:34.000",
    "date_modified": "2022-03-02T12:56:34.000",
    "request_status": "Pending",
    "responsible_agency": "Department of Sanitation",
    "final_address": "6232 Delord St",
    "address_councildis": "A",
    "status": "Pending",
    "rowid": "863974",
    "final_x": "3666373.76826",
    "final_y": "526284.533822",
    "longitude": "-90.11600932979306",
    "latitude": "29.9415504479423",
    "geocoded_column": {
      "latitude": "29.9415504479423",
      "longitude": "-90.11600932979306"
    }
  },
  {
    "service_request": "2022-863973",
    "request_type": "Abandoned Vehicles",
    "request_reason": "Vehicle Blocking Your Driveway",
    "date_created": "2022-03-02T12:56:32.000",
    "date_modified": "2022-03-02T12:56:32.000",
    "request_status": "Pending",
    "responsible_agency": "Department of Public Works",
    "final_address": "1315 S White St",
    "address_councildis": "B",
    "status": "Pending",
    "rowid": "863973",
    "final_x": "3671535.92071",
    "final_y": "530792.57485",
    "longitude": "-90.0995581008791",
    "latitude": "29.953794276027768",
    "geocoded_column": {
      "latitude": "29.953794276027768",
      "longitude": "-90.0995581008791"
    }
  },
  {
    "service_request": "2022-863972",
    "request_type": "Traffic Signals/Signs/Striping/Streetlights",
    "request_reason": "Street Light Knocked Down/Leaning",
    "date_created": "2022-03-02T12:56:08.000",
    "date_modified": "2022-03-02T12:56:08.000",
    "request_status": "Pending",
    "responsible_agency": "Department of Public Works",
    "final_address": "2101 Holiday Dr",
    "address_councildis": "C",
    "status": "Pending",
    "contractor": "Royal Engineering",
    "rowid": "863972",
    "final_x": "3698824.23594",
    "final_y": "523569.792379",
    "longitude": "-90.0136560756908",
    "latitude": "29.933098015277405",
    "geocoded_column": {
      "latitude": "29.933098015277405",
      "longitude": "-90.0136560756908"
    }
  },
  {
    "service_request": "2022-863970",
    "request_type": "Property Maintenance",
    "request_reason": "Property Maintenance",
    "date_created": "2022-03-02T12:53:25.000",
    "date_modified": "2022-03-02T12:53:25.000",
    "request_status": "Pending",
    "responsible_agency": "Department of Code Enforcement",
    "final_address": "1933 Fourth St",
    "address_councildis": "B",
    "status": "Pending",
    "rowid": "863970",
    "final_x": "3675461.38446",
    "final_y": "523857.902011",
    "longitude": "-90.08740119266407",
    "latitude": "29.93460940838639",
    "geocoded_column": {
      "latitude": "29.93460940838639",
      "longitude": "-90.08740119266407"
    }
  },
  {
    "service_request": "2022-863969",
    "request_type": "Roads/Drainage",
    "request_reason": "Street Flooding / Drainage",
    "date_created": "2022-03-02T12:52:14.000",
    "date_modified": "2022-03-02T14:52:51.000",
    "request_status": "Pending",
    "responsible_agency": "Department of Public Works",
    "final_address": "6219 Music St",
    "address_councildis": "D",
    "status": "Inspected",
    "rowid": "863969",
    "final_x": "3685329.719",
    "final_y": "556079.027034",
    "longitude": "-90.05511239363162",
    "latitude": "30.022907433097032",
    "geocoded_column": {
      "latitude": "30.022907433097032",
      "longitude": "-90.05511239363162"
    }
  },
  {
    "service_request": "2022-863968",
    "request_type": "Abandoned Vehicles",
    "request_reason": "Abandoned/Junk Vehicles",
    "date_created": "2022-03-02T12:51:35.000",
    "date_modified": "2022-03-02T13:06:51.000",
    "request_status": "Pending",
    "responsible_agency": "Department of Public Works",
    "status": "Inspected",
    "rowid": "863968",
    "longitude": "0.0",
    "latitude": "0.0",
    "geocoded_column": {
      "latitude": "0.0",
      "longitude": "0.0"
    }
  },
  {
    "service_request": "2022-863967",
    "request_type": "Traffic Signals/Signs/Striping/Streetlights",
    "request_reason": "Street Light Outage/Malfunction",
    "date_created": "2022-03-02T12:48:20.000",
    "date_modified": "2022-03-02T12:48:20.000",
    "request_status": "Pending",
    "responsible_agency": "Department of Public Works",
    "final_address": "139 Delacroix Rd",
    "address_councildis": "C",
    "status": "Pending",
    "contractor": "Royal Engineering",
    "rowid": "863967",
    "final_x": "3726912.90797",
    "final_y": "516918.711477",
    "longitude": "-89.92524143555225",
    "latitude": "29.913890584117706",
    "geocoded_column": {
      "latitude": "29.913890584117706",
      "longitude": "-89.92524143555225"
    }
  },
  {
    "service_request": "2022-863966",
    "request_type": "Traffic Signals/Signs/Striping/Streetlights",
    "request_reason": "Street Light Outage/Malfunction",
    "date_created": "2022-03-02T12:47:36.000",
    "date_modified": "2022-03-02T12:47:37.000",
    "request_status": "Pending",
    "responsible_agency": "Department of Public Works",
    "final_address": "139 Delacroix Rd",
    "address_councildis": "C",
    "status": "Pending",
    "contractor": "Royal Engineering",
    "rowid": "863966",
    "final_x": "3726912.90797",
    "final_y": "516918.711477",
    "longitude": "-89.92524143555225",
    "latitude": "29.913890584117706",
    "geocoded_column": {
      "latitude": "29.913890584117706",
      "longitude": "-89.92524143555225"
    }
  },
  {
    "service_request": "2022-863965",
    "request_type": "Trash/Recycling",
    "request_reason": "Request a Large Item Pick Up",
    "date_created": "2022-03-02T12:43:41.000",
    "date_modified": "2022-03-02T12:43:42.000",
    "request_status": "Pending",
    "responsible_agency": "Department of Sanitation",
    "final_address": "7190 Wayside Dr",
    "address_councildis": "E",
    "status": "Assigned to Contractor",
    "contractor": "Metro Disposal",
    "rowid": "863965",
    "final_x": "3717197.33688",
    "final_y": "568277.682405",
    "longitude": "-89.95395511044644",
    "latitude": "30.055432817424364",
    "geocoded_column": {
      "latitude": "30.055432817424364",
      "longitude": "-89.95395511044644"
    }
  },
  {
    "service_request": "2022-863964",
    "request_type": "Trash/Recycling",
    "request_reason": "Replace Recycling Cart",
    "date_created": "2022-03-02T12:42:49.000",
    "date_modified": "2022-03-02T12:42:49.000",
    "request_status": "Pending",
    "responsible_agency": "Department of Sanitation",
    "final_address": "11 N Lark St",
    "address_councildis": "D",
    "status": "Pending",
    "rowid": "863964",
    "final_x": "3675168.38145",
    "final_y": "556415.86185",
    "longitude": "-90.08720839196646",
    "latitude": "30.02414137151268",
    "geocoded_column": {
      "latitude": "30.02414137151268",
      "longitude": "-90.08720839196646"
    }
  },
  {
    "service_request": "2022-863963",
    "request_type": "Trash/Recycling",
    "request_reason": "Replace Trash Cart",
    "date_created": "2022-03-02T12:42:27.000",
    "date_modified": "2022-03-02T12:42:28.000",
    "request_status": "Pending",
    "responsible_agency": "Department of Sanitation",
    "final_address": "11 N Lark St",
    "address_councildis": "D",
    "status": "Assigned to Contractor",
    "contractor": "Metro Disposal",
    "rowid": "863963",
    "final_x": "3675168.38145",
    "final_y": "556415.86185",
    "longitude": "-90.08720839196646",
    "latitude": "30.02414137151268",
    "geocoded_column": {
      "latitude": "30.02414137151268",
      "longitude": "-90.08720839196646"
    }
  },
  {
    "service_request": "2022-863962",
    "request_type": "Trash/Recycling",
    "request_reason": "Order Trash Cart",
    "date_created": "2022-03-02T12:41:52.000",
    "date_modified": "2022-03-02T12:41:53.000",
    "request_status": "Pending",
    "responsible_agency": "Department of Sanitation",
    "final_address": "920 Delachaise St",
    "address_councildis": "B",
    "status": "Assigned to Contractor",
    "contractor": "Richards Disposal",
    "rowid": "863962",
    "final_x": "3674814.50011",
    "final_y": "518921.528247",
    "longitude": "-90.08961254841428",
    "latitude": "29.921055301397576",
    "geocoded_column": {
      "latitude": "29.921055301397576",
      "longitude": "-90.08961254841428"
    }
  },
  {
    "service_request": "2022-863961",
    "request_type": "Trash/Recycling",
    "request_reason": "Order Recycling Cart",
    "date_created": "2022-03-02T12:40:25.000",
    "date_modified": "2022-03-02T12:40:25.000",
    "request_status": "Pending",
    "responsible_agency": "Department of Sanitation",
    "final_address": "New Orleans,LA",
    "status": "Pending",
    "rowid": "863961",
    "longitude": "0.0",
    "latitude": "0.0",
    "geocoded_column": {
      "latitude": "0.0",
      "longitude": "0.0"
    }
  },
  {
    "service_request": "2022-863960",
    "request_type": "Trash/Recycling",
    "request_reason": "Repair Trash Cart",
    "date_created": "2022-03-02T12:38:11.000",
    "date_modified": "2022-03-02T12:38:14.000",
    "request_status": "Pending",
    "responsible_agency": "Department of Sanitation",
    "final_address": "2509 Pauline St",
    "address_councildis": "D",
    "status": "Assigned to Contractor",
    "contractor": "Metro Disposal",
    "rowid": "863960",
    "final_x": "3692589.07683",
    "final_y": "540755.867083",
    "longitude": "-90.0327241286524",
    "latitude": "29.980549704564055",
    "geocoded_column": {
      "latitude": "29.980549704564055",
      "longitude": "-90.0327241286524"
    }
  },
  {
    "service_request": "2022-863959",
    "request_type": "Trash/Recycling",
    "request_reason": "Repair Recycling Cart",
    "date_created": "2022-03-02T12:37:54.000",
    "date_modified": "2022-03-02T12:37:54.000",
    "request_status": "Pending",
    "responsible_agency": "Department of Sanitation",
    "final_address": "3814 Laurel St",
    "address_councildis": "B",
    "status": "Pending",
    "rowid": "863959",
    "final_x": "3673442.82478",
    "final_y": "518257.857462",
    "longitude": "-90.09396497749019",
    "latitude": "29.91927128593847",
    "geocoded_column": {
      "latitude": "29.91927128593847",
      "longitude": "-90.09396497749019"
    }
  },
  {
    "service_request": "2022-863958",
    "request_type": "Trash/Recycling",
    "request_reason": "Request a Large Item Pick Up",
    "date_created": "2022-03-02T12:36:37.000",
    "date_modified": "2022-03-02T12:36:38.000",
    "request_status": "Pending",
    "responsible_agency": "Department of Sanitation",
    "final_address": "1511 Polymnia St",
    "address_councildis": "B",
    "status": "Assigned to Contractor",
    "contractor": "Richards Disposal",
    "rowid": "863958",
    "final_x": "3679084.74255",
    "final_y": "524570.230012",
    "longitude": "-90.07593764881047",
    "latitude": "29.936459244959337",
    "geocoded_column": {
      "latitude": "29.936459244959337",
      "longitude": "-90.07593764881047"
    }
  },
  {
    "service_request": "2022-863957",
    "request_type": "Traffic Signals/Signs/Striping/Streetlights",
    "request_reason": "Street Light Knocked Down/Leaning",
    "date_created": "2022-03-02T12:36:20.000",
    "date_modified": "2022-03-02T12:36:21.000",
    "request_status": "Pending",
    "responsible_agency": "Department of Public Works",
    "final_address": "CHEF MENTEUR HWY & LONGFELLOW DR",
    "address_councildis": "E",
    "status": "Pending",
    "contractor": "Royal Engineering",
    "rowid": "863957",
    "final_x": "3709815.2",
    "final_y": "553867.68",
    "longitude": "-89.97782719643365",
    "latitude": "30.01605331822585",
    "geocoded_column": {
      "latitude": "30.01605331822585",
      "longitude": "-89.97782719643365"
    }
  },
  {
    "service_request": "2022-863956",
    "request_type": "Traffic Signals/Signs/Striping/Streetlights",
    "request_reason": "Street Light Outage/Malfunction",
    "date_created": "2022-03-02T12:34:24.000",
    "date_modified": "2022-03-02T12:34:25.000",
    "request_status": "Pending",
    "responsible_agency": "Department of Public Works",
    "final_address": "529 Esplanade Ave",
    "address_councildis": "C",
    "status": "Pending",
    "contractor": "Royal Engineering",
    "rowid": "863956",
    "final_x": "3684519.16079",
    "final_y": "534151.174597",
    "longitude": "-90.05844447441287",
    "latitude": "29.962638496228887",
    "geocoded_column": {
      "latitude": "29.962638496228887",
      "longitude": "-90.05844447441287"
    }
  },
  {
    "service_request": "2022-863955",
    "request_type": "Trash/Recycling",
    "request_reason": "Request a Large Item Pick Up",
    "date_created": "2022-03-02T12:32:02.000",
    "date_modified": "2022-03-02T12:32:03.000",
    "request_status": "Pending",
    "responsible_agency": "Department of Sanitation",
    "final_address": "13051 Calais St",
    "address_councildis": "E",
    "status": "Assigned to Contractor",
    "contractor": "Metro Disposal",
    "rowid": "863955",
    "final_x": "3724200.93017",
    "final_y": "560558.34659",
    "longitude": "-89.93211680551508",
    "latitude": "30.033974161720778",
    "geocoded_column": {
      "latitude": "30.033974161720778",
      "longitude": "-89.93211680551508"
    }
  },
  {
    "service_request": "2022-863954",
    "request_type": "Trash/Recycling",
    "request_reason": "Order Trash Cart",
    "date_created": "2022-03-02T12:31:44.000",
    "date_modified": "2022-03-02T12:31:45.000",
    "request_status": "Pending",
    "responsible_agency": "Department of Sanitation",
    "final_address": "306 Audubon Blvd",
    "address_councildis": "A",
    "status": "Assigned to Contractor",
    "contractor": "Richards Disposal",
    "rowid": "863954",
    "final_x": "3666995.23917",
    "final_y": "529801.187777",
    "longitude": "-90.11392905955792",
    "latitude": "29.95120193885334",
    "geocoded_column": {
      "latitude": "29.95120193885334",
      "longitude": "-90.11392905955792"
    }
  },
  {
    "service_request": "2022-863953",
    "request_type": "Roads/Drainage",
    "request_reason": "Debris in Roadway",
    "date_created": "2022-03-02T12:31:39.000",
    "date_modified": "2022-03-02T12:31:39.000",
    "request_status": "Pending",
    "responsible_agency": "Department of Public Works",
    "final_address": "HARRISON AVE & ARGONNE BLVD",
    "address_councildis": "A",
    "status": "Pending",
    "rowid": "863953",
    "final_x": "3670300.1",
    "final_y": "549073.28",
    "longitude": "-90.10284044723846",
    "latitude": "30.00409654614273",
    "geocoded_column": {
      "latitude": "30.00409654614273",
      "longitude": "-90.10284044723846"
    }
  },
  {
    "service_request": "2022-863952",
    "request_type": "Traffic Signals/Signs/Striping/Streetlights",
    "request_reason": "Traffic Signal Malfunctioning/Damaged",
    "date_created": "2022-03-02T12:27:08.000",
    "date_modified": "2022-03-02T12:27:08.000",
    "request_status": "Pending",
    "responsible_agency": "Department of Public Works",
    "final_address": "CANAL BLVD & CANAL ROADWAY",
    "address_councildis": "A",
    "status": "Pending",
    "rowid": "863952",
    "final_x": "3668318.8",
    "final_y": "544568.78",
    "longitude": "-90.10925177028071",
    "latitude": "29.991769081098727",
    "geocoded_column": {
      "latitude": "29.991769081098727",
      "longitude": "-90.10925177028071"
    }
  },
  {
    "service_request": "2022-863951",
    "request_type": "Abandoned Vehicles",
    "request_reason": "Abandoned/Junk Vehicles",
    "date_created": "2022-03-02T12:19:24.000",
    "date_modified": "2022-03-02T12:22:33.000",
    "request_status": "Pending",
    "responsible_agency": "Department of Public Works",
    "final_address": "PAULINA DR & MIRABEAU AVE",
    "address_councildis": "D",
    "status": "Pending",
    "rowid": "863951",
    "final_x": "3692695.9",
    "final_y": "552243.48",
    "longitude": "-90.03197466370125",
    "latitude": "30.0121331129222",
    "geocoded_column": {
      "latitude": "30.0121331129222",
      "longitude": "-90.03197466370125"
    }
  },
  {
    "service_request": "2022-863950",
    "request_type": "Trash/Recycling",
    "request_reason": "Illegal Dumping",
    "date_created": "2022-03-02T12:16:50.000",
    "date_modified": "2022-03-02T12:16:50.000",
    "request_status": "Pending",
    "responsible_agency": "Department of Sanitation",
    "final_address": "2345 St Claude Ave",
    "address_councildis": "C",
    "status": "Pending",
    "rowid": "863950",
    "final_x": "3686168.65353",
    "final_y": "536510.655175",
    "longitude": "-90.05315236383208",
    "latitude": "29.969075682448935",
    "geocoded_column": {
      "latitude": "29.969075682448935",
      "longitude": "-90.05315236383208"
    }
  },
  {
    "service_request": "2022-863949",
    "request_type": "Trash/Recycling",
    "request_reason": "Repair Trash Cart",
    "date_created": "2022-03-02T12:14:55.000",
    "date_modified": "2022-03-02T12:14:56.000",
    "request_status": "Pending",
    "responsible_agency": "Department of Sanitation",
    "final_address": "708 Majestic Pl",
    "address_councildis": "C",
    "status": "Assigned to Contractor",
    "contractor": "Richards Disposal",
    "rowid": "863949",
    "final_x": "3688179.56521",
    "final_y": "526289.598718",
    "longitude": "-90.04716410086917",
    "latitude": "29.94090936971943",
    "geocoded_column": {
      "latitude": "29.94090936971943",
      "longitude": "-90.04716410086917"
    }
  },
  {
    "service_request": "2022-863948",
    "request_type": "Traffic Signals/Signs/Striping/Streetlights",
    "request_reason": "Traffic Signal Malfunctioning/Damaged",
    "date_created": "2022-03-02T12:08:40.000",
    "date_modified": "2022-03-02T12:08:40.000",
    "request_status": "Pending",
    "responsible_agency": "Department of Public Works",
    "final_address": "ST CHARLES AVE & BROADWAY ST",
    "address_councildis": "A",
    "status": "Pending",
    "rowid": "863948",
    "final_x": "3662964.9",
    "final_y": "524654.8",
    "longitude": "-90.12682603442815",
    "latitude": "29.937168338022946",
    "geocoded_column": {
      "latitude": "29.937168338022946",
      "longitude": "-90.12682603442815"
    }
  },
  {
    "service_request": "2022-863947",
    "request_type": "Trash/Recycling",
    "request_reason": "Request a Large Item Pick Up",
    "date_created": "2022-03-02T12:07:40.000",
    "date_modified": "2022-03-02T12:07:40.000",
    "request_status": "Pending",
    "responsible_agency": "Department of Sanitation",
    "final_address": "2011 Shalett St",
    "address_councildis": "C",
    "status": "Assigned to Contractor",
    "contractor": "Richards Disposal",
    "rowid": "863947",
    "final_x": "3694186.15958",
    "final_y": "523119.914235",
    "longitude": "-90.02831427222895",
    "latitude": "29.932007068695494",
    "geocoded_column": {
      "latitude": "29.932007068695494",
      "longitude": "-90.02831427222895"
    }
  },
  {
    "service_request": "2022-863946",
    "request_type": "Trash/Recycling",
    "request_reason": "Order Trash Cart",
    "date_created": "2022-03-02T12:04:36.000",
    "date_modified": "2022-03-02T12:04:37.000",
    "request_status": "Pending",
    "responsible_agency": "Department of Sanitation",
    "final_address": "2730 Cleveland Ave",
    "address_councildis": "B",
    "status": "Assigned to Contractor",
    "contractor": "Richards Disposal",
    "rowid": "863946",
    "final_x": "3674828.20302",
    "final_y": "534924.897862",
    "longitude": "-90.08902072740582",
    "latitude": "29.965058895154897",
    "geocoded_column": {
      "latitude": "29.965058895154897",
      "longitude": "-90.08902072740582"
    }
  },
  {
    "service_request": "2022-863945",
    "request_type": "Property Maintenance",
    "request_reason": "Property Maintenance",
    "date_created": "2022-03-02T12:02:53.000",
    "date_modified": "2022-03-02T12:02:53.000",
    "request_status": "Pending",
    "responsible_agency": "Department of Code Enforcement",
    "final_address": "8215 Apple St",
    "address_councildis": "A",
    "status": "Pending",
    "rowid": "863945",
    "final_x": "3665025.1049",
    "final_y": "532454.261955",
    "longitude": "-90.12006109175707",
    "latitude": "29.958554532645714",
    "geocoded_column": {
      "latitude": "29.958554532645714",
      "longitude": "-90.12006109175707"
    }
  },
  {
    "service_request": "2022-863944",
    "request_type": "Trash/Recycling",
    "request_reason": "Request a Large Item Pick Up",
    "date_created": "2022-03-02T12:01:29.000",
    "date_modified": "2022-03-02T12:01:32.000",
    "request_status": "Pending",
    "responsible_agency": "Department of Sanitation",
    "final_address": "3122 General Taylor St",
    "address_councildis": "B",
    "status": "Assigned to Contractor",
    "contractor": "Richards Disposal",
    "rowid": "863944",
    "final_x": "3671291.98542",
    "final_y": "526544.963326",
    "longitude": "-90.10047265731122",
    "latitude": "29.942121956559262",
    "geocoded_column": {
      "latitude": "29.942121956559262",
      "longitude": "-90.10047265731122"
    }
  },
  {
    "service_request": "2022-863943",
    "request_type": "Trash/Recycling",
    "request_reason": "Return Trash Cart",
    "date_created": "2022-03-02T12:01:09.000",
    "date_modified": "2022-03-02T12:01:10.000",
    "request_status": "Pending",
    "responsible_agency": "Department of Sanitation",
    "final_address": "8215 Apple St",
    "address_councildis": "A",
    "status": "Assigned to Contractor",
    "contractor": "Richards Disposal",
    "rowid": "863943",
    "final_x": "3665025.1049",
    "final_y": "532454.261955",
    "longitude": "-90.12006109175707",
    "latitude": "29.958554532645714",
    "geocoded_column": {
      "latitude": "29.958554532645714",
      "longitude": "-90.12006109175707"
    }
  },
  {
    "service_request": "2022-863942",
    "request_type": "Trash/Recycling",
    "request_reason": "Order Trash Cart",
    "date_created": "2022-03-02T12:00:57.000",
    "date_modified": "2022-03-02T12:00:58.000",
    "request_status": "Pending",
    "responsible_agency": "Department of Sanitation",
    "final_address": "4718 Press Dr",
    "address_councildis": "D",
    "status": "Assigned to Contractor",
    "contractor": "Metro Disposal",
    "rowid": "863942",
    "final_x": "3689518.49583",
    "final_y": "550700.59522",
    "longitude": "-90.04206836059382",
    "latitude": "30.007989589810435",
    "geocoded_column": {
      "latitude": "30.007989589810435",
      "longitude": "-90.04206836059382"
    }
  },
  {
    "service_request": "2022-863941",
    "request_type": "Trash/Recycling",
    "request_reason": "Order Trash Cart",
    "date_created": "2022-03-02T11:58:11.000",
    "date_modified": "2022-03-02T11:58:12.000",
    "request_status": "Pending",
    "responsible_agency": "Department of Sanitation",
    "final_address": "6117 Magazine St",
    "address_councildis": "A",
    "status": "Assigned to Contractor",
    "contractor": "Richards Disposal",
    "rowid": "863941",
    "final_x": "3663985.58548",
    "final_y": "519529.824695",
    "longitude": "-90.1237744505849",
    "latitude": "29.923046680896892",
    "geocoded_column": {
      "latitude": "29.923046680896892",
      "longitude": "-90.1237744505849"
    }
  },
  {
    "service_request": "2022-863940",
    "request_type": "Trash/Recycling",
    "request_reason": "Illegal Dumping",
    "date_created": "2022-03-02T11:57:11.000",
    "date_modified": "2022-03-02T11:57:11.000",
    "request_status": "Pending",
    "responsible_agency": "Department of Sanitation",
    "final_address": "1800 BLK Josephine St",
    "address_councildis": "B",
    "status": "Pending",
    "rowid": "863940",
    "final_x": "3677223.76888",
    "final_y": "524834.465211",
    "longitude": "-90.08180370487277",
    "latitude": "29.937241826202133",
    "geocoded_column": {
      "latitude": "29.937241826202133",
      "longitude": "-90.08180370487277"
    }
  },
  {
    "service_request": "2022-863938",
    "request_type": "Roads/Drainage",
    "request_reason": "Accessibility Ramps, Curbs and Sidewalk Repair",
    "date_created": "2022-03-02T11:45:24.000",
    "date_modified": "2022-03-02T11:45:24.000",
    "request_status": "Pending",
    "responsible_agency": "Department of Public Works",
    "final_address": "2418 Valmont St",
    "address_councildis": "B",
    "status": "Pending",
    "rowid": "863938",
    "final_x": "3668206.16973",
    "final_y": "524473.344124",
    "longitude": "-90.11028509115533",
    "latitude": "29.936516603875287",
    "geocoded_column": {
      "latitude": "29.936516603875287",
      "longitude": "-90.11028509115533"
    }
  },
  {
    "service_request": "2022-863937",
    "request_type": "Roads/Drainage",
    "request_reason": "Catch Basin - Broken/Damage",
    "date_created": "2022-03-02T11:44:05.000",
    "date_modified": "2022-03-02T11:44:05.000",
    "request_status": "Pending",
    "responsible_agency": "Department of Public Works",
    "final_address": "2418 Valmont St",
    "address_councildis": "B",
    "status": "Pending",
    "rowid": "863937",
    "final_x": "3668206.16973",
    "final_y": "524473.344124",
    "longitude": "-90.11028509115533",
    "latitude": "29.936516603875287",
    "geocoded_column": {
      "latitude": "29.936516603875287",
      "longitude": "-90.11028509115533"
    }
  },
  {
    "service_request": "2022-863936",
    "request_type": "Trash/Recycling",
    "request_reason": "Illegal Dumping",
    "date_created": "2022-03-02T11:41:47.000",
    "date_modified": "2022-03-02T11:41:47.000",
    "request_status": "Pending",
    "responsible_agency": "Department of Sanitation",
    "final_address": "1301 Reynes St",
    "address_councildis": "E",
    "status": "Pending",
    "rowid": "863936",
    "final_x": "3696216.00663",
    "final_y": "535025.42151",
    "longitude": "-90.02147598972493",
    "latitude": "29.9646793358532",
    "geocoded_column": {
      "latitude": "29.9646793358532",
      "longitude": "-90.02147598972493"
    }
  },
  {
    "service_request": "2022-863934",
    "request_type": "Trash/Recycling",
    "request_reason": "Order Trash Cart",
    "date_created": "2022-03-02T11:38:11.000",
    "date_modified": "2022-03-02T11:38:12.000",
    "request_status": "Pending",
    "responsible_agency": "Department of Sanitation",
    "final_address": "2321 Gravier St",
    "address_councildis": "B",
    "status": "Assigned to Contractor",
    "contractor": "Richards Disposal",
    "rowid": "863934",
    "final_x": "3675404.63259",
    "final_y": "532679.005572",
    "longitude": "-90.08727752089715",
    "latitude": "29.958866222567163",
    "geocoded_column": {
      "latitude": "29.958866222567163",
      "longitude": "-90.08727752089715"
    }
  },