[
  {
    "service_request": "2023-1042287",
    "request_type": "Roads/Drainage",
    "request_reason": "Pothole",
    "date_created": "2023-10-11T01:13:17.000",
    "date_modified": "2023-10-11T01:13:17.000",
    "request_status": "Pending",
    "responsible_agency": "Department of Public Works",
    "final_address": "1441 State St",
    "address_councildis": "A",
    "status": "Pending",
    "rowid": "1042287",
    "final_x": "3665523.58208",
    "final_y": "521520.715833",
    "longitude": "-90.11885296057069",
    "latitude": "29.928476273247483",
    "geocoded_column": {
      "latitude": "29.928476273247483",
      "longitude": "-90.11885296057069"
    }
  },
  {
    "service_request": "2023-1042286",
    "request_type": "Roads/Drainage",
    "request_reason": "Pothole",
    "date_created": "2023-10-11T00:49:19.000",
    "date_modified": "2023-10-11T00:49:19.000",
    "request_status": "Pending",
    "responsible_agency": "Department of Public Works",
    "final_address": "3923 Martin Luther King, Jr. Blvd",
    "address_councildis": "B",
    "status": "Pending",
    "rowid": "1042286",
    "final_x": "3672271.10254",
    "final_y": "529995.756801",
    "longitude": "-90.09726383761293",
    "latitude": "29.951581502766103",
    "geocoded_column": {
      "latitude": "29.951581502766103",
      "longitude": "-90.09726383761293"
    }
  },
  {
    "service_request": "2023-1042285",
    "request_type": "Traffic Signals/Signs/Striping/Streetlights",
    "request_reason": "Street Light Outage/Malfunction",
    "date_created": "2023-10-10T23:19:11.000",
    "date_modified": "2023-10-10T23:19:11.000",
    "request_status": "Pending",
    "responsible_agency": "Department of Public Works",
    "final_address": "COLISEUM ST & GENERAL PERSHING ST",
    "address_councildis": "B",
    "status": "Assigned to Contractor",
    "contractor": "Legacy Professional Services",
    "rowid": "1042285",
    "final_x": "3671350.5",
    "final_y": "519866.18",
    "longitude": "-90.10051478367342",
    "latitude": "29.92375572357653",
    "geocoded_column": {
      "latitude": "29.92375572357653",
      "longitude": "-90.10051478367342"
    }
  },
  {
    "service_request": "2023-1042284",
    "request_type": "Trash/Recycling",
    "request_reason": "Request a Large Item Pick Up",
    "date_created": "2023-10-10T23:05:37.000",
    "date_modified": "2023-10-10T23:05:38.000",
    "request_status": "Pending",
    "responsible_agency": "Department of Sanitation",
    "final_address": "2216 Prytania St",
    "address_councildis": "B",
    "status": "Assigned to Contractor",
    "contractor": "Richards Disposal",
    "rowid": "1042284",
    "final_x": "3677822.88443",
    "final_y": "523151.481595",
    "longitude": "-90.07997037756466",
    "latitude": "29.932596167011187",
    "geocoded_column": {
      "latitude": "29.932596167011187",
      "longitude": "-90.07997037756466"
    }
  },
  {
    "service_request": "2023-1042283",
    "request_type": "Abandoned Vehicles",
    "request_reason": "Abandoned/Junk Vehicles",
    "date_created": "2023-10-10T22:01:03.000",
    "date_modified": "2023-10-10T22:01:03.000",
    "request_status": "Pending",
    "responsible_agency": "Department of Public Works",
    "final_address": "2526 Aubry St",
    "address_councildis": "D",
    "status": "Pending",
    "rowid": "1042283",
    "final_x": "3679966.10171",
    "final_y": "540841.308491",
    "longitude": "-90.07258997015768",
    "latitude": "29.981172569286805",
    "geocoded_column": {
      "latitude": "29.981172569286805",
      "longitude": "-90.07258997015768"
    }
  },
  {
    "service_request": "2023-1042282",
    "request_type": "Abandoned Vehicles",
    "request_reason": "Abandoned/Junk Vehicles",
    "date_created": "2023-10-10T21:59:00.000",
    "date_modified": "2023-10-10T21:59:00.000",
    "request_status": "Pending",
    "responsible_agency": "Department of Public Works",
    "status": "Pending",
    "rowid": "1042282",
    "longitude": "0.0",
    "latitude": "0.0",
    "geocoded_column": {
      "latitude": "0.0",
      "longitude": "0.0"
    }
  },
  {
    "service_request": "2023-1042281",
    "request_type": "Roads/Drainage",
    "request_reason": "Pothole",
    "date_created": "2023-10-10T21:45:09.000",
    "date_modified": "2023-10-10T21:45:09.000",
    "request_status": "Pending",
    "responsible_agency": "Department of Public Works",
    "final_address": "1200 BLK Amelia St",
    "address_councildis": "B",
    "status": "Pending",
    "rowid": "1042281",
    "final_x": "3673521.46558",
    "final_y": "519660.816109",
    "longitude": "-90.09366883741032",
    "latitude": "29.923126634409968",
    "geocoded_column": {
      "latitude": "29.923126634409968",
      "longitude": "-90.09366883741032"
    }
  },
  {
    "service_request": "2023-1042280",
    "request_type": "Roads/Drainage",
    "request_reason": "Street Flooding / Drainage",
    "date_created": "2023-10-10T21:28:22.000",
    "date_modified": "2023-10-10T21:28:22.000",
    "request_status": "Pending",
    "responsible_agency": "Department of Public Works",
    "final_address": "4630 Murano Rd",
    "address_councildis": "E",
    "status": "Pending",
    "rowid": "1042280",
    "final_x": "3761417.73558",
    "final_y": "574209.955562",
    "longitude": "-89.81393822121119",
    "latitude": "30.070205993566983",
    "geocoded_column": {
      "latitude": "30.070205993566983",
      "longitude": "-89.81393822121119"
    }
  },
  {
    "service_request": "2023-1042279",
    "request_type": "Roads/Drainage",
    "request_reason": "Pothole",
    "date_created": "2023-10-10T21:22:13.000",
    "date_modified": "2023-10-10T21:22:13.000",
    "request_status": "Pending",
    "responsible_agency": "Department of Public Works",
    "final_address": "4300 BLK Pitt St",
    "address_councildis": "B",
    "status": "Pending",
    "rowid": "1042279",
    "final_x": "3671095.85856",
    "final_y": "520594.286355",
    "longitude": "-90.1012938832473",
    "latitude": "29.925765314556088",
    "geocoded_column": {
      "latitude": "29.925765314556088",
      "longitude": "-90.1012938832473"
    }
  },
  {
    "service_request": "2023-1042278",
    "request_type": "Trash/Recycling",
    "request_reason": "Order Trash Cart",
    "date_created": "2023-10-10T21:10:36.000",
    "date_modified": "2023-10-10T21:10:37.000",
    "request_status": "Pending",
    "responsible_agency": "Department of Sanitation",
    "final_address": "4800 Bergerac St",
    "address_councildis": "E",
    "status": "Assigned to Contractor",
    "contractor": "Waste Pro",
    "rowid": "1042278",
    "final_x": "3726131.89049",
    "final_y": "561059.84035",
    "longitude": "-89.92599535696336",
    "latitude": "30.035287994621907",
    "geocoded_column": {
      "latitude": "30.035287994621907",
      "longitude": "-89.92599535696336"
    }
  },
  {
    "service_request": "2023-1042277",
    "request_type": "Roads/Drainage",
    "request_reason": "Pothole",
    "date_created": "2023-10-10T21:06:35.000",
    "date_modified": "2023-10-10T21:06:35.000",
    "request_status": "Pending",
    "responsible_agency": "Department of Public Works",
    "final_address": "1571 Henry Clay Ave",
    "address_councildis": "A",
    "status": "Pending",
    "rowid": "1042277",
    "final_x": "3665103.08288",
    "final_y": "522618.44953",
    "longitude": "-90.12014370182915",
    "latitude": "29.931506942162873",
    "geocoded_column": {
      "latitude": "29.931506942162873",
      "longitude": "-90.12014370182915"
    }
  },
  {
    "service_request": "2023-1042276",
    "request_type": "Trash/Recycling",
    "request_reason": "MIssed Recycling Pick-Up",
    "date_created": "2023-10-10T20:55:32.000",
    "date_modified": "2023-10-10T20:55:33.000",
    "request_status": "Pending",
    "responsible_agency": "Department of Sanitation",
    "final_address": "1734 Richland Rd",
    "address_councildis": "C",
    "status": "Assigned to Contractor",
    "contractor": "Richards Disposal",
    "rowid": "1042276",
    "final_x": "3698019.00048",
    "final_y": "524901.314492",
    "longitude": "-90.01614981308317",
    "latitude": "29.93678471686475",
    "geocoded_column": {
      "latitude": "29.93678471686475",
      "longitude": "-90.01614981308317"
    }
  },
  {
    "service_request": "2023-1042275",
    "request_type": "Trash/Recycling",
    "request_reason": "Illegal Dumping",
    "date_created": "2023-10-10T20:48:27.000",
    "date_modified": "2023-10-10T20:48:27.000",
    "request_status": "Pending",
    "responsible_agency": "Department of Sanitation",
    "final_address": "2100 BLK Saint Thomas St",
    "address_councildis": "B",
    "status": "Pending",
    "rowid": "1042275",
    "final_x": "3680123.53014",
    "final_y": "520757.095085",
    "longitude": "-90.07279059083827",
    "latitude": "29.92594299300261",
    "geocoded_column": {
      "latitude": "29.92594299300261",
      "longitude": "-90.07279059083827"
    }
  },
  {
    "service_request": "2023-1042274",
    "request_type": "Trash/Recycling",
    "request_reason": "Repair Trash Cart",
    "date_created": "2023-10-10T20:44:29.000",
    "date_modified": "2023-10-10T20:44:29.000",
    "request_status": "Pending",
    "responsible_agency": "Department of Sanitation",
    "final_address": "1122 Toledano St",
    "address_councildis": "B",
    "status": "Assigned to Contractor",
    "contractor": "Richards Disposal",
    "rowid": "1042274",
    "final_x": "3675276.40289",
    "final_y": "519954.859512",
    "longitude": "-90.08811908080055",
    "latitude": "29.923882836088683",
    "geocoded_column": {
      "latitude": "29.923882836088683",
      "longitude": "-90.08811908080055"
    }
  },
  {
    "service_request": "2023-1042273",
    "request_type": "Traffic Signals/Signs/Striping/Streetlights",
    "request_reason": "Street Light Outage/Malfunction",
    "date_created": "2023-10-10T20:10:41.000",
    "date_modified": "2023-10-10T20:10:42.000",
    "request_status": "Pending",
    "responsible_agency": "Department of Public Works",
    "final_address": "1020 Aurora Dr",
    "address_councildis": "C",
    "status": "Assigned to Contractor",
    "contractor": "Legacy Professional Services",
    "rowid": "1042273",
    "final_x": "3706836.70308",
    "final_y": "517910.234294",
    "longitude": "-89.98857116993406",
    "latitude": "29.917280037438264",
    "geocoded_column": {
      "latitude": "29.917280037438264",
      "longitude": "-89.98857116993406"
    }
  },
  {
    "service_request": "2023-1042272",
    "request_type": "Traffic Signals/Signs/Striping/Streetlights",
    "request_reason": "Street Name Sign Damaged or Missing",
    "date_created": "2023-10-10T19:39:23.000",
    "date_modified": "2023-10-10T19:39:23.000",
    "request_status": "Pending",
    "responsible_agency": "Department of Public Works",
    "final_address": "8 Blanc Pl",
    "address_councildis": "B",
    "status": "Pending",
    "rowid": "1042272",
    "final_x": "3667855.02241",
    "final_y": "520835.432889",
    "longitude": "-90.11151614663486",
    "latitude": "29.926523809511508",
    "geocoded_column": {
      "latitude": "29.926523809511508",
      "longitude": "-90.11151614663486"
    }
  },
  {
    "service_request": "2023-1042271",
    "request_type": "Trash/Recycling",
    "request_reason": "Missed Trash Pick-Up",
    "date_created": "2023-10-10T19:35:33.000",
    "date_modified": "2023-10-10T19:35:33.000",
    "request_status": "Pending",
    "responsible_agency": "Department of Sanitation",
    "final_address": "9 Blanc Pl",
    "address_councildis": "B",
    "status": "Assigned to Contractor",
    "contractor": "Richards Disposal",
    "rowid": "1042271",
    "final_x": "3667874.285",
    "final_y": "520921.573625",
    "longitude": "-90.111452440078",
    "latitude": "29.92676010442122",
    "geocoded_column": {
      "latitude": "29.92676010442122",
      "longitude": "-90.111452440078"
    }
  },
  {
    "service_request": "2023-1042269",
    "request_type": "Property Maintenance",
    "request_reason": "Property Maintenance",
    "date_created": "2023-10-10T19:19:48.000",
    "date_modified": "2023-10-10T19:19:48.000",
    "request_status": "Pending",
    "responsible_agency": "Department of Code Enforcement",
    "final_address": "6417 Fleur-De-Lis Dr",
    "address_councildis": "A",
    "status": "Pending",
    "rowid": "1042269",
    "final_x": "3665412.24525",
    "final_y": "550763.594197",
    "longitude": "-90.11822548772766",
    "latitude": "30.00888774664803",
    "geocoded_column": {
      "latitude": "30.00888774664803",
      "longitude": "-90.11822548772766"
    }
  },
  {
    "service_request": "2023-1042268",
    "request_type": "Property Maintenance",
    "request_reason": "Property Maintenance",
    "date_created": "2023-10-10T19:17:45.000",
    "date_modified": "2023-10-10T19:17:45.000",
    "request_status": "Pending",
    "responsible_agency": "Department of Code Enforcement",
    "final_address": "6507 Fleur-De-Lis Dr",
    "address_councildis": "A",
    "status": "Pending",
    "rowid": "1042268",
    "final_x": "3665474.65044",
    "final_y": "551459.708693",
    "longitude": "-90.11800500202565",
    "latitude": "30.01079999946811",
    "geocoded_column": {
      "latitude": "30.01079999946811",
      "longitude": "-90.11800500202565"
    }
  },
  {
    "service_request": "2023-1042267",
    "request_type": "Safety & Permits",
    "request_reason": "Construction permit",
    "date_created": "2023-10-10T19:17:21.000",
    "date_modified": "2023-10-10T19:17:21.000",
    "request_status": "Pending",
    "responsible_agency": "Department of Code Enforcement",
    "final_address": "4316 Constance St",
    "address_councildis": "B",
    "status": "Pending",
    "rowid": "1042267",
    "final_x": "3671340.83604",
    "final_y": "518402.13151",
    "longitude": "-90.10059500888036",
    "latitude": "29.919730342040207",
    "geocoded_column": {
      "latitude": "29.919730342040207",
      "longitude": "-90.10059500888036"
    }
  },
  {
    "service_request": "2023-1042266",
    "request_type": "Property Maintenance",
    "request_reason": "Property Maintenance",
    "date_created": "2023-10-10T19:16:49.000",
    "date_modified": "2023-10-10T19:16:49.000",
    "request_status": "Pending",
    "responsible_agency": "Department of Code Enforcement",
    "final_address": "6515 Fleur-De-Lis Dr",
    "address_councildis": "A",
    "status": "Pending",
    "rowid": "1042266",
    "final_x": "3665453.69383",
    "final_y": "551505.050389",
    "longitude": "-90.11806969310103",
    "latitude": "30.010925284494622",
    "geocoded_column": {
      "latitude": "30.010925284494622",
      "longitude": "-90.11806969310103"
    }
  },
  {
    "service_request": "2023-1042265",
    "request_type": "Trash/Recycling",
    "request_reason": "Illegal Dumping",
    "date_created": "2023-10-10T18:59:33.000",
    "date_modified": "2023-10-10T18:59:33.000",
    "request_status": "Pending",
    "responsible_agency": "Department of Sanitation",
    "final_address": "12500 Morrison Rd",
    "address_councildis": "E",
    "status": "Pending",
    "rowid": "1042265",
    "final_x": "3715819.41887",
    "final_y": "568570.992165",
    "longitude": "-89.95829926500231",
    "latitude": "30.056284835798667",
    "geocoded_column": {
      "latitude": "30.056284835798667",
      "longitude": "-89.95829926500231"
    }
  },
  {
    "service_request": "2023-1042264",
    "request_type": "Abandoned Vehicles",
    "request_reason": "Vehicle Blocking Your Driveway",
    "date_created": "2023-10-10T18:30:18.000",
    "date_modified": "2023-10-10T18:30:18.000",
    "request_status": "Pending",
    "responsible_agency": "Department of Public Works",
    "final_address": "3800 Napoleon Ave",
    "address_councildis": "B",
    "status": "Pending",
    "rowid": "1042264",
    "final_x": "3669990.05146",
    "final_y": "528514.456832",
    "longitude": "-90.10451647227175",
    "latitude": "29.947575875905905",
    "geocoded_column": {
      "latitude": "29.947575875905905",
      "longitude": "-90.10451647227175"
    }
  },
  {
    "service_request": "2023-1042263",
    "request_type": "Trash/Recycling",
    "request_reason": "Request a Large Item Pick Up",
    "date_created": "2023-10-10T18:28:59.000",
    "date_modified": "2023-10-10T18:29:00.000",
    "request_status": "Pending",
    "responsible_agency": "Department of Sanitation",
    "final_address": "1308 Ferry Pl",
    "address_councildis": "A",
    "status": "Assigned to Contractor",
    "contractor": "Richards Disposal",
    "rowid": "1042263",
    "final_x": "3660032.28883",
    "final_y": "530729.022658",
    "longitude": "-90.13588411198192",
    "latitude": "29.95395510040908",
    "geocoded_column": {
      "latitude": "29.95395510040908",
      "longitude": "-90.13588411198192"
    }
  },
  {
    "service_request": "2023-1042262",
    "request_type": "Abandoned Vehicles",
    "request_reason": "Abandoned/Junk Vehicles",
    "date_created": "2023-10-10T17:58:29.000",
    "date_modified": "2023-10-10T17:58:30.000",
    "request_status": "Pending",
    "responsible_agency": "Department of Public Works",
    "final_address": "1218 Clouet St",
    "address_councildis": "C",
    "status": "Pending",
    "rowid": "1042262",
    "final_x": "3689099.03484",
    "final_y": "536515.340615",
    "longitude": "-90.0438978770965",
    "latitude": "29.968998218190936",
    "geocoded_column": {
      "latitude": "29.968998218190936",
      "longitude": "-90.0438978770965"
    }
  },
  {
    "service_request": "2023-1042261",
    "request_type": "Property Maintenance",
    "request_reason": "Property Maintenance",
    "date_created": "2023-10-10T17:57:51.000",
    "date_modified": "2023-10-10T17:57:52.000",
    "request_status": "Pending",
    "responsible_agency": "Department of Code Enforcement",
    "final_address": "1226 Clouet St",
    "address_councildis": "C",
    "status": "Pending",
    "rowid": "1042261",
    "final_x": "3689109.16003",
    "final_y": "536574.537927",
    "longitude": "-90.04386379733701",
    "latitude": "29.969160676731573",
    "geocoded_column": {
      "latitude": "29.969160676731573",
      "longitude": "-90.04386379733701"
    }
  },
  {
    "service_request": "2023-1042260",
    "request_type": "Trash/Recycling",
    "request_reason": "Missed Trash Pick-Up",
    "date_created": "2023-10-10T17:54:45.000",
    "date_modified": "2023-10-10T17:54:45.000",
    "request_status": "Pending",
    "responsible_agency": "Department of Sanitation",
    "final_address": "11508 Hayne Blvd",
    "address_councildis": "E",
    "status": "Assigned to Contractor",
    "contractor": "Waste Pro",
    "rowid": "1042260",
    "final_x": "3711153.92088",
    "final_y": "568043.023269",
    "longitude": "-89.97306578401181",
    "latitude": "30.05498625345999",
    "geocoded_column": {
      "latitude": "30.05498625345999",
      "longitude": "-89.97306578401181"
    }
  },
  {
    "service_request": "2023-1042259",
    "request_type": "Trash/Recycling",
    "request_reason": "Missed Trash Pick-Up",
    "date_created": "2023-10-10T17:54:43.000",
    "date_modified": "2023-10-10T17:54:44.000",
    "request_status": "Pending",
    "responsible_agency": "Department of Sanitation",
    "final_address": "7506 Briarheath Dr",
    "address_councildis": "E",
    "status": "Assigned to Contractor",
    "contractor": "Waste Pro",
    "rowid": "1042259",
    "final_x": "3714776.62034",
    "final_y": "567092.816036",
    "longitude": "-89.96165127044453",
    "latitude": "30.052254824523214",
    "geocoded_column": {
      "latitude": "30.052254824523214",
      "longitude": "-89.96165127044453"
    }
  },
  {
    "service_request": "2023-1042258",
    "request_type": "Trash/Recycling",
    "request_reason": "Missed Trash Pick-Up",
    "date_created": "2023-10-10T17:51:39.000",
    "date_modified": "2023-10-10T17:51:40.000",
    "request_status": "Pending",
    "responsible_agency": "Department of Sanitation",
    "final_address": "1117 Verret St",
    "address_councildis": "C",
    "status": "Assigned to Contractor",
    "contractor": "Richards Disposal",
    "rowid": "1042258",
    "final_x": "3687252.59158",
    "final_y": "527444.221567",
    "longitude": "-90.0500498887739",
    "latitude": "29.944112768778087",
    "geocoded_column": {
      "latitude": "29.944112768778087",
      "longitude": "-90.0500498887739"
    }
  },
  {
    "service_request": "2023-1042257",
    "request_type": "Abandoned Vehicles",
    "request_reason": "Abandoned/Junk Vehicles",
    "date_created": "2023-10-10T17:50:35.000",
    "date_modified": "2023-10-10T17:50:35.000",
    "request_status": "Pending",
    "responsible_agency": "Department of Public Works",
    "final_address": "4600 BLK Lafaye St",
    "address_councildis": "D",
    "status": "Pending",
    "rowid": "1042257",
    "final_x": "3687480.20046",
    "final_y": "550027.10413",
    "longitude": "-90.04853179245383",
    "latitude": "30.006200736496307",
    "geocoded_column": {
      "latitude": "30.006200736496307",
      "longitude": "-90.04853179245383"
    }
  },
  {
    "service_request": "2023-1042256",
    "request_type": "Roads/Drainage",
    "request_reason": "Street Subsidence (Sinking)",
    "date_created": "2023-10-10T17:43:51.000",
    "date_modified": "2023-10-10T17:43:51.000",
    "request_status": "Pending",
    "responsible_agency": "Department of Public Works",
    "final_address": "3926 N Robertson St",
    "address_councildis": "D",
    "status": "Pending",
    "rowid": "1042256",
    "final_x": "3692042.86294",
    "final_y": "536777.836872",
    "longitude": "-90.0345917108588",
    "latitude": "29.969628572746295",
    "geocoded_column": {
      "latitude": "29.969628572746295",
      "longitude": "-90.0345917108588"
    }
  },
  {
    "service_request": "2023-1042255",
    "request_type": "Trash/Recycling",
    "request_reason": "Missed Trash Pick-Up",
    "date_created": "2023-10-10T17:35:31.000",
    "date_modified": "2023-10-10T17:35:32.000",
    "request_status": "Pending",
    "responsible_agency": "Department of Sanitation",
    "final_address": "7584 Briarheath Dr",
    "address_councildis": "E",
    "status": "Assigned to Contractor",
    "contractor": "Waste Pro",
    "rowid": "1042255",
    "final_x": "3715210.87851",
    "final_y": "566489.020131",
    "longitude": "-89.96030159240065",
    "latitude": "30.050580331852732",
    "geocoded_column": {
      "latitude": "30.050580331852732",
      "longitude": "-89.96030159240065"
    }
  },
  {
    "service_request": "2023-1042254",
    "request_type": "Property Maintenance",
    "request_reason": "Property Maintenance",
    "date_created": "2023-10-10T17:25:42.000",
    "date_modified": "2023-10-10T17:25:42.000",
    "request_status": "Pending",
    "responsible_agency": "Department of Code Enforcement",
    "final_address": "1415 S Claiborne Ave",
    "address_councildis": "B",
    "status": "Pending",
    "rowid": "1042254",
    "final_x": "3675093.70561",
    "final_y": "528350.198208",
    "longitude": "-90.08840786387431",
    "latitude": "29.94697273639821",
    "geocoded_column": {
      "latitude": "29.94697273639821",
      "longitude": "-90.08840786387431"
    }
  },
  {
    "service_request": "2023-1042253",
    "request_type": "Trash/Recycling",
    "request_reason": "Missed Trash Pick-Up",
    "date_created": "2023-10-10T17:21:27.000",
    "date_modified": "2023-10-10T17:21:28.000",
    "request_status": "Pending",
    "responsible_agency": "Department of Sanitation",
    "final_address": "1514 Valmont St",
    "address_councildis": "B",
    "status": "Assigned to Contractor",
    "contractor": "Richards Disposal",
    "rowid": "1042253",
    "final_x": "3667671.62394",
    "final_y": "520568.4446",
    "longitude": "-90.11210406948392",
    "latitude": "29.92579505227427",
    "geocoded_column": {
      "latitude": "29.92579505227427",
      "longitude": "-90.11210406948392"
    }
  },
  {
    "service_request": "2023-1042252",
    "request_type": "Trash/Recycling",
    "request_reason": "MIssed Recycling Pick-Up",
    "date_created": "2023-10-10T17:16:47.000",
    "date_modified": "2023-10-10T17:16:48.000",
    "request_status": "Pending",
    "responsible_agency": "Department of Sanitation",
    "final_address": "1528 St Philip St",
    "address_councildis": "C",
    "status": "Assigned to Contractor",
    "contractor": "Richards Disposal",
    "rowid": "1042252",
    "final_x": "3680772.24552",
    "final_y": "535182.214022",
    "longitude": "-90.07024083428946",
    "latitude": "29.96558760095176",
    "geocoded_column": {
      "latitude": "29.96558760095176",
      "longitude": "-90.07024083428946"
    }
  },
  {
    "service_request": "2023-1042251",
    "request_type": "Parks & Parkways",
    "request_reason": "Request Tree Service (Right of Way/Public Property)",
    "date_created": "2023-10-10T17:16:25.000",
    "date_modified": "2023-10-10T17:16:25.000",
    "request_status": "Pending",
    "responsible_agency": "Department of Parks & Parkway",
    "final_address": "3515 Canal St",
    "address_councildis": "B",
    "status": "Pending",
    "rowid": "1042251",
    "final_x": "3672827.58971",
    "final_y": "537193.655816",
    "longitude": "-90.09526114819607",
    "latitude": "29.971356801208504",
    "geocoded_column": {
      "latitude": "29.971356801208504",
      "longitude": "-90.09526114819607"
    }
  },
  {
    "service_request": "2023-1042250",
    "request_type": "Roads/Drainage",
    "request_reason": "Catch Basin - Clogged",
    "date_created": "2023-10-10T17:02:38.000",
    "date_modified": "2023-10-10T17:02:38.000",
    "request_status": "Pending",
    "responsible_agency": "Department of Public Works",
    "final_address": "32 Versailles Blvd",
    "address_councildis": "A",
    "status": "Pending",
    "rowid": "1042250",
    "final_x": "3667300.36609",
    "final_y": "529689.792449",
    "longitude": "-90.11296936273048",
    "latitude": "29.95088670583765",
    "geocoded_column": {
      "latitude": "29.95088670583765",
      "longitude": "-90.11296936273048"
    }
  },
  {
    "service_request": "2023-1042249",
    "request_type": "Trash/Recycling",
    "request_reason": "Request a Large Item Pick Up",
    "date_created": "2023-10-10T16:40:06.000",
    "date_modified": "2023-10-10T16:40:06.000",
    "request_status": "Pending",
    "responsible_agency": "Department of Sanitation",
    "final_address": "2726 N Claiborne Ave",
    "address_councildis": "C",
    "status": "Assigned to Contractor",
    "contractor": "IV Waste",
    "rowid": "1042249",
    "final_x": "3688111.04457",
    "final_y": "538140.495177",
    "longitude": "-90.046960390208",
    "latitude": "29.973497356896967",
    "geocoded_column": {
      "latitude": "29.973497356896967",
      "longitude": "-90.046960390208"
    }
  },
  {
    "service_request": "2023-1042248",
    "request_type": "Trash/Recycling",
    "request_reason": "Request a Large Item Pick Up",
    "date_created": "2023-10-10T16:29:11.000",
    "date_modified": "2023-10-10T16:29:11.000",
    "request_status": "Pending",
    "responsible_agency": "Department of Sanitation",
    "final_address": "7033 Yorktown Dr",
    "address_councildis": "E",
    "status": "Assigned to Contractor",
    "contractor": "Waste Pro",
    "rowid": "1042248",
    "final_x": "3706212.361",
    "final_y": "560600.030238",
    "longitude": "-89.98896090871574",
    "latitude": "30.034681360001134",
    "geocoded_column": {
      "latitude": "30.034681360001134",
      "longitude": "-89.98896090871574"
    }
  },
  {
    "service_request": "2023-1042247",
    "request_type": "Trash/Recycling",
    "request_reason": "Illegal Dumping",
    "date_created": "2023-10-10T16:23:43.000",
    "date_modified": "2023-10-10T16:23:43.000",
    "request_status": "Pending",
    "responsible_agency": "Department of Sanitation",
    "final_address": "3017 First St",
    "address_councildis": "B",
    "status": "Pending",
    "rowid": "1042247",
    "final_x": "3674096.50856",
    "final_y": "527637.854719",
    "longitude": "-90.09158076297514",
    "latitude": "29.945043779417926",
    "geocoded_column": {
      "latitude": "29.945043779417926",
      "longitude": "-90.09158076297514"
    }
  },
  {
    "service_request": "2023-1042246",
    "request_type": "Abandoned Vehicles",
    "request_reason": "Abandoned/Junk Vehicles",
    "date_created": "2023-10-10T16:22:32.000",
    "date_modified": "2023-10-10T16:22:33.000",
    "request_status": "Pending",
    "responsible_agency": "Department of Public Works",
    "final_address": "824 N Prieur St",
    "address_councildis": "D",
    "status": "Pending",
    "rowid": "1042246",
    "final_x": "3679289.41365",
    "final_y": "535693.115399",
    "longitude": "-90.07490583744442",
    "latitude": "29.96703726701588",
    "geocoded_column": {
      "latitude": "29.96703726701588",
      "longitude": "-90.07490583744442"
    }
  },
  {
    "service_request": "2023-1042245",
    "request_type": "Traffic Signals/Signs/Striping/Streetlights",
    "request_reason": "Street Light Outage/Malfunction",
    "date_created": "2023-10-10T16:18:50.000",
    "date_modified": "2023-10-10T16:18:50.000",
    "request_status": "Pending",
    "responsible_agency": "Department of Public Works",
    "final_address": "918 Mazant St",
    "address_councildis": "C",
    "status": "Assigned to Contractor",
    "contractor": "Legacy Professional Services",
    "rowid": "1042245",
    "final_x": "3691920.4207",
    "final_y": "534601.826758",
    "longitude": "-90.0350562549972",
    "latitude": "29.96364912684045",
    "geocoded_column": {
      "latitude": "29.96364912684045",
      "longitude": "-90.0350562549972"
    }
  },
  {
    "service_request": "2023-1042244",
    "request_type": "Abandoned Vehicles",
    "request_reason": "Abandoned/Junk Vehicles",
    "date_created": "2023-10-10T16:17:46.000",
    "date_modified": "2023-10-10T16:17:46.000",
    "request_status": "Pending",
    "responsible_agency": "Department of Public Works",
    "final_address": "4715 Constance St",
    "address_councildis": "B",
    "status": "Pending",
    "rowid": "1042244",
    "final_x": "3669831.50727",
    "final_y": "518325.385142",
    "longitude": "-90.10536182769842",
    "latitude": "29.91956387659835",
    "geocoded_column": {
      "latitude": "29.91956387659835",
      "longitude": "-90.10536182769842"
    }
  },
  {
    "service_request": "2023-1042243",
    "request_type": "Trash/Recycling",
    "request_reason": "Request a Large Item Pick Up",
    "date_created": "2023-10-10T16:16:56.000",
    "date_modified": "2023-10-10T16:16:57.000",
    "request_status": "Pending",
    "responsible_agency": "Department of Sanitation",
    "final_address": "6954 Foch Rd",
    "address_councildis": "D",
    "status": "Assigned to Contractor",
    "contractor": "Waste Pro",
    "rowid": "1042243",
    "final_x": "3696456.46999",
    "final_y": "556667.512026",
    "longitude": "-90.01993324472464",
    "latitude": "30.024179558756934",
    "geocoded_column": {
      "latitude": "30.024179558756934",
      "longitude": "-90.01993324472464"
    }
  },
  {
    "service_request": "2023-1042242",
    "request_type": "Trash/Recycling",
    "request_reason": "Request a Large Item Pick Up",
    "date_created": "2023-10-10T16:14:22.000",
    "date_modified": "2023-10-10T16:14:22.000",
    "request_status": "Pending",
    "responsible_agency": "Department of Sanitation",
    "final_address": "7661 Dune Dr",
    "address_councildis": "E",
    "status": "Assigned to Contractor",
    "contractor": "Waste Pro",
    "rowid": "1042242",
    "final_x": "3715302.53752",
    "final_y": "569276.18679",
    "longitude": "-89.95990630437994",
    "latitude": "30.058240875335773",
    "geocoded_column": {
      "latitude": "30.058240875335773",
      "longitude": "-89.95990630437994"
    }
  },
  {
    "service_request": "2023-1042241",
    "request_type": "Traffic Signals/Signs/Striping/Streetlights",
    "request_reason": "Street Light Outage/Malfunction",
    "date_created": "2023-10-10T16:10:08.000",
    "date_modified": "2023-10-10T16:10:09.000",
    "request_status": "Pending",
    "responsible_agency": "Department of Public Works",
    "final_address": "5815 Catina St",
    "address_councildis": "A",
    "status": "Assigned to Contractor",
    "contractor": "Legacy Professional Services",
    "rowid": "1042241",
    "final_x": "3666811.6466",
    "final_y": "546336.34504",
    "longitude": "-90.11395314890183",
    "latitude": "29.996673464699793",
    "geocoded_column": {
      "latitude": "29.996673464699793",
      "longitude": "-90.11395314890183"
    }
  },
  {
    "service_request": "2023-1042240",
    "request_type": "Trash/Recycling",
    "request_reason": "Request a Large Item Pick Up",
    "date_created": "2023-10-10T16:07:02.000",
    "date_modified": "2023-10-10T16:07:03.000",
    "request_status": "Pending",
    "responsible_agency": "Department of Sanitation",
    "final_address": "11201 Morrison Rd",
    "address_councildis": "E",
    "status": "Assigned to Contractor",
    "contractor": "Waste Pro",
    "rowid": "1042240",
    "final_x": "3711566.52568",
    "final_y": "565375.900514",
    "longitude": "-89.97186180607981",
    "latitude": "30.0476392737113",
    "geocoded_column": {
      "latitude": "30.0476392737113",
      "longitude": "-89.97186180607981"
    }
  },
  {
    "service_request": "2023-1042239",
    "request_type": "Trash/Recycling",
    "request_reason": "Return Trash Cart",
    "date_created": "2023-10-10T16:06:25.000",
    "date_modified": "2023-10-10T16:06:25.000",
    "request_status": "Pending",
    "responsible_agency": "Department of Sanitation",
    "final_address": "809 N Roman St",
    "address_councildis": "D",
    "status": "Assigned to Contractor",
    "contractor": "Richards Disposal",
    "rowid": "1042239",
    "final_x": "3679436.92789",
    "final_y": "535412.950086",
    "longitude": "-90.07444970724991",
    "latitude": "29.966262452626818",
    "geocoded_column": {
      "latitude": "29.966262452626818",
      "longitude": "-90.07444970724991"
    }
  },
  {
    "service_request": "2023-1042238",
    "request_type": "Roads/Drainage",
    "request_reason": "Damaged Sidewalk",
    "date_created": "2023-10-10T16:06:00.000",
    "date_modified": "2023-10-10T16:06:00.000",
    "request_status": "Pending",
    "responsible_agency": "Department of Public Works",
    "final_address": "607 St Charles Ave",
    "address_councildis": "B",
    "status": "Pending",
    "rowid": "1042238",
    "final_x": "3680549.09",
    "final_y": "528834.254016",
    "longitude": "-90.07116636746257",
    "latitude": "29.94813962379016",
    "geocoded_column": {
      "latitude": "29.94813962379016",
      "longitude": "-90.07116636746257"
    }
  },
  {
    "service_request": "2023-1042237",
    "request_type": "Property Maintenance",
    "request_reason": "Property Maintenance",
    "date_created": "2023-10-10T16:05:44.000",
    "date_modified": "2023-10-10T16:05:44.000",
    "request_status": "Pending",
    "responsible_agency": "Department of Code Enforcement",
    "final_address": "2531 Verbena St",
    "address_councildis": "D",
    "status": "Pending",
    "rowid": "1042237",
    "final_x": "3686592.41986",
    "final_y": "547806.894802",
    "longitude": "-90.05141497435581",
    "latitude": "30.000123307200358",
    "geocoded_column": {
      "latitude": "30.000123307200358",
      "longitude": "-90.05141497435581"
    }
  },
  {
    "service_request": "2023-1042236",
    "request_type": "Trash/Recycling",
    "request_reason": "Request a Large Item Pick Up",
    "date_created": "2023-10-10T16:05:06.000",
    "date_modified": "2023-10-10T16:05:07.000",
    "request_status": "Pending",
    "responsible_agency": "Department of Sanitation",
    "final_address": "2027 Socrates St",
    "address_councildis": "C",
    "status": "Assigned to Contractor",
    "contractor": "Richards Disposal",
    "rowid": "1042236",
    "final_x": "3691615.88502",
    "final_y": "526200.907134",
    "longitude": "-90.03631823696804",
    "latitude": "29.940558991928366",
    "geocoded_column": {
      "latitude": "29.940558991928366",
      "longitude": "-90.03631823696804"
    }
  },
  {
    "service_request": "2023-1042235",
    "request_type": "Abandoned Vehicles",
    "request_reason": "Abandoned/Junk Vehicles",
    "date_created": "2023-10-10T16:02:59.000",
    "date_modified": "2023-10-10T16:02:59.000",
    "request_status": "Pending",
    "responsible_agency": "Department of Public Works",
    "final_address": "4623 Danneel St",
    "address_councildis": "B",
    "status": "Pending",
    "rowid": "1042235",
    "final_x": "3669761.94663",
    "final_y": "522269.276602",
    "longitude": "-90.10544799381287",
    "latitude": "29.93041037311853",
    "geocoded_column": {
      "latitude": "29.93041037311853",
      "longitude": "-90.10544799381287"
    }
  },
  {
    "service_request": "2023-1042234",
    "request_type": "Trash/Recycling",
    "request_reason": "Request a Large Item Pick Up",
    "date_created": "2023-10-10T15:59:30.000",
    "date_modified": "2023-10-10T15:59:30.000",
    "request_status": "Pending",
    "responsible_agency": "Department of Sanitation",
    "final_address": "6542 Virgilian St",
    "address_councildis": "D",
    "status": "Assigned to Contractor",
    "contractor": "Waste Pro",
    "rowid": "1042234",
    "final_x": "3697214.31504",
    "final_y": "555374.200153",
    "longitude": "-90.01758553408598",
    "latitude": "30.02059953569368",
    "geocoded_column": {
      "latitude": "30.02059953569368",
      "longitude": "-90.01758553408598"
    }
  },
  {
    "service_request": "2023-1042232",
    "request_type": "Trash/Recycling",
    "request_reason": "Repair Trash Cart",
    "date_created": "2023-10-10T15:56:55.000",
    "date_modified": "2023-10-10T15:56:56.000",
    "request_status": "Pending",
    "responsible_agency": "Department of Sanitation",
    "final_address": "7540 Michigan St",
    "address_councildis": "E",
    "status": "Assigned to Contractor",
    "contractor": "Waste Pro",
    "rowid": "1042232",
    "final_x": "3712044.99026",
    "final_y": "566047.128099",
    "longitude": "-89.97032437143946",
    "latitude": "30.049469237368257",
    "geocoded_column": {
      "latitude": "30.049469237368257",
      "longitude": "-89.97032437143946"
    }
  },
  {
    "service_request": "2023-1042231",
    "request_type": "Roads/Drainage",
    "request_reason": "Street Flooding / Drainage",
    "date_created": "2023-10-10T15:56:50.000",
    "date_modified": "2023-10-10T15:56:51.000",
    "request_status": "Pending",
    "responsible_agency": "Department of Public Works",
    "final_address": "7675 Kingsport Blvd",
    "address_councildis": "E",
    "status": "Pending",
    "rowid": "1042231",
    "final_x": "3719722.47167",
    "final_y": "573179.605417",
    "longitude": "-89.94578613144779",
    "latitude": "30.068827231034835",
    "geocoded_column": {
      "latitude": "30.068827231034835",
      "longitude": "-89.94578613144779"
    }
  },
  {
    "service_request": "2023-1042230",
    "request_type": "Trash/Recycling",
    "request_reason": "Request a Large Item Pick Up",
    "date_created": "2023-10-10T15:55:46.000",
    "date_modified": "2023-10-10T15:55:47.000",
    "request_status": "Pending",
    "responsible_agency": "Department of Sanitation",
    "final_address": "7670 Branch Dr",
    "address_councildis": "E",
    "status": "Assigned to Contractor",
    "contractor": "Waste Pro",
    "rowid": "1042230",
    "final_x": "3714555.95851",
    "final_y": "568863.263397",
    "longitude": "-89.9622817526227",
    "latitude": "30.057130090056642",
    "geocoded_column": {
      "latitude": "30.057130090056642",
      "longitude": "-89.9622817526227"
    }
  },
  {
    "service_request": "2023-1042229",
    "request_type": "Parks & Parkways",
    "request_reason": "Tree Stump (removal, grind)",
    "date_created": "2023-10-10T15:52:55.000",
    "date_modified": "2023-10-10T15:52:55.000",
    "request_status": "Pending",
    "responsible_agency": "Department of Parks & Parkway",
    "final_address": "1300 BLK Jena St",
    "address_councildis": "B",
    "status": "Pending",
    "rowid": "1042229",
    "final_x": "3670515.04903",
    "final_y": "520155.665513",
    "longitude": "-90.10314219437628",
    "latitude": "29.924576406087418",
    "geocoded_column": {
      "latitude": "29.924576406087418",
      "longitude": "-90.10314219437628"
    }
  },
  {
    "service_request": "2023-1042228",
    "request_type": "Trash/Recycling",
    "request_reason": "Repair Recycling Cart",
    "date_created": "2023-10-10T15:52:21.000",
    "date_modified": "2023-10-10T15:52:21.000",
    "request_status": "Pending",
    "responsible_agency": "Department of Sanitation",
    "final_address": "1217 Jena St",
    "address_councildis": "B",
    "status": "Pending",
    "rowid": "1042228",
    "final_x": "3670613.54676",
    "final_y": "519943.063672",
    "longitude": "-90.10283847648998",
    "latitude": "29.923988910636496",
    "geocoded_column": {
      "latitude": "29.923988910636496",
      "longitude": "-90.10283847648998"
    }
  },
  {
    "service_request": "2023-1042227",
    "request_type": "Trash/Recycling",
    "request_reason": "MIssed Recycling Pick-Up",
    "date_created": "2023-10-10T15:51:40.000",
    "date_modified": "2023-10-10T15:51:40.000",
    "request_status": "Pending",
    "responsible_agency": "Department of Sanitation",
    "final_address": "1217 Jena St",
    "address_councildis": "B",
    "status": "Assigned to Contractor",
    "contractor": "Richards Disposal",
    "rowid": "1042227",
    "final_x": "3670613.54676",
    "final_y": "519943.063672",
    "longitude": "-90.10283847648998",
    "latitude": "29.923988910636496",
    "geocoded_column": {
      "latitude": "29.923988910636496",
      "longitude": "-90.10283847648998"
    }
  },
  {
    "service_request": "2023-1042225",
    "request_type": "Trash/Recycling",
    "request_reason": "Missed Trash Pick-Up",
    "date_created": "2023-10-10T15:49:20.000",
    "date_modified": "2023-10-10T17:10:20.000",
    "case_close_date": "2023-10-10T12:10:20.000",
    "request_status": "Closed",
    "responsible_agency": "Department of Sanitation",
    "final_address": "7810 Mackenzie St",
    "address_councildis": "E",
    "status": "Invalid Request",
    "contractor": "Waste Pro",
    "contractor_action": "Invalid Pick-Up",
    "rowid": "1042225",
    "final_x": "3710562.42257",
    "final_y": "566690.835747",
    "longitude": "-89.97498603427654",
    "latitude": "30.05128758063742",
    "geocoded_column": {
      "latitude": "30.05128758063742",
      "longitude": "-89.97498603427654"
    }
  },
  {
    "service_request": "2023-1042224",
    "request_type": "Trash/Recycling",
    "request_reason": "Repair Trash Cart",
    "date_created": "2023-10-10T15:48:02.000",
    "date_modified": "2023-10-10T15:48:03.000",
    "request_status": "Pending",
    "responsible_agency": "Department of Sanitation",
    "final_address": "3141 Dickens Dr",
    "address_councildis": "C",
    "status": "Assigned to Contractor",
    "contractor": "Richards Disposal",
    "rowid": "1042224",
    "final_x": "3708267.4458",
    "final_y": "518636.748599",
    "longitude": "-89.98402816632115",
    "latitude": "29.91923145069448",
    "geocoded_column": {
      "latitude": "29.91923145069448",
      "longitude": "-89.98402816632115"
    }
  },
  {
    "service_request": "2023-1042222",
    "request_type": "Trash/Recycling",
    "request_reason": "Request a Large Item Pick Up",
    "date_created": "2023-10-10T15:46:02.000",
    "date_modified": "2023-10-10T15:46:03.000",
    "request_status": "Pending",
    "responsible_agency": "Department of Sanitation",
    "final_address": "5018 Loyola Ave",
    "address_councildis": "B",
    "status": "Assigned to Contractor",
    "contractor": "Richards Disposal",
    "rowid": "1042222",
    "final_x": "3668643.9305",
    "final_y": "522813.860475",
    "longitude": "-90.10895904011636",
    "latitude": "29.931940700458362",
    "geocoded_column": {
      "latitude": "29.931940700458362",
      "longitude": "-90.10895904011636"
    }
  },
  {
    "service_request": "2023-1042221",
    "request_type": "Roads/Drainage",
    "request_reason": "Pothole",
    "date_created": "2023-10-10T15:43:54.000",
    "date_modified": "2023-10-10T15:43:54.000",
    "request_status": "Pending",
    "responsible_agency": "Department of Public Works",
    "final_address": "1421 Constantinople St",
    "address_councildis": "B",
    "status": "Pending",
    "rowid": "1042221",
    "final_x": "3672433.24257",
    "final_y": "520667.657465",
    "longitude": "-90.09706965638372",
    "latitude": "29.925927453713577",
    "geocoded_column": {
      "latitude": "29.925927453713577",
      "longitude": "-90.09706965638372"
    }
  },
  {
    "service_request": "2023-1042220",
    "request_type": "Trash/Recycling",
    "request_reason": "Order Trash Cart",
    "date_created": "2023-10-10T15:43:24.000",
    "date_modified": "2023-10-10T15:43:24.000",
    "request_status": "Pending",
    "responsible_agency": "Department of Sanitation",
    "final_address": "7726 Mackenzie St",
    "address_councildis": "E",
    "status": "Assigned to Contractor",
    "contractor": "Waste Pro",
    "rowid": "1042220",
    "final_x": "3710675.63729",
    "final_y": "566526.105571",
    "longitude": "-89.97463437679718",
    "latitude": "30.05083094857042",
    "geocoded_column": {
      "latitude": "30.05083094857042",
      "longitude": "-89.97463437679718"
    }
  },
  {
    "service_request": "2023-1042219",
    "request_type": "Trash/Recycling",
    "request_reason": "Request a Large Item Pick Up",
    "date_created": "2023-10-10T15:42:12.000",
    "date_modified": "2023-10-10T15:42:13.000",
    "request_status": "Pending",
    "responsible_agency": "Department of Sanitation",
    "final_address": "8561 Huntington Park Dr",
    "address_councildis": "E",
    "status": "Assigned to Contractor",
    "contractor": "Waste Pro",
    "rowid": "1042219",
    "final_x": "3705389.43895",
    "final_y": "560301.809629",
    "longitude": "-89.99157247797525",
    "latitude": "30.033887892423074",
    "geocoded_column": {
      "latitude": "30.033887892423074",
      "longitude": "-89.99157247797525"
    }
  },
  {
    "service_request": "2023-1042218",
    "request_type": "Abandoned Vehicles",
    "request_reason": "Abandoned/Junk Vehicles",
    "date_created": "2023-10-10T15:41:33.000",
    "date_modified": "2023-10-10T15:41:33.000",
    "request_status": "Pending",
    "responsible_agency": "Department of Public Works",
    "final_address": "4114 Clematis St",
    "address_councildis": "D",
    "status": "Pending",
    "rowid": "1042218",
    "final_x": "3685118.60924",
    "final_y": "548087.268754",
    "longitude": "-90.05606093812898",
    "latitude": "30.000939489384063",
    "geocoded_column": {
      "latitude": "30.000939489384063",
      "longitude": "-90.05606093812898"
    }
  },
  {
    "service_request": "2023-1042217",
    "request_type": "Roads/Drainage",
    "request_reason": "Debris in Roadway",
    "date_created": "2023-10-10T15:36:51.000",
    "date_modified": "2023-10-10T15:36:52.000",
    "request_status": "Pending",
    "responsible_agency": "Department of Public Works",
    "final_address": "2600 BLK Loyola Ave",
    "address_councildis": "B",
    "status": "Pending",
    "rowid": "1042217",
    "final_x": "3675132.85311",
    "final_y": "524573.324985",
    "longitude": "-90.08841382184416",
    "latitude": "29.93658640663722",
    "geocoded_column": {
      "latitude": "29.93658640663722",
      "longitude": "-90.08841382184416"
    }
  },
  {
    "service_request": "2023-1042216",
    "request_type": "Roads/Drainage",
    "request_reason": "Pothole",
    "date_created": "2023-10-10T15:36:10.000",
    "date_modified": "2023-10-10T15:36:10.000",
    "request_status": "Pending",
    "responsible_agency": "Department of Public Works",
    "final_address": "1300 Milan St",
    "address_councildis": "B",
    "status": "Pending",
    "rowid": "1042216",
    "final_x": "3671629.15374",
    "final_y": "520175.7502",
    "longitude": "-90.0996246518961",
    "latitude": "29.924598696141217",
    "geocoded_column": {
      "latitude": "29.924598696141217",
      "longitude": "-90.0996246518961"
    }
  },
  {
    "service_request": "2023-1042215",
    "request_type": "Trash/Recycling",
    "request_reason": "Request a Large Item Pick Up",
    "date_created": "2023-10-10T15:33:46.000",
    "date_modified": "2023-10-10T15:33:47.000",
    "request_status": "Pending",
    "responsible_agency": "Department of Sanitation",
    "final_address": "8612 Hayne Blvd",
    "address_councildis": "E",
    "status": "Assigned to Contractor",
    "contractor": "Waste Pro",
    "rowid": "1042215",
    "final_x": "3703581.60503",
    "final_y": "563628.768673",
    "longitude": "-89.99716281136293",
    "latitude": "30.043093806971967",
    "geocoded_column": {
      "latitude": "30.043093806971967",
      "longitude": "-89.99716281136293"
    }
  },
  {
    "service_request": "2023-1042214",
    "request_type": "Trash/Recycling",
    "request_reason": "Replace Trash Cart",
    "date_created": "2023-10-10T15:32:39.000",
    "date_modified": "2023-10-10T15:32:40.000",
    "request_status": "Pending",
    "responsible_agency": "Department of Sanitation",
    "final_address": "5928 Milne Blvd",
    "address_councildis": "A",
    "status": "Assigned to Contractor",
    "contractor": "IV Waste",
    "rowid": "1042214",
    "final_x": "3666925.78266",
    "final_y": "547345.574033",
    "longitude": "-90.1135586601324",
    "latitude": "29.999445156828873",
    "geocoded_column": {
      "latitude": "29.999445156828873",
      "longitude": "-90.1135586601324"
    }
  },
  {
    "service_request": "2023-1042213",
    "request_type": "Trash/Recycling",
    "request_reason": "Repair Trash Cart",
    "date_created": "2023-10-10T15:29:36.000",
    "date_modified": "2023-10-10T15:29:36.000",
    "request_status": "Pending",
    "responsible_agency": "Department of Sanitation",
    "final_address": "1669 Duels St",
    "address_councildis": "D",
    "status": "Assigned to Contractor",
    "contractor": "IV Waste",
    "rowid": "1042213",
    "final_x": "3680592.60546",
    "final_y": "542279.773261",
    "longitude": "-90.07056111899684",
    "latitude": "29.98510887602974",
    "geocoded_column": {
      "latitude": "29.98510887602974",
      "longitude": "-90.07056111899684"
    }
  },
  {
    "service_request": "2023-1042212",
    "request_type": "Trash/Recycling",
    "request_reason": "Order Trash Cart",
    "date_created": "2023-10-10T15:26:59.000",
    "date_modified": "2023-10-10T15:27:00.000",
    "request_status": "Pending",
    "responsible_agency": "Department of Sanitation",
    "final_address": "7921 Forshey St",
    "address_councildis": "B",
    "status": "Assigned to Contractor",
    "contractor": "Richards Disposal",
    "rowid": "1042212",
    "final_x": "3667468.01172",
    "final_y": "533541.081093",
    "longitude": "-90.11231043758164",
    "latitude": "29.961471576547172",
    "geocoded_column": {
      "latitude": "29.961471576547172",
      "longitude": "-90.11231043758164"
    }
  },
  {
    "service_request": "2023-1042211",
    "request_type": "Roads/Drainage",
    "request_reason": "Pothole",
    "date_created": "2023-10-10T15:26:42.000",
    "date_modified": "2023-10-10T15:26:42.000",
    "request_status": "Pending",
    "responsible_agency": "Department of Public Works",
    "final_address": "3522 Annunciation St",
    "address_councildis": "B",
    "status": "Pending",
    "rowid": "1042211",
    "final_x": "3674637.01358",
    "final_y": "518251.02879",
    "longitude": "-90.09019575621339",
    "latitude": "29.919216938696632",
    "geocoded_column": {
      "latitude": "29.919216938696632",
      "longitude": "-90.09019575621339"
    }
  },
  {
    "service_request": "2023-1042210",
    "request_type": "Roads/Drainage",
    "request_reason": "Pothole",
    "date_created": "2023-10-10T15:26:42.000",
    "date_modified": "2023-10-10T15:26:42.000",
    "request_status": "Pending",
    "responsible_agency": "Department of Public Works",
    "final_address": "1312 Milan St",
    "address_councildis": "B",
    "status": "Pending",
    "rowid": "1042210",
    "final_x": "3671625.82823",
    "final_y": "520286.919608",
    "longitude": "-90.09963137110304",
    "latitude": "29.92490447494246",
    "geocoded_column": {
      "latitude": "29.92490447494246",
      "longitude": "-90.09963137110304"
    }
  },
  {
    "service_request": "2023-1042209",
    "request_type": "Trash/Recycling",
    "request_reason": "Order Trash Cart",
    "date_created": "2023-10-10T15:25:48.000",
    "date_modified": "2023-10-10T15:26:29.000",
    "request_status": "Pending",
    "responsible_agency": "Department of Sanitation",
    "final_address": "7919 Forshey St",
    "address_councildis": "B",
    "status": "Assigned to Contractor",
    "contractor": "Richards Disposal",
    "rowid": "1042209",
    "final_x": "3667477.64551",
    "final_y": "533531.036421",
    "longitude": "-90.11228035362828",
    "latitude": "29.961443674731306",
    "geocoded_column": {
      "latitude": "29.961443674731306",
      "longitude": "-90.11228035362828"
    }
  },
  {
    "service_request": "2023-1042208",
    "request_type": "Trash/Recycling",
    "request_reason": "Repair Recycling Cart",
    "date_created": "2023-10-10T15:24:41.000",
    "date_modified": "2023-10-10T15:24:42.000",
    "request_status": "Pending",
    "responsible_agency": "Department of Sanitation",
    "final_address": "2338 General Pershing St",
    "address_councildis": "B",
    "status": "Pending",
    "rowid": "1042208",
    "final_x": "3670923.64993",
    "final_y": "523688.417083",
    "longitude": "-90.10173251270507",
    "latitude": "29.934278271528637",
    "geocoded_column": {
      "latitude": "29.934278271528637",
      "longitude": "-90.10173251270507"
    }
  },
  {
    "service_request": "2023-1042207",
    "request_type": "Parks & Parkways",
    "request_reason": "Request Tree Service (Right of Way/Public Property)",
    "date_created": "2023-10-10T15:23:53.000",
    "date_modified": "2023-10-10T15:23:53.000",
    "request_status": "Pending",
    "responsible_agency": "Department of Parks & Parkway",
    "final_address": "3600 Utah St",
    "address_councildis": "C",
    "status": "Pending",
    "rowid": "1042207",
    "final_x": "3695556.16138",
    "final_y": "518102.981622",
    "longitude": "-90.02417029329527",
    "latitude": "29.918169233932424",
    "geocoded_column": {
      "latitude": "29.918169233932424",
      "longitude": "-90.02417029329527"
    }
  },
  {
    "service_request": "2023-1042206",
    "request_type": "Trash/Recycling",
    "request_reason": "Request a Large Item Pick Up",
    "date_created": "2023-10-10T15:22:41.000",
    "date_modified": "2023-10-10T15:22:41.000",
    "request_status": "Pending",
    "responsible_agency": "Department of Sanitation",
    "final_address": "7532 Briarheath Dr",
    "address_councildis": "E",
    "status": "Assigned to Contractor",
    "contractor": "Waste Pro",
    "rowid": "1042206",
    "final_x": "3714938.89976",
    "final_y": "566858.458852",
    "longitude": "-89.96114722948984",
    "latitude": "30.05160509564644",
    "geocoded_column": {
      "latitude": "30.05160509564644",
      "longitude": "-89.96114722948984"
    }
  },
  {
    "service_request": "2023-1042205",
    "request_type": "Roads/Drainage",
    "request_reason": "Pothole",
    "date_created": "2023-10-10T15:22:26.000",
    "date_modified": "2023-10-10T15:22:26.000",
    "request_status": "Pending",
    "responsible_agency": "Department of Public Works",
    "final_address": "4216 Chestnut St",
    "address_councildis": "B",
    "status": "Pending",
    "rowid": "1042205",
    "final_x": "3671574.31393",
    "final_y": "519539.203703",
    "longitude": "-90.09981939416457",
    "latitude": "29.922850019854593",
    "geocoded_column": {
      "latitude": "29.922850019854593",
      "longitude": "-90.09981939416457"
    }
  },
  {
    "service_request": "2023-1042204",
    "request_type": "Roads/Drainage",
    "request_reason": "Accessibility Ramps, Curbs and Sidewalk Repair",
    "date_created": "2023-10-10T15:21:51.000",
    "date_modified": "2023-10-10T15:21:51.000",
    "request_status": "Pending",
    "responsible_agency": "Department of Public Works",
    "final_address": "1333 Coliseum St",
    "address_councildis": "B",
    "status": "Pending",
    "rowid": "1042204",
    "final_x": "3679981.79944",
    "final_y": "525096.268989",
    "longitude": "-90.07308734169115",
    "latitude": "29.937878580071118",
    "geocoded_column": {
      "latitude": "29.937878580071118",
      "longitude": "-90.07308734169115"
    }
  },
  {
    "service_request": "2023-1042203",
    "request_type": "Property Maintenance",
    "request_reason": "Property Maintenance",
    "date_created": "2023-10-10T15:21:19.000",
    "date_modified": "2023-10-10T15:21:19.000",
    "request_status": "Pending",
    "responsible_agency": "Department of Code Enforcement",
    "final_address": "4921 Papania Dr",
    "address_councildis": "E",
    "status": "Pending",
    "rowid": "1042203",
    "final_x": "3715591.04012",
    "final_y": "557608.447643",
    "longitude": "-89.95943659500942",
    "latitude": "30.026149810148475",
    "geocoded_column": {
      "latitude": "30.026149810148475",
      "longitude": "-89.95943659500942"
    }
  },
  {
    "service_request": "2023-1042202",
    "request_type": "Abandoned Vehicles",
    "request_reason": "Abandoned/Junk Vehicles",
    "date_created": "2023-10-10T15:20:35.000",
    "date_modified": "2023-10-10T15:24:54.000",
    "request_status": "Pending",
    "responsible_agency": "Department of Public Works",
    "final_address": "1011 Port St",
    "address_councildis": "C",
    "status": "Pending",
    "rowid": "1042202",
    "final_x": "3687366.44591",
    "final_y": "536056.179847",
    "longitude": "-90.04938574405226",
    "latitude": "29.967789183022887",
    "geocoded_column": {
      "latitude": "29.967789183022887",
      "longitude": "-90.04938574405226"
    }
  },
  {
    "service_request": "2023-1042201",
    "request_type": "Trash/Recycling",
    "request_reason": "Missed Trash Pick-Up",
    "date_created": "2023-10-10T15:17:17.000",
    "date_modified": "2023-10-10T15:17:18.000",
    "request_status": "Pending",
    "responsible_agency": "Department of Sanitation",
    "final_address": "6828 Canal Blvd",
    "address_councildis": "A",
    "status": "Assigned to Contractor",
    "contractor": "IV Waste",
    "rowid": "1042201",
    "final_x": "3668834.88276",
    "final_y": "552944.804567",
    "longitude": "-90.10733847996597",
    "latitude": "30.01478506486074",
    "geocoded_column": {
      "latitude": "30.01478506486074",
      "longitude": "-90.10733847996597"
    }
  },
  {
    "service_request": "2023-1042200",
    "request_type": "Abandoned Vehicles",
    "request_reason": "Abandoned/Junk Vehicles",
    "date_created": "2023-10-10T15:17:00.000",
    "date_modified": "2023-10-10T15:20:49.000",
    "request_status": "Pending",
    "responsible_agency": "Department of Public Works",
    "final_address": "LAMANCHE ST & N ROMAN ST",
    "address_councildis": "E",
    "status": "Pending",
    "rowid": "1042200",
    "final_x": "3699066.6",
    "final_y": "536293.98",
    "longitude": "-90.01242788882188",
    "latitude": "29.968077371399104",
    "geocoded_column": {
      "latitude": "29.968077371399104",
      "longitude": "-90.01242788882188"
    }
  },
  {
    "service_request": "2023-1042199",
    "request_type": "Roads/Drainage",
    "request_reason": "Pothole",
    "date_created": "2023-10-10T15:13:58.000",
    "date_modified": "2023-10-10T15:13:58.000",
    "request_status": "Pending",
    "responsible_agency": "Department of Public Works",
    "final_address": "1315 Peniston St",
    "address_councildis": "B",
    "status": "Pending",
    "rowid": "1042199",
    "final_x": "3673101.31451",
    "final_y": "520423.11276",
    "longitude": "-90.09496908964098",
    "latitude": "29.925235197927364",
    "geocoded_column": {
      "latitude": "29.925235197927364",
      "longitude": "-90.09496908964098"
    }
  },
  {
    "service_request": "2023-1042198",
    "request_type": "Trash/Recycling",
    "request_reason": "Request a Large Item Pick Up",
    "date_created": "2023-10-10T15:13:41.000",
    "date_modified": "2023-10-10T15:13:42.000",
    "request_status": "Pending",
    "responsible_agency": "Department of Sanitation",
    "final_address": "1310 Seville Dr",
    "address_councildis": "D",
    "status": "Assigned to Contractor",
    "contractor": "IV Waste",
    "rowid": "1042198",
    "final_x": "3677296.06459",
    "final_y": "551033.564949",
    "longitude": "-90.08067123170638",
    "latitude": "30.00927820051761",
    "geocoded_column": {
      "latitude": "30.00927820051761",
      "longitude": "-90.08067123170638"
    }
  },
  {
    "service_request": "2023-1042197",
    "request_type": "Trash/Recycling",
    "request_reason": "Order Trash Cart",
    "date_created": "2023-10-10T15:10:28.000",
    "date_modified": "2023-10-10T15:10:29.000",
    "request_status": "Pending",
    "responsible_agency": "Department of Sanitation",
    "final_address": "7300 BLK Zimpel St",
    "address_councildis": "A",
    "status": "Assigned to Contractor",
    "contractor": "Richards Disposal",
    "rowid": "1042197",
    "final_x": "3663598.554",
    "final_y": "526441.836996",
    "longitude": "-90.12476603500481",
    "latitude": "29.942063759547636",
    "geocoded_column": {
      "latitude": "29.942063759547636",
      "longitude": "-90.12476603500481"
    }
  },
  {
    "service_request": "2023-1042196",
    "request_type": "Trash/Recycling",
    "request_reason": "Request a Large Item Pick Up",
    "date_created": "2023-10-10T15:05:20.000",
    "date_modified": "2023-10-10T15:05:21.000",
    "request_status": "Pending",
    "responsible_agency": "Department of Sanitation",
    "final_address": "2618 St Anthony St",
    "address_councildis": "D",
    "status": "Assigned to Contractor",
    "contractor": "IV Waste",
    "rowid": "1042196",
    "final_x": "3683016.94236",
    "final_y": "541907.437388",
    "longitude": "-90.06291671177935",
    "latitude": "29.98401139718744",
    "geocoded_column": {
      "latitude": "29.98401139718744",
      "longitude": "-90.06291671177935"
    }
  },
  {
    "service_request": "2023-1042195",
    "request_type": "Trash/Recycling",
    "request_reason": "Request a Large Item Pick Up",
    "date_created": "2023-10-10T15:02:31.000",
    "date_modified": "2023-10-10T15:03:05.000",
    "request_status": "Pending",
    "responsible_agency": "Department of Sanitation",
    "final_address": "1736 Port St",
    "address_councildis": "D",
    "status": "Assigned to Contractor",
    "contractor": "IV Waste",
    "rowid": "1042195",
    "final_x": "3688041.23062",
    "final_y": "538936.236234",
    "longitude": "-90.04715266753841",
    "latitude": "29.975687519536496",
    "geocoded_column": {
      "latitude": "29.975687519536496",
      "longitude": "-90.04715266753841"
    }
  },
  {
    "service_request": "2023-1042194",
    "request_type": "Trash/Recycling",
    "request_reason": "Request a Large Item Pick Up",
    "date_created": "2023-10-10T15:01:22.000",
    "date_modified": "2023-10-10T15:01:23.000",
    "request_status": "Pending",
    "responsible_agency": "Department of Sanitation",
    "final_address": "1829 Fourth St",
    "address_councildis": "B",
    "status": "Assigned to Contractor",
    "contractor": "Richards Disposal",
    "rowid": "1042194",
    "final_x": "3675667.23169",
    "final_y": "523553.791355",
    "longitude": "-90.08676178126679",
    "latitude": "29.933767047150177",
    "geocoded_column": {
      "latitude": "29.933767047150177",
      "longitude": "-90.08676178126679"
    }
  },
  {
    "service_request": "2023-1042193",
    "request_type": "Trash/Recycling",
    "request_reason": "Repair Recycling Cart",
    "date_created": "2023-10-10T14:59:40.000",
    "date_modified": "2023-10-10T14:59:41.000",
    "request_status": "Pending",
    "responsible_agency": "Department of Sanitation",
    "final_address": "6330 Debore Dr",
    "address_councildis": "D",
    "status": "Pending",
    "rowid": "1042193",
    "final_x": "3690728.8568",
    "final_y": "556822.731546",
    "longitude": "-90.03802583228861",
    "latitude": "30.024785628602135",
    "geocoded_column": {
      "latitude": "30.024785628602135",
      "longitude": "-90.03802583228861"
    }
  },
  {
    "service_request": "2023-1042192",
    "request_type": "Abandoned Vehicles",
    "request_reason": "Abandoned/Junk Vehicles",
    "date_created": "2023-10-10T14:59:10.000",
    "date_modified": "2023-10-10T14:59:11.000",
    "request_status": "Pending",
    "responsible_agency": "Department of Public Works",
    "final_address": "1800 BLK Egania St",
    "address_councildis": "E",
    "status": "Pending",
    "rowid": "1042192",
    "final_x": "3697586.77178",
    "final_y": "536856.062887",
    "longitude": "-90.01708082534988",
    "latitude": "29.969669722015308",
    "geocoded_column": {
      "latitude": "29.969669722015308",
      "longitude": "-90.01708082534988"
    }
  },
  {
    "service_request": "2023-1042191",
    "request_type": "Traffic Signals/Signs/Striping/Streetlights",
    "request_reason": "Traffic Signal Malfunctioning/Damaged",
    "date_created": "2023-10-10T14:56:47.000",
    "date_modified": "2023-10-10T14:56:47.000",
    "request_status": "Pending",
    "responsible_agency": "Department of Public Works",
    "final_address": "1735 Washington Ave",
    "address_councildis": "B",
    "status": "Pending",
    "rowid": "1042191",
    "final_x": "3675578.93013",
    "final_y": "523125.411707",
    "longitude": "-90.0870552545637",
    "latitude": "29.93259178384826",
    "geocoded_column": {
      "latitude": "29.93259178384826",
      "longitude": "-90.0870552545637"
    }
  },
  {
    "service_request": "2023-1042190",
    "request_type": "Roads/Drainage",
    "request_reason": "Leaking Hydrant",
    "date_created": "2023-10-10T14:52:46.000",
    "date_modified": "2023-10-10T14:52:46.000",
    "request_status": "Pending",
    "responsible_agency": "Department of Public Works",
    "final_address": "1233 Eighth St",
    "address_councildis": "B",
    "status": "Pending",
    "rowid": "1042190",
    "final_x": "3675773.50901",
    "final_y": "520776.967033",
    "longitude": "-90.08652165636587",
    "latitude": "29.926128502605007",
    "geocoded_column": {
      "latitude": "29.926128502605007",
      "longitude": "-90.08652165636587"
    }
  },
  {
    "service_request": "2023-1042189",
    "request_type": "Trash/Recycling",
    "request_reason": "Request a Large Item Pick Up",
    "date_created": "2023-10-10T14:51:30.000",
    "date_modified": "2023-10-10T14:51:31.000",
    "request_status": "Pending",
    "responsible_agency": "Department of Sanitation",
    "final_address": "1515 Tricou St",
    "address_councildis": "E",
    "status": "Assigned to Contractor",
    "contractor": "Waste Pro",
    "rowid": "1042189",
    "final_x": "3700798.99325",
    "final_y": "534587.465989",
    "longitude": "-90.00701934214872",
    "latitude": "29.963330045185128",
    "geocoded_column": {
      "latitude": "29.963330045185128",
      "longitude": "-90.00701934214872"
    }
  },
  {
    "service_request": "2023-1042188",
    "request_type": "Trash/Recycling",
    "request_reason": "Illegal Dumping",
    "date_created": "2023-10-10T14:49:19.000",
    "date_modified": "2023-10-10T14:49:19.000",
    "request_status": "Pending",
    "responsible_agency": "Department of Sanitation",
    "final_address": "1948 Jo Ann Pl",
    "address_councildis": "C",
    "status": "Pending",
    "rowid": "1042188",
    "final_x": "3695033.32874",
    "final_y": "523431.023867",
    "longitude": "-90.02562865082953",
    "latitude": "29.932835956259943",
    "geocoded_column": {
      "latitude": "29.932835956259943",
      "longitude": "-90.02562865082953"
    }
  },
  {
    "service_request": "2023-1042187",
    "request_type": "Trash/Recycling",
    "request_reason": "Request a Large Item Pick Up",
    "date_created": "2023-10-10T14:42:38.000",
    "date_modified": "2023-10-10T14:42:39.000",
    "request_status": "Pending",
    "responsible_agency": "Department of Sanitation",
    "final_address": "5437 Provincial Pl",
    "address_councildis": "E",
    "status": "Assigned to Contractor",
    "contractor": "Waste Pro",
    "rowid": "1042187",
    "final_x": "3726275.77555",
    "final_y": "563830.000161",
    "longitude": "-89.92543310069713",
    "latitude": "30.042899928163934",
    "geocoded_column": {
      "latitude": "30.042899928163934",
      "longitude": "-89.92543310069713"
    }
  },
  {
    "service_request": "2023-1042186",
    "request_type": "Property Maintenance",
    "request_reason": "Property Maintenance",
    "date_created": "2023-10-10T14:42:19.000",
    "date_modified": "2023-10-10T14:42:19.000",
    "request_status": "Pending",
    "responsible_agency": "Department of Code Enforcement",
    "final_address": "3400 Joliet St",
    "address_councildis": "A",
    "status": "Pending",
    "rowid": "1042186",
    "final_x": "3666184.78637",
    "final_y": "535210.000006",
    "longitude": "-90.11630668368238",
    "latitude": "29.966098090397722",
    "geocoded_column": {
      "latitude": "29.966098090397722",
      "longitude": "-90.11630668368238"
    }
  },
  {
    "service_request": "2023-1042185",
    "request_type": "Trash/Recycling",
    "request_reason": "Missed Trash Pick-Up",
    "date_created": "2023-10-10T14:42:00.000",
    "date_modified": "2023-10-10T15:51:46.000",
    "case_close_date": "2023-10-10T10:51:46.000",
    "request_status": "Closed",
    "responsible_agency": "Department of Sanitation",
    "final_address": "5437 Provincial Pl",
    "address_councildis": "E",
    "status": "Invalid Request",
    "contractor": "Waste Pro",
    "contractor_action": "Invalid Pick-Up",
    "rowid": "1042185",
    "final_x": "3726275.77555",
    "final_y": "563830.000161",
    "longitude": "-89.92543310069713",
    "latitude": "30.042899928163934",
    "geocoded_column": {
      "latitude": "30.042899928163934",
      "longitude": "-89.92543310069713"
    }
  },
  {
    "service_request": "2023-1042184",
    "request_type": "Traffic Signals/Signs/Striping/Streetlights",
    "request_reason": "Street Light Outage/Malfunction",
    "date_created": "2023-10-10T14:41:58.000",
    "date_modified": "2023-10-10T14:41:59.000",
    "request_status": "Pending",
    "responsible_agency": "Department of Public Works",
    "final_address": "3613 Thalia St",
    "address_councildis": "B",
    "status": "Assigned to Contractor",
    "contractor": "Legacy Professional Services",
    "rowid": "1042184",
    "final_x": "3673002.24936",
    "final_y": "529902.222209",
    "longitude": "-90.09495841736536",
    "latitude": "29.95130260610794",
    "geocoded_column": {
      "latitude": "29.95130260610794",
      "longitude": "-90.09495841736536"
    }
  },
  {
    "service_request": "2023-1042183",
    "request_type": "Traffic Signals/Signs/Striping/Streetlights",
    "request_reason": "Street Light Outage/Malfunction",
    "date_created": "2023-10-10T14:40:53.000",
    "date_modified": "2023-10-10T14:40:53.000",
    "request_status": "Pending",
    "responsible_agency": "Department of Public Works",
    "final_address": "1412 S Dorgenois St",
    "address_councildis": "B",
    "status": "Assigned to Contractor",
    "contractor": "Legacy Professional Services",
    "rowid": "1042183",
    "final_x": "3672495.45921",
    "final_y": "529927.860033",
    "longitude": "-90.09655774038993",
    "latitude": "29.951388152318696",
    "geocoded_column": {
      "latitude": "29.951388152318696",
      "longitude": "-90.09655774038993"
    }
  },
  {
    "service_request": "2023-1042182",
    "request_type": "Property Maintenance",
    "request_reason": "Property Maintenance",
    "date_created": "2023-10-10T14:36:31.000",
    "date_modified": "2023-10-10T14:36:31.000",
    "request_status": "Pending",
    "responsible_agency": "Department of Code Enforcement",
    "final_address": "3319 Monroe St",
    "address_councildis": "A",
    "status": "Pending",
    "rowid": "1042182",
    "final_x": "3665584.53453",
    "final_y": "535453.927046",
    "longitude": "-90.1181941028687",
    "latitude": "29.96678632582062",
    "geocoded_column": {
      "latitude": "29.96678632582062",
      "longitude": "-90.1181941028687"
    }
  },
  {
    "service_request": "2023-1042181",
    "request_type": "Trash/Recycling",
    "request_reason": "Order Recycling Cart",
    "date_created": "2023-10-10T14:36:21.000",
    "date_modified": "2023-10-10T14:36:22.000",
    "request_status": "Pending",
    "responsible_agency": "Department of Sanitation",
    "final_address": "509 Henry Clay Ave",
    "address_councildis": "A",
    "status": "Pending",
    "rowid": "1042181",
    "final_x": "3663496.97607",
    "final_y": "518675.857911",
    "longitude": "-90.12534522736381",
    "latitude": "29.920712711902564",
    "geocoded_column": {
      "latitude": "29.920712711902564",
      "longitude": "-90.12534522736381"
    }
  },
  {
    "service_request": "2023-1042180",
    "request_type": "Trash/Recycling",
    "request_reason": "Order Trash Cart",
    "date_created": "2023-10-10T14:35:46.000",
    "date_modified": "2023-10-10T14:35:47.000",
    "request_status": "Pending",
    "responsible_agency": "Department of Sanitation",
    "final_address": "509 Henry Clay Ave",
    "address_councildis": "A",
    "status": "Assigned to Contractor",
    "contractor": "Richards Disposal",
    "rowid": "1042180",
    "final_x": "3663496.97607",
    "final_y": "518675.857911",
    "longitude": "-90.12534522736381",
    "latitude": "29.920712711902564",
    "geocoded_column": {
      "latitude": "29.920712711902564",
      "longitude": "-90.12534522736381"
    }
  },
  {
    "service_request": "2023-1042179",
    "request_type": "Abandoned Vehicles",
    "request_reason": "Abandoned/Junk Vehicles",
    "date_created": "2023-10-10T14:35:27.000",
    "date_modified": "2023-10-10T14:35:27.000",
    "request_status": "Pending",
    "responsible_agency": "Department of Public Works",
    "final_address": "6343 West End Blvd Apt A",
    "address_councildis": "A",
    "status": "Pending",
    "rowid": "1042179",
    "final_x": "3666701.79949",
    "final_y": "549860.422484",
    "longitude": "-90.11418170471629",
    "latitude": "30.006366674081224",
    "geocoded_column": {
      "latitude": "30.006366674081224",
      "longitude": "-90.11418170471629"
    }
  },
  {
    "service_request": "2023-1042178",
    "request_type": "Trash/Recycling",
    "request_reason": "Request a Large Item Pick Up",
    "date_created": "2023-10-10T14:32:26.000",
    "date_modified": "2023-10-10T14:32:26.000",
    "request_status": "Pending",
    "responsible_agency": "Department of Sanitation",
    "final_address": "7810 Mackenzie St",
    "address_councildis": "E",
    "status": "Assigned to Contractor",
    "contractor": "Waste Pro",
    "rowid": "1042178",
    "final_x": "3710562.42257",
    "final_y": "566690.835747",
    "longitude": "-89.97498603427654",
    "latitude": "30.05128758063742",
    "geocoded_column": {
      "latitude": "30.05128758063742",
      "longitude": "-89.97498603427654"
    }
  },
  {
    "service_request": "2023-1042177",
    "request_type": "Trash/Recycling",
    "request_reason": "Request a Large Item Pick Up",
    "date_created": "2023-10-10T14:31:58.000",
    "date_modified": "2023-10-10T14:31:58.000",
    "request_status": "Pending",
    "responsible_agency": "Department of Sanitation",
    "final_address": "7268 Endston Ct",
    "address_councildis": "E",
    "status": "Assigned to Contractor",
    "contractor": "Waste Pro",
    "rowid": "1042177",
    "final_x": "3711926.09304",
    "final_y": "564708.58397",
    "longitude": "-89.97075046457952",
    "latitude": "30.045792670660223",
    "geocoded_column": {
      "latitude": "30.045792670660223",
      "longitude": "-89.97075046457952"
    }
  },
  {
    "service_request": "2023-1042176",
    "request_type": "Trash/Recycling",
    "request_reason": "Request a Large Item Pick Up",
    "date_created": "2023-10-10T14:30:56.000",
    "date_modified": "2023-10-10T14:30:57.000",
    "request_status": "Pending",
    "responsible_agency": "Department of Sanitation",
    "final_address": "1354 Annette St",
    "address_councildis": "C",
    "status": "Assigned to Contractor",
    "contractor": "IV Waste",
    "rowid": "1042176",
    "final_x": "3683053.22018",
    "final_y": "536982.865928",
    "longitude": "-90.06297457450819",
    "latitude": "29.970469437954318",
    "geocoded_column": {
      "latitude": "29.970469437954318",
      "longitude": "-90.06297457450819"
    }
  },
  {
    "service_request": "2023-1042175",
    "request_type": "Roads/Drainage",
    "request_reason": "Damaged Sidewalk",
    "date_created": "2023-10-10T14:28:44.000",
    "date_modified": "2023-10-10T14:28:45.000",
    "request_status": "Pending",
    "responsible_agency": "Department of Public Works",
    "final_address": "7730 Mackenzie St",
    "address_councildis": "E",
    "status": "Pending",
    "rowid": "1042175",
    "final_x": "3710648.19883",
    "final_y": "566568.029667",
    "longitude": "-89.97471952843318",
    "latitude": "30.050947117438437",
    "geocoded_column": {
      "latitude": "30.050947117438437",
      "longitude": "-89.97471952843318"
    }
  },
  {
    "service_request": "2023-1042174",
    "request_type": "Trash/Recycling",
    "request_reason": "Request a Large Item Pick Up",
    "date_created": "2023-10-10T14:26:28.000",
    "date_modified": "2023-10-10T14:26:29.000",
    "request_status": "Pending",
    "responsible_agency": "Department of Sanitation",
    "final_address": "4651 Spain St",
    "address_councildis": "D",
    "status": "Assigned to Contractor",
    "contractor": "IV Waste",
    "rowid": "1042174",
    "final_x": "3685119.12021",
    "final_y": "549967.539796",
    "longitude": "-90.05599310792047",
    "latitude": "30.00610953936148",
    "geocoded_column": {
      "latitude": "30.00610953936148",
      "longitude": "-90.05599310792047"
    }
  },
  {
    "service_request": "2023-1042173",
    "request_type": "Trash/Recycling",
    "request_reason": "Return Trash Cart",
    "date_created": "2023-10-10T14:25:07.000",
    "date_modified": "2023-10-10T14:25:08.000",
    "request_status": "Pending",
    "responsible_agency": "Department of Sanitation",
    "final_address": "2710 Chestnut St",
    "address_councildis": "B",
    "status": "Assigned to Contractor",
    "contractor": "Richards Disposal",
    "rowid": "1042173",
    "final_x": "3676837.25768",
    "final_y": "521499.455737",
    "longitude": "-90.08313882292929",
    "latitude": "29.92808324202447",
    "geocoded_column": {
      "latitude": "29.92808324202447",
      "longitude": "-90.08313882292929"
    }
  },
  {
    "service_request": "2023-1042172",
    "request_type": "Parks & Parkways",
    "request_reason": "Request Tree Service (Right of Way/Public Property)",
    "date_created": "2023-10-10T14:25:01.000",
    "date_modified": "2023-10-10T14:25:02.000",
    "request_status": "Pending",
    "responsible_agency": "Department of Parks & Parkway",
    "final_address": "6565 Louisville St",
    "address_councildis": "A",
    "status": "Pending",
    "rowid": "1042172",
    "final_x": "3668194.91316",
    "final_y": "551267.323541",
    "longitude": "-90.10941709318291",
    "latitude": "30.010191393684945",
    "geocoded_column": {
      "latitude": "30.010191393684945",
      "longitude": "-90.10941709318291"
    }
  },
  {
    "service_request": "2023-1042171",
    "request_type": "Roads/Drainage",
    "request_reason": "Pothole",
    "date_created": "2023-10-10T14:24:34.000",
    "date_modified": "2023-10-10T14:24:34.000",
    "request_status": "Pending",
    "responsible_agency": "Department of Public Works",
    "final_address": "1520 Soniat St",
    "address_councildis": "B",
    "status": "Pending",
    "rowid": "1042171",
    "final_x": "3668354.97806",
    "final_y": "520640.520761",
    "longitude": "-90.10994448904981",
    "latitude": "29.92597319487051",
    "geocoded_column": {
      "latitude": "29.92597319487051",
      "longitude": "-90.10994448904981"
    }
  },
  {
    "service_request": "2023-1042170",
    "request_type": "Utility Poles",
    "request_reason": "Utility Pole Leaning",
    "date_created": "2023-10-10T14:20:52.000",
    "date_modified": "2023-10-10T14:20:54.000",
    "request_status": "Pending",
    "responsible_agency": "Utility Company Collective",
    "final_address": "1218 N Villere St",
    "address_councildis": "C",
    "status": "Pending",
    "rowid": "1042170",
    "final_x": "3681614.7668",
    "final_y": "535831.001287",
    "longitude": "-90.06755755540848",
    "latitude": "29.96734597917894",
    "geocoded_column": {
      "latitude": "29.96734597917894",
      "longitude": "-90.06755755540848"
    }
  },
  {
    "service_request": "2023-1042169",
    "request_type": "Trash/Recycling",
    "request_reason": "Request a Large Item Pick Up",
    "date_created": "2023-10-10T14:12:59.000",
    "date_modified": "2023-10-10T14:13:00.000",
    "request_status": "Pending",
    "responsible_agency": "Department of Sanitation",
    "final_address": "4026 Prytania St",
    "address_councildis": "B",
    "status": "Assigned to Contractor",
    "contractor": "Richards Disposal",
    "rowid": "1042169",
    "final_x": "3672153.85486",
    "final_y": "520403.683704",
    "longitude": "-90.09796058670182",
    "latitude": "29.925209895951717",
    "geocoded_column": {
      "latitude": "29.925209895951717",
      "longitude": "-90.09796058670182"
    }
  },
  {
    "service_request": "2023-1042168",
    "request_type": "Traffic Signals/Signs/Striping/Streetlights",
    "request_reason": "Street Light Outage/Malfunction",
    "date_created": "2023-10-10T14:09:55.000",
    "date_modified": "2023-10-10T14:10:51.000",
    "request_status": "Pending",
    "responsible_agency": "Department of Public Works",
    "final_address": "5600 BLK Glouster Rd",
    "address_councildis": "E",
    "status": "Assigned to Contractor",
    "contractor": "Legacy Professional Services",
    "rowid": "1042168",
    "final_x": "3707408.12485",
    "final_y": "558239.830158",
    "longitude": "-89.98526990084545",
    "latitude": "30.028153107445565",
    "geocoded_column": {
      "latitude": "30.028153107445565",
      "longitude": "-89.98526990084545"
    }
  },
  {
    "service_request": "2023-1042167",
    "request_type": "Trash/Recycling",
    "request_reason": "MIssed Recycling Pick-Up",
    "date_created": "2023-10-10T14:09:13.000",
    "date_modified": "2023-10-10T14:09:13.000",
    "request_status": "Pending",
    "responsible_agency": "Department of Sanitation",
    "final_address": "7103 Freret St",
    "address_councildis": "A",
    "status": "Assigned to Contractor",
    "contractor": "Richards Disposal",
    "rowid": "1042167",
    "final_x": "3663998.43578",
    "final_y": "525792.939517",
    "longitude": "-90.12352514740162",
    "latitude": "29.940267895288557",
    "geocoded_column": {
      "latitude": "29.940267895288557",
      "longitude": "-90.12352514740162"
    }
  },
  {
    "service_request": "2023-1042166",
    "request_type": "Abandoned Vehicles",
    "request_reason": "Abandoned/Junk Vehicles",
    "date_created": "2023-10-10T14:08:13.000",
    "date_modified": "2023-10-10T14:08:13.000",
    "request_status": "Pending",
    "responsible_agency": "Department of Public Works",
    "final_address": "4630 Anson St",
    "address_councildis": "C",
    "status": "Pending",
    "rowid": "1042166",
    "final_x": "3702251.25297",
    "final_y": "521618.745209",
    "longitude": "-90.0029088107356",
    "latitude": "29.92762434123319",
    "geocoded_column": {
      "latitude": "29.92762434123319",
      "longitude": "-90.0029088107356"
    }
  },
  {
    "service_request": "2023-1042165",
    "request_type": "Trash/Recycling",
    "request_reason": "Request a Large Item Pick Up",
    "date_created": "2023-10-10T14:07:17.000",
    "date_modified": "2023-10-10T14:07:18.000",
    "request_status": "Pending",
    "responsible_agency": "Department of Sanitation",
    "final_address": "4630 Anson St",
    "address_councildis": "C",
    "status": "Assigned to Contractor",
    "contractor": "Richards Disposal",
    "rowid": "1042165",
    "final_x": "3702251.25297",
    "final_y": "521618.745209",
    "longitude": "-90.0029088107356",
    "latitude": "29.92762434123319",
    "geocoded_column": {
      "latitude": "29.92762434123319",
      "longitude": "-90.0029088107356"
    }
  },
  {
    "service_request": "2023-1042164",
    "request_type": "Trash/Recycling",
    "request_reason": "Repair Recycling Cart",
    "date_created": "2023-10-10T14:06:30.000",
    "date_modified": "2023-10-10T14:08:18.000",
    "request_status": "Pending",
    "responsible_agency": "Department of Sanitation",
    "final_address": "404 16Th St",
    "address_councildis": "A",
    "rowid": "1042164",
    "final_x": "3664717.9344",
    "final_y": "548364.389266",
    "longitude": "-90.12049928506413",
    "latitude": "30.00231098910096",
    "geocoded_column": {
      "latitude": "30.00231098910096",
      "longitude": "-90.12049928506413"
    }
  },
  {
    "service_request": "2023-1042163",
    "request_type": "Traffic Signals/Signs/Striping/Streetlights",
    "request_reason": "Street Light Outage/Malfunction",
    "date_created": "2023-10-10T14:06:26.000",
    "date_modified": "2023-10-10T14:06:27.000",
    "request_status": "Pending",
    "responsible_agency": "Department of Public Works",
    "final_address": "2441 Columbus St",
    "address_councildis": "D",
    "status": "Assigned to Contractor",
    "contractor": "Legacy Professional Services",
    "rowid": "1042163",
    "final_x": "3679249.87874",
    "final_y": "539170.231562",
    "longitude": "-90.07491009241747",
    "latitude": "29.97659933564538",
    "geocoded_column": {
      "latitude": "29.97659933564538",
      "longitude": "-90.07491009241747"
    }
  },
  {
    "service_request": "2023-1042162",
    "request_type": "Traffic Signals/Signs/Striping/Streetlights",
    "request_reason": "Road Surface Marking Maintenance-Traffic Control",
    "date_created": "2023-10-10T14:04:17.000",
    "date_modified": "2023-10-10T14:04:17.000",
    "request_status": "Pending",
    "responsible_agency": "Department of Public Works",
    "final_address": "600 BLK Josephine St",
    "address_councildis": "B",
    "status": "Pending",
    "rowid": "1042162",
    "final_x": "3680162.45361",
    "final_y": "521013.695621",
    "longitude": "-90.07265880905705",
    "latitude": "29.926647383071344",
    "geocoded_column": {
      "latitude": "29.926647383071344",
      "longitude": "-90.07265880905705"
    }
  },
  {
    "service_request": "2023-1042161",
    "request_type": "Parks & Parkways",
    "request_reason": "Request Tree Service (Right of Way/Public Property)",
    "date_created": "2023-10-10T14:03:01.000",
    "date_modified": "2023-10-10T14:03:02.000",
    "request_status": "Pending",
    "responsible_agency": "Department of Parks & Parkway",
    "final_address": "3418 S Galvez St",
    "address_councildis": "B",
    "status": "Pending",
    "rowid": "1042161",
    "final_x": "3671507.68462",
    "final_y": "527658.687999",
    "longitude": "-90.09975379140288",
    "latitude": "29.945177952745595",
    "geocoded_column": {
      "latitude": "29.945177952745595",
      "longitude": "-90.09975379140288"
    }
  },
  {
    "service_request": "2023-1042160",
    "request_type": "Property Maintenance",
    "request_reason": "Property Maintenance",
    "date_created": "2023-10-10T14:01:36.000",
    "date_modified": "2023-10-10T14:01:36.000",
    "request_status": "Pending",
    "responsible_agency": "Department of Code Enforcement",
    "final_address": "7072 W Tamaron Blvd",
    "address_councildis": "E",
    "status": "Pending",
    "rowid": "1042160",
    "final_x": "3718470.05087",
    "final_y": "568434.039909",
    "longitude": "-89.94992639289204",
    "latitude": "30.055820547338296",
    "geocoded_column": {
      "latitude": "30.055820547338296",
      "longitude": "-89.94992639289204"
    }
  },
  {
    "service_request": "2023-1042159",
    "request_type": "Trash/Recycling",
    "request_reason": "Repair Recycling Cart",
    "date_created": "2023-10-10T13:59:54.000",
    "date_modified": "2023-10-10T13:59:54.000",
    "request_status": "Pending",
    "responsible_agency": "Department of Sanitation",
    "final_address": "5710 Foxcroft Dr",
    "address_councildis": "E",
    "status": "Pending",
    "rowid": "1042159",
    "final_x": "3715385.67179",
    "final_y": "561337.780766",
    "longitude": "-89.95994428251791",
    "latitude": "30.03641075310734",
    "geocoded_column": {
      "latitude": "30.03641075310734",
      "longitude": "-89.95994428251791"
    }
  },
  {
    "service_request": "2023-1042158",
    "request_type": "Trash/Recycling",
    "request_reason": "Request a Large Item Pick Up",
    "date_created": "2023-10-10T13:59:40.000",
    "date_modified": "2023-10-10T13:59:41.000",
    "request_status": "Pending",
    "responsible_agency": "Department of Sanitation",
    "final_address": "1110 Third St",
    "address_councildis": "B",
    "status": "Assigned to Contractor",
    "contractor": "Richards Disposal",
    "rowid": "1042158",
    "final_x": "3677460.41058",
    "final_y": "521238.767289",
    "longitude": "-90.08118066264849",
    "latitude": "29.927347723751044",
    "geocoded_column": {
      "latitude": "29.927347723751044",
      "longitude": "-90.08118066264849"
    }
  },
  {
    "service_request": "2023-1042157",
    "request_type": "Trash/Recycling",
    "request_reason": "Request a Large Item Pick Up",
    "date_created": "2023-10-10T13:59:16.000",
    "date_modified": "2023-10-10T13:59:17.000",
    "request_status": "Pending",
    "responsible_agency": "Department of Sanitation",
    "final_address": "2313 Allen Toussaint Blvd",
    "address_councildis": "D",
    "status": "Assigned to Contractor",
    "contractor": "IV Waste",
    "rowid": "1042157",
    "final_x": "3684373.28252",
    "final_y": "555901.467033",
    "longitude": "-90.05814075616709",
    "latitude": "30.02244851075969",
    "geocoded_column": {
      "latitude": "30.02244851075969",
      "longitude": "-90.05814075616709"
    }
  },
  {
    "service_request": "2023-1042156",
    "request_type": "Roads/Drainage",
    "request_reason": "Leaking Hydrant",
    "date_created": "2023-10-10T13:53:38.000",
    "date_modified": "2023-10-10T13:53:38.000",
    "request_status": "Pending",
    "responsible_agency": "Department of Public Works",
    "final_address": "1233 Eighth St",
    "address_councildis": "B",
    "status": "Pending",
    "rowid": "1042156",
    "final_x": "3675773.50901",
    "final_y": "520776.967033",
    "longitude": "-90.08652165636587",
    "latitude": "29.926128502605007",
    "geocoded_column": {
      "latitude": "29.926128502605007",
      "longitude": "-90.08652165636587"
    }
  },
  {
    "service_request": "2023-1042155",
    "request_type": "Trash/Recycling",
    "request_reason": "Request a Large Item Pick Up",
    "date_created": "2023-10-10T13:52:52.000",
    "date_modified": "2023-10-10T13:52:53.000",
    "request_status": "Pending",
    "responsible_agency": "Department of Sanitation",
    "final_address": "1420 Elmira Ave",
    "address_councildis": "C",
    "status": "Assigned to Contractor",
    "contractor": "Richards Disposal",
    "rowid": "1042155",
    "final_x": "3688094.10486",
    "final_y": "526330.075582",
    "longitude": "-90.04743247957893",
    "latitude": "29.94102330474881",
    "geocoded_column": {
      "latitude": "29.94102330474881",
      "longitude": "-90.04743247957893"
    }
  },
  {
    "service_request": "2023-1042154",
    "request_type": "Trash/Recycling",
    "request_reason": "Order Trash Cart",
    "date_created": "2023-10-10T13:52:17.000",
    "date_modified": "2023-10-10T13:52:18.000",
    "request_status": "Pending",
    "responsible_agency": "Department of Sanitation",
    "final_address": "2930 Preston Pl",
    "address_councildis": "C",
    "status": "Assigned to Contractor",
    "contractor": "Richards Disposal",
    "rowid": "1042154",
    "final_x": "3708683.47025",
    "final_y": "518979.933623",
    "longitude": "-89.98270223161357",
    "latitude": "29.920161612504145",
    "geocoded_column": {
      "latitude": "29.920161612504145",
      "longitude": "-89.98270223161357"
    }
  },
  {
    "service_request": "2023-1042153",
    "request_type": "Trash/Recycling",
    "request_reason": "MIssed Recycling Pick-Up",
    "date_created": "2023-10-10T13:52:05.000",
    "date_modified": "2023-10-10T13:52:06.000",
    "request_status": "Pending",
    "responsible_agency": "Department of Sanitation",
    "final_address": "4616 Magazine St",
    "address_councildis": "B",
    "status": "Assigned to Contractor",
    "contractor": "Richards Disposal",
    "rowid": "1042153",
    "final_x": "3670161.87649",
    "final_y": "518649.255671",
    "longitude": "-90.10430804816343",
    "latitude": "29.920444678645406",
    "geocoded_column": {
      "latitude": "29.920444678645406",
      "longitude": "-90.10430804816343"
    }
  },
  {
    "service_request": "2023-1042152",
    "request_type": "Roads/Drainage",
    "request_reason": "Street Flooding / Drainage",
    "date_created": "2023-10-10T13:47:41.000",
    "date_modified": "2023-10-10T13:50:22.000",
    "request_status": "Pending",
    "responsible_agency": "Department of Public Works",
    "final_address": "914 N Dorgenois St",
    "address_councildis": "D",
    "status": "Pending",
    "rowid": "1042152",
    "final_x": "3677695.18075",
    "final_y": "537258.56948",
    "longitude": "-90.07988635560078",
    "latitude": "29.971389778369478",
    "geocoded_column": {
      "latitude": "29.971389778369478",
      "longitude": "-90.07988635560078"
    }
  },
  {
    "service_request": "2023-1042151",
    "request_type": "Parks & Parkways",
    "request_reason": "Request Tree Service (Right of Way/Public Property)",
    "date_created": "2023-10-10T13:47:12.000",
    "date_modified": "2023-10-10T13:47:13.000",
    "request_status": "Pending",
    "responsible_agency": "Department of Parks & Parkway",
    "final_address": "2800 BLK Esplanade Ave",
    "address_councildis": "A",
    "status": "Pending",
    "rowid": "1042151",
    "final_x": "3677337.27029",
    "final_y": "539636.512378",
    "longitude": "-90.0809346058828",
    "latitude": "29.977939066080157",
    "geocoded_column": {
      "latitude": "29.977939066080157",
      "longitude": "-90.0809346058828"
    }
  },
  {
    "service_request": "2023-1042150",
    "request_type": "Trash/Recycling",
    "request_reason": "Replace Trash Cart",
    "date_created": "2023-10-10T13:47:01.000",
    "date_modified": "2023-10-10T13:47:02.000",
    "request_status": "Pending",
    "responsible_agency": "Department of Sanitation",
    "final_address": "5011 Charmes Ct",
    "address_councildis": "E",
    "status": "Assigned to Contractor",
    "contractor": "Waste Pro",
    "rowid": "1042150",
    "final_x": "3726471.31155",
    "final_y": "561723.675231",
    "longitude": "-89.92489696030648",
    "latitude": "30.037101799657897",
    "geocoded_column": {
      "latitude": "30.037101799657897",
      "longitude": "-89.92489696030648"
    }
  },
  {
    "service_request": "2023-1042149",
    "request_type": "Trash/Recycling",
    "request_reason": "Request a Large Item Pick Up",
    "date_created": "2023-10-10T13:46:05.000",
    "date_modified": "2023-10-10T13:46:05.000",
    "request_status": "Pending",
    "responsible_agency": "Department of Sanitation",
    "final_address": "1711 S White St",
    "address_councildis": "B",
    "status": "Assigned to Contractor",
    "contractor": "Richards Disposal",
    "rowid": "1042149",
    "final_x": "3670932.52379",
    "final_y": "529875.199297",
    "longitude": "-90.10149452430413",
    "latitude": "29.951289646156415",
    "geocoded_column": {
      "latitude": "29.951289646156415",
      "longitude": "-90.10149452430413"
    }
  },
  {
    "service_request": "2023-1042148",
    "request_type": "Trash/Recycling",
    "request_reason": "Order Recycling Cart",
    "date_created": "2023-10-10T13:44:49.000",
    "date_modified": "2023-10-10T13:44:49.000",
    "request_status": "Pending",
    "responsible_agency": "Department of Sanitation",
    "final_address": "2514 Bienville Ave",
    "address_councildis": "B",
    "status": "Pending",
    "rowid": "1042148",
    "final_x": "3676458.24968",
    "final_y": "535161.454278",
    "longitude": "-90.08386498356332",
    "latitude": "29.965660571916946",
    "geocoded_column": {
      "latitude": "29.965660571916946",
      "longitude": "-90.08386498356332"
    }
  },
  {
    "service_request": "2023-1042147",
    "request_type": "Traffic Signals/Signs/Striping/Streetlights",
    "request_reason": "Street Light Outage/Malfunction",
    "date_created": "2023-10-10T13:44:32.000",
    "date_modified": "2023-10-10T13:44:33.000",
    "request_status": "Pending",
    "responsible_agency": "Department of Public Works",
    "final_address": "512 Ptolemy St",
    "address_councildis": "C",
    "status": "Assigned to Contractor",
    "contractor": "Legacy Professional Services",
    "rowid": "1042147",
    "final_x": "3687280.20553",
    "final_y": "526095.49555",
    "longitude": "-90.05001039631996",
    "latitude": "29.9404033789889",
    "geocoded_column": {
      "latitude": "29.9404033789889",
      "longitude": "-90.05001039631996"
    }
  },
  {
    "service_request": "2023-1042146",
    "request_type": "Trash/Recycling",
    "request_reason": "Order Recycling Cart",
    "date_created": "2023-10-10T13:43:36.000",
    "date_modified": "2023-10-10T13:43:36.000",
    "request_status": "Pending",
    "responsible_agency": "Department of Sanitation",
    "final_address": "2512 Bienville Ave",
    "address_councildis": "B",
    "status": "Pending",
    "rowid": "1042146",
    "final_x": "3676467.62472",
    "final_y": "535153.468166",
    "longitude": "-90.08383565253618",
    "latitude": "29.965638331716494",
    "geocoded_column": {
      "latitude": "29.965638331716494",
      "longitude": "-90.08383565253618"
    }
  },