[
  {
    "service_request": "2022-909047",
    "request_type": "Trash/Recycling",
    "request_reason": "Request a Large Item Pick Up",
    "date_created": "2022-08-12T00:30:11.000",
    "date_modified": "2022-08-12T00:30:12.000",
    "request_status": "Pending",
    "responsible_agency": "Department of Sanitation",
    "final_address": "526 S St Patrick St",
    "address_councildis": "A",
    "status": "Assigned to Contractor",
    "contractor": "Richards Disposal",
    "rowid": "909047",
    "final_x": "3668059.0633",
    "final_y": "538322.695945",
    "longitude": "-90.11028282169127",
    "latitude": "29.9746020941028",
    "geocoded_column": {
      "latitude": "29.9746020941028",
      "longitude": "-90.11028282169127"
    }
  },
  {
    "service_request": "2022-909046",
    "request_type": "Health Related Questions",
    "request_reason": "Noise Ordinance Complaint",
    "date_created": "2022-08-11T23:45:24.000",
    "date_modified": "2022-08-11T23:45:24.000",
    "request_status": "Pending",
    "responsible_agency": "Health Department",
    "final_address": "718 Bourbon St, New Orleans, Louisiana, 70116",
    "address_councildis": "C",
    "status": "Pending",
    "rowid": "909046",
    "final_x": "3682364.17781",
    "final_y": "532746.008004",
    "longitude": "-90.06529872053143",
    "latitude": "29.95884052062511",
    "geocoded_column": {
      "latitude": "29.95884052062511",
      "longitude": "-90.06529872053143"
    }
  },
  {
    "service_request": "2022-909045",
    "request_type": "Health Related Questions",
    "request_reason": "Noise Ordinance Complaint",
    "date_created": "2022-08-11T23:45:01.000",
    "date_modified": "2022-08-11T23:45:01.000",
    "request_status": "Pending",
    "responsible_agency": "Health Department",
    "final_address": "718 Bourbon St, New Orleans, Louisiana, 70116",
    "address_councildis": "C",
    "status": "Pending",
    "rowid": "909045",
    "final_x": "3682364.17781",
    "final_y": "532746.008004",
    "longitude": "-90.06529872053143",
    "latitude": "29.95884052062511",
    "geocoded_column": {
      "latitude": "29.95884052062511",
      "longitude": "-90.06529872053143"
    }
  },
  {
    "service_request": "2022-909044",
    "request_type": "Health Related Questions",
    "request_reason": "Noise Ordinance Complaint",
    "date_created": "2022-08-11T23:40:35.000",
    "date_modified": "2022-08-11T23:40:35.000",
    "request_status": "Pending",
    "responsible_agency": "Health Department",
    "final_address": "718 Bourbon St, New Orleans, Louisiana, 70116",
    "address_councildis": "C",
    "status": "Pending",
    "rowid": "909044",
    "final_x": "3682364.17781",
    "final_y": "532746.008004",
    "longitude": "-90.06529872053143",
    "latitude": "29.95884052062511",
    "geocoded_column": {
      "latitude": "29.95884052062511",
      "longitude": "-90.06529872053143"
    }
  },
  {
    "service_request": "2022-909043",
    "request_type": "Health Related Questions",
    "request_reason": "Noise Ordinance Complaint",
    "date_created": "2022-08-11T23:32:46.000",
    "date_modified": "2022-08-11T23:32:46.000",
    "request_status": "Pending",
    "responsible_agency": "Health Department",
    "final_address": "718 Bourbon St, New Orleans, Louisiana, 70116",
    "address_councildis": "C",
    "status": "Pending",
    "rowid": "909043",
    "final_x": "3682364.17781",
    "final_y": "532746.008004",
    "longitude": "-90.06529872053143",
    "latitude": "29.95884052062511",
    "geocoded_column": {
      "latitude": "29.95884052062511",
      "longitude": "-90.06529872053143"
    }
  },
  {
    "service_request": "2022-909042",
    "request_type": "Health Related Questions",
    "request_reason": "Noise Ordinance Complaint",
    "date_created": "2022-08-11T23:32:22.000",
    "date_modified": "2022-08-11T23:32:22.000",
    "request_status": "Pending",
    "responsible_agency": "Health Department",
    "final_address": "718 Bourbon St, New Orleans, Louisiana, 70116",
    "address_councildis": "C",
    "status": "Pending",
    "rowid": "909042",
    "final_x": "3682364.17781",
    "final_y": "532746.008004",
    "longitude": "-90.06529872053143",
    "latitude": "29.95884052062511",
    "geocoded_column": {
      "latitude": "29.95884052062511",
      "longitude": "-90.06529872053143"
    }
  },
  {
    "service_request": "2022-909041",
    "request_type": "Health Related Questions",
    "request_reason": "Noise Ordinance Complaint",
    "date_created": "2022-08-11T23:31:54.000",
    "date_modified": "2022-08-11T23:31:54.000",
    "request_status": "Pending",
    "responsible_agency": "Health Department",
    "final_address": "718 Bourbon St, New Orleans, Louisiana, 70116",
    "address_councildis": "C",
    "status": "Pending",
    "rowid": "909041",
    "final_x": "3682364.17781",
    "final_y": "532746.008004",
    "longitude": "-90.06529872053143",
    "latitude": "29.95884052062511",
    "geocoded_column": {
      "latitude": "29.95884052062511",
      "longitude": "-90.06529872053143"
    }
  },
  {
    "service_request": "2022-909040",
    "request_type": "Health Related Questions",
    "request_reason": "Noise Ordinance Complaint",
    "date_created": "2022-08-11T23:12:58.000",
    "date_modified": "2022-08-11T23:12:58.000",
    "request_status": "Pending",
    "responsible_agency": "Health Department",
    "final_address": "718 Bourbon St, New Orleans, Louisiana, 70116",
    "address_councildis": "C",
    "status": "Pending",
    "rowid": "909040",
    "final_x": "3682364.17781",
    "final_y": "532746.008004",
    "longitude": "-90.06529872053143",
    "latitude": "29.95884052062511",
    "geocoded_column": {
      "latitude": "29.95884052062511",
      "longitude": "-90.06529872053143"
    }
  },
  {
    "service_request": "2022-909039",
    "request_type": "Trash/Recycling",
    "request_reason": "MIssed Recycling Pick-Up",
    "date_created": "2022-08-11T22:51:21.000",
    "date_modified": "2022-08-11T22:51:22.000",
    "request_status": "Pending",
    "responsible_agency": "Department of Sanitation",
    "final_address": "2700 Marengo St",
    "address_councildis": "B",
    "status": "Assigned to Contractor",
    "contractor": "Richards Disposal",
    "rowid": "909039",
    "final_x": "3671510.59201",
    "final_y": "524888.211452",
    "longitude": "-90.09983877599038",
    "latitude": "29.93755995796886",
    "geocoded_column": {
      "latitude": "29.93755995796886",
      "longitude": "-90.09983877599038"
    }
  },
  {
    "service_request": "2022-909038",
    "request_type": "Abandoned Vehicles",
    "request_reason": "Abandoned/Junk Vehicles",
    "date_created": "2022-08-11T22:29:36.000",
    "date_modified": "2022-08-11T22:29:36.000",
    "request_status": "Pending",
    "responsible_agency": "Department of Public Works",
    "final_address": "1926 St Philip St",
    "address_councildis": "D",
    "status": "Pending",
    "rowid": "909038",
    "final_x": "3679665.16955",
    "final_y": "536054.449927",
    "longitude": "-90.07370665443693",
    "latitude": "29.968019460765746",
    "geocoded_column": {
      "latitude": "29.968019460765746",
      "longitude": "-90.07370665443693"
    }
  },
  {
    "service_request": "2022-909037",
    "request_type": "Roads/Drainage",
    "request_reason": "Catch Basin - Clogged",
    "date_created": "2022-08-11T22:15:28.000",
    "date_modified": "2022-08-11T22:15:28.000",
    "request_status": "Pending",
    "responsible_agency": "Department of Public Works",
    "final_address": "2212 Leon C Simon Dr",
    "address_councildis": "D",
    "status": "Pending",
    "rowid": "909037",
    "final_x": "3683586.61673",
    "final_y": "556768.05769",
    "longitude": "-90.06059601314917",
    "latitude": "30.024855364162395",
    "geocoded_column": {
      "latitude": "30.024855364162395",
      "longitude": "-90.06059601314917"
    }
  },
  {
    "service_request": "2022-909036",
    "request_type": "Roads/Drainage",
    "request_reason": "Street Flooding / Drainage",
    "date_created": "2022-08-11T22:06:06.000",
    "date_modified": "2022-08-11T22:06:06.000",
    "request_status": "Pending",
    "responsible_agency": "Department of Public Works",
    "final_address": "2222 Leon C Simon Dr",
    "address_councildis": "D",
    "status": "Pending",
    "rowid": "909036",
    "final_x": "3683649.69154",
    "final_y": "556774.752218",
    "longitude": "-90.06039647236061",
    "latitude": "30.024871845095035",
    "geocoded_column": {
      "latitude": "30.024871845095035",
      "longitude": "-90.06039647236061"
    }
  },
  {
    "service_request": "2022-909035",
    "request_type": "Traffic Signals/Signs/Striping/Streetlights",
    "request_reason": "Street Light Outage/Malfunction",
    "date_created": "2022-08-11T21:51:52.000",
    "date_modified": "2022-08-11T21:51:53.000",
    "request_status": "Pending",
    "responsible_agency": "Department of Public Works",
    "final_address": "1400 Jackson Ave",
    "address_councildis": "B",
    "status": "Pending",
    "contractor": "Legacy Professional Services",
    "rowid": "909035",
    "final_x": "3678052.99752",
    "final_y": "522875.906363",
    "longitude": "-90.07925345120495",
    "latitude": "29.931831502276587",
    "geocoded_column": {
      "latitude": "29.931831502276587",
      "longitude": "-90.07925345120495"
    }
  },
  {
    "service_request": "2022-909033",
    "request_type": "Health Related Questions",
    "request_reason": "Noise Ordinance Complaint",
    "date_created": "2022-08-11T21:47:07.000",
    "date_modified": "2022-08-11T21:47:07.000",
    "request_status": "Pending",
    "responsible_agency": "Health Department",
    "final_address": "718 Bourbon St, New Orleans, Louisiana, 70116",
    "address_councildis": "C",
    "status": "Pending",
    "rowid": "909033",
    "final_x": "3682364.17781",
    "final_y": "532746.008004",
    "longitude": "-90.06529872053143",
    "latitude": "29.95884052062511",
    "geocoded_column": {
      "latitude": "29.95884052062511",
      "longitude": "-90.06529872053143"
    }
  },
  {
    "service_request": "2022-909030",
    "request_type": "Health Related Questions",
    "request_reason": "Noise Ordinance Complaint",
    "date_created": "2022-08-11T21:31:36.000",
    "date_modified": "2022-08-11T21:31:36.000",
    "request_status": "Pending",
    "responsible_agency": "Health Department",
    "final_address": "718 Bourbon St, New Orleans, Louisiana, 70116",
    "address_councildis": "C",
    "status": "Pending",
    "rowid": "909030",
    "final_x": "3682364.17781",
    "final_y": "532746.008004",
    "longitude": "-90.06529872053143",
    "latitude": "29.95884052062511",
    "geocoded_column": {
      "latitude": "29.95884052062511",
      "longitude": "-90.06529872053143"
    }
  },
  {
    "service_request": "2022-909029",
    "request_type": "Property Maintenance",
    "request_reason": "Property Maintenance",
    "date_created": "2022-08-11T21:27:17.000",
    "date_modified": "2022-08-11T21:27:17.000",
    "request_status": "Pending",
    "responsible_agency": "Department of Code Enforcement",
    "final_address": "1701 S Salcedo St",
    "address_councildis": "B",
    "status": "Pending",
    "rowid": "909029",
    "final_x": "3670155.82746",
    "final_y": "530477.185026",
    "longitude": "-90.10392656090347",
    "latitude": "29.952967845765897",
    "geocoded_column": {
      "latitude": "29.952967845765897",
      "longitude": "-90.10392656090347"
    }
  },
  {
    "service_request": "2022-909028",
    "request_type": "Traffic Signals/Signs/Striping/Streetlights",
    "request_reason": "Street Light Outage/Malfunction",
    "date_created": "2022-08-11T21:25:54.000",
    "date_modified": "2022-08-11T21:25:55.000",
    "request_status": "Pending",
    "responsible_agency": "Department of Public Works",
    "final_address": "1200 Josephine St",
    "address_councildis": "B",
    "status": "Pending",
    "contractor": "Legacy Professional Services",
    "rowid": "909028",
    "final_x": "3678893.22389",
    "final_y": "522611.294842",
    "longitude": "-90.07661010948335",
    "latitude": "29.93107859473946",
    "geocoded_column": {
      "latitude": "29.93107859473946",
      "longitude": "-90.07661010948335"
    }
  },
  {
    "service_request": "2022-909027",
    "request_type": "Property Maintenance",
    "request_reason": "Property Maintenance",
    "date_created": "2022-08-11T21:24:30.000",
    "date_modified": "2022-08-11T21:24:30.000",
    "request_status": "Pending",
    "responsible_agency": "Department of Code Enforcement",
    "final_address": "1405 Terpsichore St",
    "address_councildis": "B",
    "status": "Pending",
    "rowid": "909027",
    "final_x": "3679784.19035",
    "final_y": "524880.356092",
    "longitude": "-90.07371870318184",
    "latitude": "29.937290865684677",
    "geocoded_column": {
      "latitude": "29.937290865684677",
      "longitude": "-90.07371870318184"
    }
  },
  {
    "service_request": "2022-909026",
    "request_type": "Traffic Signals/Signs/Striping/Streetlights",
    "request_reason": "Street Light Outage/Malfunction",
    "date_created": "2022-08-11T21:20:49.000",
    "date_modified": "2022-08-11T21:20:50.000",
    "request_status": "Pending",
    "responsible_agency": "Department of Public Works",
    "final_address": "1326 Josephine St",
    "address_councildis": "B",
    "status": "Pending",
    "contractor": "Legacy Professional Services",
    "rowid": "909026",
    "final_x": "3678541.05019",
    "final_y": "523066.036411",
    "longitude": "-90.07770614436996",
    "latitude": "29.932339601023358",
    "geocoded_column": {
      "latitude": "29.932339601023358",
      "longitude": "-90.07770614436996"
    }
  },
  {
    "service_request": "2022-909025",
    "request_type": "Traffic Signals/Signs/Striping/Streetlights",
    "request_reason": "Street Light Outage/Malfunction",
    "date_created": "2022-08-11T21:11:46.000",
    "date_modified": "2022-08-11T21:11:47.000",
    "request_status": "Pending",
    "responsible_agency": "Department of Public Works",
    "final_address": "1600 Josephine St",
    "address_councildis": "B",
    "status": "Pending",
    "contractor": "Legacy Professional Services",
    "rowid": "909025",
    "final_x": "3677713.362",
    "final_y": "524143.148348",
    "longitude": "-90.0802818955259",
    "latitude": "29.935326219086427",
    "geocoded_column": {
      "latitude": "29.935326219086427",
      "longitude": "-90.0802818955259"
    }
  },
  {
    "service_request": "2022-909024",
    "request_type": "Health Related Questions",
    "request_reason": "Noise Ordinance Complaint",
    "date_created": "2022-08-11T21:03:31.000",
    "date_modified": "2022-08-11T21:03:31.000",
    "request_status": "Pending",
    "responsible_agency": "Health Department",
    "final_address": "8539 Oak St, New Orleans, LA 70118",
    "address_councildis": "A",
    "status": "Pending",
    "rowid": "909024",
    "final_x": "3660722.16973",
    "final_y": "529557.079425",
    "longitude": "-90.13374447930828",
    "latitude": "29.95071279078248",
    "geocoded_column": {
      "latitude": "29.95071279078248",
      "longitude": "-90.13374447930828"
    }
  },
  {
    "service_request": "2022-909023",
    "request_type": "Abandoned Vehicles",
    "request_reason": "Abandoned/Junk Vehicles",
    "date_created": "2022-08-11T20:59:15.000",
    "date_modified": "2022-08-11T20:59:15.000",
    "request_status": "Pending",
    "responsible_agency": "Department of Public Works",
    "final_address": "620 River Oaks Dr",
    "address_councildis": "C",
    "status": "Pending",
    "rowid": "909023",
    "final_x": "3701534.51268",
    "final_y": "520265.086456",
    "longitude": "-90.00522089995",
    "latitude": "29.923925110278923",
    "geocoded_column": {
      "latitude": "29.923925110278923",
      "longitude": "-90.00522089995"
    }
  },
  {
    "service_request": "2022-909021",
    "request_type": "Trash/Recycling",
    "request_reason": "Replace Trash Cart",
    "date_created": "2022-08-11T20:39:51.000",
    "date_modified": "2022-08-11T20:39:52.000",
    "request_status": "Pending",
    "responsible_agency": "Department of Sanitation",
    "final_address": "5880 Marcia Ave",
    "address_councildis": "A",
    "status": "Assigned to Contractor",
    "contractor": "Metro Disposal",
    "rowid": "909021",
    "final_x": "3664720.35892",
    "final_y": "546947.514641",
    "longitude": "-90.12053900201036",
    "latitude": "29.998414999823513",
    "geocoded_column": {
      "latitude": "29.998414999823513",
      "longitude": "-90.12053900201036"
    }
  },
  {
    "service_request": "2022-909020",
    "request_type": "Abandoned Vehicles",
    "request_reason": "Abandoned/Junk Vehicles",
    "date_created": "2022-08-11T20:36:28.000",
    "date_modified": "2022-08-11T20:36:28.000",
    "request_status": "Pending",
    "responsible_agency": "Department of Public Works",
    "final_address": "3003 Banks St",
    "address_councildis": "B",
    "status": "Pending",
    "rowid": "909020",
    "final_x": "3673617.8916",
    "final_y": "534982.759558",
    "longitude": "-90.09284084954122",
    "latitude": "29.96525407930724",
    "geocoded_column": {
      "latitude": "29.96525407930724",
      "longitude": "-90.09284084954122"
    }
  },
  {
    "service_request": "2022-909019",
    "request_type": "Trash/Recycling",
    "request_reason": "Request a Large Item Pick Up",
    "date_created": "2022-08-11T20:17:24.000",
    "date_modified": "2022-08-11T20:17:25.000",
    "request_status": "Pending",
    "responsible_agency": "Department of Sanitation",
    "final_address": "413 S Solomon St",
    "address_councildis": "A",
    "status": "Assigned to Contractor",
    "contractor": "Richards Disposal",
    "rowid": "909019",
    "final_x": "3669739.78785",
    "final_y": "537670.468744",
    "longitude": "-90.10499674946851",
    "latitude": "29.97275925349105",
    "geocoded_column": {
      "latitude": "29.97275925349105",
      "longitude": "-90.10499674946851"
    }
  },
  {
    "service_request": "2022-909018",
    "request_type": "Property Maintenance",
    "request_reason": "Property Maintenance",
    "date_created": "2022-08-11T20:17:13.000",
    "date_modified": "2022-08-11T20:17:13.000",
    "request_status": "Pending",
    "responsible_agency": "Department of Code Enforcement",
    "final_address": "9401 Pritchard Pl",
    "address_councildis": "A",
    "status": "Pending",
    "rowid": "909018",
    "final_x": "3662686.36915",
    "final_y": "536061.112071",
    "longitude": "-90.12732636402971",
    "latitude": "29.968540076238554",
    "geocoded_column": {
      "latitude": "29.968540076238554",
      "longitude": "-90.12732636402971"
    }
  },
  {
    "service_request": "2022-909017",
    "request_type": "Property Maintenance",
    "request_reason": "Property Maintenance",
    "date_created": "2022-08-11T20:04:12.000",
    "date_modified": "2022-08-11T20:04:12.000",
    "request_status": "Pending",
    "responsible_agency": "Department of Code Enforcement",
    "final_address": "2819 Monticello Ave",
    "address_councildis": "A",
    "status": "Pending",
    "rowid": "909017",
    "final_x": "3662570.33248",
    "final_y": "535889.527815",
    "longitude": "-90.127698517255",
    "latitude": "29.968071633556796",
    "geocoded_column": {
      "latitude": "29.968071633556796",
      "longitude": "-90.127698517255"
    }
  },
  {
    "service_request": "2022-909016",
    "request_type": "Property Maintenance",
    "request_reason": "Property Maintenance",
    "date_created": "2022-08-11T20:04:07.000",
    "date_modified": "2022-08-11T20:04:07.000",
    "request_status": "Pending",
    "responsible_agency": "Department of Code Enforcement",
    "final_address": "2819 Monticello Ave",
    "address_councildis": "A",
    "status": "Pending",
    "rowid": "909016",
    "final_x": "3662570.33248",
    "final_y": "535889.527815",
    "longitude": "-90.127698517255",
    "latitude": "29.968071633556796",
    "geocoded_column": {
      "latitude": "29.968071633556796",
      "longitude": "-90.127698517255"
    }
  },
  {
    "service_request": "2022-909015",
    "request_type": "Trash/Recycling",
    "request_reason": "Order Trash Cart",
    "date_created": "2022-08-11T20:00:15.000",
    "date_modified": "2022-08-11T20:00:16.000",
    "request_status": "Pending",
    "responsible_agency": "Department of Sanitation",
    "final_address": "5624 Macarthur Blvd",
    "address_councildis": "C",
    "status": "Assigned to Contractor",
    "contractor": "Richards Disposal",
    "rowid": "909015",
    "final_x": "3704361.56983",
    "final_y": "519545.842103",
    "longitude": "-89.99632345638331",
    "latitude": "29.9218570348093",
    "geocoded_column": {
      "latitude": "29.9218570348093",
      "longitude": "-89.99632345638331"
    }
  },
  {
    "service_request": "2022-909014",
    "request_type": "Health Related Questions",
    "request_reason": "Noise Ordinance Complaint",
    "date_created": "2022-08-11T19:59:10.000",
    "date_modified": "2022-08-11T19:59:10.000",
    "request_status": "Pending",
    "responsible_agency": "Health Department",
    "final_address": "718 Bourbon St, New Orleans, Louisiana, 70116",
    "address_councildis": "C",
    "status": "Pending",
    "rowid": "909014",
    "final_x": "3682364.17781",
    "final_y": "532746.008004",
    "longitude": "-90.06529872053143",
    "latitude": "29.95884052062511",
    "geocoded_column": {
      "latitude": "29.95884052062511",
      "longitude": "-90.06529872053143"
    }
  },
  {
    "service_request": "2022-909013",
    "request_type": "Health Related Questions",
    "request_reason": "Noise Ordinance Complaint",
    "date_created": "2022-08-11T19:58:52.000",
    "date_modified": "2022-08-11T19:58:52.000",
    "request_status": "Pending",
    "responsible_agency": "Health Department",
    "final_address": "718 Bourbon St, New Orleans, Louisiana, 70116",
    "address_councildis": "C",
    "status": "Pending",
    "rowid": "909013",
    "final_x": "3682364.17781",
    "final_y": "532746.008004",
    "longitude": "-90.06529872053143",
    "latitude": "29.95884052062511",
    "geocoded_column": {
      "latitude": "29.95884052062511",
      "longitude": "-90.06529872053143"
    }
  },
  {
    "service_request": "2022-909012",
    "request_type": "Trash/Recycling",
    "request_reason": "Missed Trash Pick-Up",
    "date_created": "2022-08-11T19:57:59.000",
    "date_modified": "2022-08-11T19:57:59.000",
    "request_status": "Pending",
    "responsible_agency": "Department of Sanitation",
    "final_address": "2545 Eton St",
    "address_councildis": "C",
    "status": "Assigned to Contractor",
    "contractor": "Richards Disposal",
    "rowid": "909012",
    "final_x": "3703960.2817",
    "final_y": "521826.297274",
    "longitude": "-89.99750622356397",
    "latitude": "29.92814036388335",
    "geocoded_column": {
      "latitude": "29.92814036388335",
      "longitude": "-89.99750622356397"
    }
  },
  {
    "service_request": "2022-909011",
    "request_type": "Roads/Drainage",
    "request_reason": "Road Shoulder Repair",
    "date_created": "2022-08-11T19:57:23.000",
    "date_modified": "2022-08-11T19:57:23.000",
    "request_status": "Pending",
    "responsible_agency": "Department of Public Works",
    "final_address": "4300 BLK Saint Ann St",
    "address_councildis": "A",
    "status": "Pending",
    "rowid": "909011",
    "final_x": "3671722.68014",
    "final_y": "541147.449645",
    "longitude": "-90.09861606538087",
    "latitude": "29.982261172900248",
    "geocoded_column": {
      "latitude": "29.982261172900248",
      "longitude": "-90.09861606538087"
    }
  },
  {
    "service_request": "2022-909010",
    "request_type": "Property Maintenance",
    "request_reason": "Property Maintenance",
    "date_created": "2022-08-11T19:55:01.000",
    "date_modified": "2022-08-11T19:55:01.000",
    "request_status": "Pending",
    "responsible_agency": "Department of Code Enforcement",
    "final_address": "2811 Monticello Ave",
    "address_councildis": "A",
    "status": "Pending",
    "rowid": "909010",
    "final_x": "3662527.04813",
    "final_y": "535793.636039",
    "longitude": "-90.12783839750944",
    "latitude": "29.96780921487515",
    "geocoded_column": {
      "latitude": "29.96780921487515",
      "longitude": "-90.12783839750944"
    }
  },
  {
    "service_request": "2022-909009",
    "request_type": "Property Maintenance",
    "request_reason": "Property Maintenance",
    "date_created": "2022-08-11T19:54:52.000",
    "date_modified": "2022-08-11T19:54:52.000",
    "request_status": "Pending",
    "responsible_agency": "Department of Code Enforcement",
    "final_address": "2811 Monticello Ave",
    "address_councildis": "A",
    "status": "Pending",
    "rowid": "909009",
    "final_x": "3662527.04813",
    "final_y": "535793.636039",
    "longitude": "-90.12783839750944",
    "latitude": "29.96780921487515",
    "geocoded_column": {
      "latitude": "29.96780921487515",
      "longitude": "-90.12783839750944"
    }
  },
  {
    "service_request": "2022-909008",
    "request_type": "Traffic Signals/Signs/Striping/Streetlights",
    "request_reason": "Street Light Outage/Malfunction",
    "date_created": "2022-08-11T19:53:47.000",
    "date_modified": "2022-08-11T19:53:48.000",
    "request_status": "Pending",
    "responsible_agency": "Department of Public Works",
    "final_address": "3300 St Charles Ave",
    "address_councildis": "B",
    "status": "Pending",
    "contractor": "Legacy Professional Services",
    "rowid": "909008",
    "final_x": "3674536.35496",
    "final_y": "521606.228537",
    "longitude": "-90.09039860401785",
    "latitude": "29.92844566139807",
    "geocoded_column": {
      "latitude": "29.92844566139807",
      "longitude": "-90.09039860401785"
    }
  },
  {
    "service_request": "2022-909007",
    "request_type": "Trash/Recycling",
    "request_reason": "MIssed Recycling Pick-Up",
    "date_created": "2022-08-11T19:46:18.000",
    "date_modified": "2022-08-11T19:46:19.000",
    "request_status": "Pending",
    "responsible_agency": "Department of Sanitation",
    "final_address": "2231 Wirth Pl",
    "address_councildis": "A",
    "status": "Assigned to Contractor",
    "contractor": "Richards Disposal",
    "rowid": "909007",
    "final_x": "3667151.38125",
    "final_y": "524461.921532",
    "longitude": "-90.11361549587174",
    "latitude": "29.936516110759136",
    "geocoded_column": {
      "latitude": "29.936516110759136",
      "longitude": "-90.11361549587174"
    }
  },
  {
    "service_request": "2022-909005",
    "request_type": "Trash/Recycling",
    "request_reason": "MIssed Recycling Pick-Up",
    "date_created": "2022-08-11T19:44:58.000",
    "date_modified": "2022-08-11T19:44:58.000",
    "request_status": "Pending",
    "responsible_agency": "Department of Sanitation",
    "final_address": "4913 Constance St",
    "address_councildis": "B",
    "status": "Assigned to Contractor",
    "contractor": "Richards Disposal",
    "rowid": "909005",
    "final_x": "3668860.43828",
    "final_y": "518246.404982",
    "longitude": "-90.1084296847542",
    "latitude": "29.919375285515766",
    "geocoded_column": {
      "latitude": "29.919375285515766",
      "longitude": "-90.1084296847542"
    }
  },
  {
    "service_request": "2022-909004",
    "request_type": "Trash/Recycling",
    "request_reason": "Replace Trash Cart",
    "date_created": "2022-08-11T19:42:29.000",
    "date_modified": "2022-08-11T19:42:30.000",
    "request_status": "Pending",
    "responsible_agency": "Department of Sanitation",
    "final_address": "2420 Ramsey Dr",
    "address_councildis": "C",
    "status": "Assigned to Contractor",
    "contractor": "Richards Disposal",
    "rowid": "909004",
    "final_x": "3703210.60305",
    "final_y": "522042.561594",
    "longitude": "-89.99986482752062",
    "latitude": "29.92875902580254",
    "geocoded_column": {
      "latitude": "29.92875902580254",
      "longitude": "-89.99986482752062"
    }
  },
  {
    "service_request": "2022-909003",
    "request_type": "Roads/Drainage",
    "request_reason": "Street Flooding / Drainage",
    "date_created": "2022-08-11T19:40:13.000",
    "date_modified": "2022-08-11T19:40:13.000",
    "request_status": "Pending",
    "responsible_agency": "Department of Public Works",
    "final_address": "1011 N Derbigny St",
    "address_councildis": "D",
    "status": "Pending",
    "rowid": "909003",
    "final_x": "3680181.62312",
    "final_y": "535826.296327",
    "longitude": "-90.07208360671831",
    "latitude": "29.967376495562362",
    "geocoded_column": {
      "latitude": "29.967376495562362",
      "longitude": "-90.07208360671831"
    }
  },
  {
    "service_request": "2022-909001",
    "request_type": "Trash/Recycling",
    "request_reason": "Missed Trash Pick-Up",
    "date_created": "2022-08-11T19:35:09.000",
    "date_modified": "2022-08-11T19:35:10.000",
    "request_status": "Pending",
    "responsible_agency": "Department of Sanitation",
    "final_address": "2611 Burdette St",
    "address_councildis": "A",
    "status": "Assigned to Contractor",
    "contractor": "Richards Disposal",
    "rowid": "909001",
    "final_x": "3666375.4914",
    "final_y": "531424.583491",
    "longitude": "-90.11583145851121",
    "latitude": "29.95568386852713",
    "geocoded_column": {
      "latitude": "29.95568386852713",
      "longitude": "-90.11583145851121"
    }
  },
  {
    "service_request": "2022-909000",
    "request_type": "Roads/Drainage",
    "request_reason": "Debris in Roadway",
    "date_created": "2022-08-11T19:34:53.000",
    "date_modified": "2022-08-11T19:34:53.000",
    "request_status": "Pending",
    "responsible_agency": "Department of Public Works",
    "final_address": "Chestnut St & Saint Andrew St, New Orleans, Louisiana, 70130",
    "status": "Pending",
    "rowid": "909000",
    "longitude": "0.0",
    "latitude": "0.0",
    "geocoded_column": {
      "latitude": "0.0",
      "longitude": "0.0"
    }
  },
  {
    "service_request": "2022-908999",
    "request_type": "Trash/Recycling",
    "request_reason": "Order Trash Cart",
    "date_created": "2022-08-11T19:34:23.000",
    "date_modified": "2022-08-11T19:34:24.000",
    "request_status": "Pending",
    "responsible_agency": "Department of Sanitation",
    "final_address": "623 Washington Ave",
    "address_councildis": "B",
    "status": "Assigned to Contractor",
    "contractor": "Richards Disposal",
    "rowid": "908999",
    "final_x": "3677995.58504",
    "final_y": "519488.621047",
    "longitude": "-90.07955170252094",
    "latitude": "29.92251929838362",
    "geocoded_column": {
      "latitude": "29.92251929838362",
      "longitude": "-90.07955170252094"
    }
  },
  {
    "service_request": "2022-908998",
    "request_type": "Health Related Questions",
    "request_reason": "Noise Ordinance Complaint",
    "date_created": "2022-08-11T19:32:43.000",
    "date_modified": "2022-08-11T19:32:43.000",
    "request_status": "Pending",
    "responsible_agency": "Health Department",
    "final_address": "718 Bourbon St, New Orleans, Louisiana, 70116",
    "address_councildis": "C",
    "status": "Pending",
    "rowid": "908998",
    "final_x": "3682364.17781",
    "final_y": "532746.008004",
    "longitude": "-90.06529872053143",
    "latitude": "29.95884052062511",
    "geocoded_column": {
      "latitude": "29.95884052062511",
      "longitude": "-90.06529872053143"
    }
  },
  {
    "service_request": "2022-908997",
    "request_type": "Health Related Questions",
    "request_reason": "Noise Ordinance Complaint",
    "date_created": "2022-08-11T19:32:20.000",
    "date_modified": "2022-08-11T19:32:20.000",
    "request_status": "Pending",
    "responsible_agency": "Health Department",
    "final_address": "718 Bourbon St, New Orleans, Louisiana, 70116",
    "address_councildis": "C",
    "status": "Pending",
    "rowid": "908997",
    "final_x": "3682364.17781",
    "final_y": "532746.008004",
    "longitude": "-90.06529872053143",
    "latitude": "29.95884052062511",
    "geocoded_column": {
      "latitude": "29.95884052062511",
      "longitude": "-90.06529872053143"
    }
  },
  {
    "service_request": "2022-908996",
    "request_type": "Trash/Recycling",
    "request_reason": "MIssed Recycling Pick-Up",
    "date_created": "2022-08-11T19:31:55.000",
    "date_modified": "2022-08-11T19:31:55.000",
    "request_status": "Pending",
    "responsible_agency": "Department of Sanitation",
    "final_address": "6010 Freret St",
    "address_councildis": "A",
    "status": "Assigned to Contractor",
    "contractor": "Richards Disposal",
    "rowid": "908996",
    "final_x": "3666255.89319",
    "final_y": "524406.470524",
    "longitude": "-90.1164444570858",
    "latitude": "29.936389818373097",
    "geocoded_column": {
      "latitude": "29.936389818373097",
      "longitude": "-90.1164444570858"
    }
  },
  {
    "service_request": "2022-908993",
    "request_type": "Trash/Recycling",
    "request_reason": "Order Recycling Cart",
    "date_created": "2022-08-11T19:16:10.000",
    "date_modified": "2022-08-11T19:16:10.000",
    "request_status": "Pending",
    "responsible_agency": "Department of Sanitation",
    "final_address": "8237 Nelson St",
    "address_councildis": "A",
    "status": "Pending",
    "rowid": "908993",
    "final_x": "3664647.07821",
    "final_y": "532323.570371",
    "longitude": "-90.12125917112051",
    "latitude": "29.95820617420702",
    "geocoded_column": {
      "latitude": "29.95820617420702",
      "longitude": "-90.12125917112051"
    }
  },
  {
    "service_request": "2022-908992",
    "request_type": "Abandoned Vehicles",
    "request_reason": "Abandoned/Junk Vehicles",
    "date_created": "2022-08-11T19:08:36.000",
    "date_modified": "2022-08-11T19:08:36.000",
    "request_status": "Pending",
    "responsible_agency": "Department of Public Works",
    "final_address": "4424 S Johnson St",
    "address_councildis": "B",
    "status": "Pending",
    "rowid": "908992",
    "final_x": "3669313.58753",
    "final_y": "527032.596286",
    "longitude": "-90.10670242566057",
    "latitude": "29.943521171557784",
    "geocoded_column": {
      "latitude": "29.943521171557784",
      "longitude": "-90.10670242566057"
    }
  },
  {
    "service_request": "2022-908991",
    "request_type": "Traffic Signals/Signs/Striping/Streetlights",
    "request_reason": "Street Light Outage/Malfunction",
    "date_created": "2022-08-11T19:05:39.000",
    "date_modified": "2022-08-11T19:05:40.000",
    "request_status": "Pending",
    "responsible_agency": "Department of Public Works",
    "final_address": "2800 St Charles Ave",
    "address_councildis": "B",
    "status": "Pending",
    "contractor": "Legacy Professional Services",
    "rowid": "908991",
    "final_x": "3675920.10606",
    "final_y": "522442.467258",
    "longitude": "-90.08600165959062",
    "latitude": "29.930703701011186",
    "geocoded_column": {
      "latitude": "29.930703701011186",
      "longitude": "-90.08600165959062"
    }
  },
  {
    "service_request": "2022-908990",
    "request_type": "Trash/Recycling",
    "request_reason": "MIssed Recycling Pick-Up",
    "date_created": "2022-08-11T18:59:04.000",
    "date_modified": "2022-08-11T18:59:05.000",
    "request_status": "Pending",
    "responsible_agency": "Department of Sanitation",
    "final_address": "822 Valmont St",
    "address_councildis": "B",
    "status": "Assigned to Contractor",
    "contractor": "Richards Disposal",
    "rowid": "908990",
    "final_x": "3667409.36071",
    "final_y": "518456.696886",
    "longitude": "-90.1130029540767",
    "latitude": "29.919996095484482",
    "geocoded_column": {
      "latitude": "29.919996095484482",
      "longitude": "-90.1130029540767"
    }
  },
  {
    "service_request": "2022-908989",
    "request_type": "Property Maintenance",
    "request_reason": "Property Maintenance",
    "date_created": "2022-08-11T18:58:58.000",
    "date_modified": "2022-08-11T18:58:58.000",
    "request_status": "Pending",
    "responsible_agency": "Department of Code Enforcement",
    "final_address": "2022 Stephen Girard St",
    "address_councildis": "D",
    "status": "Pending",
    "rowid": "908989",
    "final_x": "3682725.95055",
    "final_y": "548687.823187",
    "longitude": "-90.0635985032073",
    "latitude": "30.002663917495155",
    "geocoded_column": {
      "latitude": "30.002663917495155",
      "longitude": "-90.0635985032073"
    }
  },
  {
    "service_request": "2022-908988",
    "request_type": "Trash/Recycling",
    "request_reason": "Replace Recycling Cart",
    "date_created": "2022-08-11T18:57:24.000",
    "date_modified": "2022-08-11T18:57:24.000",
    "request_status": "Pending",
    "responsible_agency": "Department of Sanitation",
    "final_address": "1703 S Gayoso St",
    "address_councildis": "B",
    "status": "Pending",
    "rowid": "908988",
    "final_x": "3670426.73242",
    "final_y": "530283.766465",
    "longitude": "-90.103077717256",
    "latitude": "29.952428013315444",
    "geocoded_column": {
      "latitude": "29.952428013315444",
      "longitude": "-90.103077717256"
    }
  },
  {
    "service_request": "2022-908987",
    "request_type": "Trash/Recycling",
    "request_reason": "Replace Trash Cart",
    "date_created": "2022-08-11T18:55:20.000",
    "date_modified": "2022-08-11T18:55:21.000",
    "request_status": "Pending",
    "responsible_agency": "Department of Sanitation",
    "final_address": "1703 S Gayoso St",
    "address_councildis": "B",
    "status": "Assigned to Contractor",
    "contractor": "Richards Disposal",
    "rowid": "908987",
    "final_x": "3670426.73242",
    "final_y": "530283.766465",
    "longitude": "-90.103077717256",
    "latitude": "29.952428013315444",
    "geocoded_column": {
      "latitude": "29.952428013315444",
      "longitude": "-90.103077717256"
    }
  },
  {
    "service_request": "2022-908985",
    "request_type": "Health Related Questions",
    "request_reason": "Request Information on the Smoke Free Ordinance",
    "date_created": "2022-08-11T18:43:16.000",
    "date_modified": "2022-08-11T18:43:16.000",
    "request_status": "Pending",
    "responsible_agency": "Health Department",
    "status": "Pending",
    "rowid": "908985",
    "longitude": "0.0",
    "latitude": "0.0",
    "geocoded_column": {
      "latitude": "0.0",
      "longitude": "0.0"
    }
  },
  {
    "service_request": "2022-908984",
    "request_type": "Abandoned Vehicles",
    "request_reason": "Abandoned/Junk Vehicles",
    "date_created": "2022-08-11T18:33:26.000",
    "date_modified": "2022-08-11T18:33:26.000",
    "request_status": "Pending",
    "responsible_agency": "Department of Public Works",
    "final_address": "2437 N Johnson St",
    "address_councildis": "D",
    "status": "Pending",
    "rowid": "908984",
    "final_x": "3686614.78262",
    "final_y": "539801.984778",
    "longitude": "-90.05162719313991",
    "latitude": "29.978111972601692",
    "geocoded_column": {
      "latitude": "29.978111972601692",
      "longitude": "-90.05162719313991"
    }
  },
  {
    "service_request": "2022-908983",
    "request_type": "Trash/Recycling",
    "request_reason": "Missed Trash Pick-Up",
    "date_created": "2022-08-11T18:32:56.000",
    "date_modified": "2022-08-11T18:32:57.000",
    "request_status": "Pending",
    "responsible_agency": "Department of Sanitation",
    "final_address": "5530 Willow St",
    "address_councildis": "A",
    "status": "Assigned to Contractor",
    "contractor": "Richards Disposal",
    "rowid": "908983",
    "final_x": "3667642.75207",
    "final_y": "525376.073405",
    "longitude": "-90.11203345269419",
    "latitude": "29.939015343587098",
    "geocoded_column": {
      "latitude": "29.939015343587098",
      "longitude": "-90.11203345269419"
    }
  },
  {
    "service_request": "2022-908982",
    "request_type": "Traffic Signals/Signs/Striping/Streetlights",
    "request_reason": "Traffic Signal Malfunctioning/Damaged",
    "date_created": "2022-08-11T18:31:05.000",
    "date_modified": "2022-08-11T18:31:06.000",
    "request_status": "Pending",
    "responsible_agency": "Department of Public Works",
    "final_address": "S CLAIBORNE AVE & TOLEDANO ST",
    "address_councildis": "B",
    "status": "Pending",
    "rowid": "908982",
    "final_x": "3672686.1",
    "final_y": "526316.28",
    "longitude": "-90.09607892276615",
    "latitude": "29.941451833708907",
    "geocoded_column": {
      "latitude": "29.941451833708907",
      "longitude": "-90.09607892276615"
    }
  },
  {
    "service_request": "2022-908981",
    "request_type": "Trash/Recycling",
    "request_reason": "MIssed Recycling Pick-Up",
    "date_created": "2022-08-11T18:22:50.000",
    "date_modified": "2022-08-11T18:22:50.000",
    "request_status": "Pending",
    "responsible_agency": "Department of Sanitation",
    "final_address": "4918 S Prieur St",
    "address_councildis": "B",
    "status": "Assigned to Contractor",
    "contractor": "Richards Disposal",
    "rowid": "908981",
    "final_x": "3669090.91943",
    "final_y": "526637.515006",
    "longitude": "-90.10741879456256",
    "latitude": "29.942441378548565",
    "geocoded_column": {
      "latitude": "29.942441378548565",
      "longitude": "-90.10741879456256"
    }
  },
  {
    "service_request": "2022-908979",
    "request_type": "Trash/Recycling",
    "request_reason": "MIssed Recycling Pick-Up",
    "date_created": "2022-08-11T18:17:22.000",
    "date_modified": "2022-08-11T18:17:23.000",
    "request_status": "Pending",
    "responsible_agency": "Department of Sanitation",
    "final_address": "5329 Magazine St",
    "address_councildis": "B",
    "status": "Assigned to Contractor",
    "contractor": "Richards Disposal",
    "rowid": "908979",
    "final_x": "3667278.989",
    "final_y": "518740.792439",
    "longitude": "-90.11340492870518",
    "latitude": "29.92078108612122",
    "geocoded_column": {
      "latitude": "29.92078108612122",
      "longitude": "-90.11340492870518"
    }
  },
  {
    "service_request": "2022-908978",
    "request_type": "Trash/Recycling",
    "request_reason": "MIssed Recycling Pick-Up",
    "date_created": "2022-08-11T18:17:15.000",
    "date_modified": "2022-08-11T18:17:15.000",
    "request_status": "Pending",
    "responsible_agency": "Department of Sanitation",
    "final_address": "2833 S Liberty St",
    "address_councildis": "B",
    "status": "Assigned to Contractor",
    "contractor": "Richards Disposal",
    "rowid": "908978",
    "final_x": "3674286.65134",
    "final_y": "524479.15078",
    "longitude": "-90.09108854333479",
    "latitude": "29.936352710840243",
    "geocoded_column": {
      "latitude": "29.936352710840243",
      "longitude": "-90.09108854333479"
    }
  },
  {
    "service_request": "2022-908977",
    "request_type": "Property Maintenance",
    "request_reason": "Property Maintenance",
    "date_created": "2022-08-11T18:06:07.000",
    "date_modified": "2022-08-11T18:06:07.000",
    "request_status": "Pending",
    "responsible_agency": "Department of Code Enforcement",
    "final_address": "5763 Dauphine St",
    "address_councildis": "E",
    "status": "Pending",
    "rowid": "908977",
    "final_x": "3698547.98116",
    "final_y": "532443.103875",
    "longitude": "-90.01420570049427",
    "latitude": "29.957505263550086",
    "geocoded_column": {
      "latitude": "29.957505263550086",
      "longitude": "-90.01420570049427"
    }
  },
  {
    "service_request": "2022-908976",
    "request_type": "Property Maintenance",
    "request_reason": "Property Maintenance",
    "date_created": "2022-08-11T18:05:50.000",
    "date_modified": "2022-08-11T18:05:50.000",
    "request_status": "Pending",
    "responsible_agency": "Department of Code Enforcement",
    "final_address": "5903 Dauphine St",
    "address_councildis": "E",
    "status": "Pending",
    "rowid": "908976",
    "final_x": "3698645.2353",
    "final_y": "532415.235651",
    "longitude": "-90.01389961591968",
    "latitude": "29.957425556883514",
    "geocoded_column": {
      "latitude": "29.957425556883514",
      "longitude": "-90.01389961591968"
    }
  },
  {
    "service_request": "2022-908975",
    "request_type": "Property Maintenance",
    "request_reason": "Property Maintenance",
    "date_created": "2022-08-11T18:05:08.000",
    "date_modified": "2022-08-11T18:05:09.000",
    "request_status": "Pending",
    "responsible_agency": "Department of Code Enforcement",
    "final_address": "718 Alabo St",
    "address_councildis": "E",
    "status": "Pending",
    "rowid": "908975",
    "final_x": "3698492.54986",
    "final_y": "532236.506499",
    "longitude": "-90.01438824432958",
    "latitude": "29.956938948512967",
    "geocoded_column": {
      "latitude": "29.956938948512967",
      "longitude": "-90.01438824432958"
    }
  },
  {
    "service_request": "2022-908973",
    "request_type": "Traffic Signals/Signs/Striping/Streetlights",
    "request_reason": "Street Light Outage/Malfunction",
    "date_created": "2022-08-11T17:55:18.000",
    "date_modified": "2022-08-11T17:55:18.000",
    "request_status": "Pending",
    "responsible_agency": "Department of Public Works",
    "final_address": "2819 Carondelet St",
    "address_councildis": "B",
    "status": "Pending",
    "contractor": "Legacy Professional Services",
    "rowid": "908973",
    "final_x": "3675491.23221",
    "final_y": "522875.464123",
    "longitude": "-90.08734069010193",
    "latitude": "29.93190713181196",
    "geocoded_column": {
      "latitude": "29.93190713181196",
      "longitude": "-90.08734069010193"
    }
  },
  {
    "service_request": "2022-908972",
    "request_type": "Property Maintenance",
    "request_reason": "Property Maintenance",
    "date_created": "2022-08-11T17:52:39.000",
    "date_modified": "2022-08-11T17:52:39.000",
    "request_status": "Pending",
    "responsible_agency": "Department of Code Enforcement",
    "final_address": "91 Versailles Blvd",
    "address_councildis": "B",
    "status": "Pending",
    "rowid": "908972",
    "final_x": "3668088.14868",
    "final_y": "530905.55693",
    "longitude": "-90.11044096651796",
    "latitude": "29.954206566971017",
    "geocoded_column": {
      "latitude": "29.954206566971017",
      "longitude": "-90.11044096651796"
    }
  },
  {
    "service_request": "2022-908971",
    "request_type": "Roads/Drainage",
    "request_reason": "Catch Basin - Broken/Damage",
    "date_created": "2022-08-11T17:45:56.000",
    "date_modified": "2022-08-11T17:45:56.000",
    "request_status": "Pending",
    "responsible_agency": "Department of Public Works",
    "final_address": "CAMBRONNE ST & S CLAIBORNE AVE",
    "address_councildis": "A",
    "status": "Pending",
    "rowid": "908971",
    "final_x": "3664008.5",
    "final_y": "532221.98",
    "longitude": "-90.1232790227469",
    "latitude": "29.95794539205733",
    "geocoded_column": {
      "latitude": "29.95794539205733",
      "longitude": "-90.1232790227469"
    }
  },
  {
    "service_request": "2022-908970",
    "request_type": "Trash/Recycling",
    "request_reason": "MIssed Recycling Pick-Up",
    "date_created": "2022-08-11T17:42:57.000",
    "date_modified": "2022-08-11T17:42:58.000",
    "request_status": "Pending",
    "responsible_agency": "Department of Sanitation",
    "final_address": "3823 Nashville Ave",
    "address_councildis": "A",
    "status": "Assigned to Contractor",
    "contractor": "Richards Disposal",
    "rowid": "908970",
    "final_x": "3668602.59034",
    "final_y": "529578.385153",
    "longitude": "-90.10886134343815",
    "latitude": "29.950542172263155",
    "geocoded_column": {
      "latitude": "29.950542172263155",
      "longitude": "-90.10886134343815"
    }
  },
  {
    "service_request": "2022-908969",
    "request_type": "Roads/Drainage",
    "request_reason": "Catch Basin - Clogged",
    "date_created": "2022-08-11T17:42:19.000",
    "date_modified": "2022-08-11T17:42:19.000",
    "request_status": "Pending",
    "responsible_agency": "Department of Public Works",
    "final_address": "1918 Leonidas St",
    "address_councildis": "A",
    "status": "Pending",
    "rowid": "908969",
    "final_x": "3662408.79411",
    "final_y": "531565.738499",
    "longitude": "-90.12835225887014",
    "latitude": "29.95618729527522",
    "geocoded_column": {
      "latitude": "29.95618729527522",
      "longitude": "-90.12835225887014"
    }
  },
  {
    "service_request": "2022-908968",
    "request_type": "Trash/Recycling",
    "request_reason": "MIssed Recycling Pick-Up",
    "date_created": "2022-08-11T17:38:46.000",
    "date_modified": "2022-08-11T17:39:18.000",
    "request_status": "Pending",
    "responsible_agency": "Department of Sanitation",
    "final_address": "1712 General Pershing St",
    "address_councildis": "B",
    "status": "Assigned to Contractor",
    "contractor": "Richards Disposal",
    "rowid": "908968",
    "final_x": "3671142.36903",
    "final_y": "521403.151993",
    "longitude": "-90.10111960513036",
    "latitude": "29.92798806112126",
    "geocoded_column": {
      "latitude": "29.92798806112126",
      "longitude": "-90.10111960513036"
    }
  },
  {
    "service_request": "2022-908967",
    "request_type": "Traffic Signals/Signs/Striping/Streetlights",
    "request_reason": "Street Light Outage/Malfunction",
    "date_created": "2022-08-11T17:36:00.000",
    "date_modified": "2022-08-11T17:36:01.000",
    "request_status": "Pending",
    "responsible_agency": "Department of Public Works",
    "final_address": "4835 Rosemont Pl",
    "address_councildis": "E",
    "status": "Pending",
    "contractor": "Legacy Professional Services",
    "rowid": "908967",
    "final_x": "3702754.38801",
    "final_y": "555436.152089",
    "longitude": "-90.00007840965253",
    "latitude": "30.02059379662303",
    "geocoded_column": {
      "latitude": "30.02059379662303",
      "longitude": "-90.00007840965253"
    }
  },
  {
    "service_request": "2022-908966",
    "request_type": "Trash/Recycling",
    "request_reason": "Replace Trash Cart",
    "date_created": "2022-08-11T17:31:03.000",
    "date_modified": "2022-08-11T17:31:03.000",
    "request_status": "Pending",
    "responsible_agency": "Department of Sanitation",
    "final_address": "5341 Annunciation St",
    "address_councildis": "B",
    "status": "Assigned to Contractor",
    "contractor": "Richards Disposal",
    "rowid": "908966",
    "final_x": "3666971.14221",
    "final_y": "517606.526326",
    "longitude": "-90.11441475060286",
    "latitude": "29.91767121877968",
    "geocoded_column": {
      "latitude": "29.91767121877968",
      "longitude": "-90.11441475060286"
    }
  },
  {
    "service_request": "2022-908965",
    "request_type": "Trash/Recycling",
    "request_reason": "Request a Large Item Pick Up",
    "date_created": "2022-08-11T17:29:03.000",
    "date_modified": "2022-08-11T17:29:04.000",
    "request_status": "Pending",
    "responsible_agency": "Department of Sanitation",
    "final_address": "6336 Pratt Dr",
    "address_councildis": "D",
    "status": "Assigned to Contractor",
    "contractor": "Metro Disposal",
    "rowid": "908965",
    "final_x": "3679476.74799",
    "final_y": "557181.657563",
    "longitude": "-90.07356815505402",
    "latitude": "30.026117493222156",
    "geocoded_column": {
      "latitude": "30.026117493222156",
      "longitude": "-90.07356815505402"
    }
  },
  {
    "service_request": "2022-908964",
    "request_type": "Trash/Recycling",
    "request_reason": "MIssed Recycling Pick-Up",
    "date_created": "2022-08-11T17:24:40.000",
    "date_modified": "2022-08-11T17:24:41.000",
    "request_status": "Pending",
    "responsible_agency": "Department of Sanitation",
    "final_address": "2328 Napoleon Ave",
    "address_councildis": "B",
    "status": "Assigned to Contractor",
    "contractor": "Richards Disposal",
    "rowid": "908964",
    "final_x": "3670463.97934",
    "final_y": "523573.646779",
    "longitude": "-90.1031875720138",
    "latitude": "29.933976267579283",
    "geocoded_column": {
      "latitude": "29.933976267579283",
      "longitude": "-90.1031875720138"
    }
  },
  {
    "service_request": "2022-908963",
    "request_type": "Roads/Drainage",
    "request_reason": "Catch Basin - Clogged",
    "date_created": "2022-08-11T17:19:35.000",
    "date_modified": "2022-08-11T17:26:12.000",
    "request_status": "Pending",
    "responsible_agency": "Department of Public Works",
    "final_address": "1747 Tchoupitoulas St",
    "address_councildis": "B",
    "status": "Pending",
    "rowid": "908963",
    "final_x": "3681889.09922",
    "final_y": "521463.536313",
    "longitude": "-90.06719257293379",
    "latitude": "29.927831948922478",
    "geocoded_column": {
      "latitude": "29.927831948922478",
      "longitude": "-90.06719257293379"
    }
  },
  {
    "service_request": "2022-908961",
    "request_type": "Trash/Recycling",
    "request_reason": "Replace Trash Cart",
    "date_created": "2022-08-11T17:10:29.000",
    "date_modified": "2022-08-11T17:10:30.000",
    "request_status": "Pending",
    "responsible_agency": "Department of Sanitation",
    "final_address": "25800 Chef Menteur Hwy",
    "address_councildis": "E",
    "status": "Assigned to Contractor",
    "contractor": "Metro Disposal",
    "rowid": "908961",
    "final_x": "3782064.82898",
    "final_y": "601184.608004",
    "longitude": "-89.74748923034238",
    "latitude": "30.143603796421992",
    "geocoded_column": {
      "latitude": "30.143603796421992",
      "longitude": "-89.74748923034238"
    }
  },
  {
    "service_request": "2022-908960",
    "request_type": "Property Maintenance",
    "request_reason": "Property Maintenance",
    "date_created": "2022-08-11T17:08:44.000",
    "date_modified": "2022-08-11T17:08:44.000",
    "request_status": "Pending",
    "responsible_agency": "Department of Code Enforcement",
    "final_address": "1605 N Rocheblave St",
    "address_councildis": "D",
    "status": "Pending",
    "rowid": "908960",
    "final_x": "3679955.78299",
    "final_y": "539581.246986",
    "longitude": "-90.07266634804654",
    "latitude": "29.97770814982995",
    "geocoded_column": {
      "latitude": "29.97770814982995",
      "longitude": "-90.07266634804654"
    }
  },
  {
    "service_request": "2022-908959",
    "request_type": "Trash/Recycling",
    "request_reason": "MIssed Recycling Pick-Up",
    "date_created": "2022-08-11T17:03:49.000",
    "date_modified": "2022-08-11T17:03:50.000",
    "request_status": "Pending",
    "responsible_agency": "Department of Sanitation",
    "final_address": "4020 Camp St",
    "address_councildis": "B",
    "status": "Assigned to Contractor",
    "contractor": "Richards Disposal",
    "rowid": "908959",
    "final_x": "3672329.72443",
    "final_y": "519227.943799",
    "longitude": "-90.09744545234194",
    "latitude": "29.92197177222624",
    "geocoded_column": {
      "latitude": "29.92197177222624",
      "longitude": "-90.09744545234194"
    }
  },
  {
    "service_request": "2022-908958",
    "request_type": "Trash/Recycling",
    "request_reason": "Request a Large Item Pick Up",
    "date_created": "2022-08-11T17:02:50.000",
    "date_modified": "2022-08-11T17:02:51.000",
    "request_status": "Pending",
    "responsible_agency": "Department of Sanitation",
    "final_address": "3 Neron Pl, New Orleans, Louisiana, 70118",
    "address_councildis": "A",
    "status": "Assigned to Contractor",
    "contractor": "Richards Disposal",
    "rowid": "908958",
    "final_x": "3665970.84935",
    "final_y": "530073.232897",
    "longitude": "-90.11715447015331",
    "latitude": "29.95197991048297",
    "geocoded_column": {
      "latitude": "29.95197991048297",
      "longitude": "-90.11715447015331"
    }
  },
  {
    "service_request": "2022-908957",
    "request_type": "Abandoned Vehicles",
    "request_reason": "Abandoned/Junk Vehicles",
    "date_created": "2022-08-11T17:00:40.000",
    "date_modified": "2022-08-11T17:00:40.000",
    "request_status": "Pending",
    "responsible_agency": "Department of Public Works",
    "final_address": "1605 N Rocheblave St",
    "address_councildis": "D",
    "status": "Pending",
    "rowid": "908957",
    "final_x": "3679955.78299",
    "final_y": "539581.246986",
    "longitude": "-90.07266634804654",
    "latitude": "29.97770814982995",
    "geocoded_column": {
      "latitude": "29.97770814982995",
      "longitude": "-90.07266634804654"
    }
  },
  {
    "service_request": "2022-908956",
    "request_type": "Trash/Recycling",
    "request_reason": "Request a Large Item Pick Up",
    "date_created": "2022-08-11T16:58:33.000",
    "date_modified": "2022-08-11T16:58:34.000",
    "request_status": "Pending",
    "responsible_agency": "Department of Sanitation",
    "final_address": "432 Nashville Ave",
    "address_councildis": "A",
    "status": "Assigned to Contractor",
    "contractor": "Richards Disposal",
    "rowid": "908956",
    "final_x": "3665235.04589",
    "final_y": "517944.633142",
    "longitude": "-90.11988336150101",
    "latitude": "29.918651574488536",
    "geocoded_column": {
      "latitude": "29.918651574488536",
      "longitude": "-90.11988336150101"
    }
  },
  {
    "service_request": "2022-908955",
    "request_type": "Abandoned Vehicles",
    "request_reason": "Abandoned/Junk Vehicles",
    "date_created": "2022-08-11T16:56:03.000",
    "date_modified": "2022-08-11T16:56:49.000",
    "request_status": "Pending",
    "responsible_agency": "Department of Public Works",
    "final_address": "214 N Norman C Francis Prkwy",
    "address_councildis": "B",
    "status": "Pending",
    "rowid": "908955",
    "final_x": "3673673.47995",
    "final_y": "537073.808584",
    "longitude": "-90.09259380080856",
    "latitude": "29.971002103522817",
    "geocoded_column": {
      "latitude": "29.971002103522817",
      "longitude": "-90.09259380080856"
    }
  },
  {
    "service_request": "2022-908954",
    "request_type": "Trash/Recycling",
    "request_reason": "Order Trash Cart",
    "date_created": "2022-08-11T16:51:41.000",
    "date_modified": "2022-08-11T16:51:42.000",
    "request_status": "Pending",
    "responsible_agency": "Department of Sanitation",
    "final_address": "5058 E St Andrews Cir",
    "address_councildis": "E",
    "status": "Assigned to Contractor",
    "contractor": "Metro Disposal",
    "rowid": "908954",
    "final_x": "3719555.97471",
    "final_y": "560117.203293",
    "longitude": "-89.94681212575016",
    "latitude": "30.03291656168674",
    "geocoded_column": {
      "latitude": "30.03291656168674",
      "longitude": "-89.94681212575016"
    }
  },
  {
    "service_request": "2022-908953",
    "request_type": "Trash/Recycling",
    "request_reason": "Missed Trash Pick-Up",
    "date_created": "2022-08-11T16:51:30.000",
    "date_modified": "2022-08-11T16:51:31.000",
    "request_status": "Pending",
    "responsible_agency": "Department of Sanitation",
    "final_address": "1115 Bellecastle St",
    "address_councildis": "B",
    "status": "Assigned to Contractor",
    "contractor": "Richards Disposal",
    "rowid": "908953",
    "final_x": "3667818.38426",
    "final_y": "519514.394487",
    "longitude": "-90.11167626437111",
    "latitude": "29.922892446108666",
    "geocoded_column": {
      "latitude": "29.922892446108666",
      "longitude": "-90.11167626437111"
    }
  },
  {
    "service_request": "2022-908952",
    "request_type": "Property Maintenance",
    "request_reason": "Property Maintenance",
    "date_created": "2022-08-11T16:51:29.000",
    "date_modified": "2022-08-11T16:51:29.000",
    "request_status": "Pending",
    "responsible_agency": "Department of Code Enforcement",
    "final_address": "6761 Coventry St",
    "address_councildis": "E",
    "status": "Pending",
    "rowid": "908952",
    "final_x": "3698345.6321",
    "final_y": "559678.741661",
    "longitude": "-90.01385431032968",
    "latitude": "30.032399608781777",
    "geocoded_column": {
      "latitude": "30.032399608781777",
      "longitude": "-90.01385431032968"
    }
  },
  {
    "service_request": "2022-908951",
    "request_type": "Roads/Drainage",
    "request_reason": "Pothole",
    "date_created": "2022-08-11T16:48:47.000",
    "date_modified": "2022-08-11T16:48:47.000",
    "request_status": "Pending",
    "responsible_agency": "Department of Public Works",
    "final_address": "2915 Maurepas St",
    "address_councildis": "A",
    "status": "Pending",
    "rowid": "908951",
    "final_x": "3677580.06062",
    "final_y": "540745.923851",
    "longitude": "-90.08012946640962",
    "latitude": "29.980982265658177",
    "geocoded_column": {
      "latitude": "29.980982265658177",
      "longitude": "-90.08012946640962"
    }
  },
  {
    "service_request": "2022-908950",
    "request_type": "Traffic Signals/Signs/Striping/Streetlights",
    "request_reason": "Street Light Knocked Down/Leaning",
    "date_created": "2022-08-11T16:47:54.000",
    "date_modified": "2022-08-11T16:47:55.000",
    "request_status": "Pending",
    "responsible_agency": "Department of Public Works",
    "final_address": "115 St Charles Ave",
    "address_councildis": "B",
    "status": "Pending",
    "contractor": "Legacy Professional Services",
    "rowid": "908950",
    "final_x": "3681056.9876",
    "final_y": "530544.08781",
    "longitude": "-90.06950318334965",
    "latitude": "29.952825697813655",
    "geocoded_column": {
      "latitude": "29.952825697813655",
      "longitude": "-90.06950318334965"
    }
  },
  {
    "service_request": "2022-908949",
    "request_type": "Abandoned Vehicles",
    "request_reason": "Abandoned/Junk Vehicles",
    "date_created": "2022-08-11T16:46:38.000",
    "date_modified": "2022-08-11T16:48:27.000",
    "request_status": "Pending",
    "responsible_agency": "Department of Public Works",
    "final_address": "4874 Toulon St",
    "address_councildis": "E",
    "status": "Pending",
    "rowid": "908949",
    "final_x": "3723686.07436",
    "final_y": "560622.916254",
    "longitude": "-89.93374129873844",
    "latitude": "30.03416900350577",
    "geocoded_column": {
      "latitude": "30.03416900350577",
      "longitude": "-89.93374129873844"
    }
  },
  {
    "service_request": "2022-908948",
    "request_type": "Trash/Recycling",
    "request_reason": "MIssed Recycling Pick-Up",
    "date_created": "2022-08-11T16:46:29.000",
    "date_modified": "2022-08-11T16:46:30.000",
    "request_status": "Pending",
    "responsible_agency": "Department of Sanitation",
    "final_address": "921 Bellecastle St",
    "address_councildis": "B",
    "status": "Assigned to Contractor",
    "contractor": "Richards Disposal",
    "rowid": "908948",
    "final_x": "3667800.23098",
    "final_y": "518770.234615",
    "longitude": "-90.11175861019325",
    "latitude": "29.920846773348178",
    "geocoded_column": {
      "latitude": "29.920846773348178",
      "longitude": "-90.11175861019325"
    }
  },
  {
    "service_request": "2022-908947",
    "request_type": "Traffic Signals/Signs/Striping/Streetlights",
    "request_reason": "Street Light Knocked Down/Leaning",
    "date_created": "2022-08-11T16:45:28.000",
    "date_modified": "2022-08-11T16:45:29.000",
    "request_status": "Pending",
    "responsible_agency": "Department of Public Works",
    "final_address": "117 St Charles Ave",
    "address_councildis": "B",
    "status": "Pending",
    "contractor": "Legacy Professional Services",
    "rowid": "908947",
    "final_x": "3681039.25224",
    "final_y": "530519.423746",
    "longitude": "-90.06956004263616",
    "latitude": "29.952758417832264",
    "geocoded_column": {
      "latitude": "29.952758417832264",
      "longitude": "-90.06956004263616"
    }
  },
  {
    "service_request": "2022-908946",
    "request_type": "Traffic Signals/Signs/Striping/Streetlights",
    "request_reason": "Street Light Knocked Down/Leaning",
    "date_created": "2022-08-11T16:42:48.000",
    "date_modified": "2022-08-11T16:42:48.000",
    "request_status": "Pending",
    "responsible_agency": "Department of Public Works",
    "final_address": "120 St Charles Ave",
    "address_councildis": "B",
    "status": "Pending",
    "contractor": "Legacy Professional Services",
    "rowid": "908946",
    "final_x": "3681090.25237",
    "final_y": "530454.27213",
    "longitude": "-90.06940127631327",
    "latitude": "29.952577726125245",
    "geocoded_column": {
      "latitude": "29.952577726125245",
      "longitude": "-90.06940127631327"
    }
  },
  {
    "service_request": "2022-908945",
    "request_type": "Traffic Signals/Signs/Striping/Streetlights",
    "request_reason": "Street Light Knocked Down/Leaning",
    "date_created": "2022-08-11T16:40:19.000",
    "date_modified": "2022-08-11T16:40:20.000",
    "request_status": "Pending",
    "responsible_agency": "Department of Public Works",
    "final_address": "1124 St Charles Ave",
    "address_councildis": "B",
    "status": "Pending",
    "contractor": "Legacy Professional Services",
    "rowid": "908945",
    "final_x": "3679882.49973",
    "final_y": "526445.416574",
    "longitude": "-90.07335400248864",
    "latitude": "29.94159129094358",
    "geocoded_column": {
      "latitude": "29.94159129094358",
      "longitude": "-90.07335400248864"
    }
  },
  {
    "service_request": "2022-908944",
    "request_type": "Traffic Signals/Signs/Striping/Streetlights",
    "request_reason": "Street Light Outage/Malfunction",
    "date_created": "2022-08-11T16:40:13.000",
    "date_modified": "2022-08-11T16:40:14.000",
    "request_status": "Pending",
    "responsible_agency": "Department of Public Works",
    "final_address": "7748 Alabama St",
    "address_councildis": "D",
    "status": "Pending",
    "contractor": "Legacy Professional Services",
    "rowid": "908944",
    "final_x": "3694657.98608",
    "final_y": "559077.152028",
    "longitude": "-90.02552919097121",
    "latitude": "30.030861713370868",
    "geocoded_column": {
      "latitude": "30.030861713370868",
      "longitude": "-90.02552919097121"
    }
  },
  {
    "service_request": "2022-908943",
    "request_type": "Trash/Recycling",
    "request_reason": "MIssed Recycling Pick-Up",
    "date_created": "2022-08-11T16:39:10.000",
    "date_modified": "2022-08-11T16:39:11.000",
    "request_status": "Pending",
    "responsible_agency": "Department of Sanitation",
    "final_address": "954 Felicity St",
    "address_councildis": "B",
    "status": "Assigned to Contractor",
    "contractor": "Richards Disposal",
    "rowid": "908943",
    "final_x": "3680186.53947",
    "final_y": "522794.030715",
    "longitude": "-90.07252093721202",
    "latitude": "29.931541991666755",
    "geocoded_column": {
      "latitude": "29.931541991666755",
      "longitude": "-90.07252093721202"
    }
  },
  {
    "service_request": "2022-908942",
    "request_type": "Trash/Recycling",
    "request_reason": "Dead Animal Pick Up",
    "date_created": "2022-08-11T16:38:47.000",
    "date_modified": "2022-08-11T16:38:48.000",
    "request_status": "Pending",
    "responsible_agency": "Department of Sanitation",
    "final_address": "ST CLAUDE AVE & TUPELO ST",
    "address_councildis": "E",
    "status": "Assigned to Contractor",
    "contractor": "Metro Disposal",
    "rowid": "908942",
    "final_x": "3699490.4",
    "final_y": "533303.58",
    "longitude": "-90.01119848829362",
    "latitude": "29.95984140099645",
    "geocoded_column": {
      "latitude": "29.95984140099645",
      "longitude": "-90.01119848829362"
    }
  },
  {
    "service_request": "2022-908940",
    "request_type": "Traffic Signals/Signs/Striping/Streetlights",
    "request_reason": "Street Light Knocked Down/Leaning",
    "date_created": "2022-08-11T16:37:51.000",
    "date_modified": "2022-08-11T16:37:52.000",
    "request_status": "Pending",
    "responsible_agency": "Department of Public Works",
    "final_address": "132 St Charles Ave",
    "address_councildis": "B",
    "status": "Pending",
    "contractor": "Legacy Professional Services",
    "rowid": "908940",
    "final_x": "3681027.09877",
    "final_y": "530346.81293",
    "longitude": "-90.06960442886701",
    "latitude": "29.952284164921522",
    "geocoded_column": {
      "latitude": "29.952284164921522",
      "longitude": "-90.06960442886701"
    }
  },
  {
    "service_request": "2022-908939",
    "request_type": "Trash/Recycling",
    "request_reason": "Missed Trash Pick-Up",
    "date_created": "2022-08-11T16:35:46.000",
    "date_modified": "2022-08-11T16:35:46.000",
    "request_status": "Pending",
    "responsible_agency": "Department of Sanitation",
    "final_address": "1930 S Lopez St",
    "address_councildis": "B",
    "status": "Assigned to Contractor",
    "contractor": "Richards Disposal",
    "rowid": "908939",
    "final_x": "3669513.02977",
    "final_y": "529783.753025",
    "longitude": "-90.10597969217493",
    "latitude": "29.95108008328831",
    "geocoded_column": {
      "latitude": "29.95108008328831",
      "longitude": "-90.10597969217493"
    }
  },
  {
    "service_request": "2022-908938",
    "request_type": "Trash/Recycling",
    "request_reason": "Request a Large Item Pick Up",
    "date_created": "2022-08-11T16:34:18.000",
    "date_modified": "2022-08-11T16:34:19.000",
    "request_status": "Pending",
    "responsible_agency": "Department of Sanitation",
    "final_address": "6840 Orleans Ave",
    "address_councildis": "A",
    "status": "Assigned to Contractor",
    "contractor": "Metro Disposal",
    "rowid": "908938",
    "final_x": "3671308.73569",
    "final_y": "552819.795414",
    "longitude": "-90.09952653394659",
    "latitude": "30.014368321639964",
    "geocoded_column": {
      "latitude": "30.014368321639964",
      "longitude": "-90.09952653394659"
    }
  },
  {
    "service_request": "2022-908937",
    "request_type": "Traffic Signals/Signs/Striping/Streetlights",
    "request_reason": "Street Light Outage/Malfunction",
    "date_created": "2022-08-11T16:33:55.000",
    "date_modified": "2022-08-11T16:33:56.000",
    "request_status": "Pending",
    "responsible_agency": "Department of Public Works",
    "final_address": "7734 Alabama St",
    "address_councildis": "D",
    "status": "Pending",
    "contractor": "Legacy Professional Services",
    "rowid": "908937",
    "final_x": "3694689.03466",
    "final_y": "558982.645212",
    "longitude": "-90.02543448592154",
    "latitude": "30.030600881254703",
    "geocoded_column": {
      "latitude": "30.030600881254703",
      "longitude": "-90.02543448592154"
    }
  },
  {
    "service_request": "2022-908936",
    "request_type": "Roads/Drainage",
    "request_reason": "Alley Way",
    "date_created": "2022-08-11T16:31:13.000",
    "date_modified": "2022-08-11T16:31:13.000",
    "request_status": "Pending",
    "responsible_agency": "Department of Public Works",
    "final_address": "6840 Orleans Ave",
    "address_councildis": "A",
    "status": "Pending",
    "rowid": "908936",
    "final_x": "3671308.73569",
    "final_y": "552819.795414",
    "longitude": "-90.09952653394659",
    "latitude": "30.014368321639964",
    "geocoded_column": {
      "latitude": "30.014368321639964",
      "longitude": "-90.09952653394659"
    }
  },
  {
    "service_request": "2022-908935",
    "request_type": "Trash/Recycling",
    "request_reason": "Repair Trash Cart",
    "date_created": "2022-08-11T16:30:04.000",
    "date_modified": "2022-08-11T16:30:05.000",
    "request_status": "Pending",
    "responsible_agency": "Department of Sanitation",
    "final_address": "207 Rhodes Ave",
    "address_councildis": "C",
    "status": "Assigned to Contractor",
    "contractor": "Richards Disposal",
    "rowid": "908935",
    "final_x": "3706348.49745",
    "final_y": "519310.296695",
    "longitude": "-89.99006033801919",
    "latitude": "29.921145468471185",
    "geocoded_column": {
      "latitude": "29.921145468471185",
      "longitude": "-89.99006033801919"
    }
  },
  {
    "service_request": "2022-908934",
    "request_type": "Traffic Signals/Signs/Striping/Streetlights",
    "request_reason": "Street Light Knocked Down/Leaning",
    "date_created": "2022-08-11T16:29:52.000",
    "date_modified": "2022-08-11T16:29:52.000",
    "request_status": "Pending",
    "responsible_agency": "Department of Public Works",
    "final_address": "770 Common St",
    "address_councildis": "B",
    "status": "Pending",
    "contractor": "Legacy Professional Services",
    "rowid": "908934",
    "final_x": "3680656.09999",
    "final_y": "530432.258434",
    "longitude": "-90.07077289840366",
    "latitude": "29.95253035678947",
    "geocoded_column": {
      "latitude": "29.95253035678947",
      "longitude": "-90.07077289840366"
    }
  },
  {
    "service_request": "2022-908933",
    "request_type": "Traffic Signals/Signs/Striping/Streetlights",
    "request_reason": "Street Light Knocked Down/Leaning",
    "date_created": "2022-08-11T16:27:53.000",
    "date_modified": "2022-08-11T16:27:54.000",
    "request_status": "Pending",
    "responsible_agency": "Department of Public Works",
    "final_address": "770 Common St",
    "address_councildis": "B",
    "status": "Pending",
    "contractor": "Legacy Professional Services",
    "rowid": "908933",
    "final_x": "3680656.09999",
    "final_y": "530432.258434",
    "longitude": "-90.07077289840366",
    "latitude": "29.95253035678947",
    "geocoded_column": {
      "latitude": "29.95253035678947",
      "longitude": "-90.07077289840366"
    }
  },
  {
    "service_request": "2022-908931",
    "request_type": "Trash/Recycling",
    "request_reason": "Missed Trash Pick-Up",
    "date_created": "2022-08-11T16:24:32.000",
    "date_modified": "2022-08-11T16:24:32.000",
    "request_status": "Pending",
    "responsible_agency": "Department of Sanitation",
    "final_address": "3100 BLK Magazine St",
    "address_councildis": "B",
    "status": "Assigned to Contractor",
    "contractor": "Richards Disposal",
    "rowid": "908931",
    "final_x": "3675988.37863",
    "final_y": "520121.581264",
    "longitude": "-90.08586589798055",
    "latitude": "29.924319973023355",
    "geocoded_column": {
      "latitude": "29.924319973023355",
      "longitude": "-90.08586589798055"
    }
  },
  {
    "service_request": "2022-908930",
    "request_type": "Traffic Signals/Signs/Striping/Streetlights",
    "request_reason": "Street Light Knocked Down/Leaning",
    "date_created": "2022-08-11T16:23:14.000",
    "date_modified": "2022-08-11T16:23:15.000",
    "request_status": "Pending",
    "responsible_agency": "Department of Public Works",
    "final_address": "148 Carondelet St",
    "address_councildis": "B",
    "status": "Pending",
    "contractor": "Legacy Professional Services",
    "rowid": "908930",
    "final_x": "3680660.5604",
    "final_y": "530506.470594",
    "longitude": "-90.0707562324466",
    "latitude": "29.952734280058504",
    "geocoded_column": {
      "latitude": "29.952734280058504",
      "longitude": "-90.0707562324466"
    }
  },
  {
    "service_request": "2022-908929",
    "request_type": "Traffic Signals/Signs/Striping/Streetlights",
    "request_reason": "Street Light Knocked Down/Leaning",
    "date_created": "2022-08-11T16:20:23.000",
    "date_modified": "2022-08-11T16:20:23.000",
    "request_status": "Pending",
    "responsible_agency": "Department of Public Works",
    "final_address": "710 Canal St",
    "address_councildis": "B",
    "status": "Pending",
    "contractor": "Legacy Professional Services",
    "rowid": "908929",
    "final_x": "3681019.28194",
    "final_y": "530679.669506",
    "longitude": "-90.06961751952537",
    "latitude": "29.953199645171786",
    "geocoded_column": {
      "latitude": "29.953199645171786",
      "longitude": "-90.06961751952537"
    }
  },
  {
    "service_request": "2022-908928",
    "request_type": "Trash/Recycling",
    "request_reason": "Dead Animal Pick Up",
    "date_created": "2022-08-11T16:19:37.000",
    "date_modified": "2022-08-11T16:19:38.000",
    "request_status": "Pending",
    "responsible_agency": "Department of Sanitation",
    "final_address": "TUPELO ST & ST CLAUDE AVE",
    "address_councildis": "E",
    "status": "Assigned to Contractor",
    "contractor": "Metro Disposal",
    "rowid": "908928",
    "final_x": "3699460.0",
    "final_y": "533397.58",
    "longitude": "-90.01129105936747",
    "latitude": "29.960100831983993",
    "geocoded_column": {
      "latitude": "29.960100831983993",
      "longitude": "-90.01129105936747"
    }
  },
  {
    "service_request": "2022-908927",
    "request_type": "Trash/Recycling",
    "request_reason": "Order Trash Cart",
    "date_created": "2022-08-11T16:19:31.000",
    "date_modified": "2022-08-11T16:19:31.000",
    "request_status": "Pending",
    "responsible_agency": "Department of Sanitation",
    "final_address": "3231 St Claude Ave",
    "address_councildis": "C",
    "status": "Assigned to Contractor",
    "contractor": "Metro Disposal",
    "rowid": "908927",
    "final_x": "3689825.33372",
    "final_y": "535908.538567",
    "longitude": "-90.04162578659286",
    "latitude": "29.967307232169112",
    "geocoded_column": {
      "latitude": "29.967307232169112",
      "longitude": "-90.04162578659286"
    }
  },
  {
    "service_request": "2022-908926",
    "request_type": "Traffic Signals/Signs/Striping/Streetlights",
    "request_reason": "Street Light Knocked Down/Leaning",
    "date_created": "2022-08-11T16:18:23.000",
    "date_modified": "2022-08-11T16:18:23.000",
    "request_status": "Pending",
    "responsible_agency": "Department of Public Works",
    "final_address": "732 Canal St",
    "address_councildis": "B",
    "status": "Pending",
    "contractor": "Legacy Professional Services",
    "rowid": "908926",
    "final_x": "3680913.34069",
    "final_y": "530765.521922",
    "longitude": "-90.06994904703954",
    "latitude": "29.9534389225908",
    "geocoded_column": {
      "latitude": "29.9534389225908",
      "longitude": "-90.06994904703954"
    }
  },
  {
    "service_request": "2022-908925",
    "request_type": "Traffic Signals/Signs/Striping/Streetlights",
    "request_reason": "Street Light Outage/Malfunction",
    "date_created": "2022-08-11T16:18:21.000",
    "date_modified": "2022-08-11T16:18:22.000",
    "request_status": "Pending",
    "responsible_agency": "Department of Public Works",
    "final_address": "108 Pinewood Ct",
    "address_councildis": "C",
    "status": "Pending",
    "contractor": "Legacy Professional Services",
    "rowid": "908925",
    "final_x": "3695927.58243",
    "final_y": "523265.867899",
    "longitude": "-90.02281153846187",
    "latitude": "29.932353741176705",
    "geocoded_column": {
      "latitude": "29.932353741176705",
      "longitude": "-90.02281153846187"
    }
  },
  {
    "service_request": "2022-908924",
    "request_type": "Traffic Signals/Signs/Striping/Streetlights",
    "request_reason": "Street Light Knocked Down/Leaning",
    "date_created": "2022-08-11T16:16:41.000",
    "date_modified": "2022-08-11T16:16:41.000",
    "request_status": "Pending",
    "responsible_agency": "Department of Public Works",
    "final_address": "127 Carondelet St",
    "address_councildis": "B",
    "status": "Pending",
    "contractor": "Legacy Professional Services",
    "rowid": "908924",
    "final_x": "3680694.85199",
    "final_y": "530693.797954",
    "longitude": "-90.07064143683955",
    "latitude": "29.953248328075144",
    "geocoded_column": {
      "latitude": "29.953248328075144",
      "longitude": "-90.07064143683955"
    }
  },
  {
    "service_request": "2022-908923",
    "request_type": "Roads/Drainage",
    "request_reason": "Damaged Sidewalk",
    "date_created": "2022-08-11T16:15:01.000",
    "date_modified": "2022-08-11T16:15:02.000",
    "request_status": "Pending",
    "responsible_agency": "Department of Public Works",
    "final_address": "6751 Louisville St",
    "address_councildis": "A",
    "status": "Pending",
    "rowid": "908923",
    "final_x": "3668284.57838",
    "final_y": "552489.133718",
    "longitude": "-90.10909256377103",
    "latitude": "30.01354830887861",
    "geocoded_column": {
      "latitude": "30.01354830887861",
      "longitude": "-90.10909256377103"
    }
  },
  {
    "service_request": "2022-908920",
    "request_type": "Traffic Signals/Signs/Striping/Streetlights",
    "request_reason": "Street Light Knocked Down/Leaning",
    "date_created": "2022-08-11T16:12:49.000",
    "date_modified": "2022-08-11T16:12:50.000",
    "request_status": "Pending",
    "responsible_agency": "Department of Public Works",
    "final_address": "127 Carondelet St",
    "address_councildis": "B",
    "status": "Pending",
    "contractor": "Legacy Professional Services",
    "rowid": "908920",
    "final_x": "3680694.85199",
    "final_y": "530693.797954",
    "longitude": "-90.07064143683955",
    "latitude": "29.953248328075144",
    "geocoded_column": {
      "latitude": "29.953248328075144",
      "longitude": "-90.07064143683955"
    }
  },
  {
    "service_request": "2022-908919",
    "request_type": "Property Maintenance",
    "request_reason": "Property Maintenance",
    "date_created": "2022-08-11T16:12:22.000",
    "date_modified": "2022-08-11T16:12:22.000",
    "request_status": "Pending",
    "responsible_agency": "Department of Code Enforcement",
    "final_address": "883 Filmore Ave",
    "address_councildis": "A",
    "status": "Pending",
    "rowid": "908919",
    "final_x": "3670209.36698",
    "final_y": "551996.765526",
    "longitude": "-90.10302792346816",
    "latitude": "30.012137783765635",
    "geocoded_column": {
      "latitude": "30.012137783765635",
      "longitude": "-90.10302792346816"
    }
  },
  {
    "service_request": "2022-908916",
    "request_type": "Parks & Parkways",
    "request_reason": "Request Tree Service (Right of Way/Public Property)",
    "date_created": "2022-08-11T16:11:56.000",
    "date_modified": "2022-08-11T16:13:54.000",
    "request_status": "Pending",
    "responsible_agency": "Department of Parks & Parkway",
    "final_address": "6751 Louisville St",
    "address_councildis": "A",
    "status": "Pending",
    "rowid": "908916",
    "final_x": "3668284.57838",
    "final_y": "552489.133718",
    "longitude": "-90.10909256377103",
    "latitude": "30.01354830887861",
    "geocoded_column": {
      "latitude": "30.01354830887861",
      "longitude": "-90.10909256377103"
    }
  },
  {
    "service_request": "2022-908915",
    "request_type": "Traffic Signals/Signs/Striping/Streetlights",
    "request_reason": "Striping/Road Surface Markings",
    "date_created": "2022-08-11T16:10:30.000",
    "date_modified": "2022-08-11T16:10:30.000",
    "request_status": "Pending",
    "responsible_agency": "Department of Public Works",
    "final_address": "1719 Second St",
    "address_councildis": "B",
    "status": "Pending",
    "rowid": "908915",
    "final_x": "3676424.19054",
    "final_y": "523519.963515",
    "longitude": "-90.08437326014105",
    "latitude": "29.933651366301078",
    "geocoded_column": {
      "latitude": "29.933651366301078",
      "longitude": "-90.08437326014105"
    }
  },
  {
    "service_request": "2022-908914",
    "request_type": "Parks & Parkways",
    "request_reason": "Request Tree Service (Right of Way/Public Property)",
    "date_created": "2022-08-11T16:10:30.000",
    "date_modified": "2022-08-11T16:10:30.000",
    "request_status": "Pending",
    "responsible_agency": "Department of Parks & Parkway",
    "final_address": "2437 Joseph St",
    "address_councildis": "A",
    "status": "Pending",
    "rowid": "908914",
    "final_x": "3667561.41498",
    "final_y": "525042.403453",
    "longitude": "-90.11230147006529",
    "latitude": "29.938100241949897",
    "geocoded_column": {
      "latitude": "29.938100241949897",
      "longitude": "-90.11230147006529"
    }
  },
  {
    "service_request": "2022-908913",
    "request_type": "Trash/Recycling",
    "request_reason": "MIssed Recycling Pick-Up",
    "date_created": "2022-08-11T16:08:12.000",
    "date_modified": "2022-08-11T16:08:13.000",
    "request_status": "Pending",
    "responsible_agency": "Department of Sanitation",
    "final_address": "6203 S Rocheblave St",
    "address_councildis": "A",
    "status": "Assigned to Contractor",
    "contractor": "Richards Disposal",
    "rowid": "908913",
    "final_x": "3667642.84884",
    "final_y": "528734.782912",
    "longitude": "-90.11192011495264",
    "latitude": "29.948250706343114",
    "geocoded_column": {
      "latitude": "29.948250706343114",
      "longitude": "-90.11192011495264"
    }
  },
  {
    "service_request": "2022-908912",
    "request_type": "Traffic Signals/Signs/Striping/Streetlights",
    "request_reason": "Street Light Knocked Down/Leaning",
    "date_created": "2022-08-11T16:05:37.000",
    "date_modified": "2022-08-11T16:05:39.000",
    "request_status": "Pending",
    "responsible_agency": "Department of Public Works",
    "final_address": "127 Carondelet St",
    "address_councildis": "B",
    "status": "Pending",
    "contractor": "Legacy Professional Services",
    "rowid": "908912",
    "final_x": "3680694.85199",
    "final_y": "530693.797954",
    "longitude": "-90.07064143683955",
    "latitude": "29.953248328075144",
    "geocoded_column": {
      "latitude": "29.953248328075144",
      "longitude": "-90.07064143683955"
    }
  },
  {
    "service_request": "2022-908911",
    "request_type": "Trash/Recycling",
    "request_reason": "Order Trash Cart",
    "date_created": "2022-08-11T16:05:23.000",
    "date_modified": "2022-08-11T16:05:24.000",
    "request_status": "Pending",
    "responsible_agency": "Department of Sanitation",
    "final_address": "1723 Agriculture St",
    "address_councildis": "D",
    "status": "Assigned to Contractor",
    "contractor": "Metro Disposal",
    "rowid": "908911",
    "final_x": "3680873.64347",
    "final_y": "543049.700109",
    "longitude": "-90.06964661936617",
    "latitude": "29.987217385698646",
    "geocoded_column": {
      "latitude": "29.987217385698646",
      "longitude": "-90.06964661936617"
    }
  },
  {
    "service_request": "2022-908910",
    "request_type": "Traffic Signals/Signs/Striping/Streetlights",
    "request_reason": "Street Light Knocked Down/Leaning",
    "date_created": "2022-08-11T16:01:32.000",
    "date_modified": "2022-08-11T16:01:32.000",
    "request_status": "Pending",
    "responsible_agency": "Department of Public Works",
    "final_address": "110 Carondelet St",
    "address_councildis": "B",
    "status": "Pending",
    "contractor": "Legacy Professional Services",
    "rowid": "908910",
    "final_x": "3680871.22191",
    "final_y": "530779.068098",
    "longitude": "-90.07008156861272",
    "latitude": "29.953477446860532",
    "geocoded_column": {
      "latitude": "29.953477446860532",
      "longitude": "-90.07008156861272"
    }
  },
  {
    "service_request": "2022-908909",
    "request_type": "Trash/Recycling",
    "request_reason": "Request a Large Item Pick Up",
    "date_created": "2022-08-11T16:00:21.000",
    "date_modified": "2022-08-11T16:00:22.000",
    "request_status": "Pending",
    "responsible_agency": "Department of Sanitation",
    "final_address": "417 S St Patrick St",
    "address_councildis": "A",
    "status": "Assigned to Contractor",
    "contractor": "Richards Disposal",
    "rowid": "908909",
    "final_x": "3668250.10253",
    "final_y": "538774.710281",
    "longitude": "-90.10966422572777",
    "latitude": "29.97583937343071",
    "geocoded_column": {
      "latitude": "29.97583937343071",
      "longitude": "-90.10966422572777"
    }
  },
  {
    "service_request": "2022-908908",
    "request_type": "Trash/Recycling",
    "request_reason": "MIssed Recycling Pick-Up",
    "date_created": "2022-08-11T15:59:15.000",
    "date_modified": "2022-08-11T15:59:16.000",
    "request_status": "Pending",
    "responsible_agency": "Department of Sanitation",
    "final_address": "1109 Valmont St",
    "address_councildis": "B",
    "status": "Assigned to Contractor",
    "contractor": "Richards Disposal",
    "rowid": "908908",
    "final_x": "3667642.13114",
    "final_y": "519454.462775",
    "longitude": "-90.11223464447421",
    "latitude": "29.922732818703118",
    "geocoded_column": {
      "latitude": "29.922732818703118",
      "longitude": "-90.11223464447421"
    }
  },
  {
    "service_request": "2022-908906",
    "request_type": "Traffic Signals/Signs/Striping/Streetlights",
    "request_reason": "Street Light Knocked Down/Leaning",
    "date_created": "2022-08-11T15:58:12.000",
    "date_modified": "2022-08-11T15:58:12.000",
    "request_status": "Pending",
    "responsible_agency": "Department of Public Works",
    "final_address": "418 Common St",
    "address_councildis": "B",
    "status": "Pending",
    "contractor": "Legacy Professional Services",
    "rowid": "908906",
    "final_x": "3681903.77519",
    "final_y": "529813.773057",
    "longitude": "-90.06685489471775",
    "latitude": "29.95079187053768",
    "geocoded_column": {
      "latitude": "29.95079187053768",
      "longitude": "-90.06685489471775"
    }
  },
  {
    "service_request": "2022-908905",
    "request_type": "Trash/Recycling",
    "request_reason": "Repair Trash Cart",
    "date_created": "2022-08-11T15:56:19.000",
    "date_modified": "2022-08-11T15:56:23.000",
    "request_status": "Pending",
    "responsible_agency": "Department of Sanitation",
    "final_address": "4115 Elba St",
    "address_councildis": "B",
    "status": "Assigned to Contractor",
    "contractor": "Richards Disposal",
    "rowid": "908905",
    "final_x": "3670493.31956",
    "final_y": "530029.115905",
    "longitude": "-90.10287609944935",
    "latitude": "29.951725841999114",
    "geocoded_column": {
      "latitude": "29.951725841999114",
      "longitude": "-90.10287609944935"
    }
  },
  {
    "service_request": "2022-908904",
    "request_type": "Traffic Signals/Signs/Striping/Streetlights",
    "request_reason": "Street Light Knocked Down/Leaning",
    "date_created": "2022-08-11T15:55:33.000",
    "date_modified": "2022-08-11T15:55:34.000",
    "request_status": "Pending",
    "responsible_agency": "Department of Public Works",
    "final_address": "139 Carondelet St",
    "address_councildis": "B",
    "status": "Pending",
    "contractor": "Legacy Professional Services",
    "rowid": "908904",
    "final_x": "3680651.6916",
    "final_y": "530618.257218",
    "longitude": "-90.0707803468866",
    "latitude": "29.953041924263907",
    "geocoded_column": {
      "latitude": "29.953041924263907",
      "longitude": "-90.0707803468866"
    }
  },
  {
    "service_request": "2022-908903",
    "request_type": "Trash/Recycling",
    "request_reason": "MIssed Recycling Pick-Up",
    "date_created": "2022-08-11T15:55:24.000",
    "date_modified": "2022-08-11T15:55:25.000",
    "request_status": "Pending",
    "responsible_agency": "Department of Sanitation",
    "final_address": "630 N St Patrick St",
    "address_councildis": "A",
    "status": "Assigned to Contractor",
    "contractor": "Richards Disposal",
    "rowid": "908903",
    "final_x": "3670385.66625",
    "final_y": "541443.420108",
    "longitude": "-90.10282897862855",
    "latitude": "29.983114537903425",
    "geocoded_column": {
      "latitude": "29.983114537903425",
      "longitude": "-90.10282897862855"
    }
  },
  {
    "service_request": "2022-908901",
    "request_type": "Trash/Recycling",
    "request_reason": "Order Recycling Cart",
    "date_created": "2022-08-11T15:53:26.000",
    "date_modified": "2022-08-11T15:53:26.000",
    "request_status": "Pending",
    "responsible_agency": "Department of Sanitation",
    "final_address": "4106 N Derbigny St",
    "address_councildis": "D",
    "status": "Pending",
    "rowid": "908901",
    "final_x": "3692729.83555",
    "final_y": "537426.601224",
    "longitude": "-90.03239893881123",
    "latitude": "29.971391016904608",
    "geocoded_column": {
      "latitude": "29.971391016904608",
      "longitude": "-90.03239893881123"
    }
  },
  {
    "service_request": "2022-908900",
    "request_type": "Traffic Signals/Signs/Striping/Streetlights",
    "request_reason": "Request for Stop Sign",
    "date_created": "2022-08-11T15:53:02.000",
    "date_modified": "2022-08-11T15:53:02.000",
    "request_status": "Pending",
    "responsible_agency": "Department of Public Works",
    "final_address": "701 N Rampart St",
    "address_councildis": "C",
    "status": "Pending",
    "rowid": "908900",
    "final_x": "3681283.26095",
    "final_y": "533670.496453",
    "longitude": "-90.06867975894592",
    "latitude": "29.961415395725087",
    "geocoded_column": {
      "latitude": "29.961415395725087",
      "longitude": "-90.06867975894592"
    }
  },
  {
    "service_request": "2022-908899",
    "request_type": "Traffic Signals/Signs/Striping/Streetlights",
    "request_reason": "Street Light Knocked Down/Leaning",
    "date_created": "2022-08-11T15:52:49.000",
    "date_modified": "2022-08-11T15:52:50.000",
    "request_status": "Pending",
    "responsible_agency": "Department of Public Works",
    "final_address": "817 Common St",
    "address_councildis": "B",
    "status": "Pending",
    "contractor": "Legacy Professional Services",
    "rowid": "908899",
    "final_x": "3680475.86792",
    "final_y": "530608.104258",
    "longitude": "-90.0713358739745",
    "latitude": "29.953019332872906",
    "geocoded_column": {
      "latitude": "29.953019332872906",
      "longitude": "-90.0713358739745"
    }
  },
  {
    "service_request": "2022-908898",
    "request_type": "Property Maintenance",
    "request_reason": "Property Maintenance",
    "date_created": "2022-08-11T15:50:48.000",
    "date_modified": "2022-08-11T15:50:48.000",
    "request_status": "Pending",
    "responsible_agency": "Department of Code Enforcement",
    "final_address": "6300 Carlson Dr",
    "address_councildis": "D",
    "status": "Pending",
    "rowid": "908898",
    "final_x": "3679447.7565",
    "final_y": "556677.947098",
    "longitude": "-90.0736772621775",
    "latitude": "30.02473335029963",
    "geocoded_column": {
      "latitude": "30.02473335029963",
      "longitude": "-90.0736772621775"
    }
  },
  {
    "service_request": "2022-908897",
    "request_type": "Traffic Signals/Signs/Striping/Streetlights",
    "request_reason": "Street Light Knocked Down/Leaning",
    "date_created": "2022-08-11T15:50:35.000",
    "date_modified": "2022-08-11T15:50:35.000",
    "request_status": "Pending",
    "responsible_agency": "Department of Public Works",
    "final_address": "817 Common St",
    "address_councildis": "B",
    "status": "Pending",
    "contractor": "Legacy Professional Services",
    "rowid": "908897",
    "final_x": "3680475.86792",
    "final_y": "530608.104258",
    "longitude": "-90.0713358739745",
    "latitude": "29.953019332872906",
    "geocoded_column": {
      "latitude": "29.953019332872906",
      "longitude": "-90.0713358739745"
    }
  },
  {
    "service_request": "2022-908895",
    "request_type": "Roads/Drainage",
    "request_reason": "Catch Basin - Clogged",
    "date_created": "2022-08-11T15:47:26.000",
    "date_modified": "2022-08-11T15:49:44.000",
    "request_status": "Pending",
    "responsible_agency": "Department of Public Works",
    "final_address": "711 S Solomon St",
    "address_councildis": "A",
    "rowid": "908895",
    "final_x": "3669076.8418",
    "final_y": "536789.34804",
    "longitude": "-90.1071202422624",
    "latitude": "29.970355991329935",
    "geocoded_column": {
      "latitude": "29.970355991329935",
      "longitude": "-90.1071202422624"
    }
  },
  {
    "service_request": "2022-908894",
    "request_type": "Traffic Signals/Signs/Striping/Streetlights",
    "request_reason": "Street Light Knocked Down/Leaning",
    "date_created": "2022-08-11T15:47:09.000",
    "date_modified": "2022-08-11T15:47:09.000",
    "request_status": "Pending",
    "responsible_agency": "Department of Public Works",
    "final_address": "817 Common St",
    "address_councildis": "B",
    "status": "Pending",
    "contractor": "Legacy Professional Services",
    "rowid": "908894",
    "final_x": "3680475.86792",
    "final_y": "530608.104258",
    "longitude": "-90.0713358739745",
    "latitude": "29.953019332872906",
    "geocoded_column": {
      "latitude": "29.953019332872906",
      "longitude": "-90.0713358739745"
    }
  },
  {
    "service_request": "2022-908893",
    "request_type": "Traffic Signals/Signs/Striping/Streetlights",
    "request_reason": "Street Light Knocked Down/Leaning",
    "date_created": "2022-08-11T15:43:50.000",
    "date_modified": "2022-08-11T15:43:51.000",
    "request_status": "Pending",
    "responsible_agency": "Department of Public Works",
    "final_address": "130 Baronne St",
    "address_councildis": "B",
    "status": "Pending",
    "contractor": "Legacy Professional Services",
    "rowid": "908893",
    "final_x": "3680426.27157",
    "final_y": "530856.204162",
    "longitude": "-90.07148385040512",
    "latitude": "29.953703025792713",
    "geocoded_column": {
      "latitude": "29.953703025792713",
      "longitude": "-90.07148385040512"
    }
  },
  {
    "service_request": "2022-908892",
    "request_type": "Trash/Recycling",
    "request_reason": "Replace Trash Cart",
    "date_created": "2022-08-11T15:43:04.000",
    "date_modified": "2022-08-11T15:43:04.000",
    "request_status": "Pending",
    "responsible_agency": "Department of Sanitation",
    "final_address": "8222 Hickory St",
    "address_councildis": "A",
    "status": "Assigned to Contractor",
    "contractor": "Richards Disposal",
    "rowid": "908892",
    "final_x": "3662955.12627",
    "final_y": "530261.915649",
    "longitude": "-90.12667047411851",
    "latitude": "29.952586395243806",
    "geocoded_column": {
      "latitude": "29.952586395243806",
      "longitude": "-90.12667047411851"
    }
  },
  {
    "service_request": "2022-908891",
    "request_type": "Trash/Recycling",
    "request_reason": "Repair Recycling Cart",
    "date_created": "2022-08-11T15:42:41.000",
    "date_modified": "2022-08-11T15:42:41.000",
    "request_status": "Pending",
    "responsible_agency": "Department of Sanitation",
    "final_address": "1425 Pleasant St",
    "address_councildis": "B",
    "status": "Pending",
    "rowid": "908891",
    "final_x": "3675031.68795",
    "final_y": "520963.881017",
    "longitude": "-90.08885696573189",
    "latitude": "29.926664629962822",
    "geocoded_column": {
      "latitude": "29.926664629962822",
      "longitude": "-90.08885696573189"
    }
  },
  {
    "service_request": "2022-908890",
    "request_type": "Trash/Recycling",
    "request_reason": "Order Recycling Cart",
    "date_created": "2022-08-11T15:41:23.000",
    "date_modified": "2022-08-11T15:41:23.000",
    "request_status": "Pending",
    "responsible_agency": "Department of Sanitation",
    "final_address": "1602 S Norman C Francis Prkwy",
    "address_councildis": "B",
    "status": "Pending",
    "rowid": "908890",
    "final_x": "3669539.37031",
    "final_y": "531188.170434",
    "longitude": "-90.10584901749769",
    "latitude": "29.954940994302866",
    "geocoded_column": {
      "latitude": "29.954940994302866",
      "longitude": "-90.10584901749769"
    }
  },