[
  {
    "service_request": "2022-890989",
    "request_type": "Roads/Drainage",
    "request_reason": "Pothole",
    "date_created": "2022-06-13T02:09:34.000",
    "date_modified": "2022-06-13T02:09:34.000",
    "request_status": "Pending",
    "responsible_agency": "Department of Public Works",
    "final_address": "6716 Pontchartrain Blvd",
    "address_councildis": "A",
    "status": "Pending",
    "rowid": "890989",
    "final_x": "3666312.37242",
    "final_y": "552780.626838",
    "longitude": "-90.11531393890388",
    "latitude": "30.014407604376746",
    "geocoded_column": {
      "latitude": "30.014407604376746",
      "longitude": "-90.11531393890388"
    }
  },
  {
    "service_request": "2022-890988",
    "request_type": "Health Related Questions",
    "request_reason": "Noise Ordinance Complaint",
    "date_created": "2022-06-12T22:31:57.000",
    "date_modified": "2022-06-12T22:31:57.000",
    "request_status": "Pending",
    "responsible_agency": "Health Department",
    "final_address": "718 Bourbon St, New Orleans, Louisiana, 70116",
    "address_councildis": "C",
    "status": "Pending",
    "rowid": "890988",
    "final_x": "3682364.17781",
    "final_y": "532746.008004",
    "longitude": "-90.06529872053143",
    "latitude": "29.95884052062511",
    "geocoded_column": {
      "latitude": "29.95884052062511",
      "longitude": "-90.06529872053143"
    }
  },
  {
    "service_request": "2022-890987",
    "request_type": "Health Related Questions",
    "request_reason": "Noise Ordinance Complaint",
    "date_created": "2022-06-12T22:15:27.000",
    "date_modified": "2022-06-12T22:15:27.000",
    "request_status": "Pending",
    "responsible_agency": "Health Department",
    "final_address": "718 Bourbon St, New Orleans, Louisiana, 70116",
    "address_councildis": "C",
    "status": "Pending",
    "rowid": "890987",
    "final_x": "3682364.17781",
    "final_y": "532746.008004",
    "longitude": "-90.06529872053143",
    "latitude": "29.95884052062511",
    "geocoded_column": {
      "latitude": "29.95884052062511",
      "longitude": "-90.06529872053143"
    }
  },
  {
    "service_request": "2022-890986",
    "request_type": "Property Maintenance",
    "request_reason": "Property Maintenance",
    "date_created": "2022-06-12T22:08:36.000",
    "date_modified": "2022-06-12T22:08:36.000",
    "request_status": "Pending",
    "responsible_agency": "Department of Code Enforcement",
    "final_address": "6864 Louisville St",
    "address_councildis": "A",
    "status": "Pending",
    "rowid": "890986",
    "final_x": "3668215.23425",
    "final_y": "553246.615831",
    "longitude": "-90.10928608976478",
    "latitude": "30.015633154856893",
    "geocoded_column": {
      "latitude": "30.015633154856893",
      "longitude": "-90.10928608976478"
    }
  },
  {
    "service_request": "2022-890985",
    "request_type": "Trash/Recycling",
    "request_reason": "Request a Large Item Pick Up",
    "date_created": "2022-06-12T21:41:51.000",
    "date_modified": "2022-06-12T21:41:51.000",
    "request_status": "Pending",
    "responsible_agency": "Department of Sanitation",
    "final_address": "5714 Tchoupitoulas St",
    "address_councildis": "A",
    "status": "Assigned to Contractor",
    "contractor": "Richards Disposal",
    "rowid": "890985",
    "final_x": "3665309.029",
    "final_y": "517187.691061",
    "longitude": "-90.11967514156362",
    "latitude": "29.91656806531834",
    "geocoded_column": {
      "latitude": "29.91656806531834",
      "longitude": "-90.11967514156362"
    }
  },
  {
    "service_request": "2022-890984",
    "request_type": "Abandoned Vehicles",
    "request_reason": "Abandoned/Junk Vehicles",
    "date_created": "2022-06-12T21:29:32.000",
    "date_modified": "2022-06-12T21:29:32.000",
    "request_status": "Pending",
    "responsible_agency": "Department of Public Works",
    "final_address": "4545 Downman Rd",
    "address_councildis": "D",
    "status": "Pending",
    "rowid": "890984",
    "final_x": "3696100.84861",
    "final_y": "553700.537175",
    "longitude": "-90.02116429597885",
    "latitude": "30.01603270299533",
    "geocoded_column": {
      "latitude": "30.01603270299533",
      "longitude": "-90.02116429597885"
    }
  },
  {
    "service_request": "2022-890983",
    "request_type": "Trash/Recycling",
    "request_reason": "Illegal Dumping",
    "date_created": "2022-06-12T21:15:50.000",
    "date_modified": "2022-06-12T21:15:50.000",
    "request_status": "Pending",
    "responsible_agency": "Department of Sanitation",
    "final_address": "3208 Palmyra St",
    "address_councildis": "B",
    "status": "Pending",
    "rowid": "890983",
    "final_x": "3673268.3524",
    "final_y": "535599.536198",
    "longitude": "-90.09392361033613",
    "latitude": "29.966960408036293",
    "geocoded_column": {
      "latitude": "29.966960408036293",
      "longitude": "-90.09392361033613"
    }
  },
  {
    "service_request": "2022-890982",
    "request_type": "Health Related Questions",
    "request_reason": "Noise Ordinance Complaint",
    "date_created": "2022-06-12T21:13:35.000",
    "date_modified": "2022-06-12T21:13:35.000",
    "request_status": "Pending",
    "responsible_agency": "Health Department",
    "final_address": "718 Bourbon St, New Orleans, Louisiana, 70116",
    "address_councildis": "C",
    "status": "Pending",
    "rowid": "890982",
    "final_x": "3682364.17781",
    "final_y": "532746.008004",
    "longitude": "-90.06529872053143",
    "latitude": "29.95884052062511",
    "geocoded_column": {
      "latitude": "29.95884052062511",
      "longitude": "-90.06529872053143"
    }
  },
  {
    "service_request": "2022-890981",
    "request_type": "Health Related Questions",
    "request_reason": "Noise Ordinance Complaint",
    "date_created": "2022-06-12T20:44:12.000",
    "date_modified": "2022-06-12T20:44:12.000",
    "request_status": "Pending",
    "responsible_agency": "Health Department",
    "final_address": "718 Bourbon St, New Orleans, Louisiana, 70116",
    "address_councildis": "C",
    "status": "Pending",
    "rowid": "890981",
    "final_x": "3682364.17781",
    "final_y": "532746.008004",
    "longitude": "-90.06529872053143",
    "latitude": "29.95884052062511",
    "geocoded_column": {
      "latitude": "29.95884052062511",
      "longitude": "-90.06529872053143"
    }
  },
  {
    "service_request": "2022-890980",
    "request_type": "Health Related Questions",
    "request_reason": "Noise Ordinance Complaint",
    "date_created": "2022-06-12T20:42:44.000",
    "date_modified": "2022-06-12T20:42:44.000",
    "request_status": "Pending",
    "responsible_agency": "Health Department",
    "final_address": "718 Bourbon St, New Orleans, Louisiana, 70116",
    "address_councildis": "C",
    "status": "Pending",
    "rowid": "890980",
    "final_x": "3682364.17781",
    "final_y": "532746.008004",
    "longitude": "-90.06529872053143",
    "latitude": "29.95884052062511",
    "geocoded_column": {
      "latitude": "29.95884052062511",
      "longitude": "-90.06529872053143"
    }
  },
  {
    "service_request": "2022-890979",
    "request_type": "Health Related Questions",
    "request_reason": "Noise Ordinance Complaint",
    "date_created": "2022-06-12T20:38:08.000",
    "date_modified": "2022-06-12T20:38:08.000",
    "request_status": "Pending",
    "responsible_agency": "Health Department",
    "final_address": "718 Bourbon St, New Orleans, Louisiana, 70116",
    "address_councildis": "C",
    "status": "Pending",
    "rowid": "890979",
    "final_x": "3682364.17781",
    "final_y": "532746.008004",
    "longitude": "-90.06529872053143",
    "latitude": "29.95884052062511",
    "geocoded_column": {
      "latitude": "29.95884052062511",
      "longitude": "-90.06529872053143"
    }
  },
  {
    "service_request": "2022-890978",
    "request_type": "Health Related Questions",
    "request_reason": "Noise Ordinance Complaint",
    "date_created": "2022-06-12T20:24:21.000",
    "date_modified": "2022-06-12T20:24:21.000",
    "request_status": "Pending",
    "responsible_agency": "Health Department",
    "final_address": "718 Bourbon St, New Orleans, Louisiana, 70116",
    "address_councildis": "C",
    "status": "Pending",
    "rowid": "890978",
    "final_x": "3682364.17781",
    "final_y": "532746.008004",
    "longitude": "-90.06529872053143",
    "latitude": "29.95884052062511",
    "geocoded_column": {
      "latitude": "29.95884052062511",
      "longitude": "-90.06529872053143"
    }
  },
  {
    "service_request": "2022-890977",
    "request_type": "Health Related Questions",
    "request_reason": "Noise Ordinance Complaint",
    "date_created": "2022-06-12T20:19:16.000",
    "date_modified": "2022-06-12T20:19:16.000",
    "request_status": "Pending",
    "responsible_agency": "Health Department",
    "final_address": "718 Bourbon St, New Orleans, Louisiana, 70116",
    "address_councildis": "C",
    "status": "Pending",
    "rowid": "890977",
    "final_x": "3682364.17781",
    "final_y": "532746.008004",
    "longitude": "-90.06529872053143",
    "latitude": "29.95884052062511",
    "geocoded_column": {
      "latitude": "29.95884052062511",
      "longitude": "-90.06529872053143"
    }
  },
  {
    "service_request": "2022-890976",
    "request_type": "Health Related Questions",
    "request_reason": "Noise Ordinance Complaint",
    "date_created": "2022-06-12T20:12:53.000",
    "date_modified": "2022-06-12T20:12:53.000",
    "request_status": "Pending",
    "responsible_agency": "Health Department",
    "final_address": "718 Bourbon St, New Orleans, Louisiana, 70116",
    "address_councildis": "C",
    "status": "Pending",
    "rowid": "890976",
    "final_x": "3682364.17781",
    "final_y": "532746.008004",
    "longitude": "-90.06529872053143",
    "latitude": "29.95884052062511",
    "geocoded_column": {
      "latitude": "29.95884052062511",
      "longitude": "-90.06529872053143"
    }
  },
  {
    "service_request": "2022-890975",
    "request_type": "Traffic Signals/Signs/Striping/Streetlights",
    "request_reason": "Traffic Signal Malfunctioning/Damaged",
    "date_created": "2022-06-12T19:26:02.000",
    "date_modified": "2022-06-12T19:26:03.000",
    "request_status": "Pending",
    "responsible_agency": "Department of Public Works",
    "final_address": "ST PETER ST & DECATUR ST",
    "address_councildis": "C",
    "status": "Pending",
    "rowid": "890975",
    "final_x": "3683168.9",
    "final_y": "531981.28",
    "longitude": "-90.06278439186116",
    "latitude": "29.95671326832178",
    "geocoded_column": {
      "latitude": "29.95671326832178",
      "longitude": "-90.06278439186116"
    }
  },
  {
    "service_request": "2022-890972",
    "request_type": "Trash/Recycling",
    "request_reason": "Order Recycling Cart",
    "date_created": "2022-06-12T19:23:17.000",
    "date_modified": "2022-06-12T19:23:17.000",
    "request_status": "Pending",
    "responsible_agency": "Department of Sanitation",
    "final_address": "2534 Esplanade Ave",
    "address_councildis": "D",
    "status": "Pending",
    "rowid": "890972",
    "final_x": "3678375.02933",
    "final_y": "538708.810569",
    "longitude": "-90.07768910642858",
    "latitude": "29.975356976732073",
    "geocoded_column": {
      "latitude": "29.975356976732073",
      "longitude": "-90.07768910642858"
    }
  },
  {
    "service_request": "2022-890971",
    "request_type": "Property Maintenance",
    "request_reason": "Property Maintenance",
    "date_created": "2022-06-12T19:19:54.000",
    "date_modified": "2022-06-12T19:19:54.000",
    "request_status": "Pending",
    "responsible_agency": "Department of Code Enforcement",
    "final_address": "4027 Tchoupitoulas St",
    "address_councildis": "B",
    "status": "Pending",
    "rowid": "890971",
    "final_x": "3672429.29422",
    "final_y": "517626.287798",
    "longitude": "-90.09718569391603",
    "latitude": "29.917564774854082",
    "geocoded_column": {
      "latitude": "29.917564774854082",
      "longitude": "-90.09718569391603"
    }
  },
  {
    "service_request": "2022-890970",
    "request_type": "Roads/Drainage",
    "request_reason": "Pothole",
    "date_created": "2022-06-12T19:18:50.000",
    "date_modified": "2022-06-12T19:18:50.000",
    "request_status": "Pending",
    "responsible_agency": "Department of Public Works",
    "final_address": "6125 Constance St",
    "address_councildis": "A",
    "status": "Pending",
    "rowid": "890970",
    "final_x": "3663877.94093",
    "final_y": "519203.851639",
    "longitude": "-90.1241251031427",
    "latitude": "29.922153480900363",
    "geocoded_column": {
      "latitude": "29.922153480900363",
      "longitude": "-90.1241251031427"
    }
  },
  {
    "service_request": "2022-890969",
    "request_type": "Trash/Recycling",
    "request_reason": "Request a Large Item Pick Up",
    "date_created": "2022-06-12T19:09:47.000",
    "date_modified": "2022-06-12T19:09:48.000",
    "request_status": "Pending",
    "responsible_agency": "Department of Sanitation",
    "final_address": "3327 General Taylor St",
    "address_councildis": "B",
    "status": "Assigned to Contractor",
    "contractor": "Richards Disposal",
    "rowid": "890969",
    "final_x": "3671232.2578",
    "final_y": "527219.966783",
    "longitude": "-90.10063830407029",
    "latitude": "29.943979762985556",
    "geocoded_column": {
      "latitude": "29.943979762985556",
      "longitude": "-90.10063830407029"
    }
  },
  {
    "service_request": "2022-890966",
    "request_type": "Trash/Recycling",
    "request_reason": "Request a Large Item Pick Up",
    "date_created": "2022-06-12T18:46:35.000",
    "date_modified": "2022-06-12T18:46:35.000",
    "request_status": "Pending",
    "responsible_agency": "Department of Sanitation",
    "final_address": "2736 Octavia St",
    "address_councildis": "A",
    "status": "Assigned to Contractor",
    "contractor": "Richards Disposal",
    "rowid": "890966",
    "final_x": "3667901.85767",
    "final_y": "525666.879741",
    "longitude": "-90.11120563047973",
    "latitude": "29.939807371131554",
    "geocoded_column": {
      "latitude": "29.939807371131554",
      "longitude": "-90.11120563047973"
    }
  },
  {
    "service_request": "2022-890965",
    "request_type": "Trash/Recycling",
    "request_reason": "Order Trash Cart",
    "date_created": "2022-06-12T18:44:42.000",
    "date_modified": "2022-06-12T18:44:43.000",
    "request_status": "Pending",
    "responsible_agency": "Department of Sanitation",
    "final_address": "2133 Clouet St",
    "address_councildis": "D",
    "status": "Assigned to Contractor",
    "contractor": "Metro Disposal",
    "rowid": "890965",
    "final_x": "3690043.84054",
    "final_y": "540000.894283",
    "longitude": "-90.04078995803907",
    "latitude": "29.978552990444033",
    "geocoded_column": {
      "latitude": "29.978552990444033",
      "longitude": "-90.04078995803907"
    }
  },
  {
    "service_request": "2022-890964",
    "request_type": "Traffic Signals/Signs/Striping/Streetlights",
    "request_reason": "Traffic Signal Malfunctioning/Damaged",
    "date_created": "2022-06-12T18:34:52.000",
    "date_modified": "2022-06-12T18:34:52.000",
    "request_status": "Pending",
    "responsible_agency": "Department of Public Works",
    "final_address": "500 St Peter St",
    "address_councildis": "C",
    "status": "Pending",
    "rowid": "890964",
    "final_x": "3683098.67644",
    "final_y": "531993.660995",
    "longitude": "-90.06300570159324",
    "latitude": "29.95674945271274",
    "geocoded_column": {
      "latitude": "29.95674945271274",
      "longitude": "-90.06300570159324"
    }
  },
  {
    "service_request": "2022-890963",
    "request_type": "Trash/Recycling",
    "request_reason": "Request a Large Item Pick Up",
    "date_created": "2022-06-12T18:32:19.000",
    "date_modified": "2022-06-12T18:32:19.000",
    "request_status": "Pending",
    "responsible_agency": "Department of Sanitation",
    "final_address": "4530 Baudin St",
    "address_councildis": "A",
    "status": "Assigned to Contractor",
    "contractor": "Richards Disposal",
    "rowid": "890963",
    "final_x": "3668444.62388",
    "final_y": "538289.696393",
    "longitude": "-90.109066236713",
    "latitude": "29.974500034817062",
    "geocoded_column": {
      "latitude": "29.974500034817062",
      "longitude": "-90.109066236713"
    }
  },
  {
    "service_request": "2022-890962",
    "request_type": "Trash/Recycling",
    "request_reason": "Repair Trash Cart",
    "date_created": "2022-06-12T18:27:42.000",
    "date_modified": "2022-06-12T18:27:52.000",
    "request_status": "Pending",
    "responsible_agency": "Department of Sanitation",
    "final_address": "8228 Pritchard Pl",
    "address_councildis": "A",
    "status": "Assigned to Contractor",
    "contractor": "Richards Disposal",
    "rowid": "890962",
    "final_x": "3665582.81581",
    "final_y": "533267.60186",
    "longitude": "-90.11827274573828",
    "latitude": "29.960774701479707",
    "geocoded_column": {
      "latitude": "29.960774701479707",
      "longitude": "-90.11827274573828"
    }
  },
  {
    "service_request": "2022-890961",
    "request_type": "Trash/Recycling",
    "request_reason": "Missed Trash Pick-Up",
    "date_created": "2022-06-12T18:26:18.000",
    "date_modified": "2022-06-12T18:26:19.000",
    "request_status": "Pending",
    "responsible_agency": "Department of Sanitation",
    "final_address": "8228 Pritchard Pl",
    "address_councildis": "A",
    "status": "Assigned to Contractor",
    "contractor": "Richards Disposal",
    "rowid": "890961",
    "final_x": "3665582.81581",
    "final_y": "533267.60186",
    "longitude": "-90.11827274573828",
    "latitude": "29.960774701479707",
    "geocoded_column": {
      "latitude": "29.960774701479707",
      "longitude": "-90.11827274573828"
    }
  },
  {
    "service_request": "2022-890960",
    "request_type": "Trash/Recycling",
    "request_reason": "Missed Trash Pick-Up",
    "date_created": "2022-06-12T18:11:24.000",
    "date_modified": "2022-06-12T18:11:25.000",
    "request_status": "Pending",
    "responsible_agency": "Department of Sanitation",
    "final_address": "4149 DHemecourt St",
    "address_councildis": "A",
    "status": "Assigned to Contractor",
    "contractor": "Richards Disposal",
    "rowid": "890960",
    "final_x": "3669446.56711",
    "final_y": "537150.418952",
    "longitude": "-90.10594039098426",
    "latitude": "29.97133793087996",
    "geocoded_column": {
      "latitude": "29.97133793087996",
      "longitude": "-90.10594039098426"
    }
  },
  {
    "service_request": "2022-890959",
    "request_type": "Trash/Recycling",
    "request_reason": "Order Recycling Cart",
    "date_created": "2022-06-12T18:05:06.000",
    "date_modified": "2022-06-12T18:05:06.000",
    "request_status": "Pending",
    "responsible_agency": "Department of Sanitation",
    "final_address": "7322 Maple St",
    "address_councildis": "A",
    "status": "Pending",
    "rowid": "890959",
    "final_x": "3662954.40115",
    "final_y": "525565.287869",
    "longitude": "-90.12682891356991",
    "latitude": "29.93967219454169",
    "geocoded_column": {
      "latitude": "29.93967219454169",
      "longitude": "-90.12682891356991"
    }
  },
  {
    "service_request": "2022-890958",
    "request_type": "Property Maintenance",
    "request_reason": "Property Maintenance",
    "date_created": "2022-06-12T17:51:09.000",
    "date_modified": "2022-06-12T17:51:09.000",
    "request_status": "Pending",
    "responsible_agency": "Department of Code Enforcement",
    "final_address": "1514 Athis St",
    "address_councildis": "D",
    "status": "Pending",
    "rowid": "890958",
    "final_x": "3678505.27886",
    "final_y": "553649.450071",
    "longitude": "-90.07676027734749",
    "latitude": "30.016434538885083",
    "geocoded_column": {
      "latitude": "30.016434538885083",
      "longitude": "-90.07676027734749"
    }
  },
  {
    "service_request": "2022-890957",
    "request_type": "Trash/Recycling",
    "request_reason": "Request a Large Item Pick Up",
    "date_created": "2022-06-12T17:45:50.000",
    "date_modified": "2022-06-12T17:45:51.000",
    "request_status": "Pending",
    "responsible_agency": "Department of Sanitation",
    "final_address": "2622 Marais St",
    "address_councildis": "C",
    "status": "Assigned to Contractor",
    "contractor": "Metro Disposal",
    "rowid": "890957",
    "final_x": "3687390.19484",
    "final_y": "536735.159303",
    "longitude": "-90.04928671580195",
    "latitude": "29.96965540769153",
    "geocoded_column": {
      "latitude": "29.96965540769153",
      "longitude": "-90.04928671580195"
    }
  },
  {
    "service_request": "2022-890956",
    "request_type": "Trash/Recycling",
    "request_reason": "Request a Large Item Pick Up",
    "date_created": "2022-06-12T17:45:50.000",
    "date_modified": "2022-06-12T17:45:51.000",
    "request_status": "Pending",
    "responsible_agency": "Department of Sanitation",
    "final_address": "2622 Marais St",
    "address_councildis": "C",
    "status": "Assigned to Contractor",
    "contractor": "Metro Disposal",
    "rowid": "890956",
    "final_x": "3687390.19484",
    "final_y": "536735.159303",
    "longitude": "-90.04928671580195",
    "latitude": "29.96965540769153",
    "geocoded_column": {
      "latitude": "29.96965540769153",
      "longitude": "-90.04928671580195"
    }
  },
  {
    "service_request": "2022-890955",
    "request_type": "Trash/Recycling",
    "request_reason": "Missed Trash Pick-Up",
    "date_created": "2022-06-12T16:57:17.000",
    "date_modified": "2022-06-12T16:57:18.000",
    "request_status": "Pending",
    "responsible_agency": "Department of Sanitation",
    "final_address": "411 S Solomon St",
    "address_councildis": "A",
    "status": "Assigned to Contractor",
    "contractor": "Richards Disposal",
    "rowid": "890955",
    "final_x": "3669747.03047",
    "final_y": "537683.355144",
    "longitude": "-90.10497343957506",
    "latitude": "29.97279447327231",
    "geocoded_column": {
      "latitude": "29.97279447327231",
      "longitude": "-90.10497343957506"
    }
  },
  {
    "service_request": "2022-890954",
    "request_type": "Property Maintenance",
    "request_reason": "Property Maintenance",
    "date_created": "2022-06-12T16:52:56.000",
    "date_modified": "2022-06-12T16:52:56.000",
    "request_status": "Pending",
    "responsible_agency": "Department of Code Enforcement",
    "final_address": "934 N Rocheblave St",
    "address_councildis": "D",
    "status": "Pending",
    "rowid": "890954",
    "final_x": "3678156.47426",
    "final_y": "537108.579272",
    "longitude": "-90.07843471207201",
    "latitude": "29.970963473441746",
    "geocoded_column": {
      "latitude": "29.970963473441746",
      "longitude": "-90.07843471207201"
    }
  },
  {
    "service_request": "2022-890953",
    "request_type": "Trash/Recycling",
    "request_reason": "Request a Large Item Pick Up",
    "date_created": "2022-06-12T16:48:25.000",
    "date_modified": "2022-06-12T16:48:26.000",
    "request_status": "Pending",
    "responsible_agency": "Department of Sanitation",
    "final_address": "3517 Constance St",
    "address_councildis": "B",
    "status": "Assigned to Contractor",
    "contractor": "Richards Disposal",
    "rowid": "890953",
    "final_x": "3674435.98836",
    "final_y": "519045.944823",
    "longitude": "-90.09080308292806",
    "latitude": "29.92140869858024",
    "geocoded_column": {
      "latitude": "29.92140869858024",
      "longitude": "-90.09080308292806"
    }
  },
  {
    "service_request": "2022-890952",
    "request_type": "Property Maintenance",
    "request_reason": "Property Maintenance",
    "date_created": "2022-06-12T16:47:16.000",
    "date_modified": "2022-06-12T16:47:16.000",
    "request_status": "Pending",
    "responsible_agency": "Department of Code Enforcement",
    "final_address": "934 N Rocheblave St",
    "address_councildis": "D",
    "status": "Pending",
    "rowid": "890952",
    "final_x": "3678156.47426",
    "final_y": "537108.579272",
    "longitude": "-90.07843471207201",
    "latitude": "29.970963473441746",
    "geocoded_column": {
      "latitude": "29.970963473441746",
      "longitude": "-90.07843471207201"
    }
  },
  {
    "service_request": "2022-890950",
    "request_type": "Roads/Drainage",
    "request_reason": "Pothole",
    "date_created": "2022-06-12T16:35:25.000",
    "date_modified": "2022-06-12T16:35:25.000",
    "request_status": "Pending",
    "responsible_agency": "Department of Public Works",
    "final_address": "318 Lakeshore Prkwy",
    "address_councildis": "D",
    "status": "Pending",
    "rowid": "890950",
    "final_x": "3667532.5433",
    "final_y": "556789.780506",
    "longitude": "-90.11132369960282",
    "latitude": "30.025395637510837",
    "geocoded_column": {
      "latitude": "30.025395637510837",
      "longitude": "-90.11132369960282"
    }
  },
  {
    "service_request": "2022-890949",
    "request_type": "Trash/Recycling",
    "request_reason": "Order Recycling Cart",
    "date_created": "2022-06-12T16:15:41.000",
    "date_modified": "2022-06-12T16:15:42.000",
    "request_status": "Pending",
    "responsible_agency": "Department of Sanitation",
    "final_address": "2120 Pauline St",
    "address_councildis": "D",
    "status": "Pending",
    "rowid": "890949",
    "final_x": "3692138.00867",
    "final_y": "539389.780426",
    "longitude": "-90.0341977107159",
    "latitude": "29.976807524578017",
    "geocoded_column": {
      "latitude": "29.976807524578017",
      "longitude": "-90.0341977107159"
    }
  },
  {
    "service_request": "2022-890947",
    "request_type": "Trash/Recycling",
    "request_reason": "Request a Large Item Pick Up",
    "date_created": "2022-06-12T16:06:09.000",
    "date_modified": "2022-06-12T16:06:10.000",
    "request_status": "Pending",
    "responsible_agency": "Department of Sanitation",
    "final_address": "3516 Canal St",
    "address_councildis": "B",
    "status": "Assigned to Contractor",
    "contractor": "Richards Disposal",
    "rowid": "890947",
    "final_x": "3672683.83969",
    "final_y": "537013.18708",
    "longitude": "-90.09572128797691",
    "latitude": "29.970864843169167",
    "geocoded_column": {
      "latitude": "29.970864843169167",
      "longitude": "-90.09572128797691"
    }
  },
  {
    "service_request": "2022-890945",
    "request_type": "Traffic Signals/Signs/Striping/Streetlights",
    "request_reason": "Traffic Signal Malfunctioning/Damaged",
    "date_created": "2022-06-12T15:27:03.000",
    "date_modified": "2022-06-12T15:27:03.000",
    "request_status": "Pending",
    "responsible_agency": "Department of Public Works",
    "final_address": "542 N Rampart St",
    "address_councildis": "C",
    "status": "Pending",
    "rowid": "890945",
    "final_x": "3681179.15804",
    "final_y": "532982.3273",
    "longitude": "-90.06903247557592",
    "latitude": "29.959526323912602",
    "geocoded_column": {
      "latitude": "29.959526323912602",
      "longitude": "-90.06903247557592"
    }
  },
  {
    "service_request": "2022-890944",
    "request_type": "Trash/Recycling",
    "request_reason": "Request a Large Item Pick Up",
    "date_created": "2022-06-12T15:19:05.000",
    "date_modified": "2022-06-12T15:19:06.000",
    "request_status": "Pending",
    "responsible_agency": "Department of Sanitation",
    "final_address": "2815 Broadway St",
    "address_councildis": "B",
    "status": "Assigned to Contractor",
    "contractor": "Richards Disposal",
    "rowid": "890944",
    "final_x": "3667398.04666",
    "final_y": "531342.979714",
    "longitude": "-90.1126053249345",
    "latitude": "29.95542956995363",
    "geocoded_column": {
      "latitude": "29.95542956995363",
      "longitude": "-90.1126053249345"
    }
  },
  {
    "service_request": "2022-890943",
    "request_type": "Property Maintenance",
    "request_reason": "Property Maintenance",
    "date_created": "2022-06-12T14:49:37.000",
    "date_modified": "2022-06-12T14:49:37.000",
    "request_status": "Pending",
    "responsible_agency": "Department of Code Enforcement",
    "final_address": "4218 Franklin Ave",
    "address_councildis": "D",
    "status": "Pending",
    "rowid": "890943",
    "final_x": "3686774.74601",
    "final_y": "548522.033874",
    "longitude": "-90.05081371139667",
    "latitude": "30.002084070902452",
    "geocoded_column": {
      "latitude": "30.002084070902452",
      "longitude": "-90.05081371139667"
    }
  },
  {
    "service_request": "2022-890942",
    "request_type": "Property Maintenance",
    "request_reason": "Property Maintenance",
    "date_created": "2022-06-12T14:46:00.000",
    "date_modified": "2022-06-12T14:46:00.000",
    "request_status": "Pending",
    "responsible_agency": "Department of Code Enforcement",
    "final_address": "3670 Gentilly Blvd",
    "address_councildis": "D",
    "status": "Pending",
    "rowid": "890942",
    "final_x": "3686874.17289",
    "final_y": "548700.399955",
    "longitude": "-90.050493302721",
    "latitude": "30.002571452607057",
    "geocoded_column": {
      "latitude": "30.002571452607057",
      "longitude": "-90.050493302721"
    }
  },
  {
    "service_request": "2022-890941",
    "request_type": "Property Maintenance",
    "request_reason": "Property Maintenance",
    "date_created": "2022-06-12T14:45:49.000",
    "date_modified": "2022-06-12T14:45:49.000",
    "request_status": "Pending",
    "responsible_agency": "Department of Code Enforcement",
    "final_address": "1935 Pauline St",
    "address_councildis": "D",
    "status": "Pending",
    "rowid": "890941",
    "final_x": "3692069.9128",
    "final_y": "538709.162249",
    "longitude": "-90.03443714539851",
    "latitude": "29.974938189632383",
    "geocoded_column": {
      "latitude": "29.974938189632383",
      "longitude": "-90.03443714539851"
    }
  },
  {
    "service_request": "2022-890940",
    "request_type": "Trash/Recycling",
    "request_reason": "Missed Trash Pick-Up",
    "date_created": "2022-06-12T14:29:04.000",
    "date_modified": "2022-06-12T14:29:04.000",
    "request_status": "Pending",
    "responsible_agency": "Department of Sanitation",
    "final_address": "4396 Genoa St",
    "address_councildis": "E",
    "status": "Assigned to Contractor",
    "contractor": "Metro Disposal",
    "rowid": "890940",
    "final_x": "3761094.55267",
    "final_y": "574282.897578",
    "longitude": "-89.81495680729091",
    "latitude": "30.070418329632293",
    "geocoded_column": {
      "latitude": "30.070418329632293",
      "longitude": "-89.81495680729091"
    }
  },
  {
    "service_request": "2022-890939",
    "request_type": "Trash/Recycling",
    "request_reason": "Order Trash Cart",
    "date_created": "2022-06-12T14:20:31.000",
    "date_modified": "2022-06-12T14:20:32.000",
    "request_status": "Pending",
    "responsible_agency": "Department of Sanitation",
    "final_address": "547 Philip St",
    "address_councildis": "B",
    "status": "Assigned to Contractor",
    "contractor": "Richards Disposal",
    "rowid": "890939",
    "final_x": "3679709.53922",
    "final_y": "520378.391608",
    "longitude": "-90.0741105753572",
    "latitude": "29.92491419848914",
    "geocoded_column": {
      "latitude": "29.92491419848914",
      "longitude": "-90.0741105753572"
    }
  },
  {
    "service_request": "2022-890938",
    "request_type": "Trash/Recycling",
    "request_reason": "Missed Trash Pick-Up",
    "date_created": "2022-06-12T14:00:35.000",
    "date_modified": "2022-06-12T14:00:36.000",
    "request_status": "Pending",
    "responsible_agency": "Department of Sanitation",
    "final_address": "523 S Solomon St",
    "address_councildis": "A",
    "status": "Assigned to Contractor",
    "contractor": "Richards Disposal",
    "rowid": "890938",
    "final_x": "3669443.45729",
    "final_y": "537317.456392",
    "longitude": "-90.10594456154368",
    "latitude": "29.97179731940905",
    "geocoded_column": {
      "latitude": "29.97179731940905",
      "longitude": "-90.10594456154368"
    }
  },
  {
    "service_request": "2022-890937",
    "request_type": "Trash/Recycling",
    "request_reason": "Request a Large Item Pick Up",
    "date_created": "2022-06-12T13:58:59.000",
    "date_modified": "2022-06-12T13:58:59.000",
    "request_status": "Pending",
    "responsible_agency": "Department of Sanitation",
    "final_address": "2523 Carondelet St",
    "address_councildis": "B",
    "status": "Assigned to Contractor",
    "contractor": "Richards Disposal",
    "rowid": "890937",
    "final_x": "3676302.47323",
    "final_y": "523296.917691",
    "longitude": "-90.08476518853129",
    "latitude": "29.933041710567313",
    "geocoded_column": {
      "latitude": "29.933041710567313",
      "longitude": "-90.08476518853129"
    }
  },
  {
    "service_request": "2022-890936",
    "request_type": "Trash/Recycling",
    "request_reason": "Illegal Dumping",
    "date_created": "2022-06-12T13:35:22.000",
    "date_modified": "2022-06-12T13:35:22.000",
    "request_status": "Pending",
    "responsible_agency": "Department of Sanitation",
    "final_address": "101 Sherwood Forest Dr",
    "address_councildis": "A",
    "status": "Pending",
    "rowid": "890936",
    "final_x": "3673257.85006",
    "final_y": "541313.731212",
    "longitude": "-90.09376156084629",
    "latitude": "29.982672814865065",
    "geocoded_column": {
      "latitude": "29.982672814865065",
      "longitude": "-90.09376156084629"
    }
  },
  {
    "service_request": "2022-890935",
    "request_type": "Trash/Recycling",
    "request_reason": "Request a Large Item Pick Up",
    "date_created": "2022-06-12T13:21:31.000",
    "date_modified": "2022-06-12T13:21:32.000",
    "request_status": "Pending",
    "responsible_agency": "Department of Sanitation",
    "final_address": "6952 Catina St",
    "address_councildis": "A",
    "status": "Assigned to Contractor",
    "contractor": "Metro Disposal",
    "rowid": "890935",
    "final_x": "3667076.57473",
    "final_y": "553944.191128",
    "longitude": "-90.11286027170335",
    "latitude": "30.017584638060367",
    "geocoded_column": {
      "latitude": "30.017584638060367",
      "longitude": "-90.11286027170335"
    }
  },
  {
    "service_request": "2022-890933",
    "request_type": "Trash/Recycling",
    "request_reason": "Request a Large Item Pick Up",
    "date_created": "2022-06-12T12:55:08.000",
    "date_modified": "2022-06-12T12:55:08.000",
    "request_status": "Pending",
    "responsible_agency": "Department of Sanitation",
    "final_address": "5682 Evelyn Ct",
    "address_councildis": "A",
    "status": "Assigned to Contractor",
    "contractor": "Metro Disposal",
    "rowid": "890933",
    "final_x": "3664583.23239",
    "final_y": "545546.799376",
    "longitude": "-90.12101900204317",
    "latitude": "29.994567501480088",
    "geocoded_column": {
      "latitude": "29.994567501480088",
      "longitude": "-90.12101900204317"
    }
  },
  {
    "service_request": "2022-890932",
    "request_type": "Property Maintenance",
    "request_reason": "Property Maintenance",
    "date_created": "2022-06-12T12:54:35.000",
    "date_modified": "2022-06-12T12:54:35.000",
    "request_status": "Pending",
    "responsible_agency": "Department of Code Enforcement",
    "final_address": "613 David St",
    "address_councildis": "A",
    "status": "Pending",
    "rowid": "890932",
    "final_x": "3671995.28206",
    "final_y": "540122.714059",
    "longitude": "-90.09778995386169",
    "latitude": "29.979435419860557",
    "geocoded_column": {
      "latitude": "29.979435419860557",
      "longitude": "-90.09778995386169"
    }
  },
  {
    "service_request": "2022-890931",
    "request_type": "Property Maintenance",
    "request_reason": "Property Maintenance",
    "date_created": "2022-06-12T12:35:34.000",
    "date_modified": "2022-06-12T12:35:34.000",
    "request_status": "Pending",
    "responsible_agency": "Department of Code Enforcement",
    "final_address": "7825 St Charles Ave",
    "address_councildis": "A",
    "status": "Pending",
    "rowid": "890931",
    "final_x": "3661288.29766",
    "final_y": "526266.981438",
    "longitude": "-90.13206583714769",
    "latitude": "29.94164976209271",
    "geocoded_column": {
      "latitude": "29.94164976209271",
      "longitude": "-90.13206583714769"
    }
  },
  {
    "service_request": "2022-890930",
    "request_type": "Trash/Recycling",
    "request_reason": "Replace Trash Cart",
    "date_created": "2022-06-12T12:31:07.000",
    "date_modified": "2022-06-12T12:31:08.000",
    "request_status": "Pending",
    "responsible_agency": "Department of Sanitation",
    "final_address": "7610 Willow St",
    "address_councildis": "A",
    "status": "Assigned to Contractor",
    "contractor": "Richards Disposal",
    "rowid": "890930",
    "final_x": "3663644.27431",
    "final_y": "527728.019775",
    "longitude": "-90.12457884825608",
    "latitude": "29.945599024471058",
    "geocoded_column": {
      "latitude": "29.945599024471058",
      "longitude": "-90.12457884825608"
    }
  },
  {
    "service_request": "2022-890929",
    "request_type": "Trash/Recycling",
    "request_reason": "Request a Large Item Pick Up",
    "date_created": "2022-06-12T12:15:58.000",
    "date_modified": "2022-06-12T12:15:59.000",
    "request_status": "Pending",
    "responsible_agency": "Department of Sanitation",
    "final_address": "379 Florida Blvd",
    "address_councildis": "A",
    "status": "Assigned to Contractor",
    "contractor": "Metro Disposal",
    "rowid": "890929",
    "final_x": "3667240.11809",
    "final_y": "545593.164112",
    "longitude": "-90.11262463754242",
    "latitude": "29.99461742781242",
    "geocoded_column": {
      "latitude": "29.99461742781242",
      "longitude": "-90.11262463754242"
    }
  },
  {
    "service_request": "2022-890928",
    "request_type": "Traffic Signals/Signs/Striping/Streetlights",
    "request_reason": "Traffic Signal Malfunctioning/Damaged",
    "date_created": "2022-06-12T12:14:59.000",
    "date_modified": "2022-06-12T12:15:00.000",
    "request_status": "Pending",
    "responsible_agency": "Department of Public Works",
    "final_address": "EARHART BLVD & S NORMAN C FRANCIS PKWY",
    "address_councildis": "B",
    "status": "Pending",
    "rowid": "890928",
    "final_x": "3669903.8",
    "final_y": "531879.48",
    "longitude": "-90.10467487626596",
    "latitude": "29.956831128087114",
    "geocoded_column": {
      "latitude": "29.956831128087114",
      "longitude": "-90.10467487626596"
    }
  },
  {
    "service_request": "2022-890927",
    "request_type": "Trash/Recycling",
    "request_reason": "Request a Large Item Pick Up",
    "date_created": "2022-06-12T11:54:17.000",
    "date_modified": "2022-06-12T11:54:18.000",
    "request_status": "Pending",
    "responsible_agency": "Department of Sanitation",
    "final_address": "3555 River Oaks Dr",
    "address_councildis": "C",
    "status": "Assigned to Contractor",
    "contractor": "Richards Disposal",
    "rowid": "890927",
    "final_x": "3701292.21905",
    "final_y": "517822.050422",
    "longitude": "-90.0060750563269",
    "latitude": "29.917215319398668",
    "geocoded_column": {
      "latitude": "29.917215319398668",
      "longitude": "-90.0060750563269"
    }
  },
  {
    "service_request": "2022-890925",
    "request_type": "Trash/Recycling",
    "request_reason": "Illegal Dumping",
    "date_created": "2022-06-12T11:39:12.000",
    "date_modified": "2022-06-12T11:39:12.000",
    "request_status": "Pending",
    "responsible_agency": "Department of Sanitation",
    "final_address": "2556 N Tonti St, New Orleans, Louisiana, 70117",
    "address_councildis": "D",
    "status": "Pending",
    "rowid": "890925",
    "final_x": "3687002.92303",
    "final_y": "540872.466123",
    "longitude": "-90.05036345483028",
    "latitude": "29.981043474526093",
    "geocoded_column": {
      "latitude": "29.981043474526093",
      "longitude": "-90.05036345483028"
    }
  },
  {
    "service_request": "2022-890924",
    "request_type": "Trash/Recycling",
    "request_reason": "Replace Trash Cart",
    "date_created": "2022-06-12T11:38:40.000",
    "date_modified": "2022-06-12T11:38:41.000",
    "request_status": "Pending",
    "responsible_agency": "Department of Sanitation",
    "final_address": "3915 Prytania St",
    "address_councildis": "B",
    "status": "Assigned to Contractor",
    "contractor": "Richards Disposal",
    "rowid": "890924",
    "final_x": "3672632.27707",
    "final_y": "520543.0494",
    "longitude": "-90.09644560808513",
    "latitude": "29.92557891531325",
    "geocoded_column": {
      "latitude": "29.92557891531325",
      "longitude": "-90.09644560808513"
    }
  },
  {
    "service_request": "2022-890923",
    "request_type": "Traffic Signals/Signs/Striping/Streetlights",
    "request_reason": "Traffic Signal Malfunctioning/Damaged",
    "date_created": "2022-06-12T11:34:34.000",
    "date_modified": "2022-06-12T11:34:34.000",
    "request_status": "Pending",
    "responsible_agency": "Department of Public Works",
    "final_address": "MORRISON RD & DOWNMAN RD",
    "address_councildis": "D",
    "status": "Pending",
    "rowid": "890923",
    "final_x": "3694996.8",
    "final_y": "557410.08",
    "longitude": "-90.02451870780844",
    "latitude": "30.026267262866675",
    "geocoded_column": {
      "latitude": "30.026267262866675",
      "longitude": "-90.02451870780844"
    }
  },
  {
    "service_request": "2022-890922",
    "request_type": "Property Maintenance",
    "request_reason": "Property Maintenance",
    "date_created": "2022-06-12T11:25:51.000",
    "date_modified": "2022-06-12T11:25:51.000",
    "request_status": "Pending",
    "responsible_agency": "Department of Code Enforcement",
    "final_address": "1441 Opelousas Ave",
    "address_councildis": "C",
    "status": "Pending",
    "rowid": "890922",
    "final_x": "3690010.06147",
    "final_y": "528965.635008",
    "longitude": "-90.04128964947327",
    "latitude": "29.948210930396225",
    "geocoded_column": {
      "latitude": "29.948210930396225",
      "longitude": "-90.04128964947327"
    }
  },
  {
    "service_request": "2022-890921",
    "request_type": "Trash/Recycling",
    "request_reason": "Missed Trash Pick-Up",
    "date_created": "2022-06-12T11:24:34.000",
    "date_modified": "2022-06-12T11:24:35.000",
    "request_status": "Pending",
    "responsible_agency": "Department of Sanitation",
    "final_address": "4627 DHemecourt St",
    "address_councildis": "A",
    "status": "Assigned to Contractor",
    "contractor": "Richards Disposal",
    "rowid": "890921",
    "final_x": "3668060.56999",
    "final_y": "538223.606601",
    "longitude": "-90.11028140354505",
    "latitude": "29.974329587424975",
    "geocoded_column": {
      "latitude": "29.974329587424975",
      "longitude": "-90.11028140354505"
    }
  },
  {
    "service_request": "2022-890920",
    "request_type": "Trash/Recycling",
    "request_reason": "Request a Large Item Pick Up",
    "date_created": "2022-06-12T11:06:13.000",
    "date_modified": "2022-06-12T11:06:14.000",
    "request_status": "Pending",
    "responsible_agency": "Department of Sanitation",
    "final_address": "2650 Lepage St",
    "address_councildis": "A",
    "status": "Assigned to Contractor",
    "contractor": "Metro Disposal",
    "rowid": "890920",
    "final_x": "3678135.49307",
    "final_y": "539571.790346",
    "longitude": "-90.07841577673244",
    "latitude": "29.9777370892061",
    "geocoded_column": {
      "latitude": "29.9777370892061",
      "longitude": "-90.07841577673244"
    }
  },
  {
    "service_request": "2022-890919",
    "request_type": "Health Related Questions",
    "request_reason": "Noise Ordinance Complaint",
    "date_created": "2022-06-12T11:04:42.000",
    "date_modified": "2022-06-12T11:04:42.000",
    "request_status": "Pending",
    "responsible_agency": "Health Department",
    "final_address": "7400 Lakeshore Dr",
    "address_councildis": "D",
    "status": "Pending",
    "rowid": "890919",
    "final_x": "3666808.79802",
    "final_y": "556202.373082",
    "longitude": "-90.11363039460369",
    "latitude": "30.023801679293893",
    "geocoded_column": {
      "latitude": "30.023801679293893",
      "longitude": "-90.11363039460369"
    }
  },
  {
    "service_request": "2022-890918",
    "request_type": "Abandoned Vehicles",
    "request_reason": "Abandoned/Junk Vehicles",
    "date_created": "2022-06-12T11:01:29.000",
    "date_modified": "2022-06-12T11:02:10.000",
    "request_status": "Pending",
    "responsible_agency": "Department of Public Works",
    "final_address": "2204 Marais St",
    "address_councildis": "C",
    "status": "Pending",
    "rowid": "890918",
    "final_x": "3685134.23381",
    "final_y": "536654.448391",
    "longitude": "-90.05641406687815",
    "latitude": "29.969502800968662",
    "geocoded_column": {
      "latitude": "29.969502800968662",
      "longitude": "-90.05641406687815"
    }
  },
  {
    "service_request": "2022-890917",
    "request_type": "Trash/Recycling",
    "request_reason": "MIssed Recycling Pick-Up",
    "date_created": "2022-06-12T10:51:21.000",
    "date_modified": "2022-06-12T10:51:22.000",
    "request_status": "Pending",
    "responsible_agency": "Department of Sanitation",
    "final_address": "312 S Broad St",
    "address_councildis": "B",
    "status": "Assigned to Contractor",
    "contractor": "Richards Disposal",
    "rowid": "890917",
    "final_x": "3674898.30734",
    "final_y": "534294.436677",
    "longitude": "-90.0888209657946",
    "latitude": "29.963323245864768",
    "geocoded_column": {
      "latitude": "29.963323245864768",
      "longitude": "-90.0888209657946"
    }
  },
  {
    "service_request": "2022-890916",
    "request_type": "Trash/Recycling",
    "request_reason": "Request a Large Item Pick Up",
    "date_created": "2022-06-12T10:45:25.000",
    "date_modified": "2022-06-12T10:45:26.000",
    "request_status": "Pending",
    "responsible_agency": "Department of Sanitation",
    "final_address": "1921 Wilton Dr",
    "address_councildis": "D",
    "status": "Assigned to Contractor",
    "contractor": "Metro Disposal",
    "rowid": "890916",
    "final_x": "3681453.7318",
    "final_y": "550965.354389",
    "longitude": "-90.06753812626536",
    "latitude": "30.00896501225994",
    "geocoded_column": {
      "latitude": "30.00896501225994",
      "longitude": "-90.06753812626536"
    }
  },
  {
    "service_request": "2022-890915",
    "request_type": "Trash/Recycling",
    "request_reason": "Illegal Dumping",
    "date_created": "2022-06-12T10:30:09.000",
    "date_modified": "2022-06-12T10:30:09.000",
    "request_status": "Pending",
    "responsible_agency": "Department of Sanitation",
    "final_address": "701 Mazant St",
    "address_councildis": "C",
    "status": "Pending",
    "rowid": "890915",
    "final_x": "3691772.27286",
    "final_y": "533758.001093",
    "longitude": "-90.03555426947537",
    "latitude": "29.961333516664133",
    "geocoded_column": {
      "latitude": "29.961333516664133",
      "longitude": "-90.03555426947537"
    }
  },
  {
    "service_request": "2022-890914",
    "request_type": "Trash/Recycling",
    "request_reason": "Request a Large Item Pick Up",
    "date_created": "2022-06-12T10:20:10.000",
    "date_modified": "2022-06-12T10:20:10.000",
    "request_status": "Pending",
    "responsible_agency": "Department of Sanitation",
    "final_address": "7929 Freret St",
    "address_councildis": "A",
    "status": "Assigned to Contractor",
    "contractor": "Richards Disposal",
    "rowid": "890914",
    "final_x": "3661926.85114",
    "final_y": "527522.518655",
    "longitude": "-90.13000815603785",
    "latitude": "29.9450836666227",
    "geocoded_column": {
      "latitude": "29.9450836666227",
      "longitude": "-90.13000815603785"
    }
  },
  {
    "service_request": "2022-890913",
    "request_type": "Trash/Recycling",
    "request_reason": "Order Trash Cart",
    "date_created": "2022-06-12T10:12:24.000",
    "date_modified": "2022-06-12T10:12:24.000",
    "request_status": "Pending",
    "responsible_agency": "Department of Sanitation",
    "final_address": "1324 Clouet St, New Orleans, Louisiana, 70117",
    "address_councildis": "C",
    "status": "Assigned to Contractor",
    "contractor": "Metro Disposal",
    "rowid": "890913",
    "final_x": "3689201.81315",
    "final_y": "536927.676616",
    "longitude": "-90.04355863971557",
    "latitude": "29.970128816832258",
    "geocoded_column": {
      "latitude": "29.970128816832258",
      "longitude": "-90.04355863971557"
    }
  },
  {
    "service_request": "2022-890912",
    "request_type": "Traffic Signals/Signs/Striping/Streetlights",
    "request_reason": "Street Light Outage/Malfunction",
    "date_created": "2022-06-12T10:08:30.000",
    "date_modified": "2022-06-12T10:08:31.000",
    "request_status": "Pending",
    "responsible_agency": "Department of Public Works",
    "final_address": "2214 Dante St",
    "address_councildis": "A",
    "status": "Pending",
    "contractor": "Royal Engineering",
    "rowid": "890912",
    "final_x": "3663871.13287",
    "final_y": "531612.980419",
    "longitude": "-90.12373309188854",
    "latitude": "29.95627482939797",
    "geocoded_column": {
      "latitude": "29.95627482939797",
      "longitude": "-90.12373309188854"
    }
  },
  {
    "service_request": "2022-890911",
    "request_type": "Abandoned Vehicles",
    "request_reason": "Abandoned/Junk Vehicles",
    "date_created": "2022-06-12T09:56:08.000",
    "date_modified": "2022-06-12T09:56:08.000",
    "request_status": "Pending",
    "responsible_agency": "Department of Public Works",
    "final_address": "3224 Palmyra St",
    "address_councildis": "B",
    "status": "Pending",
    "rowid": "890911",
    "final_x": "3673166.43374",
    "final_y": "535676.397895",
    "longitude": "-90.09424284549077",
    "latitude": "29.96717478269423",
    "geocoded_column": {
      "latitude": "29.96717478269423",
      "longitude": "-90.09424284549077"
    }
  },
  {
    "service_request": "2022-890910",
    "request_type": "Trash/Recycling",
    "request_reason": "Missed Trash Pick-Up",
    "date_created": "2022-06-12T09:27:29.000",
    "date_modified": "2022-06-12T09:27:30.000",
    "request_status": "Pending",
    "responsible_agency": "Department of Sanitation",
    "final_address": "5221 Royal St",
    "address_councildis": "E",
    "status": "Assigned to Contractor",
    "contractor": "Metro Disposal",
    "rowid": "890910",
    "final_x": "3696303.85219",
    "final_y": "532664.759044",
    "longitude": "-90.02128394245425",
    "latitude": "29.958185584015148",
    "geocoded_column": {
      "latitude": "29.958185584015148",
      "longitude": "-90.02128394245425"
    }
  },
  {
    "service_request": "2022-890909",
    "request_type": "Roads/Drainage",
    "request_reason": "Man hole cover issue",
    "date_created": "2022-06-12T09:26:08.000",
    "date_modified": "2022-06-12T09:26:09.000",
    "request_status": "Pending",
    "responsible_agency": "Department of Public Works",
    "final_address": "CONTI ST & N RAMPART ST",
    "address_councildis": "C",
    "status": "Pending",
    "rowid": "890909",
    "final_x": "3680696.5",
    "final_y": "532501.58",
    "longitude": "-90.0705733266425",
    "latitude": "29.958219066828327",
    "geocoded_column": {
      "latitude": "29.958219066828327",
      "longitude": "-90.0705733266425"
    }
  },
  {
    "service_request": "2022-890908",
    "request_type": "Trash/Recycling",
    "request_reason": "Missed Trash Pick-Up",
    "date_created": "2022-06-12T08:59:08.000",
    "date_modified": "2022-06-12T08:59:09.000",
    "request_status": "Pending",
    "responsible_agency": "Department of Sanitation",
    "final_address": "4241 San Remo St",
    "address_councildis": "E",
    "status": "Assigned to Contractor",
    "contractor": "Metro Disposal",
    "rowid": "890908",
    "final_x": "3760417.51497",
    "final_y": "572856.584361",
    "longitude": "-89.81715671748809",
    "latitude": "30.066521275770587",
    "geocoded_column": {
      "latitude": "30.066521275770587",
      "longitude": "-89.81715671748809"
    }
  },
  {
    "service_request": "2022-890907",
    "request_type": "Roads/Drainage",
    "request_reason": "Catch Basin - Clogged",
    "date_created": "2022-06-12T08:52:44.000",
    "date_modified": "2022-06-12T08:52:44.000",
    "request_status": "Pending",
    "responsible_agency": "Department of Public Works",
    "final_address": "6038 St Roch Ave",
    "address_councildis": "D",
    "status": "Pending",
    "rowid": "890907",
    "final_x": "3684849.52105",
    "final_y": "555387.567513",
    "longitude": "-90.05665405152598",
    "latitude": "30.02102089510698",
    "geocoded_column": {
      "latitude": "30.02102089510698",
      "longitude": "-90.05665405152598"
    }
  },
  {
    "service_request": "2022-890906",
    "request_type": "Roads/Drainage",
    "request_reason": "Catch Basin - Clogged",
    "date_created": "2022-06-12T08:51:24.000",
    "date_modified": "2022-06-12T08:51:24.000",
    "request_status": "Pending",
    "responsible_agency": "Department of Public Works",
    "final_address": "6038 St Roch Ave",
    "address_councildis": "D",
    "status": "Pending",
    "rowid": "890906",
    "final_x": "3684849.52105",
    "final_y": "555387.567513",
    "longitude": "-90.05665405152598",
    "latitude": "30.02102089510698",
    "geocoded_column": {
      "latitude": "30.02102089510698",
      "longitude": "-90.05665405152598"
    }
  },
  {
    "service_request": "2022-890905",
    "request_type": "Property Maintenance",
    "request_reason": "Property Maintenance",
    "date_created": "2022-06-12T08:33:55.000",
    "date_modified": "2022-06-12T08:33:55.000",
    "request_status": "Pending",
    "responsible_agency": "Department of Code Enforcement",
    "final_address": "2247 Hyman Pl",
    "address_councildis": "C",
    "status": "Pending",
    "rowid": "890905",
    "final_x": "3701040.58897",
    "final_y": "522437.108474",
    "longitude": "-90.00670064862504",
    "latitude": "29.929913153439635",
    "geocoded_column": {
      "latitude": "29.929913153439635",
      "longitude": "-90.00670064862504"
    }
  },
  {
    "service_request": "2022-890904",
    "request_type": "Property Maintenance",
    "request_reason": "Property Maintenance",
    "date_created": "2022-06-12T08:21:14.000",
    "date_modified": "2022-06-12T08:21:14.000",
    "request_status": "Pending",
    "responsible_agency": "Department of Code Enforcement",
    "final_address": "4801 Bienville Ave",
    "address_councildis": "A",
    "status": "Pending",
    "rowid": "890904",
    "final_x": "3669308.25492",
    "final_y": "540804.395403",
    "longitude": "-90.10625362222925",
    "latitude": "29.981389207009062",
    "geocoded_column": {
      "latitude": "29.981389207009062",
      "longitude": "-90.10625362222925"
    }
  },
  {
    "service_request": "2022-890902",
    "request_type": "Trash/Recycling",
    "request_reason": "Repair Trash Cart",
    "date_created": "2022-06-12T07:43:04.000",
    "date_modified": "2022-06-12T07:43:05.000",
    "request_status": "Pending",
    "responsible_agency": "Department of Sanitation",
    "final_address": "3100 Behrman Hwy",
    "address_councildis": "C",
    "status": "Assigned to Contractor",
    "contractor": "Richards Disposal",
    "rowid": "890902",
    "final_x": "3694623.90397",
    "final_y": "519141.873079",
    "longitude": "-90.02707552884621",
    "latitude": "29.921055090156532",
    "geocoded_column": {
      "latitude": "29.921055090156532",
      "longitude": "-90.02707552884621"
    }
  },
  {
    "service_request": "2022-890900",
    "request_type": "Traffic Signals/Signs/Striping/Streetlights",
    "request_reason": "Traffic Signal Malfunctioning/Damaged",
    "date_created": "2022-06-12T07:31:29.000",
    "date_modified": "2022-06-12T07:31:29.000",
    "request_status": "Pending",
    "responsible_agency": "Department of Public Works",
    "final_address": "2600 St Claude Ave",
    "address_councildis": "C",
    "status": "Pending",
    "rowid": "890900",
    "final_x": "3687162.51471",
    "final_y": "536415.847367",
    "longitude": "-90.05001704195975",
    "latitude": "29.96878442492724",
    "geocoded_column": {
      "latitude": "29.96878442492724",
      "longitude": "-90.05001704195975"
    }
  },
  {
    "service_request": "2022-890901",
    "request_type": "Traffic Signals/Signs/Striping/Streetlights",
    "request_reason": "Traffic Signal Malfunctioning/Damaged",
    "date_created": "2022-06-12T07:31:29.000",
    "date_modified": "2022-06-12T07:31:29.000",
    "request_status": "Pending",
    "responsible_agency": "Department of Public Works",
    "final_address": "2600 St Claude Ave",
    "address_councildis": "C",
    "status": "Pending",
    "rowid": "890901",
    "final_x": "3687162.51471",
    "final_y": "536415.847367",
    "longitude": "-90.05001704195975",
    "latitude": "29.96878442492724",
    "geocoded_column": {
      "latitude": "29.96878442492724",
      "longitude": "-90.05001704195975"
    }
  },
  {
    "service_request": "2022-890899",
    "request_type": "Trash/Recycling",
    "request_reason": "Request a Large Item Pick Up",
    "date_created": "2022-06-12T06:53:52.000",
    "date_modified": "2022-06-12T06:53:52.000",
    "request_status": "Pending",
    "responsible_agency": "Department of Sanitation",
    "final_address": "222 David St",
    "address_councildis": "A",
    "status": "Assigned to Contractor",
    "contractor": "Richards Disposal",
    "rowid": "890899",
    "final_x": "3671315.76731",
    "final_y": "538982.940298",
    "longitude": "-90.09997488482459",
    "latitude": "29.976321558453545",
    "geocoded_column": {
      "latitude": "29.976321558453545",
      "longitude": "-90.09997488482459"
    }
  },
  {
    "service_request": "2022-890898",
    "request_type": "Trash/Recycling",
    "request_reason": "Missed Trash Pick-Up",
    "date_created": "2022-06-12T06:53:40.000",
    "date_modified": "2022-06-12T06:53:41.000",
    "request_status": "Pending",
    "responsible_agency": "Department of Sanitation",
    "final_address": "415 S Solomon St",
    "address_councildis": "A",
    "status": "Assigned to Contractor",
    "contractor": "Richards Disposal",
    "rowid": "890898",
    "final_x": "3669731.9483",
    "final_y": "537656.597768",
    "longitude": "-90.10502197789907",
    "latitude": "29.97272134404732",
    "geocoded_column": {
      "latitude": "29.97272134404732",
      "longitude": "-90.10502197789907"
    }
  },
  {
    "service_request": "2022-890897",
    "request_type": "Parks & Parkways",
    "request_reason": "Request Tree Service (Right of Way/Public Property)",
    "date_created": "2022-06-12T06:37:31.000",
    "date_modified": "2022-06-12T06:37:32.000",
    "request_status": "Pending",
    "responsible_agency": "Department of Parks & Parkway",
    "final_address": "5600 BLK Rosemary Pl",
    "address_councildis": "A",
    "status": "Pending",
    "rowid": "890897",
    "final_x": "3667159.56591",
    "final_y": "544981.105363",
    "longitude": "-90.11289968584038",
    "latitude": "29.992936835306516",
    "geocoded_column": {
      "latitude": "29.992936835306516",
      "longitude": "-90.11289968584038"
    }
  },
  {
    "service_request": "2022-890896",
    "request_type": "Property Maintenance",
    "request_reason": "Property Maintenance",
    "date_created": "2022-06-12T05:26:20.000",
    "date_modified": "2022-06-12T05:26:20.000",
    "request_status": "Pending",
    "responsible_agency": "Department of Code Enforcement",
    "final_address": "17600 Paris Rd",
    "address_councildis": "E",
    "status": "Pending",
    "rowid": "890896",
    "final_x": "3721049.61516",
    "final_y": "574670.481579",
    "longitude": "-89.94153353534014",
    "latitude": "30.07288225329255",
    "geocoded_column": {
      "latitude": "30.07288225329255",
      "longitude": "-89.94153353534014"
    }
  },
  {
    "service_request": "2022-890895",
    "request_type": "Trash/Recycling",
    "request_reason": "Missed Trash Pick-Up",
    "date_created": "2022-06-12T03:26:05.000",
    "date_modified": "2022-06-12T03:26:06.000",
    "request_status": "Pending",
    "responsible_agency": "Department of Sanitation",
    "final_address": "4351 San Remo St",
    "address_councildis": "E",
    "status": "Assigned to Contractor",
    "contractor": "Metro Disposal",
    "rowid": "890895",
    "final_x": "3760526.57974",
    "final_y": "573623.996714",
    "longitude": "-89.81677984866538",
    "latitude": "30.068627338119175",
    "geocoded_column": {
      "latitude": "30.068627338119175",
      "longitude": "-89.81677984866538"
    }
  },
  {
    "service_request": "2022-890894",
    "request_type": "Traffic Signals/Signs/Striping/Streetlights",
    "request_reason": "Traffic Signal Malfunctioning/Damaged",
    "date_created": "2022-06-11T23:07:41.000",
    "date_modified": "2022-06-11T23:07:41.000",
    "request_status": "Pending",
    "responsible_agency": "Department of Public Works",
    "final_address": "MORRISON RD & DOWNMAN RD",
    "address_councildis": "D",
    "status": "Pending",
    "rowid": "890894",
    "final_x": "3694996.8",
    "final_y": "557410.08",
    "longitude": "-90.02451870780844",
    "latitude": "30.026267262866675",
    "geocoded_column": {
      "latitude": "30.026267262866675",
      "longitude": "-90.02451870780844"
    }
  },
  {
    "service_request": "2022-890893",
    "request_type": "Traffic Signals/Signs/Striping/Streetlights",
    "request_reason": "Traffic Signal Malfunctioning/Damaged",
    "date_created": "2022-06-11T22:41:02.000",
    "date_modified": "2022-06-11T22:41:03.000",
    "request_status": "Pending",
    "responsible_agency": "Department of Public Works",
    "final_address": "CANAL BLVD & CITY PARK AVE",
    "address_councildis": "A",
    "status": "Pending",
    "rowid": "890893",
    "final_x": "3667987.5",
    "final_y": "541115.08",
    "longitude": "-90.11041471405822",
    "latitude": "29.98228230942653",
    "geocoded_column": {
      "latitude": "29.98228230942653",
      "longitude": "-90.11041471405822"
    }
  },
  {
    "service_request": "2022-890892",
    "request_type": "Health Related Questions",
    "request_reason": "Noise Ordinance Complaint",
    "date_created": "2022-06-11T22:32:45.000",
    "date_modified": "2022-06-11T22:32:45.000",
    "request_status": "Pending",
    "responsible_agency": "Health Department",
    "final_address": "2841 Louisiana Ave",
    "address_councildis": "B",
    "status": "Pending",
    "rowid": "890892",
    "final_x": "3672426.52135",
    "final_y": "525812.615549",
    "longitude": "-90.09691562369595",
    "latitude": "29.94007462510549",
    "geocoded_column": {
      "latitude": "29.94007462510549",
      "longitude": "-90.09691562369595"
    }
  },
  {
    "service_request": "2022-890891",
    "request_type": "Traffic Signals/Signs/Striping/Streetlights",
    "request_reason": "Street Light Outage/Malfunction",
    "date_created": "2022-06-11T21:21:53.000",
    "date_modified": "2022-06-11T21:21:54.000",
    "request_status": "Pending",
    "responsible_agency": "Department of Public Works",
    "final_address": "3848 Napoleon Ave",
    "address_councildis": "B",
    "status": "Pending",
    "contractor": "Royal Engineering",
    "rowid": "890891",
    "final_x": "3669941.99258",
    "final_y": "528913.871232",
    "longitude": "-90.10465469049362",
    "latitude": "29.948675552063694",
    "geocoded_column": {
      "latitude": "29.948675552063694",
      "longitude": "-90.10465469049362"
    }
  },
  {
    "service_request": "2022-890890",
    "request_type": "Property Maintenance",
    "request_reason": "Property Maintenance",
    "date_created": "2022-06-11T20:48:19.000",
    "date_modified": "2022-06-11T20:48:19.000",
    "request_status": "Pending",
    "responsible_agency": "Department of Code Enforcement",
    "final_address": "GENERAL DE GAULLE DR & ILLINOIS ST",
    "address_councildis": "C",
    "status": "Pending",
    "rowid": "890890",
    "final_x": "3693913.8",
    "final_y": "521673.58",
    "longitude": "-90.02922604523738",
    "latitude": "29.928038668033448",
    "geocoded_column": {
      "latitude": "29.928038668033448",
      "longitude": "-90.02922604523738"
    }
  },
  {
    "service_request": "2022-890889",
    "request_type": "Property Maintenance",
    "request_reason": "Property Maintenance",
    "date_created": "2022-06-11T20:44:23.000",
    "date_modified": "2022-06-11T20:44:23.000",
    "request_status": "Pending",
    "responsible_agency": "Department of Code Enforcement",
    "final_address": "1 Life Center Dr",
    "address_councildis": "C",
    "status": "Pending",
    "rowid": "890889",
    "final_x": "3694234.7713",
    "final_y": "522221.482234",
    "longitude": "-90.02819311636226",
    "latitude": "29.929535164336272",
    "geocoded_column": {
      "latitude": "29.929535164336272",
      "longitude": "-90.02819311636226"
    }
  },
  {
    "service_request": "2022-890888",
    "request_type": "Trash/Recycling",
    "request_reason": "Missed Trash Pick-Up",
    "date_created": "2022-06-11T20:41:04.000",
    "date_modified": "2022-06-11T20:41:05.000",
    "request_status": "Pending",
    "responsible_agency": "Department of Sanitation",
    "final_address": "11021 Dreux Ave",
    "address_councildis": "E",
    "status": "Assigned to Contractor",
    "contractor": "Metro Disposal",
    "rowid": "890888",
    "final_x": "3716074.64063",
    "final_y": "556359.116954",
    "longitude": "-89.95795588000402",
    "latitude": "30.02269869503725",
    "geocoded_column": {
      "latitude": "30.02269869503725",
      "longitude": "-89.95795588000402"
    }
  },
  {
    "service_request": "2022-890886",
    "request_type": "Property Maintenance",
    "request_reason": "Property Maintenance",
    "date_created": "2022-06-11T20:34:09.000",
    "date_modified": "2022-06-11T20:34:09.000",
    "request_status": "Pending",
    "responsible_agency": "Department of Code Enforcement",
    "final_address": "922 Ninth St",
    "address_councildis": "B",
    "status": "Pending",
    "rowid": "890886",
    "final_x": "3676119.33915",
    "final_y": "519565.533624",
    "longitude": "-90.08547161588697",
    "latitude": "29.922787100487398",
    "geocoded_column": {
      "latitude": "29.922787100487398",
      "longitude": "-90.08547161588697"
    }
  },
  {
    "service_request": "2022-890885",
    "request_type": "Traffic Signals/Signs/Striping/Streetlights",
    "request_reason": "Street Name Sign Damaged or Missing",
    "date_created": "2022-06-11T20:23:41.000",
    "date_modified": "2022-06-11T20:23:41.000",
    "request_status": "Pending",
    "responsible_agency": "Department of Public Works",
    "final_address": "2920 Wabash St",
    "address_councildis": "C",
    "status": "Pending",
    "rowid": "890885",
    "final_x": "3694220.75107",
    "final_y": "520953.463545",
    "longitude": "-90.02828296633639",
    "latitude": "29.92604898265199",
    "geocoded_column": {
      "latitude": "29.92604898265199",
      "longitude": "-90.02828296633639"
    }
  },
  {
    "service_request": "2022-890884",
    "request_type": "Traffic Signals/Signs/Striping/Streetlights",
    "request_reason": "Street Light Outage/Malfunction",
    "date_created": "2022-06-11T20:20:16.000",
    "date_modified": "2022-06-11T20:20:17.000",
    "request_status": "Pending",
    "responsible_agency": "Department of Public Works",
    "final_address": "2920 Wabash St",
    "address_councildis": "C",
    "status": "Pending",
    "contractor": "Royal Engineering",
    "rowid": "890884",
    "final_x": "3694220.75107",
    "final_y": "520953.463545",
    "longitude": "-90.02828296633639",
    "latitude": "29.92604898265199",
    "geocoded_column": {
      "latitude": "29.92604898265199",
      "longitude": "-90.02828296633639"
    }
  },
  {
    "service_request": "2022-890883",
    "request_type": "Trash/Recycling",
    "request_reason": "Missed Trash Pick-Up",
    "date_created": "2022-06-11T20:03:59.000",
    "date_modified": "2022-06-11T20:04:00.000",
    "request_status": "Pending",
    "responsible_agency": "Department of Sanitation",
    "status": "Assigned to Contractor",
    "rowid": "890883",
    "longitude": "0.0",
    "latitude": "0.0",
    "geocoded_column": {
      "latitude": "0.0",
      "longitude": "0.0"
    }
  },
  {
    "service_request": "2022-890882",
    "request_type": "Traffic Signals/Signs/Striping/Streetlights",
    "request_reason": "Street Light Outage/Malfunction",
    "date_created": "2022-06-11T19:53:27.000",
    "date_modified": "2022-06-11T19:53:28.000",
    "request_status": "Pending",
    "responsible_agency": "Department of Public Works",
    "final_address": "115 Bourbon St",
    "address_councildis": "C",
    "status": "Pending",
    "contractor": "Royal Engineering",
    "rowid": "890882",
    "final_x": "3681014.32648",
    "final_y": "531078.567554",
    "longitude": "-90.06961927553625",
    "latitude": "29.95429663024828",
    "geocoded_column": {
      "latitude": "29.95429663024828",
      "longitude": "-90.06961927553625"
    }
  },
  {
    "service_request": "2022-890881",
    "request_type": "Trash/Recycling",
    "request_reason": "Request a Large Item Pick Up",
    "date_created": "2022-06-11T19:49:35.000",
    "date_modified": "2022-06-11T19:49:35.000",
    "request_status": "Pending",
    "responsible_agency": "Department of Sanitation",
    "final_address": "210 N Clark St",
    "address_councildis": "B",
    "status": "Assigned to Contractor",
    "contractor": "Richards Disposal",
    "rowid": "890881",
    "final_x": "3673221.16539",
    "final_y": "537402.249608",
    "longitude": "-90.09401105299868",
    "latitude": "29.97191866457747",
    "geocoded_column": {
      "latitude": "29.97191866457747",
      "longitude": "-90.09401105299868"
    }
  },
  {
    "service_request": "2022-890880",
    "request_type": "Safety & Permits",
    "request_reason": "Licenses & Permits",
    "date_created": "2022-06-11T19:22:32.000",
    "date_modified": "2022-06-11T19:22:32.000",
    "request_status": "Pending",
    "responsible_agency": "Safety and Permits",
    "final_address": "4523 Magazine St",
    "address_councildis": "B",
    "status": "Pending",
    "rowid": "890880",
    "final_x": "3670459.91399",
    "final_y": "518764.599223",
    "longitude": "-90.10336337284775",
    "latitude": "29.920753043460966",
    "geocoded_column": {
      "latitude": "29.920753043460966",
      "longitude": "-90.10336337284775"
    }
  },
  {
    "service_request": "2022-890879",
    "request_type": "Abandoned Vehicles",
    "request_reason": "Vehicle Blocking Your Driveway",
    "date_created": "2022-06-11T19:07:20.000",
    "date_modified": "2022-06-11T19:07:20.000",
    "request_status": "Pending",
    "responsible_agency": "Department of Public Works",
    "final_address": "620 Tchoupitoulas St",
    "address_councildis": "B",
    "status": "Pending",
    "rowid": "890879",
    "final_x": "3681812.75624",
    "final_y": "528441.010496",
    "longitude": "-90.06719018166646",
    "latitude": "29.947020001787692",
    "geocoded_column": {
      "latitude": "29.947020001787692",
      "longitude": "-90.06719018166646"
    }
  },
  {
    "service_request": "2022-890878",
    "request_type": "Trash/Recycling",
    "request_reason": "Illegal Dumping",
    "date_created": "2022-06-11T19:02:34.000",
    "date_modified": "2022-06-11T19:02:34.000",
    "request_status": "Pending",
    "responsible_agency": "Department of Sanitation",
    "final_address": "2322 Seminole Ln",
    "address_councildis": "B",
    "status": "Pending",
    "rowid": "890878",
    "final_x": "3673830.84635",
    "final_y": "528234.623104",
    "longitude": "-90.09239913655074",
    "latitude": "29.946692609697006",
    "geocoded_column": {
      "latitude": "29.946692609697006",
      "longitude": "-90.09239913655074"
    }
  },
  {
    "service_request": "2022-890877",
    "request_type": "Trash/Recycling",
    "request_reason": "Missed Trash Pick-Up",
    "date_created": "2022-06-11T19:01:41.000",
    "date_modified": "2022-06-11T19:01:42.000",
    "request_status": "Pending",
    "responsible_agency": "Department of Sanitation",
    "final_address": "6207 Wainwright Dr",
    "address_councildis": "D",
    "status": "Assigned to Contractor",
    "contractor": "Metro Disposal",
    "rowid": "890877",
    "final_x": "3681427.00732",
    "final_y": "555716.881305",
    "longitude": "-90.06745671528556",
    "latitude": "30.022030795651098",
    "geocoded_column": {
      "latitude": "30.022030795651098",
      "longitude": "-90.06745671528556"
    }
  },
  {
    "service_request": "2022-890876",
    "request_type": "Traffic Signals/Signs/Striping/Streetlights",
    "request_reason": "Street Light Outage/Malfunction",
    "date_created": "2022-06-11T18:52:09.000",
    "date_modified": "2022-06-11T18:52:09.000",
    "request_status": "Pending",
    "responsible_agency": "Department of Public Works",
    "final_address": "2209 S Salcedo St, New Orleans, Louisiana, 70125",
    "status": "Pending",
    "contractor": "Royal Engineering",
    "rowid": "890876",
    "longitude": "0.0",
    "latitude": "0.0",
    "geocoded_column": {
      "latitude": "0.0",
      "longitude": "0.0"
    }
  },
  {
    "service_request": "2022-890875",
    "request_type": "Traffic Signals/Signs/Striping/Streetlights",
    "request_reason": "Street Light Outage/Malfunction",
    "date_created": "2022-06-11T18:48:57.000",
    "date_modified": "2022-06-11T18:48:58.000",
    "request_status": "Pending",
    "responsible_agency": "Department of Public Works",
    "final_address": "5973 Dreux Ave",
    "address_councildis": "D",
    "status": "Pending",
    "contractor": "Royal Engineering",
    "rowid": "890875",
    "final_x": "3696605.38378",
    "final_y": "553916.125655",
    "longitude": "-90.01956238725798",
    "latitude": "30.01660959379011",
    "geocoded_column": {
      "latitude": "30.01660959379011",
      "longitude": "-90.01956238725798"
    }
  },
  {
    "service_request": "2022-890873",
    "request_type": "Roads/Drainage",
    "request_reason": "Accessibility Ramps, Curbs and Sidewalk Repair",
    "date_created": "2022-06-11T18:30:14.000",
    "date_modified": "2022-06-11T18:30:14.000",
    "request_status": "Pending",
    "responsible_agency": "Department of Public Works",
    "final_address": "414 Canal St",
    "address_councildis": "B",
    "status": "Pending",
    "rowid": "890873",
    "final_x": "3682001.31682",
    "final_y": "529933.740865",
    "longitude": "-90.06654272033897",
    "latitude": "29.951118776683757",
    "geocoded_column": {
      "latitude": "29.951118776683757",
      "longitude": "-90.06654272033897"
    }
  },
  {
    "service_request": "2022-890872",
    "request_type": "Trash/Recycling",
    "request_reason": "Missed Trash Pick-Up",
    "date_created": "2022-06-11T18:24:31.000",
    "date_modified": "2022-06-11T18:24:32.000",
    "request_status": "Pending",
    "responsible_agency": "Department of Sanitation",
    "final_address": "8526 Palmetto St",
    "address_councildis": "A",
    "status": "Assigned to Contractor",
    "contractor": "Richards Disposal",
    "rowid": "890872",
    "final_x": "3666853.36359",
    "final_y": "536228.979655",
    "longitude": "-90.11416108692225",
    "latitude": "29.968880403789182",
    "geocoded_column": {
      "latitude": "29.968880403789182",
      "longitude": "-90.11416108692225"
    }
  },
  {
    "service_request": "2022-890871",
    "request_type": "Trash/Recycling",
    "request_reason": "Order Recycling Cart",
    "date_created": "2022-06-11T17:55:41.000",
    "date_modified": "2022-06-11T17:55:41.000",
    "request_status": "Pending",
    "responsible_agency": "Department of Sanitation",
    "final_address": "4728 Carondelet St",
    "address_councildis": "B",
    "status": "Pending",
    "rowid": "890871",
    "final_x": "3669450.25428",
    "final_y": "521050.917497",
    "longitude": "-90.1064731428529",
    "latitude": "29.927069455001384",
    "geocoded_column": {
      "latitude": "29.927069455001384",
      "longitude": "-90.1064731428529"
    }
  },
  {
    "service_request": "2022-890870",
    "request_type": "Trash/Recycling",
    "request_reason": "Order Trash Cart",
    "date_created": "2022-06-11T17:54:57.000",
    "date_modified": "2022-06-11T17:54:57.000",
    "request_status": "Pending",
    "responsible_agency": "Department of Sanitation",
    "final_address": "4728 Carondelet St",
    "address_councildis": "B",
    "status": "Assigned to Contractor",
    "contractor": "Richards Disposal",
    "rowid": "890870",
    "final_x": "3669450.25428",
    "final_y": "521050.917497",
    "longitude": "-90.1064731428529",
    "latitude": "29.927069455001384",
    "geocoded_column": {
      "latitude": "29.927069455001384",
      "longitude": "-90.1064731428529"
    }
  },
  {
    "service_request": "2022-890869",
    "request_type": "Trash/Recycling",
    "request_reason": "Replace Trash Cart",
    "date_created": "2022-06-11T17:53:24.000",
    "date_modified": "2022-06-11T17:53:24.000",
    "request_status": "Pending",
    "responsible_agency": "Department of Sanitation",
    "final_address": "1633 Bordeaux St",
    "address_councildis": "B",
    "status": "Assigned to Contractor",
    "contractor": "Richards Disposal",
    "rowid": "890869",
    "final_x": "3669406.95502",
    "final_y": "521038.868793",
    "longitude": "-90.10661023498481",
    "latitude": "29.927037599605786",
    "geocoded_column": {
      "latitude": "29.927037599605786",
      "longitude": "-90.10661023498481"
    }
  },
  {
    "service_request": "2022-890868",
    "request_type": "Roads/Drainage",
    "request_reason": "Pothole",
    "date_created": "2022-06-11T17:31:10.000",
    "date_modified": "2022-06-11T17:31:10.000",
    "request_status": "Pending",
    "responsible_agency": "Department of Public Works",
    "final_address": "330 Carondelet St",
    "address_councildis": "B",
    "status": "Pending",
    "rowid": "890868",
    "final_x": "3680490.83061",
    "final_y": "529959.555713",
    "longitude": "-90.07131118307936",
    "latitude": "29.95123558976461",
    "geocoded_column": {
      "latitude": "29.95123558976461",
      "longitude": "-90.07131118307936"
    }
  },
  {
    "service_request": "2022-890867",
    "request_type": "Parks & Parkways",
    "request_reason": "Request Grass Cutting Service (City Owned Property)",
    "date_created": "2022-06-11T17:28:34.000",
    "date_modified": "2022-06-11T17:28:34.000",
    "request_status": "Pending",
    "responsible_agency": "Department of Parks & Parkway",
    "final_address": "3301 Camp St",
    "address_councildis": "B",
    "status": "Pending",
    "rowid": "890867",
    "final_x": "3675200.66568",
    "final_y": "520154.666744",
    "longitude": "-90.08835130327662",
    "latitude": "29.924434504505918",
    "geocoded_column": {
      "latitude": "29.924434504505918",
      "longitude": "-90.08835130327662"
    }
  },
  {
    "service_request": "2022-890866",
    "request_type": "Safety & Permits",
    "request_reason": "Short term Rental (Enforcement)",
    "date_created": "2022-06-11T17:10:29.000",
    "date_modified": "2022-06-11T17:10:29.000",
    "request_status": "Pending",
    "responsible_agency": "Safety and Permits",
    "status": "Pending",
    "rowid": "890866",
    "longitude": "0.0",
    "latitude": "0.0",
    "geocoded_column": {
      "latitude": "0.0",
      "longitude": "0.0"
    }
  },
  {
    "service_request": "2022-890865",
    "request_type": "Abandoned Vehicles",
    "request_reason": "Abandoned/Junk Vehicles",
    "date_created": "2022-06-11T16:53:27.000",
    "date_modified": "2022-06-11T16:57:19.000",
    "request_status": "Pending",
    "responsible_agency": "Department of Public Works",
    "final_address": "2901 Holiday Dr",
    "address_councildis": "C",
    "status": "Pending",
    "rowid": "890865",
    "final_x": "3698698.07722",
    "final_y": "520724.586425",
    "longitude": "-90.01415775625266",
    "latitude": "29.925278672230792",
    "geocoded_column": {
      "latitude": "29.925278672230792",
      "longitude": "-90.01415775625266"
    }
  },
  {
    "service_request": "2022-890864",
    "request_type": "Trash/Recycling",
    "request_reason": "Repair Recycling Cart",
    "date_created": "2022-06-11T16:37:23.000",
    "date_modified": "2022-06-11T16:37:23.000",
    "request_status": "Pending",
    "responsible_agency": "Department of Sanitation",
    "final_address": "614 Dufossat St",
    "address_councildis": "B",
    "status": "Pending",
    "rowid": "890864",
    "final_x": "3667925.55105",
    "final_y": "517713.554934",
    "longitude": "-90.11139860019712",
    "latitude": "29.917937562443036",
    "geocoded_column": {
      "latitude": "29.917937562443036",
      "longitude": "-90.11139860019712"
    }
  },
  {
    "service_request": "2022-890862",
    "request_type": "Trash/Recycling",
    "request_reason": "Request a Large Item Pick Up",
    "date_created": "2022-06-11T16:16:53.000",
    "date_modified": "2022-06-11T18:19:47.000",
    "request_status": "Pending",
    "responsible_agency": "Department of Sanitation",
    "final_address": "6438 Memphis St, New Orleans, Louisiana, 70124",
    "address_councildis": "A",
    "status": "Assigned to Contractor",
    "contractor": "Metro Disposal",
    "rowid": "890862",
    "final_x": "3669378.27694",
    "final_y": "550310.276116",
    "longitude": "-90.10571079118938",
    "latitude": "30.007525040446836",
    "geocoded_column": {
      "latitude": "30.007525040446836",
      "longitude": "-90.10571079118938"
    }
  },
  {
    "service_request": "2022-890861",
    "request_type": "Trash/Recycling",
    "request_reason": "Request a Large Item Pick Up",
    "date_created": "2022-06-11T16:15:15.000",
    "date_modified": "2022-06-11T16:15:15.000",
    "request_status": "Pending",
    "responsible_agency": "Department of Sanitation",
    "final_address": "6438 Memphis St, New Orleans, Louisiana, 70124",
    "address_councildis": "A",
    "status": "Assigned to Contractor",
    "contractor": "Metro Disposal",
    "rowid": "890861",
    "final_x": "3669378.27694",
    "final_y": "550310.276116",
    "longitude": "-90.10571079118938",
    "latitude": "30.007525040446836",
    "geocoded_column": {
      "latitude": "30.007525040446836",
      "longitude": "-90.10571079118938"
    }
  },
  {
    "service_request": "2022-890860",
    "request_type": "Property Maintenance",
    "request_reason": "Property Maintenance",
    "date_created": "2022-06-11T16:01:33.000",
    "date_modified": "2022-06-11T16:01:33.000",
    "request_status": "Pending",
    "responsible_agency": "Department of Code Enforcement",
    "final_address": "5538 Pasteur Blvd",
    "address_councildis": "D",
    "status": "Pending",
    "rowid": "890860",
    "final_x": "3682772.43855",
    "final_y": "553453.874263",
    "longitude": "-90.06328475453856",
    "latitude": "30.015767416302122",
    "geocoded_column": {
      "latitude": "30.015767416302122",
      "longitude": "-90.06328475453856"
    }
  },
  {
    "service_request": "2022-890859",
    "request_type": "Traffic Signals/Signs/Striping/Streetlights",
    "request_reason": "Traffic Signal Malfunctioning/Damaged",
    "date_created": "2022-06-11T16:00:30.000",
    "date_modified": "2022-06-11T16:00:30.000",
    "request_status": "Pending",
    "responsible_agency": "Department of Public Works",
    "final_address": "CHEF MENTEUR HWY & CHEF MENTEUR EXIT",
    "address_councildis": "E",
    "status": "Pending",
    "rowid": "890859",
    "final_x": "3721341.38",
    "final_y": "557758.94",
    "longitude": "-89.94126069481587",
    "latitude": "30.026372768059524",
    "geocoded_column": {
      "latitude": "30.026372768059524",
      "longitude": "-89.94126069481587"
    }
  },
  {
    "service_request": "2022-890857",
    "request_type": "Trash/Recycling",
    "request_reason": "Missed Trash Pick-Up",
    "date_created": "2022-06-11T15:55:14.000",
    "date_modified": "2022-06-11T15:55:14.000",
    "request_status": "Pending",
    "responsible_agency": "Department of Sanitation",
    "final_address": "9104 Quince St",
    "address_councildis": "A",
    "status": "Assigned to Contractor",
    "contractor": "Richards Disposal",
    "rowid": "890857",
    "final_x": "3666898.74285",
    "final_y": "539111.920906",
    "longitude": "-90.11392088476829",
    "latitude": "29.976806202025028",
    "geocoded_column": {
      "latitude": "29.976806202025028",
      "longitude": "-90.11392088476829"
    }
  },
  {
    "service_request": "2022-890856",
    "request_type": "Trash/Recycling",
    "request_reason": "Order Recycling Cart",
    "date_created": "2022-06-11T15:37:47.000",
    "date_modified": "2022-06-11T15:37:48.000",
    "request_status": "Pending",
    "responsible_agency": "Department of Sanitation",
    "final_address": "7721 Willow St",
    "address_councildis": "A",
    "status": "Pending",
    "rowid": "890856",
    "final_x": "3663413.77978",
    "final_y": "528054.478271",
    "longitude": "-90.1252957313476",
    "latitude": "29.946503364452695",
    "geocoded_column": {
      "latitude": "29.946503364452695",
      "longitude": "-90.1252957313476"
    }
  },
  {
    "service_request": "2022-890855",
    "request_type": "Trash/Recycling",
    "request_reason": "Request a Large Item Pick Up",
    "date_created": "2022-06-11T15:37:17.000",
    "date_modified": "2022-06-11T15:37:18.000",
    "request_status": "Pending",
    "responsible_agency": "Department of Sanitation",
    "final_address": "7721 Willow St",
    "address_councildis": "A",
    "status": "Assigned to Contractor",
    "contractor": "Richards Disposal",
    "rowid": "890855",
    "final_x": "3663413.77978",
    "final_y": "528054.478271",
    "longitude": "-90.1252957313476",
    "latitude": "29.946503364452695",
    "geocoded_column": {
      "latitude": "29.946503364452695",
      "longitude": "-90.1252957313476"
    }
  },
  {
    "service_request": "2022-890854",
    "request_type": "Trash/Recycling",
    "request_reason": "Request a Large Item Pick Up",
    "date_created": "2022-06-11T15:25:09.000",
    "date_modified": "2022-06-11T15:25:10.000",
    "request_status": "Pending",
    "responsible_agency": "Department of Sanitation",
    "final_address": "5145 Lafaye St",
    "address_councildis": "D",
    "status": "Assigned to Contractor",
    "contractor": "Metro Disposal",
    "rowid": "890854",
    "final_x": "3687369.58057",
    "final_y": "551985.552022",
    "longitude": "-90.04881190642637",
    "latitude": "30.01158916205271",
    "geocoded_column": {
      "latitude": "30.01158916205271",
      "longitude": "-90.04881190642637"
    }
  },
  {
    "service_request": "2022-890853",
    "request_type": "Mosquito, Termite & Rodent Control",
    "request_reason": "Mosquito Complaint",
    "date_created": "2022-06-11T15:17:45.000",
    "date_modified": "2022-06-11T15:17:45.000",
    "request_status": "Pending",
    "responsible_agency": "Mosquito, Termite & Rodent Control Board",
    "final_address": "2508 Governor Nicholls St",
    "address_councildis": "D",
    "status": "Pending",
    "rowid": "890853",
    "final_x": "3678537.92846",
    "final_y": "537821.74804",
    "longitude": "-90.07720533948887",
    "latitude": "29.972912950437756",
    "geocoded_column": {
      "latitude": "29.972912950437756",
      "longitude": "-90.07720533948887"
    }
  },
  {
    "service_request": "2022-890852",
    "request_type": "Traffic Signals/Signs/Striping/Streetlights",
    "request_reason": "Street Light Outage/Malfunction",
    "date_created": "2022-06-11T15:13:54.000",
    "date_modified": "2022-06-11T15:13:55.000",
    "request_status": "Pending",
    "responsible_agency": "Department of Public Works",
    "final_address": "6919 Louis Xiv St",
    "address_councildis": "A",
    "status": "Pending",
    "contractor": "Royal Engineering",
    "rowid": "890852",
    "final_x": "3668739.33959",
    "final_y": "553513.626839",
    "longitude": "-90.10762112636773",
    "latitude": "30.016351935776555",
    "geocoded_column": {
      "latitude": "30.016351935776555",
      "longitude": "-90.10762112636773"
    }
  },
  {
    "service_request": "2022-890851",
    "request_type": "Abandoned Vehicles",
    "request_reason": "Abandoned/Junk Vehicles",
    "date_created": "2022-06-11T15:13:35.000",
    "date_modified": "2022-06-11T15:13:35.000",
    "request_status": "Pending",
    "responsible_agency": "Department of Public Works",
    "final_address": "2918 Baudin St",
    "address_councildis": "B",
    "status": "Pending",
    "rowid": "890851",
    "final_x": "3673473.14843",
    "final_y": "534461.035973",
    "longitude": "-90.09331577175766",
    "latitude": "29.96382382262713",
    "geocoded_column": {
      "latitude": "29.96382382262713",
      "longitude": "-90.09331577175766"
    }
  },
  {
    "service_request": "2022-890850",
    "request_type": "Trash/Recycling",
    "request_reason": "Missed Trash Pick-Up",
    "date_created": "2022-06-11T15:11:35.000",
    "date_modified": "2022-06-11T15:11:35.000",
    "request_status": "Pending",
    "responsible_agency": "Department of Sanitation",
    "final_address": "421 Tupelo St",
    "address_councildis": "E",
    "status": "Assigned to Contractor",
    "contractor": "Metro Disposal",
    "rowid": "890850",
    "final_x": "3698659.4794",
    "final_y": "531148.35501",
    "longitude": "-90.01390070235071",
    "latitude": "29.95394163236033",
    "geocoded_column": {
      "latitude": "29.95394163236033",
      "longitude": "-90.01390070235071"
    }
  },
  {
    "service_request": "2022-890849",
    "request_type": "Abandoned Vehicles",
    "request_reason": "Abandoned/Junk Vehicles",
    "date_created": "2022-06-11T15:10:50.000",
    "date_modified": "2022-06-11T15:10:50.000",
    "request_status": "Pending",
    "responsible_agency": "Department of Public Works",
    "final_address": "2916 Baudin St",
    "address_councildis": "B",
    "status": "Pending",
    "rowid": "890849",
    "final_x": "3673487.11982",
    "final_y": "534452.089157",
    "longitude": "-90.09327195714557",
    "latitude": "29.963798806138172",
    "geocoded_column": {
      "latitude": "29.963798806138172",
      "longitude": "-90.09327195714557"
    }
  },
  {
    "service_request": "2022-890848",
    "request_type": "Traffic Signals/Signs/Striping/Streetlights",
    "request_reason": "Street Light Outage/Malfunction",
    "date_created": "2022-06-11T15:09:11.000",
    "date_modified": "2022-06-11T15:09:12.000",
    "request_status": "Pending",
    "responsible_agency": "Department of Public Works",
    "final_address": "4606 Mandeville St",
    "address_councildis": "D",
    "status": "Pending",
    "contractor": "Royal Engineering",
    "rowid": "890848",
    "final_x": "3684677.25391",
    "final_y": "549591.412755",
    "longitude": "-90.05740230009562",
    "latitude": "30.005088862834214",
    "geocoded_column": {
      "latitude": "30.005088862834214",
      "longitude": "-90.05740230009562"
    }
  },
  {
    "service_request": "2022-890846",
    "request_type": "Trash/Recycling",
    "request_reason": "Return Recycling Cart",
    "date_created": "2022-06-11T15:01:47.000",
    "date_modified": "2022-06-11T15:01:47.000",
    "request_status": "Pending",
    "responsible_agency": "Department of Sanitation",
    "final_address": "4624 Painters St",
    "address_councildis": "D",
    "status": "Pending",
    "rowid": "890846",
    "final_x": "3686194.45039",
    "final_y": "549858.077844",
    "longitude": "-90.05259975196674",
    "latitude": "30.005775553956905",
    "geocoded_column": {
      "latitude": "30.005775553956905",
      "longitude": "-90.05259975196674"
    }
  },
  {
    "service_request": "2022-890845",
    "request_type": "EMS",
    "request_reason": "EMS General",
    "date_created": "2022-06-11T14:55:53.000",
    "date_modified": "2022-06-11T15:12:30.000",
    "case_close_date": "2022-06-11T10:12:30.000",
    "request_status": "Closed",
    "responsible_agency": "Emergency Medical Services",
    "status": "Resolved",
    "rowid": "890845",
    "longitude": "0.0",
    "latitude": "0.0",
    "geocoded_column": {
      "latitude": "0.0",
      "longitude": "0.0"
    }
  },
  {
    "service_request": "2022-890844",
    "request_type": "Trash/Recycling",
    "request_reason": "Order Recycling Cart",
    "date_created": "2022-06-11T14:41:10.000",
    "date_modified": "2022-06-11T14:41:10.000",
    "request_status": "Pending",
    "responsible_agency": "Department of Sanitation",
    "final_address": "5 Marlborough Gate Pl",
    "address_councildis": "B",
    "status": "Pending",
    "rowid": "890844",
    "final_x": "3669025.28884",
    "final_y": "523788.678907",
    "longitude": "-90.10772221187494",
    "latitude": "29.934609928396483",
    "geocoded_column": {
      "latitude": "29.934609928396483",
      "longitude": "-90.10772221187494"
    }
  },
  {
    "service_request": "2022-890843",
    "request_type": "Trash/Recycling",
    "request_reason": "Missed Trash Pick-Up",
    "date_created": "2022-06-11T14:30:53.000",
    "date_modified": "2022-06-11T14:30:54.000",
    "request_status": "Pending",
    "responsible_agency": "Department of Sanitation",
    "final_address": "4315 State Street Dr",
    "address_councildis": "B",
    "status": "Assigned to Contractor",
    "contractor": "Richards Disposal",
    "rowid": "890843",
    "final_x": "3668566.84167",
    "final_y": "531273.914114",
    "longitude": "-90.10891701229157",
    "latitude": "29.955205372109024",
    "geocoded_column": {
      "latitude": "29.955205372109024",
      "longitude": "-90.10891701229157"
    }
  },
  {
    "service_request": "2022-890842",
    "request_type": "Traffic Signals/Signs/Striping/Streetlights",
    "request_reason": "Traffic Signal Malfunctioning/Damaged",
    "date_created": "2022-06-11T14:25:27.000",
    "date_modified": "2022-06-11T14:25:27.000",
    "request_status": "Pending",
    "responsible_agency": "Department of Public Works",
    "final_address": "12170 Old Gentilly Rd",
    "address_councildis": "E",
    "status": "Pending",
    "rowid": "890842",
    "final_x": "3720228.10841",
    "final_y": "552556.804182",
    "longitude": "-89.9449776298222",
    "latitude": "30.012106113304142",
    "geocoded_column": {
      "latitude": "30.012106113304142",
      "longitude": "-89.9449776298222"
    }
  },
  {
    "service_request": "2022-890841",
    "request_type": "Trash/Recycling",
    "request_reason": "Illegal Dumping",
    "date_created": "2022-06-11T14:13:32.000",
    "date_modified": "2022-06-11T14:13:32.000",
    "request_status": "Pending",
    "responsible_agency": "Department of Sanitation",
    "final_address": "3214 Banks St B",
    "address_councildis": "B",
    "status": "Pending",
    "rowid": "890841",
    "final_x": "3672994.3419",
    "final_y": "535302.047174",
    "longitude": "-90.09479909256089",
    "latitude": "29.96615056004218",
    "geocoded_column": {
      "latitude": "29.96615056004218",
      "longitude": "-90.09479909256089"
    }
  },
  {
    "service_request": "2022-890840",
    "request_type": "Trash/Recycling",
    "request_reason": "Replace Trash Cart",
    "date_created": "2022-06-11T13:52:42.000",
    "date_modified": "2022-06-11T13:52:43.000",
    "request_status": "Pending",
    "responsible_agency": "Department of Sanitation",
    "final_address": "724 Brooklyn Ave",
    "address_councildis": "C",
    "status": "Assigned to Contractor",
    "contractor": "Richards Disposal",
    "rowid": "890840",
    "final_x": "3686164.22396",
    "final_y": "528796.666752",
    "longitude": "-90.05343846646824",
    "latitude": "29.947865005260777",
    "geocoded_column": {
      "latitude": "29.947865005260777",
      "longitude": "-90.05343846646824"
    }
  },
  {
    "service_request": "2022-890839",
    "request_type": "Trash/Recycling",
    "request_reason": "Missed Trash Pick-Up",
    "date_created": "2022-06-11T13:47:54.000",
    "date_modified": "2022-06-11T13:47:54.000",
    "request_status": "Pending",
    "responsible_agency": "Department of Sanitation",
    "final_address": "6200 BLK Waldo Dr",
    "address_councildis": "D",
    "status": "Assigned to Contractor",
    "contractor": "Metro Disposal",
    "rowid": "890839",
    "final_x": "3681085.56266",
    "final_y": "555894.18754",
    "longitude": "-90.068529409177",
    "latitude": "30.022528690448688",
    "geocoded_column": {
      "latitude": "30.022528690448688",
      "longitude": "-90.068529409177"
    }
  },
  {
    "service_request": "2022-890838",
    "request_type": "Trash/Recycling",
    "request_reason": "Illegal Dumping",
    "date_created": "2022-06-11T13:14:54.000",
    "date_modified": "2022-06-11T13:14:54.000",
    "request_status": "Pending",
    "responsible_agency": "Department of Sanitation",
    "final_address": "1400 Music St",
    "address_councildis": "C",
    "status": "Pending",
    "rowid": "890838",
    "final_x": "3686720.74882",
    "final_y": "537587.94388",
    "longitude": "-90.05137074931906",
    "latitude": "29.972020877962112",
    "geocoded_column": {
      "latitude": "29.972020877962112",
      "longitude": "-90.05137074931906"
    }
  },
  {
    "service_request": "2022-890837",
    "request_type": "Property Maintenance",
    "request_reason": "Property Maintenance",
    "date_created": "2022-06-11T13:08:36.000",
    "date_modified": "2022-06-11T13:08:36.000",
    "request_status": "Pending",
    "responsible_agency": "Department of Code Enforcement",
    "final_address": "11731 W Barrington Dr",
    "address_councildis": "E",
    "status": "Pending",
    "rowid": "890837",
    "final_x": "3713946.79794",
    "final_y": "565624.135778",
    "longitude": "-89.9643295262981",
    "latitude": "30.048243840197767",
    "geocoded_column": {
      "latitude": "30.048243840197767",
      "longitude": "-89.9643295262981"
    }
  },
  {
    "service_request": "2022-890836",
    "request_type": "Trash/Recycling",
    "request_reason": "Missed Trash Pick-Up",
    "date_created": "2022-06-11T13:08:06.000",
    "date_modified": "2022-06-11T13:08:07.000",
    "request_status": "Pending",
    "responsible_agency": "Department of Sanitation",
    "final_address": "2831 Mansfield Ave",
    "address_councildis": "C",
    "status": "Assigned to Contractor",
    "contractor": "Richards Disposal",
    "rowid": "890836",
    "final_x": "3709145.12369",
    "final_y": "519499.504439",
    "longitude": "-89.98122567332881",
    "latitude": "29.921575279548865",
    "geocoded_column": {
      "latitude": "29.921575279548865",
      "longitude": "-89.98122567332881"
    }
  },