[
  {
    "service_request": "2022-878609",
    "request_type": "Trash/Recycling",
    "request_reason": "Order Recycling Cart",
    "date_created": "2022-04-28T23:10:43.000",
    "date_modified": "2022-04-28T23:10:43.000",
    "request_status": "Pending",
    "responsible_agency": "Department of Sanitation",
    "final_address": "2627 Nashville Ave",
    "address_councildis": "A",
    "status": "Pending",
    "rowid": "878609",
    "final_x": "3667406.75329",
    "final_y": "525799.204861",
    "longitude": "-90.11276430143486",
    "latitude": "29.94018573347712",
    "geocoded_column": {
      "latitude": "29.94018573347712",
      "longitude": "-90.11276430143486"
    }
  },
  {
    "service_request": "2022-878608",
    "request_type": "Abandoned Vehicles",
    "request_reason": "Abandoned/Junk Vehicles",
    "date_created": "2022-04-28T22:19:30.000",
    "date_modified": "2022-04-28T22:19:30.000",
    "request_status": "Pending",
    "responsible_agency": "Department of Public Works",
    "final_address": "1620 Sumner St",
    "address_councildis": "C",
    "status": "Pending",
    "rowid": "878608",
    "final_x": "3691049.02185",
    "final_y": "525341.383293",
    "longitude": "-90.03813858604626",
    "latitude": "29.938213225642254",
    "geocoded_column": {
      "latitude": "29.938213225642254",
      "longitude": "-90.03813858604626"
    }
  },
  {
    "service_request": "2022-878606",
    "request_type": "Traffic Signals/Signs/Striping/Streetlights",
    "request_reason": "Street Light Outage/Malfunction",
    "date_created": "2022-04-28T22:06:57.000",
    "date_modified": "2022-04-28T22:06:57.000",
    "request_status": "Pending",
    "responsible_agency": "Department of Public Works",
    "final_address": "512 Austerlitz St, New Orleans, Louisiana, 70115",
    "address_councildis": "B",
    "status": "Pending",
    "contractor": "Royal Engineering",
    "rowid": "878606",
    "final_x": "3672942.14081",
    "final_y": "517827.75167",
    "longitude": "-90.09556005199936",
    "latitude": "29.918103513418078",
    "geocoded_column": {
      "latitude": "29.918103513418078",
      "longitude": "-90.09556005199936"
    }
  },
  {
    "service_request": "2022-878605",
    "request_type": "Trash/Recycling",
    "request_reason": "Replace Trash Cart",
    "date_created": "2022-04-28T21:58:31.000",
    "date_modified": "2022-04-28T21:58:32.000",
    "request_status": "Pending",
    "responsible_agency": "Department of Sanitation",
    "final_address": "4206 S Roman St",
    "address_councildis": "B",
    "status": "Assigned to Contractor",
    "contractor": "Richards Disposal",
    "rowid": "878605",
    "final_x": "3670942.40974",
    "final_y": "526588.168446",
    "longitude": "-90.10157487988783",
    "latitude": "29.94225109412278",
    "geocoded_column": {
      "latitude": "29.94225109412278",
      "longitude": "-90.10157487988783"
    }
  },
  {
    "service_request": "2022-878604",
    "request_type": "Trash/Recycling",
    "request_reason": "Replace Trash Cart",
    "date_created": "2022-04-28T21:54:47.000",
    "date_modified": "2022-04-28T21:54:48.000",
    "request_status": "Pending",
    "responsible_agency": "Department of Sanitation",
    "final_address": "2301 Wirth Pl",
    "address_councildis": "A",
    "status": "Assigned to Contractor",
    "contractor": "Richards Disposal",
    "rowid": "878604",
    "final_x": "3667172.00807",
    "final_y": "524540.010236",
    "longitude": "-90.113547751565",
    "latitude": "29.936730225934753",
    "geocoded_column": {
      "latitude": "29.936730225934753",
      "longitude": "-90.113547751565"
    }
  },
  {
    "service_request": "2022-878603",
    "request_type": "Trash/Recycling",
    "request_reason": "MIssed Recycling Pick-Up",
    "date_created": "2022-04-28T21:36:04.000",
    "date_modified": "2022-04-28T21:36:05.000",
    "request_status": "Pending",
    "responsible_agency": "Department of Sanitation",
    "final_address": "1437 St Mary St",
    "address_councildis": "B",
    "status": "Assigned to Contractor",
    "contractor": "Richards Disposal",
    "rowid": "878603",
    "final_x": "3678886.61461",
    "final_y": "523808.468923",
    "longitude": "-90.07658952298718",
    "latitude": "29.93437062963516",
    "geocoded_column": {
      "latitude": "29.93437062963516",
      "longitude": "-90.07658952298718"
    }
  },
  {
    "service_request": "2022-878601",
    "request_type": "Roads/Drainage",
    "request_reason": "Damaged Sidewalk",
    "date_created": "2022-04-28T21:15:12.000",
    "date_modified": "2022-04-28T21:15:12.000",
    "request_status": "Pending",
    "responsible_agency": "Department of Public Works",
    "final_address": "705 Camp St",
    "address_councildis": "B",
    "status": "Pending",
    "rowid": "878601",
    "final_x": "3680865.45954",
    "final_y": "528405.262912",
    "longitude": "-90.07018239223355",
    "latitude": "29.946950456159243",
    "geocoded_column": {
      "latitude": "29.946950456159243",
      "longitude": "-90.07018239223355"
    }
  },
  {
    "service_request": "2022-878600",
    "request_type": "Trash/Recycling",
    "request_reason": "Request a Large Item Pick Up",
    "date_created": "2022-04-28T21:07:57.000",
    "date_modified": "2022-04-28T21:07:58.000",
    "request_status": "Pending",
    "responsible_agency": "Department of Sanitation",
    "final_address": "224 S Murat St",
    "address_councildis": "A",
    "status": "Assigned to Contractor",
    "contractor": "Richards Disposal",
    "rowid": "878600",
    "final_x": "3669340.10407",
    "final_y": "538864.131465",
    "longitude": "-90.10621865694955",
    "latitude": "29.976053199477477",
    "geocoded_column": {
      "latitude": "29.976053199477477",
      "longitude": "-90.10621865694955"
    }
  },
  {
    "service_request": "2022-878599",
    "request_type": "Roads/Drainage",
    "request_reason": "Damaged Sidewalk",
    "date_created": "2022-04-28T21:06:48.000",
    "date_modified": "2022-04-28T21:06:48.000",
    "request_status": "Pending",
    "responsible_agency": "Department of Public Works",
    "final_address": "333 Baronne St",
    "address_councildis": "B",
    "status": "Pending",
    "rowid": "878599",
    "final_x": "3679947.23528",
    "final_y": "530129.871041",
    "longitude": "-90.07302167277001",
    "latitude": "29.95172035104343",
    "geocoded_column": {
      "latitude": "29.95172035104343",
      "longitude": "-90.07302167277001"
    }
  },
  {
    "service_request": "2022-878598",
    "request_type": "Traffic Signals/Signs/Striping/Streetlights",
    "request_reason": "Street Light Outage/Malfunction",
    "date_created": "2022-04-28T21:06:08.000",
    "date_modified": "2022-04-28T21:06:08.000",
    "request_status": "Pending",
    "responsible_agency": "Department of Public Works",
    "final_address": "7151 Neptune Ct",
    "address_councildis": "E",
    "status": "Pending",
    "contractor": "Royal Engineering",
    "rowid": "878598",
    "final_x": "3701695.5425",
    "final_y": "559604.498461",
    "longitude": "-90.00327113932906",
    "latitude": "30.03208897517481",
    "geocoded_column": {
      "latitude": "30.03208897517481",
      "longitude": "-90.00327113932906"
    }
  },
  {
    "service_request": "2022-878597",
    "request_type": "Trash/Recycling",
    "request_reason": "Request a Large Item Pick Up",
    "date_created": "2022-04-28T20:52:49.000",
    "date_modified": "2022-04-28T20:52:50.000",
    "request_status": "Pending",
    "responsible_agency": "Department of Sanitation",
    "final_address": "1659 Pleasure St",
    "address_councildis": "D",
    "status": "Assigned to Contractor",
    "contractor": "Metro Disposal",
    "rowid": "878597",
    "final_x": "3680361.50632",
    "final_y": "544869.663887",
    "longitude": "-90.07120095722141",
    "latitude": "29.992237166251762",
    "geocoded_column": {
      "latitude": "29.992237166251762",
      "longitude": "-90.07120095722141"
    }
  },
  {
    "service_request": "2022-878596",
    "request_type": "Traffic Signals/Signs/Striping/Streetlights",
    "request_reason": "Street Light Outage/Malfunction",
    "date_created": "2022-04-28T20:50:46.000",
    "date_modified": "2022-04-28T20:50:47.000",
    "request_status": "Pending",
    "responsible_agency": "Department of Public Works",
    "final_address": "7151 Neptune Ct",
    "address_councildis": "E",
    "status": "Pending",
    "contractor": "Royal Engineering",
    "rowid": "878596",
    "final_x": "3701695.5425",
    "final_y": "559604.498461",
    "longitude": "-90.00327113932906",
    "latitude": "30.03208897517481",
    "geocoded_column": {
      "latitude": "30.03208897517481",
      "longitude": "-90.00327113932906"
    }
  },
  {
    "service_request": "2022-878595",
    "request_type": "Trash/Recycling",
    "request_reason": "Illegal Dumping",
    "date_created": "2022-04-28T20:49:46.000",
    "date_modified": "2022-04-28T20:49:46.000",
    "request_status": "Pending",
    "responsible_agency": "Department of Sanitation",
    "final_address": "2128 St Andrew St",
    "address_councildis": "B",
    "status": "Pending",
    "rowid": "878595",
    "final_x": "3676851.91688",
    "final_y": "525814.340861",
    "longitude": "-90.08294390778713",
    "latitude": "29.939947324561064",
    "geocoded_column": {
      "latitude": "29.939947324561064",
      "longitude": "-90.08294390778713"
    }
  },
  {
    "service_request": "2022-878594",
    "request_type": "Trash/Recycling",
    "request_reason": "Missed Trash Pick-Up",
    "date_created": "2022-04-28T20:48:12.000",
    "date_modified": "2022-04-28T20:48:12.000",
    "request_status": "Pending",
    "responsible_agency": "Department of Sanitation",
    "final_address": "2128 St Andrew St",
    "address_councildis": "B",
    "status": "Assigned to Contractor",
    "contractor": "Richards Disposal",
    "rowid": "878594",
    "final_x": "3676851.91688",
    "final_y": "525814.340861",
    "longitude": "-90.08294390778713",
    "latitude": "29.939947324561064",
    "geocoded_column": {
      "latitude": "29.939947324561064",
      "longitude": "-90.08294390778713"
    }
  },
  {
    "service_request": "2022-878593",
    "request_type": "Traffic Signals/Signs/Striping/Streetlights",
    "request_reason": "Street Light Outage/Malfunction",
    "date_created": "2022-04-28T20:36:12.000",
    "date_modified": "2022-04-28T20:36:13.000",
    "request_status": "Pending",
    "responsible_agency": "Department of Public Works",
    "final_address": "2303 Broadway St",
    "address_councildis": "A",
    "status": "Pending",
    "contractor": "Royal Engineering",
    "rowid": "878593",
    "final_x": "3666505.31668",
    "final_y": "529869.953089",
    "longitude": "-90.11547368991184",
    "latitude": "29.95140534811212",
    "geocoded_column": {
      "latitude": "29.95140534811212",
      "longitude": "-90.11547368991184"
    }
  },
  {
    "service_request": "2022-878592",
    "request_type": "Traffic Signals/Signs/Striping/Streetlights",
    "request_reason": "Street Light Outage/Malfunction",
    "date_created": "2022-04-28T20:36:03.000",
    "date_modified": "2022-04-28T20:36:03.000",
    "request_status": "Pending",
    "responsible_agency": "Department of Public Works",
    "final_address": "2303 Broadway St",
    "address_councildis": "A",
    "status": "Pending",
    "contractor": "Royal Engineering",
    "rowid": "878592",
    "final_x": "3666505.31668",
    "final_y": "529869.953089",
    "longitude": "-90.11547368991184",
    "latitude": "29.95140534811212",
    "geocoded_column": {
      "latitude": "29.95140534811212",
      "longitude": "-90.11547368991184"
    }
  },
  {
    "service_request": "2022-878591",
    "request_type": "Traffic Signals/Signs/Striping/Streetlights",
    "request_reason": "Street Light Outage/Malfunction",
    "date_created": "2022-04-28T20:35:49.000",
    "date_modified": "2022-04-28T20:35:50.000",
    "request_status": "Pending",
    "responsible_agency": "Department of Public Works",
    "final_address": "2303 Broadway St",
    "address_councildis": "A",
    "status": "Pending",
    "contractor": "Royal Engineering",
    "rowid": "878591",
    "final_x": "3666505.31668",
    "final_y": "529869.953089",
    "longitude": "-90.11547368991184",
    "latitude": "29.95140534811212",
    "geocoded_column": {
      "latitude": "29.95140534811212",
      "longitude": "-90.11547368991184"
    }
  },
  {
    "service_request": "2022-878589",
    "request_type": "Trash/Recycling",
    "request_reason": "Request a Large Item Pick Up",
    "date_created": "2022-04-28T20:20:10.000",
    "date_modified": "2022-04-28T20:20:11.000",
    "request_status": "Pending",
    "responsible_agency": "Department of Sanitation",
    "final_address": "2101 Franklin Ave",
    "address_councildis": "D",
    "status": "Assigned to Contractor",
    "contractor": "Metro Disposal",
    "rowid": "878589",
    "final_x": "3687699.77193",
    "final_y": "540256.436171",
    "longitude": "-90.04818432170761",
    "latitude": "29.979328137839293",
    "geocoded_column": {
      "latitude": "29.979328137839293",
      "longitude": "-90.04818432170761"
    }
  },
  {
    "service_request": "2022-878588",
    "request_type": "Trash/Recycling",
    "request_reason": "Request a Large Item Pick Up",
    "date_created": "2022-04-28T20:14:51.000",
    "date_modified": "2022-04-28T20:14:52.000",
    "request_status": "Pending",
    "responsible_agency": "Department of Sanitation",
    "final_address": "813 Alix St",
    "address_councildis": "C",
    "status": "Assigned to Contractor",
    "contractor": "Richards Disposal",
    "rowid": "878588",
    "final_x": "3687998.40214",
    "final_y": "530289.464385",
    "longitude": "-90.04759436250349",
    "latitude": "29.951913226062086",
    "geocoded_column": {
      "latitude": "29.951913226062086",
      "longitude": "-90.04759436250349"
    }
  },
  {
    "service_request": "2022-878587",
    "request_type": "Trash/Recycling",
    "request_reason": "Missed Trash Pick-Up",
    "date_created": "2022-04-28T20:14:21.000",
    "date_modified": "2022-04-28T20:14:22.000",
    "request_status": "Pending",
    "responsible_agency": "Department of Sanitation",
    "final_address": "3710 Dumaine St",
    "address_councildis": "A",
    "status": "Assigned to Contractor",
    "contractor": "Richards Disposal",
    "rowid": "878587",
    "final_x": "3673978.86824",
    "final_y": "539883.159754",
    "longitude": "-90.09153318995807",
    "latitude": "29.97871776674738",
    "geocoded_column": {
      "latitude": "29.97871776674738",
      "longitude": "-90.09153318995807"
    }
  },
  {
    "service_request": "2022-878585",
    "request_type": "Traffic Signals/Signs/Striping/Streetlights",
    "request_reason": "Street Light Outage/Malfunction",
    "date_created": "2022-04-28T20:04:07.000",
    "date_modified": "2022-04-28T20:04:33.000",
    "request_status": "Pending",
    "responsible_agency": "Department of Public Works",
    "final_address": "1741 Poydras St",
    "address_councildis": "B",
    "status": "Pending",
    "contractor": "Royal Engineering",
    "rowid": "878585",
    "final_x": "3677073.11963",
    "final_y": "530804.668802",
    "longitude": "-90.08207349038473",
    "latitude": "29.953662429924364",
    "geocoded_column": {
      "latitude": "29.953662429924364",
      "longitude": "-90.08207349038473"
    }
  },
  {
    "service_request": "2022-878584",
    "request_type": "Traffic Signals/Signs/Striping/Streetlights",
    "request_reason": "Street Name Sign Damaged or Missing",
    "date_created": "2022-04-28T20:03:57.000",
    "date_modified": "2022-04-28T20:03:57.000",
    "request_status": "Pending",
    "responsible_agency": "Department of Public Works",
    "final_address": "4758 Read Blvd",
    "address_councildis": "E",
    "status": "Pending",
    "rowid": "878584",
    "final_x": "3712653.13093",
    "final_y": "556314.855258",
    "longitude": "-89.96876860729782",
    "latitude": "30.02268947370376",
    "geocoded_column": {
      "latitude": "30.02268947370376",
      "longitude": "-89.96876860729782"
    }
  },
  {
    "service_request": "2022-878583",
    "request_type": "Traffic Signals/Signs/Striping/Streetlights",
    "request_reason": "Street Light Outage/Malfunction",
    "date_created": "2022-04-28T20:00:46.000",
    "date_modified": "2022-04-28T20:00:47.000",
    "request_status": "Pending",
    "responsible_agency": "Department of Public Works",
    "final_address": "1741 Poydras St",
    "address_councildis": "B",
    "status": "Pending",
    "contractor": "Royal Engineering",
    "rowid": "878583",
    "final_x": "3677073.11963",
    "final_y": "530804.668802",
    "longitude": "-90.08207349038473",
    "latitude": "29.953662429924364",
    "geocoded_column": {
      "latitude": "29.953662429924364",
      "longitude": "-90.08207349038473"
    }
  },
  {
    "service_request": "2022-878582",
    "request_type": "Abandoned Vehicles",
    "request_reason": "Abandoned/Junk Vehicles",
    "date_created": "2022-04-28T19:30:40.000",
    "date_modified": "2022-04-28T19:30:40.000",
    "request_status": "Pending",
    "responsible_agency": "Department of Public Works",
    "final_address": "1335 Mandolin St",
    "address_councildis": "D",
    "status": "Pending",
    "rowid": "878582",
    "final_x": "3677559.21774",
    "final_y": "548098.12341",
    "longitude": "-90.07994128589225",
    "latitude": "30.001198868062996",
    "geocoded_column": {
      "latitude": "30.001198868062996",
      "longitude": "-90.07994128589225"
    }
  },
  {
    "service_request": "2022-878581",
    "request_type": "Trash/Recycling",
    "request_reason": "Missed Trash Pick-Up",
    "date_created": "2022-04-28T19:16:54.000",
    "date_modified": "2022-04-28T19:16:55.000",
    "request_status": "Pending",
    "responsible_agency": "Department of Sanitation",
    "final_address": "1135 St Andrew St",
    "address_councildis": "B",
    "status": "Assigned to Contractor",
    "contractor": "Richards Disposal",
    "rowid": "878581",
    "final_x": "3679323.84559",
    "final_y": "522868.673787",
    "longitude": "-90.07524177280013",
    "latitude": "29.931773308816666",
    "geocoded_column": {
      "latitude": "29.931773308816666",
      "longitude": "-90.07524177280013"
    }
  },
  {
    "service_request": "2022-878580",
    "request_type": "Abandoned Vehicles",
    "request_reason": "Abandoned/Junk Vehicles",
    "date_created": "2022-04-28T19:12:09.000",
    "date_modified": "2022-04-28T19:12:09.000",
    "request_status": "Pending",
    "responsible_agency": "Department of Public Works",
    "final_address": "1431 Desire St",
    "address_councildis": "C",
    "status": "Pending",
    "rowid": "878580",
    "final_x": "3690565.83708",
    "final_y": "537049.12084",
    "longitude": "-90.03924659516794",
    "latitude": "29.970420457905817",
    "geocoded_column": {
      "latitude": "29.970420457905817",
      "longitude": "-90.03924659516794"
    }
  },
  {
    "service_request": "2022-878579",
    "request_type": "Traffic Signals/Signs/Striping/Streetlights",
    "request_reason": "Request for Traffic Calming due to Speeding",
    "date_created": "2022-04-28T19:00:53.000",
    "date_modified": "2022-04-28T19:00:53.000",
    "request_status": "Pending",
    "responsible_agency": "Department of Public Works",
    "final_address": "5900 BLK General Diaz St",
    "address_councildis": "A",
    "status": "Pending",
    "rowid": "878579",
    "final_x": "3669472.17086",
    "final_y": "546854.508113",
    "longitude": "-90.10553113968012",
    "latitude": "29.99802011545594",
    "geocoded_column": {
      "latitude": "29.99802011545594",
      "longitude": "-90.10553113968012"
    }
  },
  {
    "service_request": "2022-878578",
    "request_type": "Roads/Drainage",
    "request_reason": "Street Subsidence (Sinking)",
    "date_created": "2022-04-28T18:47:28.000",
    "date_modified": "2022-04-28T18:47:28.000",
    "request_status": "Pending",
    "responsible_agency": "Department of Public Works",
    "final_address": "916 Navarre St",
    "address_councildis": "A",
    "status": "Pending",
    "rowid": "878578",
    "final_x": "3669585.29594",
    "final_y": "543436.267854",
    "longitude": "-90.1052895066315",
    "latitude": "29.988617798298304",
    "geocoded_column": {
      "latitude": "29.988617798298304",
      "longitude": "-90.1052895066315"
    }
  },
  {
    "service_request": "2022-878577",
    "request_type": "Roads/Drainage",
    "request_reason": "Debris in Roadway",
    "date_created": "2022-04-28T18:38:20.000",
    "date_modified": "2022-04-28T18:38:21.000",
    "request_status": "Pending",
    "responsible_agency": "Department of Public Works",
    "final_address": "HAYNE BLVD & CROWDER BLVD",
    "address_councildis": "E",
    "status": "Pending",
    "rowid": "878577",
    "final_x": "3702618.5",
    "final_y": "563229.08",
    "longitude": "-90.00022129608212",
    "latitude": "30.042025665825655",
    "geocoded_column": {
      "latitude": "30.042025665825655",
      "longitude": "-90.00022129608212"
    }
  },
  {
    "service_request": "2022-878576",
    "request_type": "Roads/Drainage",
    "request_reason": "Debris in Roadway",
    "date_created": "2022-04-28T18:34:55.000",
    "date_modified": "2022-04-28T18:34:56.000",
    "request_status": "Pending",
    "responsible_agency": "Department of Public Works",
    "final_address": "HAYNE BLVD & READ BLVD",
    "address_councildis": "E",
    "status": "Pending",
    "rowid": "878576",
    "final_x": "3707696.7",
    "final_y": "565936.88",
    "longitude": "-89.98407162807439",
    "latitude": "30.049307603731002",
    "geocoded_column": {
      "latitude": "30.049307603731002",
      "longitude": "-89.98407162807439"
    }
  },
  {
    "service_request": "2022-878575",
    "request_type": "Trash/Recycling",
    "request_reason": "MIssed Recycling Pick-Up",
    "date_created": "2022-04-28T18:34:16.000",
    "date_modified": "2022-04-28T18:34:17.000",
    "request_status": "Pending",
    "responsible_agency": "Department of Sanitation",
    "final_address": "2314 Octavia St",
    "address_councildis": "A",
    "status": "Assigned to Contractor",
    "contractor": "Richards Disposal",
    "rowid": "878575",
    "final_x": "3667563.1826",
    "final_y": "524215.7831",
    "longitude": "-90.11232369870703",
    "latitude": "29.93582724925723",
    "geocoded_column": {
      "latitude": "29.93582724925723",
      "longitude": "-90.11232369870703"
    }
  },
  {
    "service_request": "2022-878574",
    "request_type": "Roads/Drainage",
    "request_reason": "Debris in Roadway",
    "date_created": "2022-04-28T18:33:52.000",
    "date_modified": "2022-04-28T18:33:53.000",
    "request_status": "Pending",
    "responsible_agency": "Department of Public Works",
    "final_address": "8300 Hayne Blvd",
    "address_councildis": "E",
    "status": "Pending",
    "rowid": "878574",
    "final_x": "3702463.58903",
    "final_y": "563045.235232",
    "longitude": "-90.00071762734844",
    "latitude": "30.041525119724895",
    "geocoded_column": {
      "latitude": "30.041525119724895",
      "longitude": "-90.00071762734844"
    }
  },
  {
    "service_request": "2022-878573",
    "request_type": "Traffic Signals/Signs/Striping/Streetlights",
    "request_reason": "Additional signage",
    "date_created": "2022-04-28T18:27:38.000",
    "date_modified": "2022-04-28T18:27:38.000",
    "request_status": "Pending",
    "responsible_agency": "Department of Public Works",
    "final_address": "N PETERS ST & BIENVILLE ST",
    "address_councildis": "C",
    "status": "Pending",
    "rowid": "878573",
    "final_x": "3682447.3",
    "final_y": "530707.28",
    "longitude": "-90.06510749596413",
    "latitude": "29.953232182373185",
    "geocoded_column": {
      "latitude": "29.953232182373185",
      "longitude": "-90.06510749596413"
    }
  },
  {
    "service_request": "2022-878572",
    "request_type": "Taxi Issues",
    "request_reason": "Taxi Complaint",
    "date_created": "2022-04-28T18:20:41.000",
    "date_modified": "2022-04-28T18:20:41.000",
    "request_status": "Pending",
    "responsible_agency": "Ground Transportation Bureau",
    "status": "Pending",
    "rowid": "878572",
    "longitude": "0.0",
    "latitude": "0.0",
    "geocoded_column": {
      "latitude": "0.0",
      "longitude": "0.0"
    }
  },
  {
    "service_request": "2022-878571",
    "request_type": "Trash/Recycling",
    "request_reason": "Request a Large Item Pick Up",
    "date_created": "2022-04-28T18:18:27.000",
    "date_modified": "2022-04-28T18:18:27.000",
    "request_status": "Pending",
    "responsible_agency": "Department of Sanitation",
    "final_address": "520 St Philip St",
    "address_councildis": "C",
    "status": "Assigned to Contractor",
    "contractor": "Empire Services",
    "rowid": "878571",
    "final_x": "3683664.56853",
    "final_y": "532954.633732",
    "longitude": "-90.06118510879202",
    "latitude": "29.959374536461066",
    "geocoded_column": {
      "latitude": "29.959374536461066",
      "longitude": "-90.06118510879202"
    }
  },
  {
    "service_request": "2022-878570",
    "request_type": "Trash/Recycling",
    "request_reason": "Missed Trash Pick-Up",
    "date_created": "2022-04-28T18:17:53.000",
    "date_modified": "2022-04-28T18:17:54.000",
    "request_status": "Pending",
    "responsible_agency": "Department of Sanitation",
    "final_address": "737 Barracks St",
    "address_councildis": "C",
    "status": "Assigned to Contractor",
    "contractor": "Empire Services",
    "rowid": "878570",
    "final_x": "3683671.0614",
    "final_y": "534391.519685",
    "longitude": "-90.06111422806113",
    "latitude": "29.963325281534367",
    "geocoded_column": {
      "latitude": "29.963325281534367",
      "longitude": "-90.06111422806113"
    }
  },
  {
    "service_request": "2022-878569",
    "request_type": "Trash/Recycling",
    "request_reason": "Replace Trash Cart",
    "date_created": "2022-04-28T18:03:26.000",
    "date_modified": "2022-04-28T18:03:27.000",
    "request_status": "Pending",
    "responsible_agency": "Department of Sanitation",
    "final_address": "1424 Jefferson Ave",
    "address_councildis": "A",
    "status": "Assigned to Contractor",
    "contractor": "Richards Disposal",
    "rowid": "878569",
    "final_x": "3667039.37044",
    "final_y": "520545.672376",
    "longitude": "-90.11410067649942",
    "latitude": "29.925750949461484",
    "geocoded_column": {
      "latitude": "29.925750949461484",
      "longitude": "-90.11410067649942"
    }
  },
  {
    "service_request": "2022-878568",
    "request_type": "Trash/Recycling",
    "request_reason": "Request a Large Item Pick Up",
    "date_created": "2022-04-28T17:54:03.000",
    "date_modified": "2022-04-28T17:54:03.000",
    "request_status": "Pending",
    "responsible_agency": "Department of Sanitation",
    "final_address": "11300 S Parkwood Ct",
    "address_councildis": "E",
    "status": "Assigned to Contractor",
    "contractor": "Metro Disposal",
    "rowid": "878568",
    "final_x": "3716924.78373",
    "final_y": "559068.849116",
    "longitude": "-89.95516667639004",
    "latitude": "30.03012129048611",
    "geocoded_column": {
      "latitude": "30.03012129048611",
      "longitude": "-89.95516667639004"
    }
  },
  {
    "service_request": "2022-878567",
    "request_type": "Property Maintenance",
    "request_reason": "Property Maintenance",
    "date_created": "2022-04-28T17:53:16.000",
    "date_modified": "2022-04-28T17:53:16.000",
    "request_status": "Pending",
    "responsible_agency": "Department of Code Enforcement",
    "final_address": "2421 Gravier St",
    "address_councildis": "B",
    "status": "Pending",
    "rowid": "878567",
    "final_x": "3675086.63086",
    "final_y": "532857.15322",
    "longitude": "-90.08827557845171",
    "latitude": "29.959365573784968",
    "geocoded_column": {
      "latitude": "29.959365573784968",
      "longitude": "-90.08827557845171"
    }
  },
  {
    "service_request": "2022-878566",
    "request_type": "Trash/Recycling",
    "request_reason": "MIssed Recycling Pick-Up",
    "date_created": "2022-04-28T17:51:49.000",
    "date_modified": "2022-04-28T17:51:51.000",
    "request_status": "Pending",
    "responsible_agency": "Department of Sanitation",
    "final_address": "2420 Gravier St",
    "address_councildis": "B",
    "status": "Assigned to Contractor",
    "contractor": "Richards Disposal",
    "rowid": "878566",
    "final_x": "3675029.24789",
    "final_y": "532769.903172",
    "longitude": "-90.08845977373535",
    "latitude": "29.959127379731946",
    "geocoded_column": {
      "latitude": "29.959127379731946",
      "longitude": "-90.08845977373535"
    }
  },
  {
    "service_request": "2022-878565",
    "request_type": "Traffic Signals/Signs/Striping/Streetlights",
    "request_reason": "Street Light Outage/Malfunction",
    "date_created": "2022-04-28T17:39:22.000",
    "date_modified": "2022-04-28T17:39:23.000",
    "request_status": "Pending",
    "responsible_agency": "Department of Public Works",
    "final_address": "1344 Camp St",
    "address_councildis": "B",
    "status": "Pending",
    "contractor": "Royal Engineering",
    "rowid": "878565",
    "final_x": "3680090.5956",
    "final_y": "524936.478845",
    "longitude": "-90.07274941320073",
    "latitude": "29.937435919427614",
    "geocoded_column": {
      "latitude": "29.937435919427614",
      "longitude": "-90.07274941320073"
    }
  },
  {
    "service_request": "2022-878564",
    "request_type": "Trash/Recycling",
    "request_reason": "Repair Trash Cart",
    "date_created": "2022-04-28T17:37:31.000",
    "date_modified": "2022-04-28T17:37:32.000",
    "request_status": "Pending",
    "responsible_agency": "Department of Sanitation",
    "final_address": "4327 Banks St",
    "address_councildis": "A",
    "status": "Assigned to Contractor",
    "contractor": "Richards Disposal",
    "rowid": "878564",
    "final_x": "3669412.31559",
    "final_y": "538190.155529",
    "longitude": "-90.10601339109711",
    "latitude": "29.97419786604557",
    "geocoded_column": {
      "latitude": "29.97419786604557",
      "longitude": "-90.10601339109711"
    }
  },
  {
    "service_request": "2022-878563",
    "request_type": "Parks & Parkways",
    "request_reason": "Request Grass Cutting Service (City Owned Property)",
    "date_created": "2022-04-28T17:29:04.000",
    "date_modified": "2022-04-28T17:29:04.000",
    "request_status": "Pending",
    "responsible_agency": "Department of Parks & Parkway",
    "final_address": "AIRLINE HWY & PALM ST",
    "address_councildis": "A",
    "status": "Pending",
    "rowid": "878563",
    "final_x": "3664851.6",
    "final_y": "537228.48",
    "longitude": "-90.12044939856273",
    "latitude": "29.971687111152686",
    "geocoded_column": {
      "latitude": "29.971687111152686",
      "longitude": "-90.12044939856273"
    }
  },
  {
    "service_request": "2022-878562",
    "request_type": "Trash/Recycling",
    "request_reason": "Order Recycling Cart",
    "date_created": "2022-04-28T17:22:10.000",
    "date_modified": "2022-04-28T17:22:10.000",
    "request_status": "Pending",
    "responsible_agency": "Department of Sanitation",
    "final_address": "4616 Conti St",
    "address_councildis": "A",
    "status": "Pending",
    "rowid": "878562",
    "final_x": "3669959.36052",
    "final_y": "540599.272779",
    "longitude": "-90.10420407557146",
    "latitude": "29.98080600091503",
    "geocoded_column": {
      "latitude": "29.98080600091503",
      "longitude": "-90.10420407557146"
    }
  },
  {
    "service_request": "2022-878561",
    "request_type": "Traffic Signals/Signs/Striping/Streetlights",
    "request_reason": "Traffic Signal Malfunctioning/Damaged",
    "date_created": "2022-04-28T17:22:08.000",
    "date_modified": "2022-04-28T17:22:09.000",
    "request_status": "Pending",
    "responsible_agency": "Department of Public Works",
    "final_address": "BANKS ST & S NORMAN C FRANCIS PKWY",
    "address_councildis": "B",
    "status": "Pending",
    "rowid": "878561",
    "final_x": "3672568.1",
    "final_y": "535734.98",
    "longitude": "-90.09613039534027",
    "latitude": "29.9673536412601",
    "geocoded_column": {
      "latitude": "29.9673536412601",
      "longitude": "-90.09613039534027"
    }
  },
  {
    "service_request": "2022-878560",
    "request_type": "Trash/Recycling",
    "request_reason": "Illegal Dumping",
    "date_created": "2022-04-28T17:18:40.000",
    "date_modified": "2022-04-28T17:18:41.000",
    "request_status": "Pending",
    "responsible_agency": "Department of Code Enforcement",
    "final_address": "N ROCHEBLAVE ST & TOURO ST",
    "address_councildis": "D",
    "status": "Pending",
    "rowid": "878560",
    "final_x": "3683849.6",
    "final_y": "541035.58",
    "longitude": "-90.06031732538683",
    "latitude": "29.98158868549312",
    "geocoded_column": {
      "latitude": "29.98158868549312",
      "longitude": "-90.06031732538683"
    }
  },
  {
    "service_request": "2022-878559",
    "request_type": "Trash/Recycling",
    "request_reason": "Request a Large Item Pick Up",
    "date_created": "2022-04-28T17:17:41.000",
    "date_modified": "2022-04-28T17:17:42.000",
    "request_status": "Pending",
    "responsible_agency": "Department of Sanitation",
    "final_address": "2919 St Philip St",
    "address_councildis": "A",
    "status": "Assigned to Contractor",
    "contractor": "Richards Disposal",
    "rowid": "878559",
    "final_x": "3676564.64379",
    "final_y": "538605.785097",
    "longitude": "-90.0834103439234",
    "latitude": "29.97512811742523",
    "geocoded_column": {
      "latitude": "29.97512811742523",
      "longitude": "-90.0834103439234"
    }
  },
  {
    "service_request": "2022-878558",
    "request_type": "Property Maintenance",
    "request_reason": "Property Maintenance",
    "date_created": "2022-04-28T17:17:16.000",
    "date_modified": "2022-04-28T17:17:16.000",
    "request_status": "Pending",
    "responsible_agency": "Department of Code Enforcement",
    "final_address": "2440 Touro St",
    "address_councildis": "D",
    "status": "Pending",
    "rowid": "878558",
    "final_x": "3683782.93193",
    "final_y": "541326.687628",
    "longitude": "-90.06051768049412",
    "latitude": "29.982391165590165",
    "geocoded_column": {
      "latitude": "29.982391165590165",
      "longitude": "-90.06051768049412"
    }
  },
  {
    "service_request": "2022-878557",
    "request_type": "Trash/Recycling",
    "request_reason": "Request a Large Item Pick Up",
    "date_created": "2022-04-28T17:12:02.000",
    "date_modified": "2022-04-28T17:12:02.000",
    "request_status": "Pending",
    "responsible_agency": "Department of Sanitation",
    "final_address": "224 N Alexander St",
    "address_councildis": "A",
    "status": "Assigned to Contractor",
    "contractor": "Richards Disposal",
    "rowid": "878557",
    "final_x": "3670416.34772",
    "final_y": "539653.480266",
    "longitude": "-90.10279278515723",
    "latitude": "29.978191905624552",
    "geocoded_column": {
      "latitude": "29.978191905624552",
      "longitude": "-90.10279278515723"
    }
  },
  {
    "service_request": "2022-878556",
    "request_type": "Trash/Recycling",
    "request_reason": "Missed Trash Pick-Up",
    "date_created": "2022-04-28T17:07:13.000",
    "date_modified": "2022-04-28T17:07:13.000",
    "request_status": "Pending",
    "responsible_agency": "Department of Sanitation",
    "final_address": "1719 Toledano St",
    "address_councildis": "B",
    "status": "Assigned to Contractor",
    "contractor": "Richards Disposal",
    "rowid": "878556",
    "final_x": "3674403.64788",
    "final_y": "522246.697082",
    "longitude": "-90.09079560780958",
    "latitude": "29.930210700280217",
    "geocoded_column": {
      "latitude": "29.930210700280217",
      "longitude": "-90.09079560780958"
    }
  },
  {
    "service_request": "2022-878555",
    "request_type": "Trash/Recycling",
    "request_reason": "Request a Large Item Pick Up",
    "date_created": "2022-04-28T16:53:32.000",
    "date_modified": "2022-04-28T16:53:34.000",
    "request_status": "Pending",
    "responsible_agency": "Department of Sanitation",
    "final_address": "5404 Marigny St",
    "address_councildis": "D",
    "status": "Assigned to Contractor",
    "contractor": "Metro Disposal",
    "rowid": "878555",
    "final_x": "3684052.51529",
    "final_y": "552750.661974",
    "longitude": "-90.05926500114903",
    "latitude": "30.013794764515225",
    "geocoded_column": {
      "latitude": "30.013794764515225",
      "longitude": "-90.05926500114903"
    }
  },
  {
    "service_request": "2022-878554",
    "request_type": "Trash/Recycling",
    "request_reason": "Missed Trash Pick-Up",
    "date_created": "2022-04-28T16:49:03.000",
    "date_modified": "2022-04-28T16:49:04.000",
    "request_status": "Pending",
    "responsible_agency": "Department of Sanitation",
    "final_address": "4826 Stemway Dr",
    "address_councildis": "D",
    "status": "Assigned to Contractor",
    "contractor": "Metro Disposal",
    "rowid": "878554",
    "final_x": "3696802.33955",
    "final_y": "554625.842904",
    "longitude": "-90.01891437108576",
    "latitude": "30.018554837545157",
    "geocoded_column": {
      "latitude": "30.018554837545157",
      "longitude": "-90.01891437108576"
    }
  },
  {
    "service_request": "2022-878553",
    "request_type": "Roads/Drainage",
    "request_reason": "Street Subsidence (Sinking)",
    "date_created": "2022-04-28T16:45:45.000",
    "date_modified": "2022-04-28T16:45:46.000",
    "request_status": "Pending",
    "responsible_agency": "Department of Public Works",
    "final_address": "8905 Edinburgh St",
    "address_councildis": "A",
    "status": "Pending",
    "rowid": "878553",
    "final_x": "3665364.44474",
    "final_y": "536413.535559",
    "longitude": "-90.11885702897789",
    "latitude": "29.96943134773042",
    "geocoded_column": {
      "latitude": "29.96943134773042",
      "longitude": "-90.11885702897789"
    }
  },
  {
    "service_request": "2022-878552",
    "request_type": "Trash/Recycling",
    "request_reason": "Missed Trash Pick-Up",
    "date_created": "2022-04-28T16:41:48.000",
    "date_modified": "2022-04-28T16:41:49.000",
    "request_status": "Pending",
    "responsible_agency": "Department of Sanitation",
    "final_address": "136 Alvin Callender St",
    "address_councildis": "A",
    "status": "Assigned to Contractor",
    "contractor": "Richards Disposal",
    "rowid": "878552",
    "final_x": "3661052.99917",
    "final_y": "523383.265851",
    "longitude": "-90.13290410830635",
    "latitude": "29.93372723550225",
    "geocoded_column": {
      "latitude": "29.93372723550225",
      "longitude": "-90.13290410830635"
    }
  },
  {
    "service_request": "2022-878550",
    "request_type": "Trash/Recycling",
    "request_reason": "Request a Large Item Pick Up",
    "date_created": "2022-04-28T16:39:47.000",
    "date_modified": "2022-04-28T16:39:48.000",
    "request_status": "Pending",
    "responsible_agency": "Department of Sanitation",
    "final_address": "3511 Rue Michelle",
    "address_councildis": "C",
    "status": "Assigned to Contractor",
    "contractor": "Richards Disposal",
    "rowid": "878550",
    "final_x": "3703555.40714",
    "final_y": "517746.918134",
    "longitude": "-89.99893427943526",
    "latitude": "29.916936454516144",
    "geocoded_column": {
      "latitude": "29.916936454516144",
      "longitude": "-89.99893427943526"
    }
  },
  {
    "service_request": "2022-878549",
    "request_type": "Trash/Recycling",
    "request_reason": "Request a Large Item Pick Up",
    "date_created": "2022-04-28T16:38:11.000",
    "date_modified": "2022-04-28T16:38:12.000",
    "request_status": "Pending",
    "responsible_agency": "Department of Sanitation",
    "final_address": "4904 Laurel St",
    "address_councildis": "B",
    "status": "Assigned to Contractor",
    "contractor": "Richards Disposal",
    "rowid": "878549",
    "final_x": "3668898.26068",
    "final_y": "517750.918262",
    "longitude": "-90.10832701868632",
    "latitude": "29.918011741392533",
    "geocoded_column": {
      "latitude": "29.918011741392533",
      "longitude": "-90.10832701868632"
    }
  },
  {
    "service_request": "2022-878548",
    "request_type": "Trash/Recycling",
    "request_reason": "Missed Trash Pick-Up",
    "date_created": "2022-04-28T16:32:15.000",
    "date_modified": "2022-04-28T16:32:15.000",
    "request_status": "Pending",
    "responsible_agency": "Department of Sanitation",
    "final_address": "2201 Short St",
    "address_councildis": "A",
    "status": "Assigned to Contractor",
    "contractor": "Richards Disposal",
    "rowid": "878548",
    "final_x": "3664719.90042",
    "final_y": "530676.267266",
    "longitude": "-90.12108424968845",
    "latitude": "29.953674508561132",
    "geocoded_column": {
      "latitude": "29.953674508561132",
      "longitude": "-90.12108424968845"
    }
  },
  {
    "service_request": "2022-878547",
    "request_type": "Trash/Recycling",
    "request_reason": "Request a Large Item Pick Up",
    "date_created": "2022-04-28T16:30:01.000",
    "date_modified": "2022-04-28T16:30:56.000",
    "request_status": "Pending",
    "responsible_agency": "Department of Sanitation",
    "final_address": "2109 St Ann St",
    "address_councildis": "D",
    "status": "Assigned to Contractor",
    "contractor": "Richards Disposal",
    "rowid": "878547",
    "final_x": "3678793.5579",
    "final_y": "535840.609735",
    "longitude": "-90.07646664343797",
    "latitude": "29.96745779078139",
    "geocoded_column": {
      "latitude": "29.96745779078139",
      "longitude": "-90.07646664343797"
    }
  },
  {
    "service_request": "2022-878546",
    "request_type": "Roads/Drainage",
    "request_reason": "Leaking Hydrant",
    "date_created": "2022-04-28T16:29:45.000",
    "date_modified": "2022-04-28T16:29:45.000",
    "request_status": "Pending",
    "responsible_agency": "Department of Public Works",
    "final_address": "2832 Ramsey Dr",
    "address_councildis": "C",
    "status": "Pending",
    "rowid": "878546",
    "final_x": "3703268.01969",
    "final_y": "520273.622392",
    "longitude": "-89.99974856756317",
    "latitude": "29.923893219338932",
    "geocoded_column": {
      "latitude": "29.923893219338932",
      "longitude": "-89.99974856756317"
    }
  },
  {
    "service_request": "2022-878545",
    "request_type": "Trash/Recycling",
    "request_reason": "Request a Large Item Pick Up",
    "date_created": "2022-04-28T16:27:24.000",
    "date_modified": "2022-04-28T16:27:25.000",
    "request_status": "Pending",
    "responsible_agency": "Department of Sanitation",
    "final_address": "3841 Delachaise St",
    "address_councildis": "B",
    "status": "Assigned to Contractor",
    "contractor": "Richards Disposal",
    "rowid": "878545",
    "final_x": "3671051.61019",
    "final_y": "528942.871744",
    "longitude": "-90.1011501638655",
    "latitude": "29.948722530751734",
    "geocoded_column": {
      "latitude": "29.948722530751734",
      "longitude": "-90.1011501638655"
    }
  },
  {
    "service_request": "2022-878544",
    "request_type": "Trash/Recycling",
    "request_reason": "Illegal Dumping",
    "date_created": "2022-04-28T16:26:26.000",
    "date_modified": "2022-04-28T16:26:26.000",
    "request_status": "Pending",
    "responsible_agency": "Department of Sanitation",
    "final_address": "2425 Law St",
    "address_councildis": "D",
    "status": "Pending",
    "rowid": "878544",
    "final_x": "3685634.551",
    "final_y": "541966.329996",
    "longitude": "-90.05464682423352",
    "latitude": "29.984093271117256",
    "geocoded_column": {
      "latitude": "29.984093271117256",
      "longitude": "-90.05464682423352"
    }
  },
  {
    "service_request": "2022-878543",
    "request_type": "Roads/Drainage",
    "request_reason": "Pothole",
    "date_created": "2022-04-28T16:24:43.000",
    "date_modified": "2022-04-28T16:24:43.000",
    "request_status": "Pending",
    "responsible_agency": "Department of Public Works",
    "final_address": "1428 Josephine St",
    "address_councildis": "B",
    "status": "Pending",
    "rowid": "878543",
    "final_x": "3678360.61998",
    "final_y": "523301.798331",
    "longitude": "-90.07826759372112",
    "latitude": "29.932993304345903",
    "geocoded_column": {
      "latitude": "29.932993304345903",
      "longitude": "-90.07826759372112"
    }
  },
  {
    "service_request": "2022-878542",
    "request_type": "Roads/Drainage",
    "request_reason": "Pothole",
    "date_created": "2022-04-28T16:23:45.000",
    "date_modified": "2022-04-28T16:23:45.000",
    "request_status": "Pending",
    "responsible_agency": "Department of Public Works",
    "final_address": "1428 Josephine St",
    "address_councildis": "B",
    "status": "Pending",
    "rowid": "878542",
    "final_x": "3678360.61998",
    "final_y": "523301.798331",
    "longitude": "-90.07826759372112",
    "latitude": "29.932993304345903",
    "geocoded_column": {
      "latitude": "29.932993304345903",
      "longitude": "-90.07826759372112"
    }
  },
  {
    "service_request": "2022-878541",
    "request_type": "Trash/Recycling",
    "request_reason": "Order Recycling Cart",
    "date_created": "2022-04-28T16:19:44.000",
    "date_modified": "2022-04-28T17:04:29.000",
    "request_status": "Pending",
    "responsible_agency": "Department of Sanitation",
    "final_address": "New Orleans,LA",
    "address_councildis": "A",
    "rowid": "878541",
    "final_x": "3665731.03789",
    "final_y": "519609.022712",
    "longitude": "-90.11826205882325",
    "latitude": "29.923213671948385",
    "geocoded_column": {
      "latitude": "29.923213671948385",
      "longitude": "-90.11826205882325"
    }
  },
  {
    "service_request": "2022-878540",
    "request_type": "Trash/Recycling",
    "request_reason": "Request a Large Item Pick Up",
    "date_created": "2022-04-28T16:14:32.000",
    "date_modified": "2022-04-28T16:14:33.000",
    "request_status": "Pending",
    "responsible_agency": "Department of Sanitation",
    "final_address": "3201 Kabel Dr",
    "address_councildis": "C",
    "status": "Assigned to Contractor",
    "contractor": "Richards Disposal",
    "rowid": "878540",
    "final_x": "3700533.95204",
    "final_y": "519480.200823",
    "longitude": "-90.00840793831203",
    "latitude": "29.92179879486306",
    "geocoded_column": {
      "latitude": "29.92179879486306",
      "longitude": "-90.00840793831203"
    }
  },
  {
    "service_request": "2022-878539",
    "request_type": "Trash/Recycling",
    "request_reason": "Replace Trash Cart",
    "date_created": "2022-04-28T16:14:30.000",
    "date_modified": "2022-04-28T16:14:31.000",
    "request_status": "Pending",
    "responsible_agency": "Department of Sanitation",
    "final_address": "1208 Second St",
    "address_councildis": "B",
    "status": "Assigned to Contractor",
    "contractor": "Richards Disposal",
    "rowid": "878539",
    "final_x": "3677488.66798",
    "final_y": "521701.902393",
    "longitude": "-90.08107548324962",
    "latitude": "29.92862034542208",
    "geocoded_column": {
      "latitude": "29.92862034542208",
      "longitude": "-90.08107548324962"
    }
  },
  {
    "service_request": "2022-878538",
    "request_type": "Trash/Recycling",
    "request_reason": "Replace Trash Cart",
    "date_created": "2022-04-28T16:14:29.000",
    "date_modified": "2022-04-28T16:14:30.000",
    "request_status": "Pending",
    "responsible_agency": "Department of Sanitation",
    "final_address": "3358 State Street Dr",
    "address_councildis": "A",
    "status": "Assigned to Contractor",
    "contractor": "Richards Disposal",
    "rowid": "878538",
    "final_x": "3667761.13754",
    "final_y": "528802.664",
    "longitude": "-90.11154434232527",
    "latitude": "29.94843388967354",
    "geocoded_column": {
      "latitude": "29.94843388967354",
      "longitude": "-90.11154434232527"
    }
  },
  {
    "service_request": "2022-878537",
    "request_type": "Trash/Recycling",
    "request_reason": "Request a Large Item Pick Up",
    "date_created": "2022-04-28T16:12:07.000",
    "date_modified": "2022-04-28T16:12:08.000",
    "request_status": "Pending",
    "responsible_agency": "Department of Sanitation",
    "final_address": "4413 Woodland Dr",
    "address_councildis": "C",
    "status": "Assigned to Contractor",
    "contractor": "Richards Disposal",
    "rowid": "878537",
    "final_x": "3705322.21252",
    "final_y": "513892.279218",
    "longitude": "-89.99349981138127",
    "latitude": "29.90628082782015",
    "geocoded_column": {
      "latitude": "29.90628082782015",
      "longitude": "-89.99349981138127"
    }
  },
  {
    "service_request": "2022-878536",
    "request_type": "Trash/Recycling",
    "request_reason": "Replace Trash Cart",
    "date_created": "2022-04-28T16:10:01.000",
    "date_modified": "2022-04-28T16:10:02.000",
    "request_status": "Pending",
    "responsible_agency": "Department of Sanitation",
    "final_address": "30 Versailles Blvd",
    "address_councildis": "A",
    "status": "Assigned to Contractor",
    "contractor": "Richards Disposal",
    "rowid": "878536",
    "final_x": "3667278.373",
    "final_y": "529638.625793",
    "longitude": "-90.11304052658933",
    "latitude": "29.950746658243634",
    "geocoded_column": {
      "latitude": "29.950746658243634",
      "longitude": "-90.11304052658933"
    }
  },
  {
    "service_request": "2022-878535",
    "request_type": "Trash/Recycling",
    "request_reason": "Repair Recycling Cart",
    "date_created": "2022-04-28T16:09:39.000",
    "date_modified": "2022-04-28T16:09:39.000",
    "request_status": "Pending",
    "responsible_agency": "Department of Sanitation",
    "final_address": "4243 General Pershing St",
    "address_councildis": "B",
    "status": "Pending",
    "rowid": "878535",
    "final_x": "3669703.91322",
    "final_y": "529644.863169",
    "longitude": "-90.10538167564658",
    "latitude": "29.950692558263636",
    "geocoded_column": {
      "latitude": "29.950692558263636",
      "longitude": "-90.10538167564658"
    }
  },
  {
    "service_request": "2022-878534",
    "request_type": "Trash/Recycling",
    "request_reason": "Missed Trash Pick-Up",
    "date_created": "2022-04-28T16:06:03.000",
    "date_modified": "2022-04-28T16:06:03.000",
    "request_status": "Pending",
    "responsible_agency": "Department of Sanitation",
    "final_address": "1800 BLK Jackson Ave",
    "address_councildis": "B",
    "status": "Assigned to Contractor",
    "contractor": "Richards Disposal",
    "rowid": "878534",
    "final_x": "3676914.87514",
    "final_y": "524615.409218",
    "longitude": "-90.0827864500631",
    "latitude": "29.936648767505908",
    "geocoded_column": {
      "latitude": "29.936648767505908",
      "longitude": "-90.0827864500631"
    }
  },
  {
    "service_request": "2022-878533",
    "request_type": "Trash/Recycling",
    "request_reason": "Missed Trash Pick-Up",
    "date_created": "2022-04-28T15:59:37.000",
    "date_modified": "2022-04-28T15:59:38.000",
    "request_status": "Pending",
    "responsible_agency": "Department of Sanitation",
    "final_address": "3120 General Ogden St",
    "address_councildis": "A",
    "status": "Assigned to Contractor",
    "contractor": "Richards Disposal",
    "rowid": "878533",
    "final_x": "3664564.18016",
    "final_y": "535489.973574",
    "longitude": "-90.12141518912239",
    "latitude": "29.966915155545315",
    "geocoded_column": {
      "latitude": "29.966915155545315",
      "longitude": "-90.12141518912239"
    }
  },
  {
    "service_request": "2022-878530",
    "request_type": "Trash/Recycling",
    "request_reason": "Missed Trash Pick-Up",
    "date_created": "2022-04-28T15:56:21.000",
    "date_modified": "2022-04-28T15:56:22.000",
    "request_status": "Pending",
    "responsible_agency": "Department of Sanitation",
    "final_address": "8000 Wales St",
    "address_councildis": "E",
    "status": "Assigned to Contractor",
    "contractor": "Metro Disposal",
    "rowid": "878530",
    "final_x": "3701786.61233",
    "final_y": "562049.883167",
    "longitude": "-90.0028936297859",
    "latitude": "30.038809922805473",
    "geocoded_column": {
      "latitude": "30.038809922805473",
      "longitude": "-90.0028936297859"
    }
  },
  {
    "service_request": "2022-878529",
    "request_type": "Trash/Recycling",
    "request_reason": "Request a Large Item Pick Up",
    "date_created": "2022-04-28T15:56:04.000",
    "date_modified": "2022-04-28T15:56:04.000",
    "request_status": "Pending",
    "responsible_agency": "Department of Sanitation",
    "final_address": "4714 Mark Twain Dr",
    "address_councildis": "D",
    "status": "Assigned to Contractor",
    "contractor": "Metro Disposal",
    "rowid": "878529",
    "final_x": "3691341.02134",
    "final_y": "551125.923285",
    "longitude": "-90.03629526356926",
    "latitude": "30.00910248621918",
    "geocoded_column": {
      "latitude": "30.00910248621918",
      "longitude": "-90.03629526356926"
    }
  },
  {
    "service_request": "2022-878528",
    "request_type": "Traffic Signals/Signs/Striping/Streetlights",
    "request_reason": "Street Light Outage/Malfunction",
    "date_created": "2022-04-28T15:54:39.000",
    "date_modified": "2022-04-28T15:54:40.000",
    "request_status": "Pending",
    "responsible_agency": "Department of Public Works",
    "final_address": "933 Arabella St",
    "address_councildis": "A",
    "status": "Pending",
    "contractor": "Royal Engineering",
    "rowid": "878528",
    "final_x": "3666002.41306",
    "final_y": "519528.139575",
    "longitude": "-90.11740813683691",
    "latitude": "29.92298335317253",
    "geocoded_column": {
      "latitude": "29.92298335317253",
      "longitude": "-90.11740813683691"
    }
  },
  {
    "service_request": "2022-878527",
    "request_type": "Trash/Recycling",
    "request_reason": "Order Trash Cart",
    "date_created": "2022-04-28T15:54:38.000",
    "date_modified": "2022-04-28T15:54:39.000",
    "request_status": "Pending",
    "responsible_agency": "Department of Sanitation",
    "final_address": "1104 Montegut St",
    "address_councildis": "C",
    "status": "Assigned to Contractor",
    "contractor": "Metro Disposal",
    "rowid": "878527",
    "final_x": "3688452.03894",
    "final_y": "536325.667783",
    "longitude": "-90.04594785777003",
    "latitude": "29.96849668803685",
    "geocoded_column": {
      "latitude": "29.96849668803685",
      "longitude": "-90.04594785777003"
    }
  },
  {
    "service_request": "2022-878526",
    "request_type": "Mosquito, Termite & Rodent Control",
    "request_reason": "Non-Rodent Complaint (Mice, Possums, Snakes)",
    "date_created": "2022-04-28T15:52:40.000",
    "date_modified": "2022-04-28T15:52:40.000",
    "request_status": "Pending",
    "responsible_agency": "Mosquito, Termite & Rodent Control Board",
    "final_address": "2223 Independence St",
    "address_councildis": "D",
    "status": "Pending",
    "rowid": "878526",
    "final_x": "3692057.68419",
    "final_y": "539813.069706",
    "longitude": "-90.03443624513646",
    "latitude": "29.977973923020002",
    "geocoded_column": {
      "latitude": "29.977973923020002",
      "longitude": "-90.03443624513646"
    }
  },
  {
    "service_request": "2022-878525",
    "request_type": "Trash/Recycling",
    "request_reason": "Order Recycling Cart",
    "date_created": "2022-04-28T15:52:00.000",
    "date_modified": "2022-04-28T15:52:01.000",
    "request_status": "Pending",
    "responsible_agency": "Department of Sanitation",
    "final_address": "1104 Montegut St",
    "address_councildis": "C",
    "status": "Pending",
    "rowid": "878525",
    "final_x": "3688452.03894",
    "final_y": "536325.667783",
    "longitude": "-90.04594785777003",
    "latitude": "29.96849668803685",
    "geocoded_column": {
      "latitude": "29.96849668803685",
      "longitude": "-90.04594785777003"
    }
  },
  {
    "service_request": "2022-878524",
    "request_type": "Traffic Signals/Signs/Striping/Streetlights",
    "request_reason": "Request for Stop Sign",
    "date_created": "2022-04-28T15:48:42.000",
    "date_modified": "2022-04-28T15:48:42.000",
    "request_status": "Pending",
    "responsible_agency": "Department of Public Works",
    "final_address": "1501 Religious St",
    "address_councildis": "B",
    "status": "Pending",
    "rowid": "878524",
    "final_x": "3681995.74434",
    "final_y": "523309.112955",
    "longitude": "-90.06679152207516",
    "latitude": "29.932903434713914",
    "geocoded_column": {
      "latitude": "29.932903434713914",
      "longitude": "-90.06679152207516"
    }
  },
  {
    "service_request": "2022-878523",
    "request_type": "Trash/Recycling",
    "request_reason": "Request a Large Item Pick Up",
    "date_created": "2022-04-28T15:46:37.000",
    "date_modified": "2022-04-28T15:46:38.000",
    "request_status": "Pending",
    "responsible_agency": "Department of Sanitation",
    "final_address": "4617 S Saratoga St",
    "address_councildis": "B",
    "status": "Assigned to Contractor",
    "contractor": "Richards Disposal",
    "rowid": "878523",
    "final_x": "3669723.12206",
    "final_y": "522650.21497",
    "longitude": "-90.10555767179919",
    "latitude": "29.931458975578725",
    "geocoded_column": {
      "latitude": "29.931458975578725",
      "longitude": "-90.10555767179919"
    }
  },
  {
    "service_request": "2022-878522",
    "request_type": "Trash/Recycling",
    "request_reason": "Illegal Dumping",
    "date_created": "2022-04-28T15:46:15.000",
    "date_modified": "2022-04-28T15:46:15.000",
    "request_status": "Pending",
    "responsible_agency": "Department of Sanitation",
    "final_address": "1200 BLK Saint Maurice Ave",
    "address_councildis": "E",
    "status": "Pending",
    "rowid": "878522",
    "final_x": "3700041.16648",
    "final_y": "533677.374362",
    "longitude": "-90.00944566392526",
    "latitude": "29.960851716418656",
    "geocoded_column": {
      "latitude": "29.960851716418656",
      "longitude": "-90.00944566392526"
    }
  },
  {
    "service_request": "2022-878521",
    "request_type": "Mosquito, Termite & Rodent Control",
    "request_reason": "Non-Rodent Complaint (Mice, Possums, Snakes)",
    "date_created": "2022-04-28T15:44:49.000",
    "date_modified": "2022-04-28T15:44:49.000",
    "request_status": "Pending",
    "responsible_agency": "Mosquito, Termite & Rodent Control Board",
    "final_address": "2214 Pauline St",
    "address_councildis": "D",
    "status": "Pending",
    "rowid": "878521",
    "final_x": "3692231.54909",
    "final_y": "539734.377674",
    "longitude": "-90.03388993944182",
    "latitude": "29.977752127617006",
    "geocoded_column": {
      "latitude": "29.977752127617006",
      "longitude": "-90.03388993944182"
    }
  },
  {
    "service_request": "2022-878520",
    "request_type": "Mosquito, Termite & Rodent Control",
    "request_reason": "Non-Rodent Complaint (Mice, Possums, Snakes)",
    "date_created": "2022-04-28T15:42:26.000",
    "date_modified": "2022-04-28T15:42:26.000",
    "request_status": "Pending",
    "responsible_agency": "Mosquito, Termite & Rodent Control Board",
    "final_address": "2220 Pauline St",
    "address_councildis": "D",
    "status": "Pending",
    "rowid": "878520",
    "final_x": "3692242.69904",
    "final_y": "539777.186826",
    "longitude": "-90.03385319085329",
    "latitude": "29.97786948981616",
    "geocoded_column": {
      "latitude": "29.97786948981616",
      "longitude": "-90.03385319085329"
    }
  },
  {
    "service_request": "2022-878519",
    "request_type": "Trash/Recycling",
    "request_reason": "Missed Trash Pick-Up",
    "date_created": "2022-04-28T15:42:23.000",
    "date_modified": "2022-04-28T15:42:24.000",
    "request_status": "Pending",
    "responsible_agency": "Department of Sanitation",
    "final_address": "4224 Vincennes Pl",
    "address_councildis": "B",
    "status": "Assigned to Contractor",
    "contractor": "Richards Disposal",
    "rowid": "878519",
    "final_x": "3668754.65332",
    "final_y": "531448.117315",
    "longitude": "-90.10831808982209",
    "latitude": "29.955678854011847",
    "geocoded_column": {
      "latitude": "29.955678854011847",
      "longitude": "-90.10831808982209"
    }
  },
  {
    "service_request": "2022-878517",
    "request_type": "Roads/Drainage",
    "request_reason": "Catch Basin - Broken/Damage",
    "date_created": "2022-04-28T15:41:21.000",
    "date_modified": "2022-04-28T15:41:21.000",
    "request_status": "Pending",
    "responsible_agency": "Department of Public Works",
    "final_address": "1421 Reynes St",
    "address_councildis": "E",
    "status": "Pending",
    "rowid": "878517",
    "final_x": "3696406.79287",
    "final_y": "535528.317894",
    "longitude": "-90.02085531259299",
    "latitude": "29.966056114661907",
    "geocoded_column": {
      "latitude": "29.966056114661907",
      "longitude": "-90.02085531259299"
    }
  },
  {
    "service_request": "2022-878516",
    "request_type": "Mosquito, Termite & Rodent Control",
    "request_reason": "Non-Rodent Complaint (Mice, Possums, Snakes)",
    "date_created": "2022-04-28T15:40:22.000",
    "date_modified": "2022-04-28T15:40:22.000",
    "request_status": "Pending",
    "responsible_agency": "Mosquito, Termite & Rodent Control Board",
    "final_address": "2231 Independence St",
    "address_councildis": "D",
    "status": "Pending",
    "rowid": "878516",
    "final_x": "3692073.68969",
    "final_y": "539877.556362",
    "longitude": "-90.0343833854828",
    "latitude": "29.978150739416797",
    "geocoded_column": {
      "latitude": "29.978150739416797",
      "longitude": "-90.0343833854828"
    }
  },
  {
    "service_request": "2022-878515",
    "request_type": "Mosquito, Termite & Rodent Control",
    "request_reason": "Non-Rodent Complaint (Mice, Possums, Snakes)",
    "date_created": "2022-04-28T15:38:12.000",
    "date_modified": "2022-04-28T15:38:12.000",
    "request_status": "Pending",
    "responsible_agency": "Mosquito, Termite & Rodent Control Board",
    "final_address": "2227 Independence St",
    "address_councildis": "D",
    "status": "Pending",
    "rowid": "878515",
    "final_x": "3692066.31453",
    "final_y": "539846.25633",
    "longitude": "-90.03440779941654",
    "latitude": "29.978064905386947",
    "geocoded_column": {
      "latitude": "29.978064905386947",
      "longitude": "-90.03440779941654"
    }
  },
  {
    "service_request": "2022-878514",
    "request_type": "Trash/Recycling",
    "request_reason": "Replace Trash Cart",
    "date_created": "2022-04-28T15:36:09.000",
    "date_modified": "2022-04-28T15:36:11.000",
    "request_status": "Pending",
    "responsible_agency": "Department of Sanitation",
    "final_address": "3255 Annunciation St",
    "address_councildis": "B",
    "status": "Assigned to Contractor",
    "contractor": "Richards Disposal",
    "rowid": "878514",
    "final_x": "3675853.89077",
    "final_y": "518817.258807",
    "longitude": "-90.08633523782925",
    "latitude": "29.920737531817608",
    "geocoded_column": {
      "latitude": "29.920737531817608",
      "longitude": "-90.08633523782925"
    }
  },
  {
    "service_request": "2022-878513",
    "request_type": "Mosquito, Termite & Rodent Control",
    "request_reason": "Non-Rodent Complaint (Mice, Possums, Snakes)",
    "date_created": "2022-04-28T15:36:06.000",
    "date_modified": "2022-04-28T15:36:06.000",
    "request_status": "Pending",
    "responsible_agency": "Mosquito, Termite & Rodent Control Board",
    "final_address": "2220 Pauline St",
    "address_councildis": "D",
    "status": "Pending",
    "rowid": "878513",
    "final_x": "3692242.69904",
    "final_y": "539777.186826",
    "longitude": "-90.03385319085329",
    "latitude": "29.97786948981616",
    "geocoded_column": {
      "latitude": "29.97786948981616",
      "longitude": "-90.03385319085329"
    }
  },
  {
    "service_request": "2022-878512",
    "request_type": "Trash/Recycling",
    "request_reason": "Missed Trash Pick-Up",
    "date_created": "2022-04-28T15:34:23.000",
    "date_modified": "2022-04-28T15:34:24.000",
    "request_status": "Pending",
    "responsible_agency": "Department of Sanitation",
    "final_address": "1925 Orleans Ave",
    "address_councildis": "D",
    "status": "Assigned to Contractor",
    "contractor": "Richards Disposal",
    "rowid": "878512",
    "final_x": "3679141.87631",
    "final_y": "535326.062726",
    "longitude": "-90.07538448678316",
    "latitude": "29.96603245203055",
    "geocoded_column": {
      "latitude": "29.96603245203055",
      "longitude": "-90.07538448678316"
    }
  },
  {
    "service_request": "2022-878511",
    "request_type": "Trash/Recycling",
    "request_reason": "Replace Trash Cart",
    "date_created": "2022-04-28T15:21:09.000",
    "date_modified": "2022-04-28T15:21:09.000",
    "request_status": "Pending",
    "responsible_agency": "Department of Sanitation",
    "final_address": "5622 Laurel St",
    "address_councildis": "A",
    "status": "Assigned to Contractor",
    "contractor": "Richards Disposal",
    "rowid": "878511",
    "final_x": "3665688.72429",
    "final_y": "517874.692022",
    "longitude": "-90.11845367211957",
    "latitude": "29.91844603970682",
    "geocoded_column": {
      "latitude": "29.91844603970682",
      "longitude": "-90.11845367211957"
    }
  },
  {
    "service_request": "2022-878510",
    "request_type": "Trash/Recycling",
    "request_reason": "Missed Trash Pick-Up",
    "date_created": "2022-04-28T15:18:20.000",
    "date_modified": "2022-04-28T15:18:21.000",
    "request_status": "Pending",
    "responsible_agency": "Department of Sanitation",
    "final_address": "3807 Leonidas St",
    "address_councildis": "A",
    "status": "Assigned to Contractor",
    "contractor": "Richards Disposal",
    "rowid": "878510",
    "final_x": "3667086.26138",
    "final_y": "536513.890887",
    "longitude": "-90.11341599888877",
    "latitude": "29.96965699912499",
    "geocoded_column": {
      "latitude": "29.96965699912499",
      "longitude": "-90.11341599888877"
    }
  },
  {
    "service_request": "2022-878509",
    "request_type": "Abandoned Vehicles",
    "request_reason": "Abandoned/Junk Vehicles",
    "date_created": "2022-04-28T15:16:40.000",
    "date_modified": "2022-04-28T15:16:41.000",
    "request_status": "Pending",
    "responsible_agency": "Department of Public Works",
    "final_address": "1566 Tropic Dr",
    "address_councildis": "C",
    "status": "Pending",
    "rowid": "878509",
    "final_x": "3699551.69514",
    "final_y": "525013.998013",
    "longitude": "-90.01130694858044",
    "latitude": "29.93704602245471",
    "geocoded_column": {
      "latitude": "29.93704602245471",
      "longitude": "-90.01130694858044"
    }
  },
  {
    "service_request": "2022-878508",
    "request_type": "Abandoned Vehicles",
    "request_reason": "Abandoned/Junk Vehicles",
    "date_created": "2022-04-28T15:13:47.000",
    "date_modified": "2022-04-28T15:22:53.000",
    "request_status": "Pending",
    "responsible_agency": "Department of Public Works",
    "final_address": "5020 Burgundy St",
    "address_councildis": "E",
    "status": "Pending",
    "rowid": "878508",
    "final_x": "3695921.86518",
    "final_y": "533416.388484",
    "longitude": "-90.02246299346463",
    "latitude": "29.960264321152955",
    "geocoded_column": {
      "latitude": "29.960264321152955",
      "longitude": "-90.02246299346463"
    }
  },
  {
    "service_request": "2022-878507",
    "request_type": "Trash/Recycling",
    "request_reason": "Repair Trash Cart",
    "date_created": "2022-04-28T15:13:07.000",
    "date_modified": "2022-04-28T15:13:07.000",
    "request_status": "Pending",
    "responsible_agency": "Department of Sanitation",
    "final_address": "1217 Washington Ave",
    "address_councildis": "B",
    "status": "Assigned to Contractor",
    "contractor": "Richards Disposal",
    "rowid": "878507",
    "final_x": "3676821.02209",
    "final_y": "521290.115193",
    "longitude": "-90.08319728494548",
    "latitude": "29.92750811061552",
    "geocoded_column": {
      "latitude": "29.92750811061552",
      "longitude": "-90.08319728494548"
    }
  },
  {
    "service_request": "2022-878506",
    "request_type": "Trash/Recycling",
    "request_reason": "Missed Trash Pick-Up",
    "date_created": "2022-04-28T15:12:56.000",
    "date_modified": "2022-04-28T15:12:56.000",
    "request_status": "Pending",
    "responsible_agency": "Department of Sanitation",
    "final_address": "4828 Stemway Dr",
    "address_councildis": "D",
    "status": "Assigned to Contractor",
    "contractor": "Metro Disposal",
    "rowid": "878506",
    "final_x": "3696796.25853",
    "final_y": "554683.19388",
    "longitude": "-90.01893150614445",
    "latitude": "30.018712722853465",
    "geocoded_column": {
      "latitude": "30.018712722853465",
      "longitude": "-90.01893150614445"
    }
  },
  {
    "service_request": "2022-878505",
    "request_type": "Roads/Drainage",
    "request_reason": "Catch Basin - Clogged",
    "date_created": "2022-04-28T15:08:39.000",
    "date_modified": "2022-04-28T15:08:40.000",
    "request_status": "Pending",
    "responsible_agency": "Department of Public Works",
    "final_address": "2068 Treasure St",
    "address_councildis": "D",
    "status": "Pending",
    "rowid": "878505",
    "final_x": "3683529.54005",
    "final_y": "543935.530446",
    "longitude": "-90.06122653530261",
    "latitude": "29.989572299819738",
    "geocoded_column": {
      "latitude": "29.989572299819738",
      "longitude": "-90.06122653530261"
    }
  },
  {
    "service_request": "2022-878504",
    "request_type": "Trash/Recycling",
    "request_reason": "Order Trash Cart",
    "date_created": "2022-04-28T15:08:20.000",
    "date_modified": "2022-04-28T15:08:21.000",
    "request_status": "Pending",
    "responsible_agency": "Department of Sanitation",
    "final_address": "5415 Urquhart St",
    "address_councildis": "E",
    "status": "Assigned to Contractor",
    "contractor": "Metro Disposal",
    "rowid": "878504",
    "final_x": "3697506.87267",
    "final_y": "534704.836614",
    "longitude": "-90.01741117411463",
    "latitude": "29.963757141408035",
    "geocoded_column": {
      "latitude": "29.963757141408035",
      "longitude": "-90.01741117411463"
    }
  },
  {
    "service_request": "2022-878503",
    "request_type": "Health Related Questions",
    "request_reason": "Noise Ordinance Complaint",
    "date_created": "2022-04-28T15:07:11.000",
    "date_modified": "2022-04-28T15:07:11.000",
    "request_status": "Pending",
    "responsible_agency": "Health Department",
    "final_address": "3111 Grand Route St John St",
    "address_councildis": "A",
    "status": "Pending",
    "rowid": "878503",
    "final_x": "3676507.66805",
    "final_y": "540406.357323",
    "longitude": "-90.0835282619005",
    "latitude": "29.980080781175236",
    "geocoded_column": {
      "latitude": "29.980080781175236",
      "longitude": "-90.0835282619005"
    }
  },
  {
    "service_request": "2022-878501",
    "request_type": "Roads/Drainage",
    "request_reason": "Street Subsidence (Sinking)",
    "date_created": "2022-04-28T15:03:16.000",
    "date_modified": "2022-04-28T15:03:16.000",
    "request_status": "Pending",
    "responsible_agency": "Department of Public Works",
    "final_address": "5446 Marcia Ave",
    "address_councildis": "A",
    "status": "Pending",
    "rowid": "878501",
    "final_x": "3664724.8233",
    "final_y": "544147.579278",
    "longitude": "-90.1206185112104",
    "latitude": "29.990716002270826",
    "geocoded_column": {
      "latitude": "29.990716002270826",
      "longitude": "-90.1206185112104"
    }
  },
  {
    "service_request": "2022-878500",
    "request_type": "Trash/Recycling",
    "request_reason": "Replace Trash Cart",
    "date_created": "2022-04-28T15:00:39.000",
    "date_modified": "2022-04-28T15:00:40.000",
    "request_status": "Pending",
    "responsible_agency": "Department of Sanitation",
    "final_address": "14 St Claude Ct",
    "address_councildis": "E",
    "status": "Assigned to Contractor",
    "contractor": "Metro Disposal",
    "rowid": "878500",
    "final_x": "3697453.98192",
    "final_y": "533705.845765",
    "longitude": "-90.01761442109182",
    "latitude": "29.9610119416506",
    "geocoded_column": {
      "latitude": "29.9610119416506",
      "longitude": "-90.01761442109182"
    }
  },
  {
    "service_request": "2022-878499",
    "request_type": "Trash/Recycling",
    "request_reason": "Request a Large Item Pick Up",
    "date_created": "2022-04-28T15:00:03.000",
    "date_modified": "2022-04-28T15:00:04.000",
    "request_status": "Pending",
    "responsible_agency": "Department of Sanitation",
    "final_address": "3608 Havana St",
    "address_councildis": "D",
    "status": "Assigned to Contractor",
    "contractor": "Metro Disposal",
    "rowid": "878499",
    "final_x": "3680776.54184",
    "final_y": "545679.799504",
    "longitude": "-90.06986172476225",
    "latitude": "29.994452175994443",
    "geocoded_column": {
      "latitude": "29.994452175994443",
      "longitude": "-90.06986172476225"
    }
  },
  {
    "service_request": "2022-878498",
    "request_type": "Trash/Recycling",
    "request_reason": "Request a Large Item Pick Up",
    "date_created": "2022-04-28T14:57:58.000",
    "date_modified": "2022-04-28T14:57:58.000",
    "request_status": "Pending",
    "responsible_agency": "Department of Sanitation",
    "final_address": "3633 Octavia St",
    "address_councildis": "A",
    "status": "Assigned to Contractor",
    "contractor": "Richards Disposal",
    "rowid": "878498",
    "final_x": "3668716.73735",
    "final_y": "528904.409088",
    "longitude": "-90.10852367237463",
    "latitude": "29.948685603470977",
    "geocoded_column": {
      "latitude": "29.948685603470977",
      "longitude": "-90.10852367237463"
    }
  },
  {
    "service_request": "2022-878497",
    "request_type": "Trash/Recycling",
    "request_reason": "Order Trash Cart",
    "date_created": "2022-04-28T14:53:36.000",
    "date_modified": "2022-04-28T14:53:37.000",
    "request_status": "Pending",
    "responsible_agency": "Department of Sanitation",
    "final_address": "5419 Vicksburg St",
    "address_councildis": "A",
    "status": "Assigned to Contractor",
    "contractor": "Metro Disposal",
    "rowid": "878497",
    "final_x": "3668659.00935",
    "final_y": "543021.937677",
    "longitude": "-90.10822935917776",
    "latitude": "29.987505796133103",
    "geocoded_column": {
      "latitude": "29.987505796133103",
      "longitude": "-90.10822935917776"
    }
  },
  {
    "service_request": "2022-878496",
    "request_type": "Traffic Signals/Signs/Striping/Streetlights",
    "request_reason": "Street Light Outage/Malfunction",
    "date_created": "2022-04-28T14:53:03.000",
    "date_modified": "2022-04-28T14:53:04.000",
    "request_status": "Pending",
    "responsible_agency": "Department of Public Works",
    "final_address": "7010 Fig St",
    "address_councildis": "B",
    "status": "Pending",
    "contractor": "Royal Engineering",
    "rowid": "878496",
    "final_x": "3668090.39553",
    "final_y": "531462.907651",
    "longitude": "-90.1104150890874",
    "latitude": "29.955739032791826",
    "geocoded_column": {
      "latitude": "29.955739032791826",
      "longitude": "-90.1104150890874"
    }
  },
  {
    "service_request": "2022-878495",
    "request_type": "Trash/Recycling",
    "request_reason": "Request a Large Item Pick Up",
    "date_created": "2022-04-28T14:52:07.000",
    "date_modified": "2022-04-28T14:52:08.000",
    "request_status": "Pending",
    "responsible_agency": "Department of Sanitation",
    "final_address": "812 Roosevelt Pl, New Orleans, Louisiana, 70119",
    "address_councildis": "A",
    "status": "Assigned to Contractor",
    "contractor": "Richards Disposal",
    "rowid": "878495",
    "final_x": "3673578.1828",
    "final_y": "539690.171914",
    "longitude": "-90.09280530588637",
    "latitude": "29.978199050154533",
    "geocoded_column": {
      "latitude": "29.978199050154533",
      "longitude": "-90.09280530588637"
    }
  },
  {
    "service_request": "2022-878494",
    "request_type": "Trash/Recycling",
    "request_reason": "Replace Trash Cart",
    "date_created": "2022-04-28T14:41:38.000",
    "date_modified": "2022-04-28T14:41:39.000",
    "request_status": "Pending",
    "responsible_agency": "Department of Sanitation",
    "final_address": "803 Weiblen Pl",
    "address_councildis": "A",
    "status": "Assigned to Contractor",
    "contractor": "Metro Disposal",
    "rowid": "878494",
    "final_x": "3668621.5602",
    "final_y": "542603.542925",
    "longitude": "-90.10836177674265",
    "latitude": "29.98635645411004",
    "geocoded_column": {
      "latitude": "29.98635645411004",
      "longitude": "-90.10836177674265"
    }
  },
  {
    "service_request": "2022-878493",
    "request_type": "Trash/Recycling",
    "request_reason": "Repair Trash Cart",
    "date_created": "2022-04-28T14:40:24.000",
    "date_modified": "2022-04-28T14:40:25.000",
    "request_status": "Pending",
    "responsible_agency": "Department of Sanitation",
    "final_address": "801 Weiblen Pl",
    "address_councildis": "A",
    "status": "Assigned to Contractor",
    "contractor": "Metro Disposal",
    "rowid": "878493",
    "final_x": "3668604.6331",
    "final_y": "542605.713037",
    "longitude": "-90.10841516985617",
    "latitude": "29.98636291874726",
    "geocoded_column": {
      "latitude": "29.98636291874726",
      "longitude": "-90.10841516985617"
    }
  },
  {
    "service_request": "2022-878492",
    "request_type": "Trash/Recycling",
    "request_reason": "Request a Large Item Pick Up",
    "date_created": "2022-04-28T14:37:12.000",
    "date_modified": "2022-04-28T14:37:13.000",
    "request_status": "Pending",
    "responsible_agency": "Department of Sanitation",
    "final_address": "4221 Camp St",
    "address_councildis": "B",
    "status": "Assigned to Contractor",
    "contractor": "Richards Disposal",
    "rowid": "878492",
    "final_x": "3671579.35809",
    "final_y": "519251.310135",
    "longitude": "-90.09981325476012",
    "latitude": "29.922058254978317",
    "geocoded_column": {
      "latitude": "29.922058254978317",
      "longitude": "-90.09981325476012"
    }
  },
  {
    "service_request": "2022-878491",
    "request_type": "Trash/Recycling",
    "request_reason": "Illegal Dumping",
    "date_created": "2022-04-28T14:35:00.000",
    "date_modified": "2022-04-28T14:35:00.000",
    "request_status": "Pending",
    "responsible_agency": "Department of Sanitation",
    "final_address": "1920 Harmony St",
    "address_councildis": "B",
    "status": "Pending",
    "rowid": "878491",
    "final_x": "3674259.15304",
    "final_y": "522964.834171",
    "longitude": "-90.09122718051972",
    "latitude": "29.93218965222322",
    "geocoded_column": {
      "latitude": "29.93218965222322",
      "longitude": "-90.09122718051972"
    }
  },
  {
    "service_request": "2022-878490",
    "request_type": "Trash/Recycling",
    "request_reason": "Request a Large Item Pick Up",
    "date_created": "2022-04-28T14:33:04.000",
    "date_modified": "2022-04-28T14:33:06.000",
    "request_status": "Pending",
    "responsible_agency": "Department of Sanitation",
    "final_address": "4913 Coliseum St",
    "address_councildis": "B",
    "status": "Assigned to Contractor",
    "contractor": "Richards Disposal",
    "rowid": "878490",
    "final_x": "3668900.41742",
    "final_y": "519710.558776",
    "longitude": "-90.10825407829539",
    "latitude": "29.92340007037708",
    "geocoded_column": {
      "latitude": "29.92340007037708",
      "longitude": "-90.10825407829539"
    }
  },
  {
    "service_request": "2022-878488",
    "request_type": "Abandoned Vehicles",
    "request_reason": "Abandoned/Junk Vehicles",
    "date_created": "2022-04-28T14:24:04.000",
    "date_modified": "2022-04-28T14:24:04.000",
    "request_status": "Pending",
    "responsible_agency": "Department of Public Works",
    "final_address": "2024 Baronne St",
    "address_councildis": "B",
    "status": "Pending",
    "rowid": "878488",
    "final_x": "3677499.78338",
    "final_y": "524654.50214",
    "longitude": "-90.08093851930175",
    "latitude": "29.936738694521555",
    "geocoded_column": {
      "latitude": "29.936738694521555",
      "longitude": "-90.08093851930175"
    }
  },
  {
    "service_request": "2022-878487",
    "request_type": "Trash/Recycling",
    "request_reason": "Missed Trash Pick-Up",
    "date_created": "2022-04-28T14:20:39.000",
    "date_modified": "2022-04-28T14:20:40.000",
    "request_status": "Pending",
    "responsible_agency": "Department of Sanitation",
    "final_address": "818 Toledano St, New Orleans, Louisiana, 70115",
    "address_councildis": "B",
    "status": "Assigned to Contractor",
    "contractor": "Richards Disposal",
    "rowid": "878487",
    "final_x": "3674178.2468",
    "final_y": "522515.284922",
    "longitude": "-90.09149797481544",
    "latitude": "29.93095594879078",
    "geocoded_column": {
      "latitude": "29.93095594879078",
      "longitude": "-90.09149797481544"
    }
  },
  {
    "service_request": "2022-878486",
    "request_type": "Trash/Recycling",
    "request_reason": "Missed Trash Pick-Up",
    "date_created": "2022-04-28T14:17:35.000",
    "date_modified": "2022-04-28T14:17:36.000",
    "request_status": "Pending",
    "responsible_agency": "Department of Sanitation",
    "final_address": "8338 Oleander St",
    "address_councildis": "A",
    "status": "Assigned to Contractor",
    "contractor": "Richards Disposal",
    "rowid": "878486",
    "final_x": "3665986.9193",
    "final_y": "534322.384901",
    "longitude": "-90.11696130160152",
    "latitude": "29.963663218956878",
    "geocoded_column": {
      "latitude": "29.963663218956878",
      "longitude": "-90.11696130160152"
    }
  },
  {
    "service_request": "2022-878485",
    "request_type": "Trash/Recycling",
    "request_reason": "Order Trash Cart",
    "date_created": "2022-04-28T14:15:51.000",
    "date_modified": "2022-04-28T14:15:52.000",
    "request_status": "Pending",
    "responsible_agency": "Department of Sanitation",
    "final_address": "5321 Lafaye St",
    "address_councildis": "D",
    "status": "Assigned to Contractor",
    "contractor": "Metro Disposal",
    "rowid": "878485",
    "final_x": "3687384.20898",
    "final_y": "552844.908502",
    "longitude": "-90.04873525083686",
    "latitude": "30.0139516257464",
    "geocoded_column": {
      "latitude": "30.0139516257464",
      "longitude": "-90.04873525083686"
    }
  },
  {
    "service_request": "2022-878484",
    "request_type": "Property Maintenance",
    "request_reason": "Property Maintenance",
    "date_created": "2022-04-28T14:04:29.000",
    "date_modified": "2022-04-28T14:04:29.000",
    "request_status": "Pending",
    "responsible_agency": "Department of Code Enforcement",
    "final_address": "3511 Danneel St",
    "address_councildis": "B",
    "status": "Pending",
    "rowid": "878484",
    "final_x": "3673146.75137",
    "final_y": "522710.908282",
    "longitude": "-90.09474759571928",
    "latitude": "29.931524548416622",
    "geocoded_column": {
      "latitude": "29.931524548416622",
      "longitude": "-90.09474759571928"
    }
  },
  {
    "service_request": "2022-878483",
    "request_type": "Roads/Drainage",
    "request_reason": "Pothole",
    "date_created": "2022-04-28T14:03:48.000",
    "date_modified": "2022-04-28T14:03:48.000",
    "request_status": "Pending",
    "responsible_agency": "Department of Public Works",
    "final_address": "6019 Chestnut St, New Orleans, Louisiana, 70118",
    "address_councildis": "A",
    "status": "Pending",
    "rowid": "878483",
    "final_x": "3664762.62535",
    "final_y": "519948.884408",
    "longitude": "-90.12130763332809",
    "latitude": "29.92417638659354",
    "geocoded_column": {
      "latitude": "29.92417638659354",
      "longitude": "-90.12130763332809"
    }
  },
  {
    "service_request": "2022-878482",
    "request_type": "Trash/Recycling",
    "request_reason": "Request a Large Item Pick Up",
    "date_created": "2022-04-28T13:59:30.000",
    "date_modified": "2022-04-28T13:59:31.000",
    "request_status": "Pending",
    "responsible_agency": "Department of Sanitation",
    "final_address": "1519 Arabella St",
    "address_councildis": "A",
    "status": "Assigned to Contractor",
    "contractor": "Richards Disposal",
    "rowid": "878482",
    "final_x": "3666486.52353",
    "final_y": "521736.800378",
    "longitude": "-90.11580590164458",
    "latitude": "29.929042338280578",
    "geocoded_column": {
      "latitude": "29.929042338280578",
      "longitude": "-90.11580590164458"
    }
  },
  {
    "service_request": "2022-878481",
    "request_type": "Abandoned Vehicles",
    "request_reason": "Abandoned/Junk Vehicles",
    "date_created": "2022-04-28T13:59:06.000",
    "date_modified": "2022-04-28T13:59:07.000",
    "request_status": "Pending",
    "responsible_agency": "Department of Public Works",
    "final_address": "9010 Tilford Rd",
    "address_councildis": "E",
    "status": "Pending",
    "rowid": "878481",
    "final_x": "3708183.52171",
    "final_y": "557227.254619",
    "longitude": "-89.98285742612566",
    "latitude": "30.025343815227394",
    "geocoded_column": {
      "latitude": "30.025343815227394",
      "longitude": "-89.98285742612566"
    }
  },
  {
    "service_request": "2022-878480",
    "request_type": "Trash/Recycling",
    "request_reason": "Repair Trash Cart",
    "date_created": "2022-04-28T13:58:23.000",
    "date_modified": "2022-04-28T13:58:24.000",
    "request_status": "Pending",
    "responsible_agency": "Department of Sanitation",
    "final_address": "5159 Mandeville St",
    "address_councildis": "D",
    "status": "Assigned to Contractor",
    "contractor": "Metro Disposal",
    "rowid": "878480",
    "final_x": "3684672.34658",
    "final_y": "551863.585046",
    "longitude": "-90.05733786697338",
    "latitude": "30.011336661807942",
    "geocoded_column": {
      "latitude": "30.011336661807942",
      "longitude": "-90.05733786697338"
    }
  },
  {
    "service_request": "2022-878479",
    "request_type": "Trash/Recycling",
    "request_reason": "Request a Large Item Pick Up",
    "date_created": "2022-04-28T13:51:10.000",
    "date_modified": "2022-04-28T13:51:11.000",
    "request_status": "Pending",
    "responsible_agency": "Department of Sanitation",
    "final_address": "5520 Loyola Ave",
    "address_councildis": "A",
    "status": "Assigned to Contractor",
    "contractor": "Richards Disposal",
    "rowid": "878479",
    "final_x": "3667174.68513",
    "final_y": "522958.915131",
    "longitude": "-90.11359243520104",
    "latitude": "29.932382641153424",
    "geocoded_column": {
      "latitude": "29.932382641153424",
      "longitude": "-90.11359243520104"
    }
  },
  {
    "service_request": "2022-878478",
    "request_type": "Trash/Recycling",
    "request_reason": "Start Trash Service",
    "date_created": "2022-04-28T13:50:40.000",
    "date_modified": "2022-04-28T13:50:41.000",
    "request_status": "Pending",
    "responsible_agency": "Department of Sanitation",
    "final_address": "431 Leboeuf St",
    "address_councildis": "C",
    "status": "Assigned to Contractor",
    "contractor": "Richards Disposal",
    "rowid": "878478",
    "final_x": "3689788.24924",
    "final_y": "529966.897793",
    "longitude": "-90.04195436986073",
    "latitude": "29.95097093421532",
    "geocoded_column": {
      "latitude": "29.95097093421532",
      "longitude": "-90.04195436986073"
    }
  },
  {
    "service_request": "2022-878477",
    "request_type": "Trash/Recycling",
    "request_reason": "Order Trash Cart",
    "date_created": "2022-04-28T13:50:23.000",
    "date_modified": "2022-04-28T13:50:24.000",
    "request_status": "Pending",
    "responsible_agency": "Department of Sanitation",
    "final_address": "431 Leboeuf St",
    "address_councildis": "C",
    "status": "Assigned to Contractor",
    "contractor": "Richards Disposal",
    "rowid": "878477",
    "final_x": "3689788.24924",
    "final_y": "529966.897793",
    "longitude": "-90.04195436986073",
    "latitude": "29.95097093421532",
    "geocoded_column": {
      "latitude": "29.95097093421532",
      "longitude": "-90.04195436986073"
    }
  },
  {
    "service_request": "2022-878476",
    "request_type": "Abandoned Vehicles",
    "request_reason": "Abandoned/Junk Vehicles",
    "date_created": "2022-04-28T13:45:27.000",
    "date_modified": "2022-04-28T13:45:28.000",
    "request_status": "Pending",
    "responsible_agency": "Department of Public Works",
    "final_address": "3417 General Taylor St",
    "address_councildis": "B",
    "status": "Pending",
    "rowid": "878476",
    "final_x": "3671171.69857",
    "final_y": "527473.641599",
    "longitude": "-90.10082089166647",
    "latitude": "29.944679077208956",
    "geocoded_column": {
      "latitude": "29.944679077208956",
      "longitude": "-90.10082089166647"
    }
  },
  {
    "service_request": "2022-878475",
    "request_type": "Trash/Recycling",
    "request_reason": "Repair Recycling Cart",
    "date_created": "2022-04-28T13:44:07.000",
    "date_modified": "2022-04-28T13:44:08.000",
    "request_status": "Pending",
    "responsible_agency": "Department of Sanitation",
    "final_address": "3422 Laurel St",
    "address_councildis": "B",
    "status": "Pending",
    "rowid": "878475",
    "final_x": "3675154.89064",
    "final_y": "518767.258103",
    "longitude": "-90.08854337732517",
    "latitude": "29.920620944479406",
    "geocoded_column": {
      "latitude": "29.920620944479406",
      "longitude": "-90.08854337732517"
    }
  },
  {
    "service_request": "2022-878474",
    "request_type": "Trash/Recycling",
    "request_reason": "Missed Trash Pick-Up",
    "date_created": "2022-04-28T13:42:52.000",
    "date_modified": "2022-04-28T13:42:53.000",
    "request_status": "Pending",
    "responsible_agency": "Department of Sanitation",
    "final_address": "1239 Fern St, New Orleans, Louisiana, 70118",
    "address_councildis": "A",
    "status": "Assigned to Contractor",
    "contractor": "Richards Disposal",
    "rowid": "878474",
    "final_x": "3662769.56928",
    "final_y": "528044.199871",
    "longitude": "-90.12733008431893",
    "latitude": "29.94649376160216",
    "geocoded_column": {
      "latitude": "29.94649376160216",
      "longitude": "-90.12733008431893"
    }
  },
  {
    "service_request": "2022-878473",
    "request_type": "Property Maintenance",
    "request_reason": "Property Maintenance",
    "date_created": "2022-04-28T13:41:32.000",
    "date_modified": "2022-04-28T13:41:32.000",
    "request_status": "Pending",
    "responsible_agency": "Department of Code Enforcement",
    "final_address": "938 Taft Pl",
    "address_councildis": "A",
    "status": "Pending",
    "rowid": "878473",
    "final_x": "3673918.95067",
    "final_y": "540365.287435",
    "longitude": "-90.09170593205637",
    "latitude": "29.980045238255688",
    "geocoded_column": {
      "latitude": "29.980045238255688",
      "longitude": "-90.09170593205637"
    }
  },
  {
    "service_request": "2022-878472",
    "request_type": "Trash/Recycling",
    "request_reason": "Repair Recycling Cart",
    "date_created": "2022-04-28T13:41:09.000",
    "date_modified": "2022-04-28T13:41:09.000",
    "request_status": "Pending",
    "responsible_agency": "Department of Sanitation",
    "final_address": "New Orleans,LA",
    "status": "Pending",
    "rowid": "878472",
    "longitude": "0.0",
    "latitude": "0.0",
    "geocoded_column": {
      "latitude": "0.0",
      "longitude": "0.0"
    }
  },
  {
    "service_request": "2022-878471",
    "request_type": "Abandoned Vehicles",
    "request_reason": "Abandoned/Junk Vehicles",
    "date_created": "2022-04-28T13:40:11.000",
    "date_modified": "2022-04-28T13:41:36.000",
    "request_status": "Pending",
    "responsible_agency": "Department of Public Works",
    "final_address": "934 Port St",
    "address_councildis": "C",
    "status": "Pending",
    "rowid": "878471",
    "final_x": "3687264.99522",
    "final_y": "535893.784327",
    "longitude": "-90.04971187264331",
    "latitude": "29.967345777334884",
    "geocoded_column": {
      "latitude": "29.967345777334884",
      "longitude": "-90.04971187264331"
    }
  },
  {
    "service_request": "2022-878470",
    "request_type": "Trash/Recycling",
    "request_reason": "Repair Trash Cart",
    "date_created": "2022-04-28T13:37:39.000",
    "date_modified": "2022-04-28T13:37:39.000",
    "request_status": "Pending",
    "responsible_agency": "Department of Sanitation",
    "final_address": "1918 Second St",
    "address_councildis": "B",
    "status": "Assigned to Contractor",
    "contractor": "Richards Disposal",
    "rowid": "878470",
    "final_x": "3675981.56961",
    "final_y": "524071.078268",
    "longitude": "-90.08575164988979",
    "latitude": "29.935180010367077",
    "geocoded_column": {
      "latitude": "29.935180010367077",
      "longitude": "-90.08575164988979"
    }
  },
  {
    "service_request": "2022-878469",
    "request_type": "Roads/Drainage",
    "request_reason": "Street Subsidence (Sinking)",
    "date_created": "2022-04-28T13:33:44.000",
    "date_modified": "2022-04-28T13:33:45.000",
    "request_status": "Pending",
    "responsible_agency": "Department of Public Works",
    "final_address": "4650 Spain St",
    "address_councildis": "D",
    "status": "Pending",
    "rowid": "878469",
    "final_x": "3684944.85711",
    "final_y": "549899.544532",
    "longitude": "-90.05654603991879",
    "latitude": "30.005927917384465",
    "geocoded_column": {
      "latitude": "30.005927917384465",
      "longitude": "-90.05654603991879"
    }
  },
  {
    "service_request": "2022-878468",
    "request_type": "Parks & Parkways",
    "request_reason": "Request Tree Service (Right of Way/Public Property)",
    "date_created": "2022-04-28T13:33:10.000",
    "date_modified": "2022-04-28T13:33:10.000",
    "request_status": "Pending",
    "responsible_agency": "Department of Parks & Parkway",
    "final_address": "3742 Dickens Dr",
    "address_councildis": "C",
    "status": "Pending",
    "rowid": "878468",
    "final_x": "3707727.32753",
    "final_y": "517193.539573",
    "longitude": "-89.98578660437151",
    "latitude": "29.915280605220968",
    "geocoded_column": {
      "latitude": "29.915280605220968",
      "longitude": "-89.98578660437151"
    }
  },
  {
    "service_request": "2022-878467",
    "request_type": "Roads/Drainage",
    "request_reason": "Street Subsidence (Sinking)",
    "date_created": "2022-04-28T13:29:34.000",
    "date_modified": "2022-04-28T13:29:35.000",
    "request_status": "Pending",
    "responsible_agency": "Department of Public Works",
    "final_address": "FRERET ST & AUDUBON PL",
    "address_councildis": "A",
    "status": "Pending",
    "rowid": "878467",
    "final_x": "3664466.1",
    "final_y": "525437.88",
    "longitude": "-90.12206050096917",
    "latitude": "29.9392780095558",
    "geocoded_column": {
      "latitude": "29.9392780095558",
      "longitude": "-90.12206050096917"
    }
  },
  {
    "service_request": "2022-878466",
    "request_type": "Property Maintenance",
    "request_reason": "Property Maintenance",
    "date_created": "2022-04-28T13:29:00.000",
    "date_modified": "2022-04-28T13:29:00.000",
    "request_status": "Pending",
    "responsible_agency": "Department of Code Enforcement",
    "final_address": "2461 N Galvez St",
    "address_councildis": "D",
    "status": "Pending",
    "rowid": "878466",
    "final_x": "3686736.9455",
    "final_y": "540187.631883",
    "longitude": "-90.05122773162951",
    "latitude": "29.979168608253207",
    "geocoded_column": {
      "latitude": "29.979168608253207",
      "longitude": "-90.05122773162951"
    }
  },
  {
    "service_request": "2022-878465",
    "request_type": "Traffic Signals/Signs/Striping/Streetlights",
    "request_reason": "Request for Stop Sign",
    "date_created": "2022-04-28T13:27:30.000",
    "date_modified": "2022-04-28T13:27:30.000",
    "request_status": "Pending",
    "responsible_agency": "Department of Public Works",
    "final_address": "2031 Arts St",
    "address_councildis": "D",
    "status": "Pending",
    "rowid": "878465",
    "final_x": "3686957.58057",
    "final_y": "540043.033291",
    "longitude": "-90.0505359947287",
    "latitude": "29.978764223154045",
    "geocoded_column": {
      "latitude": "29.978764223154045",
      "longitude": "-90.0505359947287"
    }
  },
  {
    "service_request": "2022-878464",
    "request_type": "Trash/Recycling",
    "request_reason": "Request a Large Item Pick Up",
    "date_created": "2022-04-28T13:25:34.000",
    "date_modified": "2022-04-28T13:25:35.000",
    "request_status": "Pending",
    "responsible_agency": "Department of Sanitation",
    "final_address": "931 Kerlerec St",
    "address_councildis": "C",
    "status": "Assigned to Contractor",
    "contractor": "Metro Disposal",
    "rowid": "878464",
    "final_x": "3683542.29711",
    "final_y": "535285.041158",
    "longitude": "-90.06148953145365",
    "latitude": "29.96578608839588",
    "geocoded_column": {
      "latitude": "29.96578608839588",
      "longitude": "-90.06148953145365"
    }
  },
  {
    "service_request": "2022-878463",
    "request_type": "Trash/Recycling",
    "request_reason": "Replace Trash Cart",
    "date_created": "2022-04-28T13:23:09.000",
    "date_modified": "2022-04-28T13:23:10.000",
    "request_status": "Pending",
    "responsible_agency": "Department of Sanitation",
    "final_address": "8528 Jeannette St",
    "address_councildis": "A",
    "status": "Assigned to Contractor",
    "contractor": "Richards Disposal",
    "rowid": "878463",
    "final_x": "3661424.34726",
    "final_y": "530233.219841",
    "longitude": "-90.13150495787457",
    "latitude": "29.952551727823636",
    "geocoded_column": {
      "latitude": "29.952551727823636",
      "longitude": "-90.13150495787457"
    }
  },
  {
    "service_request": "2022-878462",
    "request_type": "Roads/Drainage",
    "request_reason": "Ditch Issue",
    "date_created": "2022-04-28T13:19:06.000",
    "date_modified": "2022-04-28T13:19:07.000",
    "request_status": "Pending",
    "responsible_agency": "Department of Public Works",
    "final_address": "1310 Farragut St",
    "address_councildis": "C",
    "status": "Pending",
    "rowid": "878462",
    "final_x": "3692415.42454",
    "final_y": "526491.265406",
    "longitude": "-90.03378357034295",
    "latitude": "29.941332468245083",
    "geocoded_column": {
      "latitude": "29.941332468245083",
      "longitude": "-90.03378357034295"
    }
  },