[
  {
    "service_request": "2022-951361",
    "request_type": "Trash/Recycling",
    "request_reason": "MIssed Recycling Pick-Up",
    "date_created": "2022-12-08T23:57:33.000",
    "date_modified": "2022-12-08T23:57:34.000",
    "request_status": "Pending",
    "responsible_agency": "Department of Sanitation",
    "final_address": "5349 Tchoupitoulas St",
    "address_councildis": "B",
    "status": "Assigned to Contractor",
    "contractor": "Richards Disposal",
    "rowid": "951361",
    "final_x": "3666858.62413",
    "final_y": "517215.797941",
    "longitude": "-90.11478302461681",
    "latitude": "29.916600128737723",
    "geocoded_column": {
      "latitude": "29.916600128737723",
      "longitude": "-90.11478302461681"
    }
  },
  {
    "service_request": "2022-951360",
    "request_type": "Trash/Recycling",
    "request_reason": "Replace Trash Cart",
    "date_created": "2022-12-08T23:37:29.000",
    "date_modified": "2022-12-08T23:37:29.000",
    "request_status": "Pending",
    "responsible_agency": "Department of Sanitation",
    "final_address": "2628 Dauphine St",
    "address_councildis": "C",
    "status": "Assigned to Contractor",
    "contractor": "IV Waste",
    "rowid": "951360",
    "final_x": "3687051.64777",
    "final_y": "535240.379334",
    "longitude": "-90.05040872871386",
    "latitude": "29.96555571098487",
    "geocoded_column": {
      "latitude": "29.96555571098487",
      "longitude": "-90.05040872871386"
    }
  },
  {
    "service_request": "2022-951359",
    "request_type": "Traffic Signals/Signs/Striping/Streetlights",
    "request_reason": "Street Light Outage/Malfunction",
    "date_created": "2022-12-08T23:00:12.000",
    "date_modified": "2022-12-08T23:00:13.000",
    "request_status": "Pending",
    "responsible_agency": "Department of Public Works",
    "final_address": "3125 Rose Ln",
    "address_councildis": "C",
    "status": "Pending",
    "contractor": "Legacy Professional Services",
    "rowid": "951359",
    "final_x": "3695353.31274",
    "final_y": "523065.444347",
    "longitude": "-90.0246316723875",
    "latitude": "29.931820692417762",
    "geocoded_column": {
      "latitude": "29.931820692417762",
      "longitude": "-90.0246316723875"
    }
  },
  {
    "service_request": "2022-951358",
    "request_type": "Trash/Recycling",
    "request_reason": "Request a Large Item Pick Up",
    "date_created": "2022-12-08T22:59:07.000",
    "date_modified": "2022-12-08T22:59:08.000",
    "request_status": "Pending",
    "responsible_agency": "Department of Sanitation",
    "final_address": "7300 Ebbtide Dr",
    "address_councildis": "E",
    "status": "Assigned to Contractor",
    "contractor": "Waste Pro",
    "rowid": "951358",
    "final_x": "3702533.69783",
    "final_y": "560418.494942",
    "longitude": "-90.00059261460926",
    "latitude": "30.034300370472543",
    "geocoded_column": {
      "latitude": "30.034300370472543",
      "longitude": "-90.00059261460926"
    }
  },
  {
    "service_request": "2022-951357",
    "request_type": "Trash/Recycling",
    "request_reason": "Request a Large Item Pick Up",
    "date_created": "2022-12-08T22:23:03.000",
    "date_modified": "2022-12-08T22:23:04.000",
    "request_status": "Pending",
    "responsible_agency": "Department of Sanitation",
    "final_address": "4811 Bienville Ave",
    "address_councildis": "A",
    "status": "Assigned to Contractor",
    "contractor": "Richards Disposal",
    "rowid": "951357",
    "final_x": "3669255.91847",
    "final_y": "540804.561867",
    "longitude": "-90.10641891964447",
    "latitude": "29.981391205725984",
    "geocoded_column": {
      "latitude": "29.981391205725984",
      "longitude": "-90.10641891964447"
    }
  },
  {
    "service_request": "2022-951356",
    "request_type": "Trash/Recycling",
    "request_reason": "MIssed Recycling Pick-Up",
    "date_created": "2022-12-08T22:20:54.000",
    "date_modified": "2022-12-08T22:20:55.000",
    "request_status": "Pending",
    "responsible_agency": "Department of Sanitation",
    "final_address": "1438 Melpomene St",
    "address_councildis": "B",
    "status": "Assigned to Contractor",
    "contractor": "Richards Disposal",
    "rowid": "951356",
    "final_x": "3679703.83503",
    "final_y": "525164.307389",
    "longitude": "-90.07396253729813",
    "latitude": "29.938074066444944",
    "geocoded_column": {
      "latitude": "29.938074066444944",
      "longitude": "-90.07396253729813"
    }
  },
  {
    "service_request": "2022-951354",
    "request_type": "Trash/Recycling",
    "request_reason": "Order Recycling Cart",
    "date_created": "2022-12-08T22:12:54.000",
    "date_modified": "2022-12-08T22:12:54.000",
    "request_status": "Pending",
    "responsible_agency": "Department of Sanitation",
    "final_address": "5617 Vermillion Blvd",
    "address_councildis": "D",
    "status": "Pending",
    "rowid": "951354",
    "final_x": "3683322.69295",
    "final_y": "553526.753879",
    "longitude": "-90.06154364568829",
    "latitude": "30.01595102706793",
    "geocoded_column": {
      "latitude": "30.01595102706793",
      "longitude": "-90.06154364568829"
    }
  },
  {
    "service_request": "2022-951353",
    "request_type": "Trash/Recycling",
    "request_reason": "Request a Large Item Pick Up",
    "date_created": "2022-12-08T22:12:20.000",
    "date_modified": "2022-12-08T22:12:21.000",
    "request_status": "Pending",
    "responsible_agency": "Department of Sanitation",
    "final_address": "3140 St Ann St",
    "address_councildis": "A",
    "status": "Assigned to Contractor",
    "contractor": "Richards Disposal",
    "rowid": "951353",
    "final_x": "3675183.14485",
    "final_y": "538489.905545",
    "longitude": "-90.08777746200244",
    "latitude": "29.97485085287875",
    "geocoded_column": {
      "latitude": "29.97485085287875",
      "longitude": "-90.08777746200244"
    }
  },
  {
    "service_request": "2022-951352",
    "request_type": "Roads/Drainage",
    "request_reason": "Street Subsidence (Sinking)",
    "date_created": "2022-12-08T22:04:52.000",
    "date_modified": "2022-12-08T22:04:52.000",
    "request_status": "Pending",
    "responsible_agency": "Department of Public Works",
    "final_address": "465 Fairway Dr",
    "address_councildis": "A",
    "status": "Pending",
    "rowid": "951352",
    "final_x": "3664373.82132",
    "final_y": "542870.519053",
    "longitude": "-90.12176989829223",
    "latitude": "29.987214728688123",
    "geocoded_column": {
      "latitude": "29.987214728688123",
      "longitude": "-90.12176989829223"
    }
  },
  {
    "service_request": "2022-951351",
    "request_type": "Health Related Request",
    "request_reason": "Noise Ordinance Complaint",
    "date_created": "2022-12-08T22:04:36.000",
    "date_modified": "2022-12-08T22:04:36.000",
    "request_status": "Pending",
    "responsible_agency": "Health Department",
    "final_address": "1200 St Bernard Ave",
    "address_councildis": "C",
    "status": "Pending",
    "rowid": "951351",
    "final_x": "3683033.3165",
    "final_y": "536132.891847",
    "longitude": "-90.06306719052876",
    "latitude": "29.96813290984115",
    "geocoded_column": {
      "latitude": "29.96813290984115",
      "longitude": "-90.06306719052876"
    }
  },
  {
    "service_request": "2022-951350",
    "request_type": "Trash/Recycling",
    "request_reason": "Request a Large Item Pick Up",
    "date_created": "2022-12-08T22:04:31.000",
    "date_modified": "2022-12-08T22:04:32.000",
    "request_status": "Pending",
    "responsible_agency": "Department of Sanitation",
    "final_address": "205 Walker St",
    "address_councildis": "A",
    "status": "Assigned to Contractor",
    "contractor": "IV Waste",
    "rowid": "951350",
    "final_x": "3667248.53837",
    "final_y": "554161.050072",
    "longitude": "-90.11230963099183",
    "latitude": "30.01817588614752",
    "geocoded_column": {
      "latitude": "30.01817588614752",
      "longitude": "-90.11230963099183"
    }
  },
  {
    "service_request": "2022-951349",
    "request_type": "Trash/Recycling",
    "request_reason": "Missed Trash Pick-Up",
    "date_created": "2022-12-08T22:03:09.000",
    "date_modified": "2022-12-08T22:03:09.000",
    "request_status": "Pending",
    "responsible_agency": "Department of Sanitation",
    "final_address": "2511 St Peter St",
    "address_councildis": "D",
    "status": "Assigned to Contractor",
    "contractor": "Richards Disposal",
    "rowid": "951349",
    "final_x": "3677392.8964",
    "final_y": "536351.997511",
    "longitude": "-90.08087230824275",
    "latitude": "29.968906103815026",
    "geocoded_column": {
      "latitude": "29.968906103815026",
      "longitude": "-90.08087230824275"
    }
  },
  {
    "service_request": "2022-951348",
    "request_type": "Property Maintenance",
    "request_reason": "Property Maintenance",
    "date_created": "2022-12-08T22:00:52.000",
    "date_modified": "2022-12-08T22:00:52.000",
    "request_status": "Pending",
    "responsible_agency": "Department of Code Enforcement",
    "final_address": "2511 St Peter St",
    "address_councildis": "D",
    "status": "Pending",
    "rowid": "951348",
    "final_x": "3677392.8964",
    "final_y": "536351.997511",
    "longitude": "-90.08087230824275",
    "latitude": "29.968906103815026",
    "geocoded_column": {
      "latitude": "29.968906103815026",
      "longitude": "-90.08087230824275"
    }
  },
  {
    "service_request": "2022-951346",
    "request_type": "Trash/Recycling",
    "request_reason": "Order Recycling Cart",
    "date_created": "2022-12-08T21:39:45.000",
    "date_modified": "2022-12-08T21:39:45.000",
    "request_status": "Pending",
    "responsible_agency": "Department of Sanitation",
    "final_address": "4202 Van Ave",
    "address_councildis": "D",
    "status": "Pending",
    "rowid": "951346",
    "final_x": "3679982.89199",
    "final_y": "547660.476626",
    "longitude": "-90.07229990621988",
    "latitude": "29.999922374858205",
    "geocoded_column": {
      "latitude": "29.999922374858205",
      "longitude": "-90.07229990621988"
    }
  },
  {
    "service_request": "2022-951345",
    "request_type": "Property Maintenance",
    "request_reason": "Property Maintenance",
    "date_created": "2022-12-08T21:32:17.000",
    "date_modified": "2022-12-08T21:32:17.000",
    "request_status": "Pending",
    "responsible_agency": "Department of Code Enforcement",
    "final_address": "2635 Ursulines Ave",
    "address_councildis": "D",
    "status": "Pending",
    "rowid": "951345",
    "final_x": "3677853.06184",
    "final_y": "538063.750153",
    "longitude": "-90.0793599158851",
    "latitude": "29.97359899948611",
    "geocoded_column": {
      "latitude": "29.97359899948611",
      "longitude": "-90.0793599158851"
    }
  },
  {
    "service_request": "2022-951344",
    "request_type": "Property Maintenance",
    "request_reason": "Property Maintenance",
    "date_created": "2022-12-08T21:24:04.000",
    "date_modified": "2022-12-08T21:24:04.000",
    "request_status": "Pending",
    "responsible_agency": "Department of Code Enforcement",
    "final_address": "2602 St Peter St",
    "address_councildis": "D",
    "status": "Pending",
    "rowid": "951344",
    "final_x": "3677035.8244",
    "final_y": "536524.202183",
    "longitude": "-90.08199402625965",
    "latitude": "29.969390335014822",
    "geocoded_column": {
      "latitude": "29.969390335014822",
      "longitude": "-90.08199402625965"
    }
  },
  {
    "service_request": "2022-951343",
    "request_type": "Trash/Recycling",
    "request_reason": "Return Trash Cart",
    "date_created": "2022-12-08T21:19:20.000",
    "date_modified": "2022-12-08T21:19:21.000",
    "request_status": "Pending",
    "responsible_agency": "Department of Sanitation",
    "final_address": "916 N Dorgenois St",
    "address_councildis": "D",
    "status": "Assigned to Contractor",
    "contractor": "Richards Disposal",
    "rowid": "951343",
    "final_x": "3677730.46363",
    "final_y": "537284.018504",
    "longitude": "-90.07977404790164",
    "latitude": "29.9714586931646",
    "geocoded_column": {
      "latitude": "29.9714586931646",
      "longitude": "-90.07977404790164"
    }
  },
  {
    "service_request": "2022-951342",
    "request_type": "Trash/Recycling",
    "request_reason": "Request a Large Item Pick Up",
    "date_created": "2022-12-08T21:02:35.000",
    "date_modified": "2022-12-08T21:02:36.000",
    "request_status": "Pending",
    "responsible_agency": "Department of Sanitation",
    "final_address": "519 Eleonore St",
    "address_councildis": "A",
    "status": "Assigned to Contractor",
    "contractor": "Richards Disposal",
    "rowid": "951342",
    "final_x": "3665125.35527",
    "final_y": "518228.156918",
    "longitude": "-90.12022012380964",
    "latitude": "29.91943436999054",
    "geocoded_column": {
      "latitude": "29.91943436999054",
      "longitude": "-90.12022012380964"
    }
  },
  {
    "service_request": "2022-951341",
    "request_type": "Mosquito, Termite & Rodent Control",
    "request_reason": "Rodent Complaint (Rats)",
    "date_created": "2022-12-08T20:52:50.000",
    "date_modified": "2022-12-08T20:52:50.000",
    "request_status": "Pending",
    "responsible_agency": "Mosquito, Termite & Rodent Control Board",
    "final_address": "5522 Willow St",
    "address_councildis": "A",
    "status": "Pending",
    "rowid": "951341",
    "final_x": "3667687.02772",
    "final_y": "525364.294909",
    "longitude": "-90.1118940651348",
    "latitude": "29.938981658826343",
    "geocoded_column": {
      "latitude": "29.938981658826343",
      "longitude": "-90.1118940651348"
    }
  },
  {
    "service_request": "2022-951340",
    "request_type": "Trash/Recycling",
    "request_reason": "Missed Trash Pick-Up",
    "date_created": "2022-12-08T20:51:41.000",
    "date_modified": "2022-12-08T20:51:42.000",
    "request_status": "Pending",
    "responsible_agency": "Department of Sanitation",
    "final_address": "1620 Fourth St",
    "address_councildis": "B",
    "status": "Assigned to Contractor",
    "contractor": "Richards Disposal",
    "rowid": "951340",
    "final_x": "3676043.77665",
    "final_y": "522866.967739",
    "longitude": "-90.08559665644712",
    "latitude": "29.931867236838222",
    "geocoded_column": {
      "latitude": "29.931867236838222",
      "longitude": "-90.08559665644712"
    }
  },
  {
    "service_request": "2022-951339",
    "request_type": "Trash/Recycling",
    "request_reason": "MIssed Recycling Pick-Up",
    "date_created": "2022-12-08T20:51:32.000",
    "date_modified": "2022-12-08T20:51:33.000",
    "request_status": "Pending",
    "responsible_agency": "Department of Sanitation",
    "final_address": "1431 Constance St, New Orleans, Louisiana, 70130",
    "address_councildis": "B",
    "status": "Assigned to Contractor",
    "contractor": "Richards Disposal",
    "rowid": "951339",
    "final_x": "3680635.16514",
    "final_y": "524194.270716",
    "longitude": "-90.07105598366722",
    "latitude": "29.935378608323525",
    "geocoded_column": {
      "latitude": "29.935378608323525",
      "longitude": "-90.07105598366722"
    }
  },
  {
    "service_request": "2022-951338",
    "request_type": "Trash/Recycling",
    "request_reason": "Missed Trash Pick-Up",
    "date_created": "2022-12-08T20:50:01.000",
    "date_modified": "2022-12-08T20:50:01.000",
    "request_status": "Pending",
    "responsible_agency": "Department of Sanitation",
    "final_address": "1431 Constance St, New Orleans, Louisiana, 70130",
    "address_councildis": "B",
    "status": "Assigned to Contractor",
    "contractor": "Richards Disposal",
    "rowid": "951338",
    "final_x": "3680635.16514",
    "final_y": "524194.270716",
    "longitude": "-90.07105598366722",
    "latitude": "29.935378608323525",
    "geocoded_column": {
      "latitude": "29.935378608323525",
      "longitude": "-90.07105598366722"
    }
  },
  {
    "service_request": "2022-951337",
    "request_type": "Trash/Recycling",
    "request_reason": "Request a Large Item Pick Up",
    "date_created": "2022-12-08T20:32:35.000",
    "date_modified": "2022-12-08T20:32:36.000",
    "request_status": "Pending",
    "responsible_agency": "Department of Sanitation",
    "final_address": "7736 Sycamore St",
    "address_councildis": "A",
    "status": "Assigned to Contractor",
    "contractor": "Richards Disposal",
    "rowid": "951337",
    "final_x": "3665142.11047",
    "final_y": "530110.484673",
    "longitude": "-90.11977000210122",
    "latitude": "29.952106501164785",
    "geocoded_column": {
      "latitude": "29.952106501164785",
      "longitude": "-90.11977000210122"
    }
  },
  {
    "service_request": "2022-951336",
    "request_type": "Trash/Recycling",
    "request_reason": "Replace Trash Cart",
    "date_created": "2022-12-08T20:32:10.000",
    "date_modified": "2022-12-08T20:32:11.000",
    "request_status": "Pending",
    "responsible_agency": "Department of Sanitation",
    "final_address": "2301 Magazine St",
    "address_councildis": "B",
    "status": "Assigned to Contractor",
    "contractor": "Richards Disposal",
    "rowid": "951336",
    "final_x": "3678487.91016",
    "final_y": "521851.003578",
    "longitude": "-90.07791592815494",
    "latitude": "29.929000259503336",
    "geocoded_column": {
      "latitude": "29.929000259503336",
      "longitude": "-90.07791592815494"
    }
  },
  {
    "service_request": "2022-951335",
    "request_type": "Health Related Request",
    "request_reason": "Noise Ordinance Complaint",
    "date_created": "2022-12-08T20:20:10.000",
    "date_modified": "2022-12-08T20:20:10.000",
    "request_status": "Pending",
    "responsible_agency": "Health Department",
    "final_address": "7200 Oak St, New Orleans, Louisiana, 70118",
    "address_councildis": "A",
    "status": "Pending",
    "rowid": "951335",
    "final_x": "3664092.10029",
    "final_y": "526486.99987",
    "longitude": "-90.1232062903975",
    "latitude": "29.942173619963896",
    "geocoded_column": {
      "latitude": "29.942173619963896",
      "longitude": "-90.1232062903975"
    }
  },
  {
    "service_request": "2022-951334",
    "request_type": "Health Related Request",
    "request_reason": "Noise Ordinance Complaint",
    "date_created": "2022-12-08T20:18:21.000",
    "date_modified": "2022-12-08T20:18:21.000",
    "request_status": "Pending",
    "responsible_agency": "Health Department",
    "final_address": "1200 Broadway St, New Orleans, Louisiana, 70118",
    "status": "Pending",
    "rowid": "951334",
    "longitude": "0.0",
    "latitude": "0.0",
    "geocoded_column": {
      "latitude": "0.0",
      "longitude": "0.0"
    }
  },
  {
    "service_request": "2022-951333",
    "request_type": "Trash/Recycling",
    "request_reason": "Request a Large Item Pick Up",
    "date_created": "2022-12-08T20:10:25.000",
    "date_modified": "2022-12-08T20:10:26.000",
    "request_status": "Pending",
    "responsible_agency": "Department of Sanitation",
    "final_address": "7901 Mercier St",
    "address_councildis": "E",
    "status": "Assigned to Contractor",
    "contractor": "Waste Pro",
    "rowid": "951333",
    "final_x": "3710968.37681",
    "final_y": "567257.984932",
    "longitude": "-89.9736816876308",
    "latitude": "30.052833772295426",
    "geocoded_column": {
      "latitude": "30.052833772295426",
      "longitude": "-89.9736816876308"
    }
  },
  {
    "service_request": "2022-951332",
    "request_type": "Traffic Signals/Signs/Striping/Streetlights",
    "request_reason": "Street Light Outage/Malfunction",
    "date_created": "2022-12-08T19:29:59.000",
    "date_modified": "2022-12-08T19:30:00.000",
    "request_status": "Pending",
    "responsible_agency": "Department of Public Works",
    "final_address": "607 Bordeaux St",
    "address_councildis": "B",
    "status": "Pending",
    "contractor": "Legacy Professional Services",
    "rowid": "951332",
    "final_x": "3669716.66977",
    "final_y": "517730.20799",
    "longitude": "-90.10574444080785",
    "latitude": "29.9179307109184",
    "geocoded_column": {
      "latitude": "29.9179307109184",
      "longitude": "-90.10574444080785"
    }
  },
  {
    "service_request": "2022-951331",
    "request_type": "Trash/Recycling",
    "request_reason": "Missed Trash Pick-Up",
    "date_created": "2022-12-08T19:26:12.000",
    "date_modified": "2022-12-08T19:26:13.000",
    "request_status": "Pending",
    "responsible_agency": "Department of Sanitation",
    "final_address": "4916 Baronne St",
    "address_councildis": "B",
    "status": "Assigned to Contractor",
    "contractor": "Richards Disposal",
    "rowid": "951331",
    "final_x": "3668936.39834",
    "final_y": "521391.117817",
    "longitude": "-90.10808377428931",
    "latitude": "29.92802001600356",
    "geocoded_column": {
      "latitude": "29.92802001600356",
      "longitude": "-90.10808377428931"
    }
  },
  {
    "service_request": "2022-951330",
    "request_type": "Property Maintenance",
    "request_reason": "Property Maintenance",
    "date_created": "2022-12-08T19:25:01.000",
    "date_modified": "2022-12-08T19:25:01.000",
    "request_status": "Pending",
    "responsible_agency": "Department of Code Enforcement",
    "final_address": "1301 Calhoun St",
    "address_councildis": "A",
    "status": "Pending",
    "rowid": "951330",
    "final_x": "3664182.36903",
    "final_y": "521323.276793",
    "longitude": "-90.12309348399847",
    "latitude": "29.927972398109386",
    "geocoded_column": {
      "latitude": "29.927972398109386",
      "longitude": "-90.12309348399847"
    }
  },
  {
    "service_request": "2022-951329",
    "request_type": "Safety & Permits",
    "request_reason": "Licenses & Permits",
    "date_created": "2022-12-08T19:24:35.000",
    "date_modified": "2022-12-08T19:24:36.000",
    "request_status": "Pending",
    "responsible_agency": "Safety and Permits",
    "final_address": "TCHOUPITOULAS ST & PENISTON ST",
    "address_councildis": "B",
    "status": "Pending",
    "rowid": "951329",
    "final_x": "3673718.3",
    "final_y": "517718.38",
    "longitude": "-90.09311387130845",
    "latitude": "29.91777969920545",
    "geocoded_column": {
      "latitude": "29.91777969920545",
      "longitude": "-90.09311387130845"
    }
  },
  {
    "service_request": "2022-951328",
    "request_type": "Trash/Recycling",
    "request_reason": "MIssed Recycling Pick-Up",
    "date_created": "2022-12-08T19:20:09.000",
    "date_modified": "2022-12-08T19:20:10.000",
    "request_status": "Pending",
    "responsible_agency": "Department of Sanitation",
    "final_address": "2626 Joseph St",
    "address_councildis": "A",
    "status": "Assigned to Contractor",
    "contractor": "Richards Disposal",
    "rowid": "951328",
    "final_x": "3667571.83207",
    "final_y": "525675.731389",
    "longitude": "-90.11224727448703",
    "latitude": "29.93984138497667",
    "geocoded_column": {
      "latitude": "29.93984138497667",
      "longitude": "-90.11224727448703"
    }
  },
  {
    "service_request": "2022-951327",
    "request_type": "Trash/Recycling",
    "request_reason": "Missed Trash Pick-Up",
    "date_created": "2022-12-08T19:18:04.000",
    "date_modified": "2022-12-08T19:18:04.000",
    "request_status": "Pending",
    "responsible_agency": "Department of Sanitation",
    "final_address": "1015 St Roch Ave",
    "address_councildis": "C",
    "status": "Assigned to Contractor",
    "contractor": "IV Waste",
    "rowid": "951327",
    "final_x": "3686538.13794",
    "final_y": "536206.521799",
    "longitude": "-90.05199624944935",
    "latitude": "29.96822806579005",
    "geocoded_column": {
      "latitude": "29.96822806579005",
      "longitude": "-90.05199624944935"
    }
  },
  {
    "service_request": "2022-951326",
    "request_type": "Trash/Recycling",
    "request_reason": "Missed Trash Pick-Up",
    "date_created": "2022-12-08T19:13:08.000",
    "date_modified": "2022-12-08T19:13:08.000",
    "request_status": "Pending",
    "responsible_agency": "Department of Sanitation",
    "final_address": "1337 State St",
    "address_councildis": "A",
    "status": "Assigned to Contractor",
    "contractor": "Richards Disposal",
    "rowid": "951326",
    "final_x": "3665410.92103",
    "final_y": "521082.616825",
    "longitude": "-90.11922326261714",
    "latitude": "29.927274922157512",
    "geocoded_column": {
      "latitude": "29.927274922157512",
      "longitude": "-90.11922326261714"
    }
  },
  {
    "service_request": "2022-951325",
    "request_type": "Trash/Recycling",
    "request_reason": "MIssed Recycling Pick-Up",
    "date_created": "2022-12-08T19:08:21.000",
    "date_modified": "2022-12-08T19:08:22.000",
    "request_status": "Pending",
    "responsible_agency": "Department of Sanitation",
    "final_address": "5351 Tchoupitoulas St",
    "address_councildis": "B",
    "status": "Assigned to Contractor",
    "contractor": "Richards Disposal",
    "rowid": "951325",
    "final_x": "3666843.49517",
    "final_y": "517212.276725",
    "longitude": "-90.11483089618059",
    "latitude": "29.916590888881792",
    "geocoded_column": {
      "latitude": "29.916590888881792",
      "longitude": "-90.11483089618059"
    }
  },
  {
    "service_request": "2022-951324",
    "request_type": "Roads/Drainage",
    "request_reason": "Street Subsidence (Sinking)",
    "date_created": "2022-12-08T19:02:24.000",
    "date_modified": "2022-12-08T19:02:24.000",
    "request_status": "Pending",
    "responsible_agency": "Department of Public Works",
    "final_address": "1344 Camp St",
    "address_councildis": "B",
    "status": "Pending",
    "rowid": "951324",
    "final_x": "3680090.5956",
    "final_y": "524936.478845",
    "longitude": "-90.07274941320073",
    "latitude": "29.937435919427614",
    "geocoded_column": {
      "latitude": "29.937435919427614",
      "longitude": "-90.07274941320073"
    }
  },
  {
    "service_request": "2022-951323",
    "request_type": "Trash/Recycling",
    "request_reason": "Replace Trash Cart",
    "date_created": "2022-12-08T19:01:15.000",
    "date_modified": "2022-12-08T19:01:16.000",
    "request_status": "Pending",
    "responsible_agency": "Department of Sanitation",
    "final_address": "8006 Mayo Rd",
    "address_councildis": "E",
    "status": "Assigned to Contractor",
    "contractor": "Waste Pro",
    "rowid": "951323",
    "final_x": "3700275.44164",
    "final_y": "561836.039647",
    "longitude": "-90.00767713695706",
    "latitude": "30.03827009549995",
    "geocoded_column": {
      "latitude": "30.03827009549995",
      "longitude": "-90.00767713695706"
    }
  },
  {
    "service_request": "2022-951322",
    "request_type": "Traffic Signals/Signs/Striping/Streetlights",
    "request_reason": "Street Light Outage/Malfunction",
    "date_created": "2022-12-08T18:57:45.000",
    "date_modified": "2022-12-08T18:57:45.000",
    "request_status": "Pending",
    "responsible_agency": "Department of Public Works",
    "final_address": "1344 Camp St",
    "address_councildis": "B",
    "status": "Pending",
    "contractor": "Legacy Professional Services",
    "rowid": "951322",
    "final_x": "3680090.5956",
    "final_y": "524936.478845",
    "longitude": "-90.07274941320073",
    "latitude": "29.937435919427614",
    "geocoded_column": {
      "latitude": "29.937435919427614",
      "longitude": "-90.07274941320073"
    }
  },
  {
    "service_request": "2022-951321",
    "request_type": "Traffic Signals/Signs/Striping/Streetlights",
    "request_reason": "Traffic Signal Malfunctioning/Damaged",
    "date_created": "2022-12-08T18:57:43.000",
    "date_modified": "2022-12-08T18:57:43.000",
    "request_status": "Pending",
    "responsible_agency": "Department of Public Works",
    "final_address": "WASHINGTON AVE & PINE ST",
    "address_councildis": "B",
    "status": "Pending",
    "rowid": "951321",
    "final_x": "3669059.4",
    "final_y": "534199.78",
    "longitude": "-90.10726283326873",
    "latitude": "29.963236055326554",
    "geocoded_column": {
      "latitude": "29.963236055326554",
      "longitude": "-90.10726283326873"
    }
  },
  {
    "service_request": "2022-951320",
    "request_type": "Abandoned Vehicles",
    "request_reason": "Abandoned/Junk Vehicles",
    "date_created": "2022-12-08T18:57:22.000",
    "date_modified": "2022-12-08T18:57:22.000",
    "request_status": "Pending",
    "responsible_agency": "Department of Public Works",
    "final_address": "2612 St Philip St",
    "address_councildis": "D",
    "status": "Pending",
    "rowid": "951320",
    "final_x": "3677708.56686",
    "final_y": "537567.639944",
    "longitude": "-90.07983340234365",
    "latitude": "29.972239213709376",
    "geocoded_column": {
      "latitude": "29.972239213709376",
      "longitude": "-90.07983340234365"
    }
  },
  {
    "service_request": "2022-951319",
    "request_type": "Trash/Recycling",
    "request_reason": "MIssed Recycling Pick-Up",
    "date_created": "2022-12-08T18:55:24.000",
    "date_modified": "2022-12-08T18:55:25.000",
    "request_status": "Pending",
    "responsible_agency": "Department of Sanitation",
    "final_address": "1144 Melpomene St",
    "address_councildis": "B",
    "status": "Assigned to Contractor",
    "contractor": "Richards Disposal",
    "rowid": "951319",
    "final_x": "3680131.77967",
    "final_y": "524932.408444",
    "longitude": "-90.07261953369235",
    "latitude": "29.937423481282675",
    "geocoded_column": {
      "latitude": "29.937423481282675",
      "longitude": "-90.07261953369235"
    }
  },
  {
    "service_request": "2022-951318",
    "request_type": "Traffic Signals/Signs/Striping/Streetlights",
    "request_reason": "Street Light Outage/Malfunction",
    "date_created": "2022-12-08T18:36:52.000",
    "date_modified": "2022-12-08T18:36:53.000",
    "request_status": "Pending",
    "responsible_agency": "Department of Public Works",
    "final_address": "4628 Bonita Dr",
    "address_councildis": "E",
    "status": "Pending",
    "contractor": "Legacy Professional Services",
    "rowid": "951318",
    "final_x": "3704506.8042",
    "final_y": "554535.770584",
    "longitude": "-89.9945745813066",
    "latitude": "30.01806191166592",
    "geocoded_column": {
      "latitude": "30.01806191166592",
      "longitude": "-89.9945745813066"
    }
  },
  {
    "service_request": "2022-951317",
    "request_type": "Trash/Recycling",
    "request_reason": "MIssed Recycling Pick-Up",
    "date_created": "2022-12-08T18:35:06.000",
    "date_modified": "2022-12-08T18:35:06.000",
    "request_status": "Pending",
    "responsible_agency": "Department of Sanitation",
    "final_address": "6316 Story St, New Orleans, Louisiana, 70118",
    "address_councildis": "A",
    "status": "Assigned to Contractor",
    "contractor": "Richards Disposal",
    "rowid": "951317",
    "final_x": "3666276.49396",
    "final_y": "526644.957054",
    "longitude": "-90.11630435900773",
    "latitude": "29.942544337178976",
    "geocoded_column": {
      "latitude": "29.942544337178976",
      "longitude": "-90.11630435900773"
    }
  },
  {
    "service_request": "2022-951316",
    "request_type": "Trash/Recycling",
    "request_reason": "Order Recycling Cart",
    "date_created": "2022-12-08T18:31:32.000",
    "date_modified": "2022-12-08T18:31:32.000",
    "request_status": "Pending",
    "responsible_agency": "Department of Sanitation",
    "final_address": "2035 Jena St",
    "address_councildis": "B",
    "status": "Pending",
    "rowid": "951316",
    "final_x": "3670318.07636",
    "final_y": "522570.248058",
    "longitude": "-90.1036821768604",
    "latitude": "29.931221549715904",
    "geocoded_column": {
      "latitude": "29.931221549715904",
      "longitude": "-90.1036821768604"
    }
  },
  {
    "service_request": "2022-951313",
    "request_type": "Trash/Recycling",
    "request_reason": "Replace Recycling Cart",
    "date_created": "2022-12-08T18:12:23.000",
    "date_modified": "2022-12-08T18:12:23.000",
    "request_status": "Pending",
    "responsible_agency": "Department of Sanitation",
    "final_address": "2308 Conti St",
    "address_councildis": "B",
    "status": "Pending",
    "rowid": "951313",
    "final_x": "3677312.6669",
    "final_y": "535033.132934",
    "longitude": "-90.08117119363384",
    "latitude": "29.96528208583582",
    "geocoded_column": {
      "latitude": "29.96528208583582",
      "longitude": "-90.08117119363384"
    }
  },
  {
    "service_request": "2022-951312",
    "request_type": "Trash/Recycling",
    "request_reason": "MIssed Recycling Pick-Up",
    "date_created": "2022-12-08T18:11:04.000",
    "date_modified": "2022-12-08T18:11:05.000",
    "request_status": "Pending",
    "responsible_agency": "Department of Sanitation",
    "final_address": "2308 Conti St",
    "address_councildis": "B",
    "status": "Assigned to Contractor",
    "contractor": "Richards Disposal",
    "rowid": "951312",
    "final_x": "3677312.6669",
    "final_y": "535033.132934",
    "longitude": "-90.08117119363384",
    "latitude": "29.96528208583582",
    "geocoded_column": {
      "latitude": "29.96528208583582",
      "longitude": "-90.08117119363384"
    }
  },
  {
    "service_request": "2022-951311",
    "request_type": "Traffic Signals/Signs/Striping/Streetlights",
    "request_reason": "Street Light Outage/Malfunction",
    "date_created": "2022-12-08T18:08:31.000",
    "date_modified": "2022-12-08T18:08:32.000",
    "request_status": "Pending",
    "responsible_agency": "Department of Public Works",
    "final_address": "6058 Pasteur Blvd",
    "address_councildis": "D",
    "status": "Pending",
    "contractor": "Legacy Professional Services",
    "rowid": "951311",
    "final_x": "3682591.54613",
    "final_y": "555458.836633",
    "longitude": "-90.0637861053987",
    "latitude": "30.021285841159433",
    "geocoded_column": {
      "latitude": "30.021285841159433",
      "longitude": "-90.0637861053987"
    }
  },
  {
    "service_request": "2022-951310",
    "request_type": "Trash/Recycling",
    "request_reason": "Order Recycling Cart",
    "date_created": "2022-12-08T18:03:17.000",
    "date_modified": "2022-12-08T18:03:17.000",
    "request_status": "Pending",
    "responsible_agency": "Department of Sanitation",
    "final_address": "7801 Weaver Ave",
    "address_councildis": "E",
    "status": "Pending",
    "rowid": "951310",
    "final_x": "3707189.60484",
    "final_y": "564873.237346",
    "longitude": "-89.9857138820135",
    "latitude": "30.04639942095281",
    "geocoded_column": {
      "latitude": "30.04639942095281",
      "longitude": "-89.9857138820135"
    }
  },
  {
    "service_request": "2022-951309",
    "request_type": "Traffic Signals/Signs/Striping/Streetlights",
    "request_reason": "Street Light Outage/Malfunction",
    "date_created": "2022-12-08T18:01:41.000",
    "date_modified": "2022-12-08T18:01:42.000",
    "request_status": "Pending",
    "responsible_agency": "Department of Public Works",
    "final_address": "900 BLK Wilson Dr",
    "address_councildis": "A",
    "status": "Pending",
    "contractor": "Legacy Professional Services",
    "rowid": "951309",
    "final_x": "3674126.72914",
    "final_y": "540220.934766",
    "longitude": "-90.09105462301493",
    "latitude": "29.979642125440645",
    "geocoded_column": {
      "latitude": "29.979642125440645",
      "longitude": "-90.09105462301493"
    }
  },
  {
    "service_request": "2022-951307",
    "request_type": "Traffic Signals/Signs/Striping/Streetlights",
    "request_reason": "Street Light Outage/Malfunction",
    "date_created": "2022-12-08T17:46:45.000",
    "date_modified": "2022-12-08T17:46:46.000",
    "request_status": "Pending",
    "responsible_agency": "Department of Public Works",
    "final_address": "2502 Audubon St, New Orleans, Louisiana, 70125",
    "address_councildis": "A",
    "status": "Pending",
    "contractor": "Legacy Professional Services",
    "rowid": "951307",
    "final_x": "3667040.94567",
    "final_y": "530290.291585",
    "longitude": "-90.11376830343504",
    "latitude": "29.952545477424074",
    "geocoded_column": {
      "latitude": "29.952545477424074",
      "longitude": "-90.11376830343504"
    }
  },
  {
    "service_request": "2022-951306",
    "request_type": "Trash/Recycling",
    "request_reason": "Request a Large Item Pick Up",
    "date_created": "2022-12-08T17:44:39.000",
    "date_modified": "2022-12-08T17:44:40.000",
    "request_status": "Pending",
    "responsible_agency": "Department of Sanitation",
    "final_address": "4649 Clara St",
    "address_councildis": "B",
    "status": "Assigned to Contractor",
    "contractor": "Richards Disposal",
    "rowid": "951306",
    "final_x": "3669319.73703",
    "final_y": "525020.378813",
    "longitude": "-90.10675101777124",
    "latitude": "29.937988043424895",
    "geocoded_column": {
      "latitude": "29.937988043424895",
      "longitude": "-90.10675101777124"
    }
  },
  {
    "service_request": "2022-951305",
    "request_type": "Trash/Recycling",
    "request_reason": "Missed Trash Pick-Up",
    "date_created": "2022-12-08T17:42:16.000",
    "date_modified": "2022-12-08T17:42:17.000",
    "request_status": "Pending",
    "responsible_agency": "Department of Sanitation",
    "final_address": "4600 Baronne St",
    "address_councildis": "B",
    "status": "Assigned to Contractor",
    "contractor": "Richards Disposal",
    "rowid": "951305",
    "final_x": "3669946.5417",
    "final_y": "521485.633337",
    "longitude": "-90.10489177569625",
    "latitude": "29.928250164271446",
    "geocoded_column": {
      "latitude": "29.928250164271446",
      "longitude": "-90.10489177569625"
    }
  },
  {
    "service_request": "2022-951304",
    "request_type": "Trash/Recycling",
    "request_reason": "MIssed Recycling Pick-Up",
    "date_created": "2022-12-08T17:39:23.000",
    "date_modified": "2022-12-08T17:39:24.000",
    "request_status": "Pending",
    "responsible_agency": "Department of Sanitation",
    "final_address": "6030 Hurst St",
    "address_councildis": "A",
    "status": "Assigned to Contractor",
    "contractor": "Richards Disposal",
    "rowid": "951304",
    "final_x": "3665256.5074",
    "final_y": "521786.983866",
    "longitude": "-90.11968715854152",
    "latitude": "29.92921620713637",
    "geocoded_column": {
      "latitude": "29.92921620713637",
      "longitude": "-90.11968715854152"
    }
  },
  {
    "service_request": "2022-951303",
    "request_type": "Roads/Drainage",
    "request_reason": "Street Subsidence (Sinking)",
    "date_created": "2022-12-08T17:35:44.000",
    "date_modified": "2022-12-08T17:35:44.000",
    "request_status": "Pending",
    "responsible_agency": "Department of Public Works",
    "final_address": "5803 Franklin Ave",
    "address_councildis": "D",
    "status": "Pending",
    "rowid": "951303",
    "final_x": "3686549.14729",
    "final_y": "554529.31132",
    "longitude": "-90.05131407113214",
    "latitude": "30.018608828561625",
    "geocoded_column": {
      "latitude": "30.018608828561625",
      "longitude": "-90.05131407113214"
    }
  },
  {
    "service_request": "2022-951302",
    "request_type": "Trash/Recycling",
    "request_reason": "MIssed Recycling Pick-Up",
    "date_created": "2022-12-08T17:34:16.000",
    "date_modified": "2022-12-08T17:34:17.000",
    "request_status": "Pending",
    "responsible_agency": "Department of Sanitation",
    "final_address": "5026 Loyola Ave",
    "address_councildis": "B",
    "status": "Assigned to Contractor",
    "contractor": "Richards Disposal",
    "rowid": "951302",
    "final_x": "3668572.8779",
    "final_y": "522828.316283",
    "longitude": "-90.10918285886576",
    "latitude": "29.93198253673753",
    "geocoded_column": {
      "latitude": "29.93198253673753",
      "longitude": "-90.10918285886576"
    }
  },
  {
    "service_request": "2022-951301",
    "request_type": "Trash/Recycling",
    "request_reason": "Order Recycling Cart",
    "date_created": "2022-12-08T17:33:48.000",
    "date_modified": "2022-12-08T17:33:49.000",
    "request_status": "Pending",
    "responsible_agency": "Department of Sanitation",
    "final_address": "6868 General Haig St",
    "address_councildis": "A",
    "status": "Pending",
    "rowid": "951301",
    "final_x": "3670962.95105",
    "final_y": "553002.658775",
    "longitude": "-90.10061282888314",
    "latitude": "30.01488136427897",
    "geocoded_column": {
      "latitude": "30.01488136427897",
      "longitude": "-90.10061282888314"
    }
  },
  {
    "service_request": "2022-951300",
    "request_type": "Trash/Recycling",
    "request_reason": "Missed Trash Pick-Up",
    "date_created": "2022-12-08T17:31:45.000",
    "date_modified": "2022-12-08T17:31:46.000",
    "request_status": "Pending",
    "responsible_agency": "Department of Sanitation",
    "final_address": "708 Alvar St",
    "address_councildis": "C",
    "status": "Assigned to Contractor",
    "contractor": "IV Waste",
    "rowid": "951300",
    "final_x": "3691105.07785",
    "final_y": "533970.655685",
    "longitude": "-90.03765355321653",
    "latitude": "29.96193900378513",
    "geocoded_column": {
      "latitude": "29.96193900378513",
      "longitude": "-90.03765355321653"
    }
  },
  {
    "service_request": "2022-951299",
    "request_type": "Traffic Signals/Signs/Striping/Streetlights",
    "request_reason": "Street Light Outage/Malfunction",
    "date_created": "2022-12-08T17:25:34.000",
    "date_modified": "2022-12-08T17:25:35.000",
    "request_status": "Pending",
    "responsible_agency": "Department of Public Works",
    "final_address": "CLARA ST & VALENCE ST",
    "address_councildis": "B",
    "status": "Pending",
    "contractor": "Legacy Professional Services",
    "rowid": "951299",
    "final_x": "3669322.8",
    "final_y": "524977.78",
    "longitude": "-90.1067427873424",
    "latitude": "29.93787082026837",
    "geocoded_column": {
      "latitude": "29.93787082026837",
      "longitude": "-90.1067427873424"
    }
  },
  {
    "service_request": "2022-951298",
    "request_type": "Trash/Recycling",
    "request_reason": "MIssed Recycling Pick-Up",
    "date_created": "2022-12-08T17:15:38.000",
    "date_modified": "2022-12-08T17:15:39.000",
    "request_status": "Pending",
    "responsible_agency": "Department of Sanitation",
    "final_address": "6016 St Charles Ave",
    "address_councildis": "A",
    "status": "Assigned to Contractor",
    "contractor": "Richards Disposal",
    "rowid": "951298",
    "final_x": "3665536.5257",
    "final_y": "522450.08089",
    "longitude": "-90.11878100278054",
    "latitude": "29.931031355859783",
    "geocoded_column": {
      "latitude": "29.931031355859783",
      "longitude": "-90.11878100278054"
    }
  },
  {
    "service_request": "2022-951297",
    "request_type": "Abandoned Vehicles",
    "request_reason": "Abandoned/Junk Vehicles",
    "date_created": "2022-12-08T17:13:43.000",
    "date_modified": "2022-12-08T17:13:43.000",
    "request_status": "Pending",
    "responsible_agency": "Department of Public Works",
    "final_address": "3334 Grand Route St John St",
    "address_councildis": "A",
    "status": "Pending",
    "rowid": "951297",
    "final_x": "3675496.74606",
    "final_y": "540299.792139",
    "longitude": "-90.08672484144358",
    "latitude": "29.979818043747027",
    "geocoded_column": {
      "latitude": "29.979818043747027",
      "longitude": "-90.08672484144358"
    }
  },
  {
    "service_request": "2022-951296",
    "request_type": "Trash/Recycling",
    "request_reason": "Missed Trash Pick-Up",
    "date_created": "2022-12-08T16:59:47.000",
    "date_modified": "2022-12-08T16:59:48.000",
    "request_status": "Pending",
    "responsible_agency": "Department of Sanitation",
    "final_address": "4035 St Charles Ave",
    "address_councildis": "B",
    "status": "Assigned to Contractor",
    "contractor": "Richards Disposal",
    "rowid": "951296",
    "final_x": "3672023.39918",
    "final_y": "521096.695673",
    "longitude": "-90.09834881655112",
    "latitude": "29.92711932359391",
    "geocoded_column": {
      "latitude": "29.92711932359391",
      "longitude": "-90.09834881655112"
    }
  },
  {
    "service_request": "2022-951295",
    "request_type": "Trash/Recycling",
    "request_reason": "Dead Animal Pick Up",
    "date_created": "2022-12-08T16:54:31.000",
    "date_modified": "2022-12-08T16:54:32.000",
    "request_status": "Pending",
    "responsible_agency": "Department of Sanitation",
    "final_address": "34 Audubon Blvd",
    "address_councildis": "A",
    "status": "Assigned to Contractor",
    "contractor": "Richards Disposal",
    "rowid": "951295",
    "final_x": "3665352.32333",
    "final_y": "527192.586943",
    "longitude": "-90.11920387000889",
    "latitude": "29.94407710152105",
    "geocoded_column": {
      "latitude": "29.94407710152105",
      "longitude": "-90.11920387000889"
    }
  },
  {
    "service_request": "2022-951294",
    "request_type": "Roads/Drainage",
    "request_reason": "Catch Basin - Clogged",
    "date_created": "2022-12-08T16:53:54.000",
    "date_modified": "2022-12-08T16:53:54.000",
    "request_status": "Pending",
    "responsible_agency": "Department of Public Works",
    "final_address": "2240 Magazine St",
    "address_councildis": "B",
    "status": "Pending",
    "rowid": "951294",
    "final_x": "3678602.17992",
    "final_y": "521837.538234",
    "longitude": "-90.07755566696517",
    "latitude": "29.9289597911944",
    "geocoded_column": {
      "latitude": "29.9289597911944",
      "longitude": "-90.07755566696517"
    }
  },
  {
    "service_request": "2022-951293",
    "request_type": "Trash/Recycling",
    "request_reason": "Missed Trash Pick-Up",
    "date_created": "2022-12-08T16:53:53.000",
    "date_modified": "2022-12-08T16:53:54.000",
    "request_status": "Pending",
    "responsible_agency": "Department of Sanitation",
    "final_address": "1131 Orange St",
    "address_councildis": "B",
    "status": "Assigned to Contractor",
    "contractor": "Richards Disposal",
    "rowid": "951293",
    "final_x": "3679856.47944",
    "final_y": "523577.759035",
    "longitude": "-90.07353569564594",
    "latitude": "29.933706968638734",
    "geocoded_column": {
      "latitude": "29.933706968638734",
      "longitude": "-90.07353569564594"
    }
  },
  {
    "service_request": "2022-951292",
    "request_type": "Trash/Recycling",
    "request_reason": "Missed Trash Pick-Up",
    "date_created": "2022-12-08T16:45:50.000",
    "date_modified": "2022-12-08T16:45:53.000",
    "request_status": "Pending",
    "responsible_agency": "Department of Sanitation",
    "final_address": "2523 Bayou Rd",
    "address_councildis": "D",
    "status": "Assigned to Contractor",
    "contractor": "IV Waste",
    "rowid": "951292",
    "final_x": "3678795.51586",
    "final_y": "539119.877002",
    "longitude": "-90.076346855033",
    "latitude": "29.976474591089033",
    "geocoded_column": {
      "latitude": "29.976474591089033",
      "longitude": "-90.076346855033"
    }
  },
  {
    "service_request": "2022-951291",
    "request_type": "Traffic Signals/Signs/Striping/Streetlights",
    "request_reason": "Street Light Outage/Malfunction",
    "date_created": "2022-12-08T16:31:10.000",
    "date_modified": "2022-12-08T16:31:11.000",
    "request_status": "Pending",
    "responsible_agency": "Department of Public Works",
    "final_address": "2008 Marengo St",
    "address_councildis": "B",
    "status": "Pending",
    "contractor": "Legacy Professional Services",
    "rowid": "951291",
    "final_x": "3671746.52321",
    "final_y": "522521.84377",
    "longitude": "-90.09917438871805",
    "latitude": "29.93104622568539",
    "geocoded_column": {
      "latitude": "29.93104622568539",
      "longitude": "-90.09917438871805"
    }
  },
  {
    "service_request": "2022-951290",
    "request_type": "Trash/Recycling",
    "request_reason": "Missed Trash Pick-Up",
    "date_created": "2022-12-08T16:27:53.000",
    "date_modified": "2022-12-08T16:27:53.000",
    "request_status": "Pending",
    "responsible_agency": "Department of Sanitation",
    "final_address": "2423 Andry St",
    "address_councildis": "E",
    "status": "Assigned to Contractor",
    "contractor": "Waste Pro",
    "rowid": "951290",
    "final_x": "3698596.93264",
    "final_y": "539008.08257",
    "longitude": "-90.01381240325686",
    "latitude": "29.97555505513653",
    "geocoded_column": {
      "latitude": "29.97555505513653",
      "longitude": "-90.01381240325686"
    }
  },
  {
    "service_request": "2022-951289",
    "request_type": "Trash/Recycling",
    "request_reason": "Request a Large Item Pick Up",
    "date_created": "2022-12-08T16:23:55.000",
    "date_modified": "2022-12-08T16:23:56.000",
    "request_status": "Pending",
    "responsible_agency": "Department of Sanitation",
    "final_address": "1620 Agriculture St",
    "address_councildis": "D",
    "status": "Assigned to Contractor",
    "contractor": "IV Waste",
    "rowid": "951289",
    "final_x": "3680092.77935",
    "final_y": "542911.566029",
    "longitude": "-90.07211789291034",
    "latitude": "29.98686122153539",
    "geocoded_column": {
      "latitude": "29.98686122153539",
      "longitude": "-90.07211789291034"
    }
  },
  {
    "service_request": "2022-951288",
    "request_type": "Abandoned Vehicles",
    "request_reason": "Abandoned/Junk Vehicles",
    "date_created": "2022-12-08T16:23:31.000",
    "date_modified": "2022-12-08T17:37:48.000",
    "case_close_date": "2022-12-08T11:37:48.000",
    "request_status": "Closed",
    "responsible_agency": "Department of Public Works",
    "final_address": "4665 Dart St",
    "address_councildis": "B",
    "status": "Resolved",
    "rowid": "951288",
    "final_x": "3668830.38926",
    "final_y": "531865.012035",
    "longitude": "-90.10806486523028",
    "latitude": "29.95682295076294",
    "geocoded_column": {
      "latitude": "29.95682295076294",
      "longitude": "-90.10806486523028"
    }
  },
  {
    "service_request": "2022-951287",
    "request_type": "Trash/Recycling",
    "request_reason": "Request a Large Item Pick Up",
    "date_created": "2022-12-08T16:14:54.000",
    "date_modified": "2022-12-08T16:14:55.000",
    "request_status": "Pending",
    "responsible_agency": "Department of Sanitation",
    "final_address": "3111 Sullen Pl",
    "address_councildis": "C",
    "status": "Assigned to Contractor",
    "contractor": "Richards Disposal",
    "rowid": "951287",
    "final_x": "3707735.68836",
    "final_y": "519289.151735",
    "longitude": "-89.98568241996712",
    "latitude": "29.92104253899222",
    "geocoded_column": {
      "latitude": "29.92104253899222",
      "longitude": "-89.98568241996712"
    }
  },
  {
    "service_request": "2022-951286",
    "request_type": "Abandoned Vehicles",
    "request_reason": "Abandoned/Junk Vehicles",
    "date_created": "2022-12-08T16:13:30.000",
    "date_modified": "2022-12-08T16:13:30.000",
    "request_status": "Pending",
    "responsible_agency": "Department of Public Works",
    "final_address": "5600 N Claiborne Ave",
    "address_councildis": "E",
    "status": "Pending",
    "rowid": "951286",
    "final_x": "3698565.28343",
    "final_y": "535431.07975",
    "longitude": "-90.01404243183387",
    "latitude": "29.965720585685766",
    "geocoded_column": {
      "latitude": "29.965720585685766",
      "longitude": "-90.01404243183387"
    }
  },
  {
    "service_request": "2022-951285",
    "request_type": "Trash/Recycling",
    "request_reason": "MIssed Recycling Pick-Up",
    "date_created": "2022-12-08T16:10:11.000",
    "date_modified": "2022-12-08T16:10:12.000",
    "request_status": "Pending",
    "responsible_agency": "Department of Sanitation",
    "final_address": "8803 Pritchard Pl, New Orleans, Louisiana, 70118",
    "address_councildis": "A",
    "status": "Assigned to Contractor",
    "contractor": "Richards Disposal",
    "rowid": "951285",
    "final_x": "3664224.0066",
    "final_y": "534607.766918",
    "longitude": "-90.1225189023639",
    "latitude": "29.964499266032774",
    "geocoded_column": {
      "latitude": "29.964499266032774",
      "longitude": "-90.1225189023639"
    }
  },
  {
    "service_request": "2022-951284",
    "request_type": "Trash/Recycling",
    "request_reason": "MIssed Recycling Pick-Up",
    "date_created": "2022-12-08T16:05:18.000",
    "date_modified": "2022-12-08T16:05:19.000",
    "request_status": "Pending",
    "responsible_agency": "Department of Sanitation",
    "final_address": "6022 Pitt St",
    "address_councildis": "A",
    "status": "Assigned to Contractor",
    "contractor": "Richards Disposal",
    "rowid": "951284",
    "final_x": "3665083.62919",
    "final_y": "521135.197945",
    "longitude": "-90.12025468730062",
    "latitude": "29.927429035267803",
    "geocoded_column": {
      "latitude": "29.927429035267803",
      "longitude": "-90.12025468730062"
    }
  },
  {
    "service_request": "2022-951283",
    "request_type": "Abandoned Vehicles",
    "request_reason": "Abandoned/Junk Vehicles",
    "date_created": "2022-12-08T16:04:26.000",
    "date_modified": "2022-12-08T16:04:27.000",
    "request_status": "Pending",
    "responsible_agency": "Department of Public Works",
    "final_address": "4507 Tchoupitoulas St",
    "address_councildis": "B",
    "status": "Pending",
    "rowid": "951283",
    "final_x": "3670718.58318",
    "final_y": "517447.57375",
    "longitude": "-90.10259152367684",
    "latitude": "29.91712400324288",
    "geocoded_column": {
      "latitude": "29.91712400324288",
      "longitude": "-90.10259152367684"
    }
  },
  {
    "service_request": "2022-951282",
    "request_type": "Trash/Recycling",
    "request_reason": "MIssed Recycling Pick-Up",
    "date_created": "2022-12-08T16:03:15.000",
    "date_modified": "2022-12-08T16:03:16.000",
    "request_status": "Pending",
    "responsible_agency": "Department of Sanitation",
    "final_address": "2634 Upperline St",
    "address_councildis": "B",
    "status": "Assigned to Contractor",
    "contractor": "Richards Disposal",
    "rowid": "951282",
    "final_x": "3669146.60993",
    "final_y": "524540.253052",
    "longitude": "-90.10731381522838",
    "latitude": "29.93667294696024",
    "geocoded_column": {
      "latitude": "29.93667294696024",
      "longitude": "-90.10731381522838"
    }
  },
  {
    "service_request": "2022-951281",
    "request_type": "Trash/Recycling",
    "request_reason": "Repair Trash Cart",
    "date_created": "2022-12-08T16:00:04.000",
    "date_modified": "2022-12-08T16:00:04.000",
    "request_status": "Pending",
    "responsible_agency": "Department of Sanitation",
    "final_address": "5617 Baccich St",
    "address_councildis": "D",
    "status": "Assigned to Contractor",
    "contractor": "IV Waste",
    "rowid": "951281",
    "final_x": "3687643.98396",
    "final_y": "553918.149527",
    "longitude": "-90.04787645575381",
    "latitude": "30.01689463240816",
    "geocoded_column": {
      "latitude": "30.01689463240816",
      "longitude": "-90.04787645575381"
    }
  },
  {
    "service_request": "2022-951280",
    "request_type": "Trash/Recycling",
    "request_reason": "Order Trash Cart",
    "date_created": "2022-12-08T15:57:36.000",
    "date_modified": "2022-12-08T15:57:37.000",
    "request_status": "Pending",
    "responsible_agency": "Department of Sanitation",
    "final_address": "1121 Bartholomew St",
    "address_councildis": "C",
    "status": "Assigned to Contractor",
    "contractor": "IV Waste",
    "rowid": "951280",
    "final_x": "3691883.85603",
    "final_y": "535529.382214",
    "longitude": "-90.03513853617868",
    "latitude": "29.966200717380755",
    "geocoded_column": {
      "latitude": "29.966200717380755",
      "longitude": "-90.03513853617868"
    }
  },
  {
    "service_request": "2022-951279",
    "request_type": "Trash/Recycling",
    "request_reason": "Repair Trash Cart",
    "date_created": "2022-12-08T15:57:02.000",
    "date_modified": "2022-12-08T15:57:03.000",
    "request_status": "Pending",
    "responsible_agency": "Department of Sanitation",
    "final_address": "136 Alvin Callender St",
    "address_councildis": "A",
    "status": "Assigned to Contractor",
    "contractor": "Richards Disposal",
    "rowid": "951279",
    "final_x": "3661052.99917",
    "final_y": "523383.265851",
    "longitude": "-90.13290410830635",
    "latitude": "29.93372723550225",
    "geocoded_column": {
      "latitude": "29.93372723550225",
      "longitude": "-90.13290410830635"
    }
  },
  {
    "service_request": "2022-951277",
    "request_type": "Trash/Recycling",
    "request_reason": "Request a Large Item Pick Up",
    "date_created": "2022-12-08T15:55:28.000",
    "date_modified": "2022-12-08T15:55:29.000",
    "request_status": "Pending",
    "responsible_agency": "Department of Sanitation",
    "final_address": "1916 Brutus St",
    "address_councildis": "D",
    "status": "Assigned to Contractor",
    "contractor": "IV Waste",
    "rowid": "951277",
    "final_x": "3681789.68258",
    "final_y": "550096.555732",
    "longitude": "-90.06650709323792",
    "latitude": "30.00656592040026",
    "geocoded_column": {
      "latitude": "30.00656592040026",
      "longitude": "-90.06650709323792"
    }
  },
  {
    "service_request": "2022-951276",
    "request_type": "Traffic Signals/Signs/Striping/Streetlights",
    "request_reason": "Street Light Outage/Malfunction",
    "date_created": "2022-12-08T15:54:57.000",
    "date_modified": "2022-12-08T15:54:58.000",
    "request_status": "Pending",
    "responsible_agency": "Department of Public Works",
    "final_address": "5610 Cherlyn Dr",
    "address_councildis": "A",
    "status": "Pending",
    "contractor": "Legacy Professional Services",
    "rowid": "951276",
    "final_x": "3665104.80167",
    "final_y": "544988.977743",
    "longitude": "-90.11939009032042",
    "latitude": "29.993018498530795",
    "geocoded_column": {
      "latitude": "29.993018498530795",
      "longitude": "-90.11939009032042"
    }
  },
  {
    "service_request": "2022-951275",
    "request_type": "Traffic Signals/Signs/Striping/Streetlights",
    "request_reason": "Street Light Outage/Malfunction",
    "date_created": "2022-12-08T15:54:03.000",
    "date_modified": "2022-12-08T15:54:04.000",
    "request_status": "Pending",
    "responsible_agency": "Department of Public Works",
    "final_address": "5610 Cherlyn Dr",
    "address_councildis": "A",
    "status": "Pending",
    "contractor": "Legacy Professional Services",
    "rowid": "951275",
    "final_x": "3665104.80167",
    "final_y": "544988.977743",
    "longitude": "-90.11939009032042",
    "latitude": "29.993018498530795",
    "geocoded_column": {
      "latitude": "29.993018498530795",
      "longitude": "-90.11939009032042"
    }
  },
  {
    "service_request": "2022-951274",
    "request_type": "Traffic Signals/Signs/Striping/Streetlights",
    "request_reason": "Street Light Outage/Malfunction",
    "date_created": "2022-12-08T15:53:21.000",
    "date_modified": "2022-12-08T15:53:22.000",
    "request_status": "Pending",
    "responsible_agency": "Department of Public Works",
    "final_address": "5610 Cherlyn Dr",
    "address_councildis": "A",
    "status": "Pending",
    "contractor": "Legacy Professional Services",
    "rowid": "951274",
    "final_x": "3665104.80167",
    "final_y": "544988.977743",
    "longitude": "-90.11939009032042",
    "latitude": "29.993018498530795",
    "geocoded_column": {
      "latitude": "29.993018498530795",
      "longitude": "-90.11939009032042"
    }
  },
  {
    "service_request": "2022-951273",
    "request_type": "Trash/Recycling",
    "request_reason": "MIssed Recycling Pick-Up",
    "date_created": "2022-12-08T15:52:53.000",
    "date_modified": "2022-12-08T15:52:54.000",
    "request_status": "Pending",
    "responsible_agency": "Department of Sanitation",
    "final_address": "6100 Block of Patton St, New Orleans, Louisiana, 70118",
    "status": "Assigned to Contractor",
    "rowid": "951273",
    "longitude": "0.0",
    "latitude": "0.0",
    "geocoded_column": {
      "latitude": "0.0",
      "longitude": "0.0"
    }
  },
  {
    "service_request": "2022-951272",
    "request_type": "Trash/Recycling",
    "request_reason": "Order Trash Cart",
    "date_created": "2022-12-08T15:51:28.000",
    "date_modified": "2022-12-08T15:51:29.000",
    "request_status": "Pending",
    "responsible_agency": "Department of Sanitation",
    "final_address": "1121 Bartholomew St",
    "address_councildis": "C",
    "status": "Assigned to Contractor",
    "contractor": "IV Waste",
    "rowid": "951272",
    "final_x": "3691883.85603",
    "final_y": "535529.382214",
    "longitude": "-90.03513853617868",
    "latitude": "29.966200717380755",
    "geocoded_column": {
      "latitude": "29.966200717380755",
      "longitude": "-90.03513853617868"
    }
  },
  {
    "service_request": "2022-951271",
    "request_type": "Trash/Recycling",
    "request_reason": "Order Trash Cart",
    "date_created": "2022-12-08T15:51:14.000",
    "date_modified": "2022-12-08T15:51:15.000",
    "request_status": "Pending",
    "responsible_agency": "Department of Sanitation",
    "final_address": "1119 Bartholomew St",
    "address_councildis": "C",
    "status": "Assigned to Contractor",
    "contractor": "IV Waste",
    "rowid": "951271",
    "final_x": "3691880.73104",
    "final_y": "535517.401734",
    "longitude": "-90.03514883343432",
    "latitude": "29.966167872629313",
    "geocoded_column": {
      "latitude": "29.966167872629313",
      "longitude": "-90.03514883343432"
    }
  },
  {
    "service_request": "2022-951270",
    "request_type": "Trash/Recycling",
    "request_reason": "Request a Large Item Pick Up",
    "date_created": "2022-12-08T15:48:26.000",
    "date_modified": "2022-12-08T15:48:27.000",
    "request_status": "Pending",
    "responsible_agency": "Department of Sanitation",
    "final_address": "3122 Desaix Blvd",
    "address_councildis": "A",
    "status": "Assigned to Contractor",
    "contractor": "IV Waste",
    "rowid": "951270",
    "final_x": "3678918.73115",
    "final_y": "543441.432398",
    "longitude": "-90.0758079123691",
    "latitude": "29.988353649256137",
    "geocoded_column": {
      "latitude": "29.988353649256137",
      "longitude": "-90.0758079123691"
    }
  },
  {
    "service_request": "2022-951269",
    "request_type": "Trash/Recycling",
    "request_reason": "Missed Trash Pick-Up",
    "date_created": "2022-12-08T15:47:44.000",
    "date_modified": "2022-12-08T15:47:44.000",
    "request_status": "Pending",
    "responsible_agency": "Department of Sanitation",
    "final_address": "4323 Downman Rd",
    "address_councildis": "D",
    "status": "Assigned to Contractor",
    "contractor": "Waste Pro",
    "rowid": "951269",
    "final_x": "3696207.92855",
    "final_y": "553046.302999",
    "longitude": "-90.02084964972676",
    "latitude": "30.014230432858835",
    "geocoded_column": {
      "latitude": "30.014230432858835",
      "longitude": "-90.02084964972676"
    }
  },
  {
    "service_request": "2022-951268",
    "request_type": "Trash/Recycling",
    "request_reason": "Request a Large Item Pick Up",
    "date_created": "2022-12-08T15:45:11.000",
    "date_modified": "2022-12-08T15:45:12.000",
    "request_status": "Pending",
    "responsible_agency": "Department of Sanitation",
    "final_address": "6634 Lamb Rd",
    "address_councildis": "D",
    "status": "Assigned to Contractor",
    "contractor": "Waste Pro",
    "rowid": "951268",
    "final_x": "3697969.04983",
    "final_y": "556107.899866",
    "longitude": "-90.01517414250412",
    "latitude": "30.02259307963211",
    "geocoded_column": {
      "latitude": "30.02259307963211",
      "longitude": "-90.01517414250412"
    }
  },
  {
    "service_request": "2022-951267",
    "request_type": "Trash/Recycling",
    "request_reason": "Missed Trash Pick-Up",
    "date_created": "2022-12-08T15:44:45.000",
    "date_modified": "2022-12-08T15:44:45.000",
    "request_status": "Pending",
    "responsible_agency": "Department of Sanitation",
    "final_address": "2714 St Charles Ave",
    "address_councildis": "B",
    "status": "Assigned to Contractor",
    "contractor": "Richards Disposal",
    "rowid": "951267",
    "final_x": "3676128.69819",
    "final_y": "522580.954554",
    "longitude": "-90.08533840213025",
    "latitude": "29.93107825073331",
    "geocoded_column": {
      "latitude": "29.93107825073331",
      "longitude": "-90.08533840213025"
    }
  },
  {
    "service_request": "2022-951266",
    "request_type": "Trash/Recycling",
    "request_reason": "MIssed Recycling Pick-Up",
    "date_created": "2022-12-08T15:40:31.000",
    "date_modified": "2022-12-08T15:40:32.000",
    "request_status": "Pending",
    "responsible_agency": "Department of Sanitation",
    "final_address": "502 S Scott St",
    "address_councildis": "B",
    "status": "Assigned to Contractor",
    "contractor": "Richards Disposal",
    "rowid": "951266",
    "final_x": "3670824.25217",
    "final_y": "536445.320263",
    "longitude": "-90.10161339303356",
    "latitude": "29.969358496726638",
    "geocoded_column": {
      "latitude": "29.969358496726638",
      "longitude": "-90.10161339303356"
    }
  },
  {
    "service_request": "2022-951264",
    "request_type": "Trash/Recycling",
    "request_reason": "Replace Trash Cart",
    "date_created": "2022-12-08T15:37:09.000",
    "date_modified": "2022-12-08T15:37:10.000",
    "request_status": "Pending",
    "responsible_agency": "Department of Sanitation",
    "final_address": "4425 Francesco Rd",
    "address_councildis": "E",
    "status": "Assigned to Contractor",
    "contractor": "Waste Pro",
    "rowid": "951264",
    "final_x": "3762101.13814",
    "final_y": "572839.488809",
    "longitude": "-89.81183538592107",
    "latitude": "30.06641290880831",
    "geocoded_column": {
      "latitude": "30.06641290880831",
      "longitude": "-89.81183538592107"
    }
  },
  {
    "service_request": "2022-951263",
    "request_type": "Trash/Recycling",
    "request_reason": "Missed Trash Pick-Up",
    "date_created": "2022-12-08T15:33:11.000",
    "date_modified": "2022-12-08T15:33:12.000",
    "request_status": "Pending",
    "responsible_agency": "Department of Sanitation",
    "final_address": "1441 Spain St",
    "address_councildis": "C",
    "status": "Assigned to Contractor",
    "contractor": "IV Waste",
    "rowid": "951263",
    "final_x": "3686052.82601",
    "final_y": "537828.584777",
    "longitude": "-90.05347166519601",
    "latitude": "29.972703086758415",
    "geocoded_column": {
      "latitude": "29.972703086758415",
      "longitude": "-90.05347166519601"
    }
  },
  {
    "service_request": "2022-951262",
    "request_type": "Roads/Drainage",
    "request_reason": "Street Flooding / Drainage",
    "date_created": "2022-12-08T15:32:54.000",
    "date_modified": "2022-12-08T15:32:54.000",
    "request_status": "Pending",
    "responsible_agency": "Department of Public Works",
    "final_address": "1201 St Mary St",
    "address_councildis": "B",
    "status": "Pending",
    "rowid": "951262",
    "final_x": "3679461.71765",
    "final_y": "523174.647995",
    "longitude": "-90.07479591669288",
    "latitude": "29.932610474188653",
    "geocoded_column": {
      "latitude": "29.932610474188653",
      "longitude": "-90.07479591669288"
    }
  },
  {
    "service_request": "2022-951261",
    "request_type": "Trash/Recycling",
    "request_reason": "Illegal Dumping",
    "date_created": "2022-12-08T15:27:22.000",
    "date_modified": "2022-12-08T15:27:22.000",
    "request_status": "Pending",
    "responsible_agency": "Department of Sanitation",
    "final_address": "2724 Pauger St",
    "address_councildis": "D",
    "status": "Pending",
    "rowid": "951261",
    "final_x": "3683559.75785",
    "final_y": "539734.05601",
    "longitude": "-90.0612784169168",
    "latitude": "29.978018801551755",
    "geocoded_column": {
      "latitude": "29.978018801551755",
      "longitude": "-90.0612784169168"
    }
  },
  {
    "service_request": "2022-951260",
    "request_type": "Traffic Signals/Signs/Striping/Streetlights",
    "request_reason": "Street Light Outage/Malfunction",
    "date_created": "2022-12-08T15:27:15.000",
    "date_modified": "2022-12-08T15:27:15.000",
    "request_status": "Pending",
    "responsible_agency": "Department of Public Works",
    "final_address": "1874 N Roman St",
    "address_councildis": "D",
    "status": "Pending",
    "contractor": "Legacy Professional Services",
    "rowid": "951260",
    "final_x": "3683540.45295",
    "final_y": "538746.979081",
    "longitude": "-90.06137399524636",
    "latitude": "29.97530527385337",
    "geocoded_column": {
      "latitude": "29.97530527385337",
      "longitude": "-90.06137399524636"
    }
  },
  {
    "service_request": "2022-951258",
    "request_type": "Trash/Recycling",
    "request_reason": "MIssed Recycling Pick-Up",
    "date_created": "2022-12-08T15:25:57.000",
    "date_modified": "2022-12-08T15:25:57.000",
    "request_status": "Pending",
    "responsible_agency": "Department of Sanitation",
    "final_address": "1442 St Mary St",
    "address_councildis": "B",
    "status": "Assigned to Contractor",
    "contractor": "Richards Disposal",
    "rowid": "951258",
    "final_x": "3678798.85525",
    "final_y": "523803.996731",
    "longitude": "-90.07686673164716",
    "latitude": "29.934360978937846",
    "geocoded_column": {
      "latitude": "29.934360978937846",
      "longitude": "-90.07686673164716"
    }
  },
  {
    "service_request": "2022-951257",
    "request_type": "Trash/Recycling",
    "request_reason": "Missed Trash Pick-Up",
    "date_created": "2022-12-08T15:22:14.000",
    "date_modified": "2022-12-08T15:22:14.000",
    "request_status": "Pending",
    "responsible_agency": "Department of Sanitation",
    "final_address": "1519 Clio St",
    "address_councildis": "B",
    "status": "Assigned to Contractor",
    "contractor": "Richards Disposal",
    "rowid": "951257",
    "final_x": "3680029.01269",
    "final_y": "526205.63603",
    "longitude": "-90.07289975933006",
    "latitude": "29.940927543440537",
    "geocoded_column": {
      "latitude": "29.940927543440537",
      "longitude": "-90.07289975933006"
    }
  },
  {
    "service_request": "2022-951256",
    "request_type": "Trash/Recycling",
    "request_reason": "Replace Trash Cart",
    "date_created": "2022-12-08T15:22:01.000",
    "date_modified": "2022-12-08T15:22:02.000",
    "request_status": "Pending",
    "responsible_agency": "Department of Sanitation",
    "final_address": "1019 Bellecastle St",
    "address_councildis": "B",
    "status": "Assigned to Contractor",
    "contractor": "Richards Disposal",
    "rowid": "951256",
    "final_x": "3667756.11169",
    "final_y": "519158.815479",
    "longitude": "-90.11188480005455",
    "latitude": "29.921916541490138",
    "geocoded_column": {
      "latitude": "29.921916541490138",
      "longitude": "-90.11188480005455"
    }
  },
  {
    "service_request": "2022-951255",
    "request_type": "Trash/Recycling",
    "request_reason": "Replace Trash Cart",
    "date_created": "2022-12-08T15:21:31.000",
    "date_modified": "2022-12-08T15:21:32.000",
    "request_status": "Pending",
    "responsible_agency": "Department of Sanitation",
    "final_address": "4006 Delgado Dr",
    "address_councildis": "A",
    "status": "Assigned to Contractor",
    "contractor": "Richards Disposal",
    "rowid": "951255",
    "final_x": "3673854.15918",
    "final_y": "540818.181835",
    "longitude": "-90.09189507320743",
    "latitude": "29.98129247298059",
    "geocoded_column": {
      "latitude": "29.98129247298059",
      "longitude": "-90.09189507320743"
    }
  },
  {
    "service_request": "2022-951254",
    "request_type": "Abandoned Vehicles",
    "request_reason": "Abandoned/Junk Vehicles",
    "date_created": "2022-12-08T15:16:52.000",
    "date_modified": "2022-12-08T15:16:52.000",
    "request_status": "Pending",
    "responsible_agency": "Department of Public Works",
    "final_address": "737 Eleonore St",
    "address_councildis": "A",
    "status": "Pending",
    "rowid": "951254",
    "final_x": "3665250.75239",
    "final_y": "519020.469111",
    "longitude": "-90.11979781935953",
    "latitude": "29.921609329573183",
    "geocoded_column": {
      "latitude": "29.921609329573183",
      "longitude": "-90.11979781935953"
    }
  },
  {
    "service_request": "2022-951253",
    "request_type": "Trash/Recycling",
    "request_reason": "Missed Trash Pick-Up",
    "date_created": "2022-12-08T15:14:55.000",
    "date_modified": "2022-12-08T15:14:56.000",
    "request_status": "Pending",
    "responsible_agency": "Department of Sanitation",
    "final_address": "4515 Thalia St",
    "address_councildis": "B",
    "status": "Assigned to Contractor",
    "contractor": "Richards Disposal",
    "rowid": "951253",
    "final_x": "3670049.12001",
    "final_y": "531706.763075",
    "longitude": "-90.10422185080792",
    "latitude": "29.95635192813062",
    "geocoded_column": {
      "latitude": "29.95635192813062",
      "longitude": "-90.10422185080792"
    }
  },
  {
    "service_request": "2022-951252",
    "request_type": "Trash/Recycling",
    "request_reason": "Missed Trash Pick-Up",
    "date_created": "2022-12-08T15:13:07.000",
    "date_modified": "2022-12-08T15:13:07.000",
    "request_status": "Pending",
    "responsible_agency": "Department of Sanitation",
    "final_address": "4613 St Charles Ave",
    "address_councildis": "B",
    "status": "Assigned to Contractor",
    "contractor": "Richards Disposal",
    "rowid": "951252",
    "final_x": "3669951.66202",
    "final_y": "520897.834937",
    "longitude": "-90.10489550501012",
    "latitude": "29.926633755320253",
    "geocoded_column": {
      "latitude": "29.926633755320253",
      "longitude": "-90.10489550501012"
    }
  },
  {
    "service_request": "2022-951251",
    "request_type": "Trash/Recycling",
    "request_reason": "Missed Trash Pick-Up",
    "date_created": "2022-12-08T15:12:39.000",
    "date_modified": "2022-12-08T15:12:42.000",
    "request_status": "Pending",
    "responsible_agency": "Department of Sanitation",
    "final_address": "7901 Devine Ave",
    "address_councildis": "E",
    "status": "Assigned to Contractor",
    "contractor": "Waste Pro",
    "rowid": "951251",
    "final_x": "3705310.89745",
    "final_y": "563839.626145",
    "longitude": "-89.99168977325742",
    "latitude": "30.04361802092966",
    "geocoded_column": {
      "latitude": "30.04361802092966",
      "longitude": "-89.99168977325742"
    }
  },
  {
    "service_request": "2022-951250",
    "request_type": "Trash/Recycling",
    "request_reason": "Order Recycling Cart",
    "date_created": "2022-12-08T15:12:30.000",
    "date_modified": "2022-12-08T15:12:30.000",
    "request_status": "Pending",
    "responsible_agency": "Department of Sanitation",
    "final_address": "5853 Macarthur Blvd",
    "address_councildis": "C",
    "status": "Pending",
    "rowid": "951250",
    "final_x": "3705050.20484",
    "final_y": "519077.647479",
    "longitude": "-89.99416701760889",
    "latitude": "29.920547549679334",
    "geocoded_column": {
      "latitude": "29.920547549679334",
      "longitude": "-89.99416701760889"
    }
  },
  {
    "service_request": "2022-951249",
    "request_type": "Trash/Recycling",
    "request_reason": "Repair Trash Cart",
    "date_created": "2022-12-08T15:10:01.000",
    "date_modified": "2022-12-08T15:10:02.000",
    "request_status": "Pending",
    "responsible_agency": "Department of Sanitation",
    "final_address": "7901 Devine Ave",
    "address_councildis": "E",
    "status": "Assigned to Contractor",
    "contractor": "Waste Pro",
    "rowid": "951249",
    "final_x": "3705310.89745",
    "final_y": "563839.626145",
    "longitude": "-89.99168977325742",
    "latitude": "30.04361802092966",
    "geocoded_column": {
      "latitude": "30.04361802092966",
      "longitude": "-89.99168977325742"
    }
  },
  {
    "service_request": "2022-951248",
    "request_type": "Trash/Recycling",
    "request_reason": "Missed Trash Pick-Up",
    "date_created": "2022-12-08T15:01:56.000",
    "date_modified": "2022-12-08T15:01:57.000",
    "request_status": "Pending",
    "responsible_agency": "Department of Sanitation",
    "final_address": "8324 Hammond St",
    "address_councildis": "E",
    "status": "Assigned to Contractor",
    "contractor": "Waste Pro",
    "rowid": "951248",
    "final_x": "3705911.60587",
    "final_y": "555687.620377",
    "longitude": "-89.99009331408364",
    "latitude": "30.021183848427782",
    "geocoded_column": {
      "latitude": "30.021183848427782",
      "longitude": "-89.99009331408364"
    }
  },
  {
    "service_request": "2022-951247",
    "request_type": "Trash/Recycling",
    "request_reason": "Missed Trash Pick-Up",
    "date_created": "2022-12-08T14:56:25.000",
    "date_modified": "2022-12-08T14:56:25.000",
    "request_status": "Pending",
    "responsible_agency": "Department of Sanitation",
    "final_address": "5614 N Dorgenois St",
    "address_councildis": "E",
    "status": "Assigned to Contractor",
    "contractor": "Waste Pro",
    "rowid": "951247",
    "final_x": "3699586.97104",
    "final_y": "538904.671498",
    "longitude": "-90.0106893797219",
    "latitude": "29.975239326176325",
    "geocoded_column": {
      "latitude": "29.975239326176325",
      "longitude": "-90.0106893797219"
    }
  },
  {
    "service_request": "2022-951246",
    "request_type": "Trash/Recycling",
    "request_reason": "Missed Trash Pick-Up",
    "date_created": "2022-12-08T14:52:47.000",
    "date_modified": "2022-12-08T14:52:48.000",
    "request_status": "Pending",
    "responsible_agency": "Department of Sanitation",
    "final_address": "4909 St Charles Ave",
    "address_councildis": "B",
    "status": "Assigned to Contractor",
    "contractor": "Richards Disposal",
    "rowid": "951246",
    "final_x": "3668946.29537",
    "final_y": "520891.985657",
    "longitude": "-90.1080693801662",
    "latitude": "29.926647270431733",
    "geocoded_column": {
      "latitude": "29.926647270431733",
      "longitude": "-90.1080693801662"
    }
  },
  {
    "service_request": "2022-951245",
    "request_type": "Trash/Recycling",
    "request_reason": "Missed Trash Pick-Up",
    "date_created": "2022-12-08T14:49:46.000",
    "date_modified": "2022-12-08T14:49:47.000",
    "request_status": "Pending",
    "responsible_agency": "Department of Sanitation",
    "final_address": "1708 Flood St",
    "address_councildis": "E",
    "status": "Assigned to Contractor",
    "contractor": "Waste Pro",
    "rowid": "951245",
    "final_x": "3698288.96701",
    "final_y": "536179.590535",
    "longitude": "-90.01488782549322",
    "latitude": "29.96778746748099",
    "geocoded_column": {
      "latitude": "29.96778746748099",
      "longitude": "-90.01488782549322"
    }
  },
  {
    "service_request": "2022-951244",
    "request_type": "Trash/Recycling",
    "request_reason": "Request a Large Item Pick Up",
    "date_created": "2022-12-08T14:49:29.000",
    "date_modified": "2022-12-08T14:49:29.000",
    "request_status": "Pending",
    "responsible_agency": "Department of Sanitation",
    "final_address": "1556 N Johnson St",
    "address_councildis": "D",
    "status": "Assigned to Contractor",
    "contractor": "IV Waste",
    "rowid": "951244",
    "final_x": "3680938.09339",
    "final_y": "538438.824137",
    "longitude": "-90.06960367046547",
    "latitude": "29.97453712963074",
    "geocoded_column": {
      "latitude": "29.97453712963074",
      "longitude": "-90.06960367046547"
    }
  },
  {
    "service_request": "2022-951243",
    "request_type": "Abandoned Vehicles",
    "request_reason": "Abandoned/Junk Vehicles",
    "date_created": "2022-12-08T14:49:01.000",
    "date_modified": "2022-12-08T14:49:01.000",
    "request_status": "Pending",
    "responsible_agency": "Department of Public Works",
    "final_address": "1022 N Tonti St",
    "address_councildis": "D",
    "status": "Pending",
    "rowid": "951243",
    "final_x": "3678666.96571",
    "final_y": "537147.966472",
    "longitude": "-90.07682114971352",
    "latitude": "29.971056392119106",
    "geocoded_column": {
      "latitude": "29.971056392119106",
      "longitude": "-90.07682114971352"
    }
  },
  {
    "service_request": "2022-951242",
    "request_type": "Trash/Recycling",
    "request_reason": "Repair Recycling Cart",
    "date_created": "2022-12-08T14:48:35.000",
    "date_modified": "2022-12-08T14:48:35.000",
    "request_status": "Pending",
    "responsible_agency": "Department of Sanitation",
    "final_address": "1800 Deslonde St",
    "address_councildis": "E",
    "status": "Pending",
    "rowid": "951242",
    "final_x": "3696082.50934",
    "final_y": "537072.090184",
    "longitude": "-90.02182358568648",
    "latitude": "29.97031114762097",
    "geocoded_column": {
      "latitude": "29.97031114762097",
      "longitude": "-90.02182358568648"
    }
  },
  {
    "service_request": "2022-951241",
    "request_type": "Abandoned Vehicles",
    "request_reason": "Abandoned/Junk Vehicles",
    "date_created": "2022-12-08T14:47:55.000",
    "date_modified": "2022-12-08T14:48:48.000",
    "request_status": "Pending",
    "responsible_agency": "Department of Public Works",
    "final_address": "6320 Pritchard Pl",
    "address_councildis": "B",
    "status": "Pending",
    "rowid": "951241",
    "final_x": "3668268.98785",
    "final_y": "530963.734722",
    "longitude": "-90.10986798557931",
    "latitude": "29.954361228746343",
    "geocoded_column": {
      "latitude": "29.954361228746343",
      "longitude": "-90.10986798557931"
    }
  },
  {
    "service_request": "2022-951240",
    "request_type": "Trash/Recycling",
    "request_reason": "Order Trash Cart",
    "date_created": "2022-12-08T14:47:20.000",
    "date_modified": "2022-12-08T14:47:20.000",
    "request_status": "Pending",
    "responsible_agency": "Department of Sanitation",
    "final_address": "2430 Arts St",
    "address_councildis": "D",
    "status": "Assigned to Contractor",
    "contractor": "IV Waste",
    "rowid": "951240",
    "final_x": "3686765.3551",
    "final_y": "541556.086796",
    "longitude": "-90.05108963703803",
    "latitude": "29.98293050130337",
    "geocoded_column": {
      "latitude": "29.98293050130337",
      "longitude": "-90.05108963703803"
    }
  },
  {
    "service_request": "2022-951239",
    "request_type": "Trash/Recycling",
    "request_reason": "Order Recycling Cart",
    "date_created": "2022-12-08T14:47:11.000",
    "date_modified": "2022-12-08T14:47:11.000",
    "request_status": "Pending",
    "responsible_agency": "Department of Sanitation",
    "final_address": "1800 Deslonde St",
    "address_councildis": "E",
    "status": "Pending",
    "rowid": "951239",
    "final_x": "3696082.50934",
    "final_y": "537072.090184",
    "longitude": "-90.02182358568648",
    "latitude": "29.97031114762097",
    "geocoded_column": {
      "latitude": "29.97031114762097",
      "longitude": "-90.02182358568648"
    }
  },
  {
    "service_request": "2022-951238",
    "request_type": "Trash/Recycling",
    "request_reason": "Request a Large Item Pick Up",
    "date_created": "2022-12-08T14:46:50.000",
    "date_modified": "2022-12-08T14:46:51.000",
    "request_status": "Pending",
    "responsible_agency": "Department of Sanitation",
    "final_address": "318 Delaronde St",
    "address_councildis": "C",
    "status": "Assigned to Contractor",
    "contractor": "Richards Disposal",
    "rowid": "951238",
    "final_x": "3686383.81257",
    "final_y": "530911.627266",
    "longitude": "-90.05267050434477",
    "latitude": "29.95367367847893",
    "geocoded_column": {
      "latitude": "29.95367367847893",
      "longitude": "-90.05267050434477"
    }
  },
  {
    "service_request": "2022-951237",
    "request_type": "Trash/Recycling",
    "request_reason": "Repair Trash Cart",
    "date_created": "2022-12-08T14:45:49.000",
    "date_modified": "2022-12-08T14:45:50.000",
    "request_status": "Pending",
    "responsible_agency": "Department of Sanitation",
    "final_address": "1800 Deslonde St",
    "address_councildis": "E",
    "status": "Assigned to Contractor",
    "contractor": "Waste Pro",
    "rowid": "951237",
    "final_x": "3696082.50934",
    "final_y": "537072.090184",
    "longitude": "-90.02182358568648",
    "latitude": "29.97031114762097",
    "geocoded_column": {
      "latitude": "29.97031114762097",
      "longitude": "-90.02182358568648"
    }
  },
  {
    "service_request": "2022-951236",
    "request_type": "Trash/Recycling",
    "request_reason": "Order Recycling Cart",
    "date_created": "2022-12-08T14:45:42.000",
    "date_modified": "2022-12-08T14:45:42.000",
    "request_status": "Pending",
    "responsible_agency": "Department of Sanitation",
    "final_address": "7126 Tudor Ct",
    "address_councildis": "E",
    "status": "Pending",
    "rowid": "951236",
    "final_x": "3703546.82206",
    "final_y": "559671.875293",
    "longitude": "-89.9974185372171",
    "latitude": "30.032215018078762",
    "geocoded_column": {
      "latitude": "30.032215018078762",
      "longitude": "-89.9974185372171"
    }
  },
  {
    "service_request": "2022-951235",
    "request_type": "Trash/Recycling",
    "request_reason": "Replace Trash Cart",
    "date_created": "2022-12-08T14:43:46.000",
    "date_modified": "2022-12-08T14:43:47.000",
    "request_status": "Pending",
    "responsible_agency": "Department of Sanitation",
    "final_address": "2432 Arts St",
    "address_councildis": "D",
    "status": "Assigned to Contractor",
    "contractor": "IV Waste",
    "rowid": "951235",
    "final_x": "3686764.68828",
    "final_y": "541569.105548",
    "longitude": "-90.0510912830423",
    "latitude": "29.98296631877597",
    "geocoded_column": {
      "latitude": "29.98296631877597",
      "longitude": "-90.0510912830423"
    }
  },
  {
    "service_request": "2022-951234",
    "request_type": "Trash/Recycling",
    "request_reason": "Missed Trash Pick-Up",
    "date_created": "2022-12-08T14:42:48.000",
    "date_modified": "2022-12-08T14:42:49.000",
    "request_status": "Pending",
    "responsible_agency": "Department of Sanitation",
    "final_address": "1700 BLK Flood St",
    "address_councildis": "E",
    "status": "Assigned to Contractor",
    "contractor": "Waste Pro",
    "rowid": "951234",
    "final_x": "3698358.10948",
    "final_y": "536264.144779",
    "longitude": "-90.01466639987939",
    "latitude": "29.968017773610516",
    "geocoded_column": {
      "latitude": "29.968017773610516",
      "longitude": "-90.01466639987939"
    }
  },
  {
    "service_request": "2022-951233",
    "request_type": "Trash/Recycling",
    "request_reason": "Missed Trash Pick-Up",
    "date_created": "2022-12-08T14:41:02.000",
    "date_modified": "2022-12-08T15:28:59.000",
    "case_close_date": "2022-12-08T09:28:59.000",
    "request_status": "Closed",
    "responsible_agency": "Department of Sanitation",
    "final_address": "1400 BLK Desire St",
    "address_councildis": "C",
    "status": "Assigned to Contractor",
    "contractor": "IV Waste",
    "contractor_action": "Completed",
    "rowid": "951233",
    "final_x": "3690505.98116",
    "final_y": "537005.654451",
    "longitude": "-90.0394371763103",
    "latitude": "29.97030279928646",
    "geocoded_column": {
      "latitude": "29.97030279928646",
      "longitude": "-90.0394371763103"
    }
  },
  {
    "service_request": "2022-951232",
    "request_type": "Trash/Recycling",
    "request_reason": "Missed Trash Pick-Up",
    "date_created": "2022-12-08T14:36:19.000",
    "date_modified": "2022-12-08T14:36:19.000",
    "request_status": "Pending",
    "responsible_agency": "Department of Sanitation",
    "final_address": "15031 Emory Rd",
    "address_councildis": "E",
    "status": "Assigned to Contractor",
    "contractor": "Waste Pro",
    "rowid": "951232",
    "final_x": "3721136.93042",
    "final_y": "574190.367786",
    "longitude": "-89.94127594368612",
    "latitude": "30.071559227685015",
    "geocoded_column": {
      "latitude": "30.071559227685015",
      "longitude": "-89.94127594368612"
    }
  },
  {
    "service_request": "2022-951231",
    "request_type": "Roads/Drainage",
    "request_reason": "Damaged Sidewalk",
    "date_created": "2022-12-08T14:36:06.000",
    "date_modified": "2022-12-08T15:28:15.000",
    "request_status": "Pending",
    "responsible_agency": "Department of Public Works",
    "final_address": "1874 N Roman St",
    "address_councildis": "D",
    "rowid": "951231",
    "final_x": "3683540.45295",
    "final_y": "538746.979081",
    "longitude": "-90.06137399524636",
    "latitude": "29.97530527385337",
    "geocoded_column": {
      "latitude": "29.97530527385337",
      "longitude": "-90.06137399524636"
    }
  },
  {
    "service_request": "2022-951230",
    "request_type": "Abandoned Vehicles",
    "request_reason": "Abandoned/Junk Vehicles",
    "date_created": "2022-12-08T14:35:29.000",
    "date_modified": "2022-12-08T14:36:37.000",
    "request_status": "Pending",
    "responsible_agency": "Department of Public Works",
    "final_address": "1201 St Mary St",
    "address_councildis": "B",
    "status": "Pending",
    "rowid": "951230",
    "final_x": "3679461.71765",
    "final_y": "523174.647995",
    "longitude": "-90.07479591669288",
    "latitude": "29.932610474188653",
    "geocoded_column": {
      "latitude": "29.932610474188653",
      "longitude": "-90.07479591669288"
    }
  },
  {
    "service_request": "2022-951229",
    "request_type": "Trash/Recycling",
    "request_reason": "Order Recycling Cart",
    "date_created": "2022-12-08T14:34:19.000",
    "date_modified": "2022-12-08T14:34:19.000",
    "request_status": "Pending",
    "responsible_agency": "Department of Sanitation",
    "final_address": "1719 Lark St",
    "address_councildis": "D",
    "status": "Pending",
    "rowid": "951229",
    "final_x": "3678620.13224",
    "final_y": "557842.861147",
    "longitude": "-90.07625203354101",
    "latitude": "30.027961428711603",
    "geocoded_column": {
      "latitude": "30.027961428711603",
      "longitude": "-90.07625203354101"
    }
  },
  {
    "service_request": "2022-951228",
    "request_type": "Trash/Recycling",
    "request_reason": "Order Trash Cart",
    "date_created": "2022-12-08T14:33:51.000",
    "date_modified": "2022-12-08T14:33:52.000",
    "request_status": "Pending",
    "responsible_agency": "Department of Sanitation",
    "final_address": "2416 S Johnson St",
    "address_councildis": "B",
    "status": "Assigned to Contractor",
    "contractor": "Richards Disposal",
    "rowid": "951228",
    "final_x": "3673311.66804",
    "final_y": "528430.700864",
    "longitude": "-90.09403167714909",
    "latitude": "29.94724720922513",
    "geocoded_column": {
      "latitude": "29.94724720922513",
      "longitude": "-90.09403167714909"
    }
  },
  {
    "service_request": "2022-951227",
    "request_type": "Trash/Recycling",
    "request_reason": "Missed Trash Pick-Up",
    "date_created": "2022-12-08T14:33:03.000",
    "date_modified": "2022-12-08T14:33:04.000",
    "request_status": "Pending",
    "responsible_agency": "Department of Sanitation",
    "final_address": "2416 S Johnson St",
    "address_councildis": "B",
    "status": "Assigned to Contractor",
    "contractor": "Richards Disposal",
    "rowid": "951227",
    "final_x": "3673311.66804",
    "final_y": "528430.700864",
    "longitude": "-90.09403167714909",
    "latitude": "29.94724720922513",
    "geocoded_column": {
      "latitude": "29.94724720922513",
      "longitude": "-90.09403167714909"
    }
  },
  {
    "service_request": "2022-951226",
    "request_type": "Trash/Recycling",
    "request_reason": "Order Trash Cart",
    "date_created": "2022-12-08T14:32:46.000",
    "date_modified": "2022-12-08T14:32:47.000",
    "request_status": "Pending",
    "responsible_agency": "Department of Sanitation",
    "final_address": "516 Whitney Ave",
    "address_councildis": "C",
    "status": "Assigned to Contractor",
    "contractor": "Richards Disposal",
    "rowid": "951226",
    "final_x": "3690318.18665",
    "final_y": "529671.019521",
    "longitude": "-90.04029164242505",
    "latitude": "29.950140938027214",
    "geocoded_column": {
      "latitude": "29.950140938027214",
      "longitude": "-90.04029164242505"
    }
  },
  {
    "service_request": "2022-951225",
    "request_type": "Roads/Drainage",
    "request_reason": "Damaged Sidewalk",
    "date_created": "2022-12-08T14:29:10.000",
    "date_modified": "2022-12-08T14:29:10.000",
    "request_status": "Pending",
    "responsible_agency": "Department of Public Works",
    "final_address": "1816 Felicity St",
    "address_councildis": "B",
    "status": "Pending",
    "rowid": "951225",
    "final_x": "3677745.39355",
    "final_y": "525243.360509",
    "longitude": "-90.0801427840066",
    "latitude": "29.93835047740258",
    "geocoded_column": {
      "latitude": "29.93835047740258",
      "longitude": "-90.0801427840066"
    }
  },
  {
    "service_request": "2022-951224",
    "request_type": "Traffic Signals/Signs/Striping/Streetlights",
    "request_reason": "Street Light Outage/Malfunction",
    "date_created": "2022-12-08T14:26:25.000",
    "date_modified": "2022-12-08T14:26:26.000",
    "request_status": "Pending",
    "responsible_agency": "Department of Public Works",
    "final_address": "1030 Lesseps Street, New Orleans, LA 70117",
    "address_councildis": "C",
    "status": "Pending",
    "contractor": "Legacy Professional Services",
    "rowid": "951224",
    "final_x": "3692563.22224",
    "final_y": "534843.425926",
    "longitude": "-90.03301770370526",
    "latitude": "29.964293397717775",
    "geocoded_column": {
      "latitude": "29.964293397717775",
      "longitude": "-90.03301770370526"
    }
  },
  {
    "service_request": "2022-951223",
    "request_type": "Traffic Signals/Signs/Striping/Streetlights",
    "request_reason": "Street Light Outage/Malfunction",
    "date_created": "2022-12-08T14:22:12.000",
    "date_modified": "2022-12-08T14:22:13.000",
    "request_status": "Pending",
    "responsible_agency": "Department of Public Works",
    "final_address": "18 Curtis Dr",
    "address_councildis": "E",
    "status": "Pending",
    "contractor": "Legacy Professional Services",
    "rowid": "951223",
    "final_x": "3698183.02947",
    "final_y": "560639.446366",
    "longitude": "-90.01433319704626",
    "latitude": "30.035046323456744",
    "geocoded_column": {
      "latitude": "30.035046323456744",
      "longitude": "-90.01433319704626"
    }
  },
  {
    "service_request": "2022-951222",
    "request_type": "Abandoned Vehicles",
    "request_reason": "Abandoned/Junk Vehicles",
    "date_created": "2022-12-08T14:20:23.000",
    "date_modified": "2022-12-08T14:20:23.000",
    "request_status": "Pending",
    "responsible_agency": "Department of Public Works",
    "final_address": "2656 St Philip St",
    "address_councildis": "D",
    "status": "Pending",
    "rowid": "951222",
    "final_x": "3677444.08968",
    "final_y": "537765.73396",
    "longitude": "-90.08066182719267",
    "latitude": "29.972791857273872",
    "geocoded_column": {
      "latitude": "29.972791857273872",
      "longitude": "-90.08066182719267"
    }
  },
  {
    "service_request": "2022-951221",
    "request_type": "Trash/Recycling",
    "request_reason": "Missed Trash Pick-Up",
    "date_created": "2022-12-08T14:20:10.000",
    "date_modified": "2022-12-08T14:20:11.000",
    "request_status": "Pending",
    "responsible_agency": "Department of Sanitation",
    "final_address": "1018 Josephine St",
    "address_councildis": "B",
    "status": "Assigned to Contractor",
    "contractor": "Richards Disposal",
    "rowid": "951221",
    "final_x": "3679253.04303",
    "final_y": "522126.895994",
    "longitude": "-90.07549099469816",
    "latitude": "29.92973580054483",
    "geocoded_column": {
      "latitude": "29.92973580054483",
      "longitude": "-90.07549099469816"
    }
  },
  {
    "service_request": "2022-951220",
    "request_type": "Property Maintenance",
    "request_reason": "Property Maintenance",
    "date_created": "2022-12-08T14:20:01.000",
    "date_modified": "2022-12-08T14:20:02.000",
    "request_status": "Pending",
    "responsible_agency": "Department of Code Enforcement",
    "final_address": "700 BLK Royal St",
    "address_councildis": "C",
    "status": "Pending",
    "rowid": "951220",
    "final_x": "3682672.4522",
    "final_y": "532618.964405",
    "longitude": "-90.06432971233527",
    "latitude": "29.958481810038467",
    "geocoded_column": {
      "latitude": "29.958481810038467",
      "longitude": "-90.06432971233527"
    }
  },
  {
    "service_request": "2022-951219",
    "request_type": "Trash/Recycling",
    "request_reason": "Repair Trash Cart",
    "date_created": "2022-12-08T14:16:49.000",
    "date_modified": "2022-12-08T14:16:50.000",
    "request_status": "Pending",
    "responsible_agency": "Department of Sanitation",
    "final_address": "1121 Antonine St",
    "address_councildis": "B",
    "status": "Assigned to Contractor",
    "contractor": "Richards Disposal",
    "rowid": "951219",
    "final_x": "3673853.00584",
    "final_y": "519401.796663",
    "longitude": "-90.09263114357188",
    "latitude": "29.922404547079868",
    "geocoded_column": {
      "latitude": "29.922404547079868",
      "longitude": "-90.09263114357188"
    }
  },
  {
    "service_request": "2022-951218",
    "request_type": "Trash/Recycling",
    "request_reason": "Missed Trash Pick-Up",
    "date_created": "2022-12-08T14:14:22.000",
    "date_modified": "2022-12-08T14:14:22.000",
    "request_status": "Pending",
    "responsible_agency": "Department of Sanitation",
    "final_address": "3638 Metropolitan St",
    "address_councildis": "D",
    "status": "Assigned to Contractor",
    "contractor": "IV Waste",
    "rowid": "951218",
    "final_x": "3691629.33974",
    "final_y": "545801.786576",
    "longitude": "-90.03557488053252",
    "latitude": "29.99445408363884",
    "geocoded_column": {
      "latitude": "29.99445408363884",
      "longitude": "-90.03557488053252"
    }
  },
  {
    "service_request": "2022-951217",
    "request_type": "Trash/Recycling",
    "request_reason": "Missed Trash Pick-Up",
    "date_created": "2022-12-08T14:11:44.000",
    "date_modified": "2022-12-08T14:11:45.000",
    "request_status": "Pending",
    "responsible_agency": "Department of Sanitation",
    "final_address": "1207 Josephine St",
    "address_councildis": "B",
    "status": "Assigned to Contractor",
    "contractor": "Richards Disposal",
    "rowid": "951217",
    "final_x": "3678920.16443",
    "final_y": "522681.56953",
    "longitude": "-90.07652262843074",
    "latitude": "29.931271014602547",
    "geocoded_column": {
      "latitude": "29.931271014602547",
      "longitude": "-90.07652262843074"
    }
  },