[
  {
    "service_request": "2022-913562",
    "request_type": "Abandoned Vehicles",
    "request_reason": "Abandoned/Junk Vehicles",
    "date_created": "2022-08-26T02:08:43.000",
    "date_modified": "2022-08-26T02:08:43.000",
    "request_status": "Pending",
    "responsible_agency": "Department of Public Works",
    "final_address": "2738 Prancer St",
    "address_councildis": "C",
    "status": "Pending",
    "rowid": "913562",
    "final_x": "3699624.34589",
    "final_y": "520761.165689",
    "longitude": "-90.01123250488251",
    "latitude": "29.925349898005585",
    "geocoded_column": {
      "latitude": "29.925349898005585",
      "longitude": "-90.01123250488251"
    }
  },
  {
    "service_request": "2022-913561",
    "request_type": "Roads/Drainage",
    "request_reason": "Catch Basin - Broken/Damage",
    "date_created": "2022-08-25T23:36:37.000",
    "date_modified": "2022-08-25T23:36:37.000",
    "request_status": "Pending",
    "responsible_agency": "Department of Public Works",
    "final_address": "4013 Royal St",
    "address_councildis": "C",
    "status": "Pending",
    "rowid": "913561",
    "final_x": "3691553.03888",
    "final_y": "533807.592901",
    "longitude": "-90.03624479657847",
    "latitude": "29.96147670248431",
    "geocoded_column": {
      "latitude": "29.96147670248431",
      "longitude": "-90.03624479657847"
    }
  },
  {
    "service_request": "2022-913560",
    "request_type": "Traffic Signals/Signs/Striping/Streetlights",
    "request_reason": "Street Light Outage/Malfunction",
    "date_created": "2022-08-25T23:31:10.000",
    "date_modified": "2022-08-25T23:31:11.000",
    "request_status": "Pending",
    "responsible_agency": "Department of Public Works",
    "final_address": "4007 Lennox Blvd",
    "address_councildis": "C",
    "status": "Pending",
    "contractor": "Legacy Professional Services",
    "rowid": "913560",
    "final_x": "3700696.56445",
    "final_y": "516036.54098",
    "longitude": "-90.0080203709026",
    "latitude": "29.91232473486782",
    "geocoded_column": {
      "latitude": "29.91232473486782",
      "longitude": "-90.0080203709026"
    }
  },
  {
    "service_request": "2022-913559",
    "request_type": "Traffic Signals/Signs/Striping/Streetlights",
    "request_reason": "Street Light Outage/Malfunction",
    "date_created": "2022-08-25T23:15:41.000",
    "date_modified": "2022-08-25T23:15:42.000",
    "request_status": "Pending",
    "responsible_agency": "Department of Public Works",
    "final_address": "3501 Pin Oak Ave",
    "address_councildis": "C",
    "status": "Pending",
    "contractor": "Legacy Professional Services",
    "rowid": "913559",
    "final_x": "3703190.8147",
    "final_y": "514950.375155",
    "longitude": "-90.00018777741128",
    "latitude": "29.909258588129216",
    "geocoded_column": {
      "latitude": "29.909258588129216",
      "longitude": "-90.00018777741128"
    }
  },
  {
    "service_request": "2022-913558",
    "request_type": "Property Maintenance",
    "request_reason": "Property Maintenance",
    "date_created": "2022-08-25T23:08:07.000",
    "date_modified": "2022-08-25T23:08:07.000",
    "request_status": "Pending",
    "responsible_agency": "Department of Code Enforcement",
    "final_address": "7820 Parry St",
    "address_councildis": "E",
    "status": "Pending",
    "rowid": "913558",
    "final_x": "3713976.01048",
    "final_y": "568925.744997",
    "longitude": "-89.96411250645865",
    "latitude": "30.057320956535957",
    "geocoded_column": {
      "latitude": "30.057320956535957",
      "longitude": "-89.96411250645865"
    }
  },
  {
    "service_request": "2022-913557",
    "request_type": "Trash/Recycling",
    "request_reason": "Repair Recycling Cart",
    "date_created": "2022-08-25T23:05:35.000",
    "date_modified": "2022-08-25T23:05:35.000",
    "request_status": "Pending",
    "responsible_agency": "Department of Sanitation",
    "final_address": "1609 Steeple Chase Ln",
    "address_councildis": "C",
    "status": "Pending",
    "rowid": "913557",
    "final_x": "3699914.74474",
    "final_y": "524850.780604",
    "longitude": "-90.01016673823133",
    "latitude": "29.936585708770306",
    "geocoded_column": {
      "latitude": "29.936585708770306",
      "longitude": "-90.01016673823133"
    }
  },
  {
    "service_request": "2022-913556",
    "request_type": "Trash/Recycling",
    "request_reason": "Missed Trash Pick-Up",
    "date_created": "2022-08-25T22:53:10.000",
    "date_modified": "2022-08-25T22:53:11.000",
    "request_status": "Pending",
    "responsible_agency": "Department of Sanitation",
    "final_address": "3321 General Taylor St, New Orleans, Louisiana, 70125",
    "address_councildis": "B",
    "status": "Assigned to Contractor",
    "contractor": "Richards Disposal",
    "rowid": "913556",
    "final_x": "3671240.33479",
    "final_y": "527188.711487",
    "longitude": "-90.10061386436449",
    "latitude": "29.943893582190693",
    "geocoded_column": {
      "latitude": "29.943893582190693",
      "longitude": "-90.10061386436449"
    }
  },
  {
    "service_request": "2022-913555",
    "request_type": "Roads/Drainage",
    "request_reason": "Service Cut",
    "date_created": "2022-08-25T22:11:34.000",
    "date_modified": "2022-08-25T22:11:34.000",
    "request_status": "Pending",
    "responsible_agency": "Department of Public Works",
    "final_address": "7300 Hickman St",
    "address_councildis": "E",
    "status": "Pending",
    "rowid": "913555",
    "final_x": "3706543.43268",
    "final_y": "562446.634719",
    "longitude": "-89.98784615952005",
    "latitude": "30.039748108554694",
    "geocoded_column": {
      "latitude": "30.039748108554694",
      "longitude": "-89.98784615952005"
    }
  },
  {
    "service_request": "2022-913554",
    "request_type": "Abandoned Vehicles",
    "request_reason": "Abandoned/Junk Vehicles",
    "date_created": "2022-08-25T22:04:02.000",
    "date_modified": "2022-08-25T22:04:03.000",
    "request_status": "Pending",
    "responsible_agency": "Department of Public Works",
    "final_address": "4883 Rosemont Pl",
    "address_councildis": "E",
    "status": "Pending",
    "rowid": "913554",
    "final_x": "3702699.70097",
    "final_y": "555773.340569",
    "longitude": "-90.00023880785623",
    "latitude": "30.02152268490085",
    "geocoded_column": {
      "latitude": "30.02152268490085",
      "longitude": "-90.00023880785623"
    }
  },
  {
    "service_request": "2022-913553",
    "request_type": "Trash/Recycling",
    "request_reason": "Illegal Dumping",
    "date_created": "2022-08-25T22:03:26.000",
    "date_modified": "2022-08-25T22:03:26.000",
    "request_status": "Pending",
    "responsible_agency": "Department of Sanitation",
    "final_address": "8127 Chef Menteur Hwy",
    "address_councildis": "E",
    "status": "Pending",
    "rowid": "913553",
    "final_x": "3705576.38782",
    "final_y": "553070.855447",
    "longitude": "-89.99124934330409",
    "latitude": "30.01399955395828",
    "geocoded_column": {
      "latitude": "30.01399955395828",
      "longitude": "-89.99124934330409"
    }
  },
  {
    "service_request": "2022-913552",
    "request_type": "Property Maintenance",
    "request_reason": "Property Maintenance",
    "date_created": "2022-08-25T22:01:07.000",
    "date_modified": "2022-08-25T22:01:07.000",
    "request_status": "Pending",
    "responsible_agency": "Department of Code Enforcement",
    "final_address": "4316 Dodt Ave",
    "address_councildis": "E",
    "status": "Pending",
    "rowid": "913552",
    "final_x": "3705568.85419",
    "final_y": "553156.360471",
    "longitude": "-89.99126998140575",
    "latitude": "30.014234902582757",
    "geocoded_column": {
      "latitude": "30.014234902582757",
      "longitude": "-89.99126998140575"
    }
  },
  {
    "service_request": "2022-913551",
    "request_type": "Property Maintenance",
    "request_reason": "Property Maintenance",
    "date_created": "2022-08-25T21:56:39.000",
    "date_modified": "2022-08-25T21:56:39.000",
    "request_status": "Pending",
    "responsible_agency": "Department of Code Enforcement",
    "final_address": "7701 Crowder Blvd",
    "address_councildis": "E",
    "status": "Pending",
    "rowid": "913551",
    "final_x": "3703374.28298",
    "final_y": "562569.534688",
    "longitude": "-89.99785704631019",
    "latitude": "30.04018797674248",
    "geocoded_column": {
      "latitude": "30.04018797674248",
      "longitude": "-89.99785704631019"
    }
  },
  {
    "service_request": "2022-913550",
    "request_type": "Traffic Signals/Signs/Striping/Streetlights",
    "request_reason": "Street Light Outage/Malfunction",
    "date_created": "2022-08-25T21:29:03.000",
    "date_modified": "2022-08-25T21:29:04.000",
    "request_status": "Pending",
    "responsible_agency": "Department of Public Works",
    "final_address": "1322 Dublin St",
    "address_councildis": "A",
    "status": "Pending",
    "contractor": "Legacy Professional Services",
    "rowid": "913550",
    "final_x": "3662036.14842",
    "final_y": "529038.165248",
    "longitude": "-90.129612797842",
    "latitude": "29.949248053161902",
    "geocoded_column": {
      "latitude": "29.949248053161902",
      "longitude": "-90.129612797842"
    }
  },
  {
    "service_request": "2022-913549",
    "request_type": "Trash/Recycling",
    "request_reason": "MIssed Recycling Pick-Up",
    "date_created": "2022-08-25T21:25:08.000",
    "date_modified": "2022-08-25T21:25:09.000",
    "request_status": "Pending",
    "responsible_agency": "Department of Sanitation",
    "final_address": "2231 Wirth Pl",
    "address_councildis": "A",
    "status": "Assigned to Contractor",
    "contractor": "Richards Disposal",
    "rowid": "913549",
    "final_x": "3667151.38125",
    "final_y": "524461.921532",
    "longitude": "-90.11361549587174",
    "latitude": "29.936516110759136",
    "geocoded_column": {
      "latitude": "29.936516110759136",
      "longitude": "-90.11361549587174"
    }
  },
  {
    "service_request": "2022-913548",
    "request_type": "Trash/Recycling",
    "request_reason": "Request a Large Item Pick Up",
    "date_created": "2022-08-25T21:02:36.000",
    "date_modified": "2022-08-25T21:02:37.000",
    "request_status": "Pending",
    "responsible_agency": "Department of Sanitation",
    "final_address": "2822 Banks St",
    "address_councildis": "B",
    "status": "Assigned to Contractor",
    "contractor": "Richards Disposal",
    "rowid": "913548",
    "final_x": "3673947.41032",
    "final_y": "534580.781317",
    "longitude": "-90.09181399894047",
    "latitude": "29.96413896114769",
    "geocoded_column": {
      "latitude": "29.96413896114769",
      "longitude": "-90.09181399894047"
    }
  },
  {
    "service_request": "2022-913547",
    "request_type": "Traffic Signals/Signs/Striping/Streetlights",
    "request_reason": "Street Light Outage/Malfunction",
    "date_created": "2022-08-25T20:51:21.000",
    "date_modified": "2022-08-25T20:51:22.000",
    "request_status": "Pending",
    "responsible_agency": "Department of Public Works",
    "final_address": "44 Grand Canyon Dr",
    "address_councildis": "C",
    "status": "Pending",
    "contractor": "Legacy Professional Services",
    "rowid": "913547",
    "final_x": "3699475.80042",
    "final_y": "516614.764021",
    "longitude": "-90.01185236531828",
    "latitude": "29.913953420389934",
    "geocoded_column": {
      "latitude": "29.913953420389934",
      "longitude": "-90.01185236531828"
    }
  },
  {
    "service_request": "2022-913545",
    "request_type": "Trash/Recycling",
    "request_reason": "MIssed Recycling Pick-Up",
    "date_created": "2022-08-25T20:33:17.000",
    "date_modified": "2022-08-25T20:33:18.000",
    "request_status": "Pending",
    "responsible_agency": "Department of Sanitation",
    "final_address": "2233 Washington Ave",
    "address_councildis": "B",
    "status": "Assigned to Contractor",
    "contractor": "Richards Disposal",
    "rowid": "913545",
    "final_x": "3674625.65736",
    "final_y": "524567.716476",
    "longitude": "-90.09001525431059",
    "latitude": "29.936586127445302",
    "geocoded_column": {
      "latitude": "29.936586127445302",
      "longitude": "-90.09001525431059"
    }
  },
  {
    "service_request": "2022-913544",
    "request_type": "Trash/Recycling",
    "request_reason": "Order Trash Cart",
    "date_created": "2022-08-25T20:21:42.000",
    "date_modified": "2022-08-25T20:21:43.000",
    "request_status": "Pending",
    "responsible_agency": "Department of Sanitation",
    "final_address": "2228 Lake Oaks Prkwy",
    "address_councildis": "D",
    "status": "Assigned to Contractor",
    "contractor": "Metro Disposal",
    "rowid": "913544",
    "final_x": "3683842.83708",
    "final_y": "558262.866012",
    "longitude": "-90.05973390008515",
    "latitude": "30.028957705302517",
    "geocoded_column": {
      "latitude": "30.028957705302517",
      "longitude": "-90.05973390008515"
    }
  },
  {
    "service_request": "2022-913543",
    "request_type": "Trash/Recycling",
    "request_reason": "MIssed Recycling Pick-Up",
    "date_created": "2022-08-25T20:02:31.000",
    "date_modified": "2022-08-25T20:02:32.000",
    "request_status": "Pending",
    "responsible_agency": "Department of Sanitation",
    "final_address": "1515 Nashville Ave, New Orleans, Louisiana, 70115",
    "address_councildis": "A",
    "status": "Assigned to Contractor",
    "contractor": "Richards Disposal",
    "rowid": "913543",
    "final_x": "3666211.33281",
    "final_y": "521788.609786",
    "longitude": "-90.11667289131509",
    "latitude": "29.92919283513176",
    "geocoded_column": {
      "latitude": "29.92919283513176",
      "longitude": "-90.11667289131509"
    }
  },
  {
    "service_request": "2022-913542",
    "request_type": "Roads/Drainage",
    "request_reason": "Street Flooding / Drainage",
    "date_created": "2022-08-25T19:46:17.000",
    "date_modified": "2022-08-25T19:46:17.000",
    "request_status": "Pending",
    "responsible_agency": "Department of Public Works",
    "final_address": "3519 Lancaster St",
    "address_councildis": "C",
    "status": "Pending",
    "rowid": "913542",
    "final_x": "3709806.08408",
    "final_y": "517724.33407",
    "longitude": "-89.97920554760717",
    "latitude": "29.916672720337868",
    "geocoded_column": {
      "latitude": "29.916672720337868",
      "longitude": "-89.97920554760717"
    }
  },
  {
    "service_request": "2022-913541",
    "request_type": "Roads/Drainage",
    "request_reason": "Street Flooding / Drainage",
    "date_created": "2022-08-25T19:43:22.000",
    "date_modified": "2022-08-25T19:43:22.000",
    "request_status": "Pending",
    "responsible_agency": "Department of Public Works",
    "final_address": "3519 Lancaster St",
    "address_councildis": "C",
    "status": "Pending",
    "rowid": "913541",
    "final_x": "3709806.08408",
    "final_y": "517724.33407",
    "longitude": "-89.97920554760717",
    "latitude": "29.916672720337868",
    "geocoded_column": {
      "latitude": "29.916672720337868",
      "longitude": "-89.97920554760717"
    }
  },
  {
    "service_request": "2022-913540",
    "request_type": "Roads/Drainage",
    "request_reason": "Street Flooding / Drainage",
    "date_created": "2022-08-25T19:36:56.000",
    "date_modified": "2022-08-25T19:36:56.000",
    "request_status": "Pending",
    "responsible_agency": "Department of Public Works",
    "final_address": "3519 Lancaster St",
    "address_councildis": "C",
    "status": "Pending",
    "rowid": "913540",
    "final_x": "3709806.08408",
    "final_y": "517724.33407",
    "longitude": "-89.97920554760717",
    "latitude": "29.916672720337868",
    "geocoded_column": {
      "latitude": "29.916672720337868",
      "longitude": "-89.97920554760717"
    }
  },
  {
    "service_request": "2022-913539",
    "request_type": "Trash/Recycling",
    "request_reason": "Request a Large Item Pick Up",
    "date_created": "2022-08-25T19:22:11.000",
    "date_modified": "2022-08-25T19:22:12.000",
    "request_status": "Pending",
    "responsible_agency": "Department of Sanitation",
    "final_address": "5411 Fontainebleau Dr",
    "address_councildis": "B",
    "status": "Assigned to Contractor",
    "contractor": "Richards Disposal",
    "rowid": "913539",
    "final_x": "3668891.65556",
    "final_y": "529767.483201",
    "longitude": "-90.10794223679153",
    "latitude": "29.951053633137814",
    "geocoded_column": {
      "latitude": "29.951053633137814",
      "longitude": "-90.10794223679153"
    }
  },
  {
    "service_request": "2022-913538",
    "request_type": "Traffic Signals/Signs/Striping/Streetlights",
    "request_reason": "Additional signage",
    "date_created": "2022-08-25T19:14:43.000",
    "date_modified": "2022-08-25T19:14:43.000",
    "request_status": "Pending",
    "responsible_agency": "Department of Public Works",
    "final_address": "323 Nashville Ave",
    "address_councildis": "A",
    "status": "Pending",
    "rowid": "913538",
    "final_x": "3665248.4176",
    "final_y": "517416.125365",
    "longitude": "-90.11985882078046",
    "latitude": "29.91719795359615",
    "geocoded_column": {
      "latitude": "29.91719795359615",
      "longitude": "-90.11985882078046"
    }
  },
  {
    "service_request": "2022-913537",
    "request_type": "Trash/Recycling",
    "request_reason": "MIssed Recycling Pick-Up",
    "date_created": "2022-08-25T19:07:44.000",
    "date_modified": "2022-08-25T19:07:45.000",
    "request_status": "Pending",
    "responsible_agency": "Department of Sanitation",
    "final_address": "1529 Nashville Ave, New Orleans, Louisiana, 70115",
    "address_councildis": "A",
    "status": "Assigned to Contractor",
    "contractor": "Richards Disposal",
    "rowid": "913537",
    "final_x": "3666228.28692",
    "final_y": "521867.901114",
    "longitude": "-90.11661671233426",
    "latitude": "29.92941036615711",
    "geocoded_column": {
      "latitude": "29.92941036615711",
      "longitude": "-90.11661671233426"
    }
  },
  {
    "service_request": "2022-913536",
    "request_type": "Trash/Recycling",
    "request_reason": "MIssed Recycling Pick-Up",
    "date_created": "2022-08-25T19:06:54.000",
    "date_modified": "2022-08-25T19:06:55.000",
    "request_status": "Pending",
    "responsible_agency": "Department of Sanitation",
    "final_address": "18 Richmond Pl",
    "address_councildis": "A",
    "status": "Assigned to Contractor",
    "contractor": "Richards Disposal",
    "rowid": "913536",
    "final_x": "3666565.54554",
    "final_y": "524105.339644",
    "longitude": "-90.11547697427197",
    "latitude": "29.935552758662038",
    "geocoded_column": {
      "latitude": "29.935552758662038",
      "longitude": "-90.11547697427197"
    }
  },
  {
    "service_request": "2022-913535",
    "request_type": "Traffic Signals/Signs/Striping/Streetlights",
    "request_reason": "Street Light Outage/Malfunction",
    "date_created": "2022-08-25T19:06:09.000",
    "date_modified": "2022-08-25T19:06:10.000",
    "request_status": "Pending",
    "responsible_agency": "Department of Public Works",
    "final_address": "6400 BLK N Robertson St",
    "address_councildis": "E",
    "status": "Pending",
    "contractor": "Legacy Professional Services",
    "rowid": "913535",
    "final_x": "3701141.48285",
    "final_y": "534273.631044",
    "longitude": "-90.00594928652094",
    "latitude": "29.962456206710225",
    "geocoded_column": {
      "latitude": "29.962456206710225",
      "longitude": "-90.00594928652094"
    }
  },
  {
    "service_request": "2022-913531",
    "request_type": "Trash/Recycling",
    "request_reason": "Request a Large Item Pick Up",
    "date_created": "2022-08-25T19:03:24.000",
    "date_modified": "2022-08-25T19:03:25.000",
    "request_status": "Pending",
    "responsible_agency": "Department of Sanitation",
    "final_address": "2238 Jefferson Ave",
    "address_councildis": "A",
    "status": "Assigned to Contractor",
    "contractor": "Richards Disposal",
    "rowid": "913531",
    "final_x": "3667813.19559",
    "final_y": "523963.293884",
    "longitude": "-90.11154290008324",
    "latitude": "29.935125656901313",
    "geocoded_column": {
      "latitude": "29.935125656901313",
      "longitude": "-90.11154290008324"
    }
  },
  {
    "service_request": "2022-913534",
    "request_type": "Trash/Recycling",
    "request_reason": "Request a Large Item Pick Up",
    "date_created": "2022-08-25T19:03:24.000",
    "date_modified": "2022-08-25T19:03:25.000",
    "request_status": "Pending",
    "responsible_agency": "Department of Sanitation",
    "final_address": "2238 Jefferson Ave",
    "address_councildis": "A",
    "status": "Assigned to Contractor",
    "contractor": "Richards Disposal",
    "rowid": "913534",
    "final_x": "3667813.19559",
    "final_y": "523963.293884",
    "longitude": "-90.11154290008324",
    "latitude": "29.935125656901313",
    "geocoded_column": {
      "latitude": "29.935125656901313",
      "longitude": "-90.11154290008324"
    }
  },
  {
    "service_request": "2022-913533",
    "request_type": "Trash/Recycling",
    "request_reason": "Request a Large Item Pick Up",
    "date_created": "2022-08-25T19:03:24.000",
    "date_modified": "2022-08-25T19:03:25.000",
    "request_status": "Pending",
    "responsible_agency": "Department of Sanitation",
    "final_address": "2238 Jefferson Ave",
    "address_councildis": "A",
    "status": "Assigned to Contractor",
    "contractor": "Richards Disposal",
    "rowid": "913533",
    "final_x": "3667813.19559",
    "final_y": "523963.293884",
    "longitude": "-90.11154290008324",
    "latitude": "29.935125656901313",
    "geocoded_column": {
      "latitude": "29.935125656901313",
      "longitude": "-90.11154290008324"
    }
  },
  {
    "service_request": "2022-913532",
    "request_type": "Trash/Recycling",
    "request_reason": "Request a Large Item Pick Up",
    "date_created": "2022-08-25T19:03:24.000",
    "date_modified": "2022-08-25T19:03:25.000",
    "request_status": "Pending",
    "responsible_agency": "Department of Sanitation",
    "final_address": "2238 Jefferson Ave",
    "address_councildis": "A",
    "status": "Assigned to Contractor",
    "contractor": "Richards Disposal",
    "rowid": "913532",
    "final_x": "3667813.19559",
    "final_y": "523963.293884",
    "longitude": "-90.11154290008324",
    "latitude": "29.935125656901313",
    "geocoded_column": {
      "latitude": "29.935125656901313",
      "longitude": "-90.11154290008324"
    }
  },
  {
    "service_request": "2022-913530",
    "request_type": "Property Maintenance",
    "request_reason": "Property Maintenance",
    "date_created": "2022-08-25T18:48:18.000",
    "date_modified": "2022-08-25T18:51:26.000",
    "request_status": "Pending",
    "responsible_agency": "Department of Code Enforcement",
    "final_address": "New Orleans,LA",
    "address_councildis": "B",
    "rowid": "913530",
    "final_x": "3667605.04129",
    "final_y": "531156.289346",
    "longitude": "-90.1119579922205",
    "latitude": "29.954910167319778",
    "geocoded_column": {
      "latitude": "29.954910167319778",
      "longitude": "-90.1119579922205"
    }
  },
  {
    "service_request": "2022-913529",
    "request_type": "Trash/Recycling",
    "request_reason": "Request a Large Item Pick Up",
    "date_created": "2022-08-25T18:33:10.000",
    "date_modified": "2022-08-25T18:33:10.000",
    "request_status": "Pending",
    "responsible_agency": "Department of Sanitation",
    "final_address": "2464 Dauphine St",
    "address_councildis": "C",
    "status": "Assigned to Contractor",
    "contractor": "Metro Disposal",
    "rowid": "913529",
    "final_x": "3686425.7654",
    "final_y": "535303.87911",
    "longitude": "-90.05238299299948",
    "latitude": "29.96574956699362",
    "geocoded_column": {
      "latitude": "29.96574956699362",
      "longitude": "-90.05238299299948"
    }
  },
  {
    "service_request": "2022-913528",
    "request_type": "Trash/Recycling",
    "request_reason": "Replace Trash Cart",
    "date_created": "2022-08-25T18:14:39.000",
    "date_modified": "2022-08-25T18:14:40.000",
    "request_status": "Pending",
    "responsible_agency": "Department of Sanitation",
    "final_address": "6430 Vicksburg St",
    "address_councildis": "A",
    "status": "Assigned to Contractor",
    "contractor": "Metro Disposal",
    "rowid": "913528",
    "final_x": "3669079.8187",
    "final_y": "550279.279636",
    "longitude": "-90.10665475764752",
    "latitude": "30.007448599862308",
    "geocoded_column": {
      "latitude": "30.007448599862308",
      "longitude": "-90.10665475764752"
    }
  },
  {
    "service_request": "2022-913527",
    "request_type": "Trash/Recycling",
    "request_reason": "Missed Trash Pick-Up",
    "date_created": "2022-08-25T18:08:50.000",
    "date_modified": "2022-08-25T18:08:51.000",
    "request_status": "Pending",
    "responsible_agency": "Department of Sanitation",
    "final_address": "3213 Maurepas St",
    "address_councildis": "A",
    "status": "Assigned to Contractor",
    "contractor": "Metro Disposal",
    "rowid": "913527",
    "final_x": "3676021.94273",
    "final_y": "540838.699339",
    "longitude": "-90.08504751093072",
    "latitude": "29.981284131422193",
    "geocoded_column": {
      "latitude": "29.981284131422193",
      "longitude": "-90.08504751093072"
    }
  },
  {
    "service_request": "2022-913526",
    "request_type": "Traffic Signals/Signs/Striping/Streetlights",
    "request_reason": "Additional signage",
    "date_created": "2022-08-25T18:06:53.000",
    "date_modified": "2022-08-25T18:06:53.000",
    "request_status": "Pending",
    "responsible_agency": "Department of Public Works",
    "final_address": "2313 Jackson Ave",
    "address_councildis": "B",
    "status": "Pending",
    "rowid": "913526",
    "final_x": "3675773.29973",
    "final_y": "526227.247422",
    "longitude": "-90.0863350783582",
    "latitude": "29.941115002317265",
    "geocoded_column": {
      "latitude": "29.941115002317265",
      "longitude": "-90.0863350783582"
    }
  },
  {
    "service_request": "2022-913525",
    "request_type": "Abandoned Vehicles",
    "request_reason": "Abandoned/Junk Vehicles",
    "date_created": "2022-08-25T18:04:50.000",
    "date_modified": "2022-08-25T18:04:50.000",
    "request_status": "Pending",
    "responsible_agency": "Department of Public Works",
    "final_address": "331 Cherokee St",
    "address_councildis": "A",
    "status": "Pending",
    "rowid": "913525",
    "final_x": "3661622.26099",
    "final_y": "524782.318332",
    "longitude": "-90.13106062442601",
    "latitude": "29.937557777689364",
    "geocoded_column": {
      "latitude": "29.937557777689364",
      "longitude": "-90.13106062442601"
    }
  },
  {
    "service_request": "2022-913524",
    "request_type": "Trash/Recycling",
    "request_reason": "Illegal Dumping",
    "date_created": "2022-08-25T18:03:12.000",
    "date_modified": "2022-08-25T18:03:12.000",
    "request_status": "Pending",
    "responsible_agency": "Department of Sanitation",
    "final_address": "2313 S Liberty St",
    "address_councildis": "B",
    "status": "Pending",
    "rowid": "913524",
    "final_x": "3675650.80872",
    "final_y": "525378.508797",
    "longitude": "-90.08675095772129",
    "latitude": "29.93878491467147",
    "geocoded_column": {
      "latitude": "29.93878491467147",
      "longitude": "-90.08675095772129"
    }
  },
  {
    "service_request": "2022-913523",
    "request_type": "Trash/Recycling",
    "request_reason": "Request a Large Item Pick Up",
    "date_created": "2022-08-25T18:01:48.000",
    "date_modified": "2022-08-25T18:01:49.000",
    "request_status": "Pending",
    "responsible_agency": "Department of Sanitation",
    "final_address": "1701 Jena St Unit 1",
    "address_councildis": "B",
    "status": "Assigned to Contractor",
    "contractor": "Richards Disposal",
    "rowid": "913523",
    "final_x": "3670448.18318",
    "final_y": "521317.038841",
    "longitude": "-90.10331391387989",
    "latitude": "29.92777178592791",
    "geocoded_column": {
      "latitude": "29.92777178592791",
      "longitude": "-90.10331391387989"
    }
  },
  {
    "service_request": "2022-913522",
    "request_type": "Abandoned Vehicles",
    "request_reason": "Abandoned/Junk Vehicles",
    "date_created": "2022-08-25T17:59:00.000",
    "date_modified": "2022-08-25T17:59:47.000",
    "request_status": "Pending",
    "responsible_agency": "Department of Public Works",
    "final_address": "3400 BLK N Robertson St",
    "address_councildis": "C",
    "status": "Pending",
    "rowid": "913522",
    "final_x": "3690694.01588",
    "final_y": "537161.303418",
    "longitude": "-90.03883779108558",
    "latitude": "29.970724939339924",
    "geocoded_column": {
      "latitude": "29.970724939339924",
      "longitude": "-90.03883779108558"
    }
  },
  {
    "service_request": "2022-913521",
    "request_type": "Roads/Drainage",
    "request_reason": "Debris in Roadway",
    "date_created": "2022-08-25T17:53:38.000",
    "date_modified": "2022-08-25T17:53:38.000",
    "request_status": "Pending",
    "responsible_agency": "Department of Public Works",
    "final_address": "1321 Lark St",
    "address_councildis": "D",
    "status": "Pending",
    "rowid": "913521",
    "final_x": "3677596.48475",
    "final_y": "556755.85545",
    "longitude": "-90.07952427935435",
    "latitude": "30.025003399331123",
    "geocoded_column": {
      "latitude": "30.025003399331123",
      "longitude": "-90.07952427935435"
    }
  },
  {
    "service_request": "2022-913520",
    "request_type": "Trash/Recycling",
    "request_reason": "MIssed Recycling Pick-Up",
    "date_created": "2022-08-25T17:52:42.000",
    "date_modified": "2022-08-25T17:52:42.000",
    "request_status": "Pending",
    "responsible_agency": "Department of Sanitation",
    "final_address": "6203 S Rocheblave St",
    "address_councildis": "A",
    "status": "Assigned to Contractor",
    "contractor": "Richards Disposal",
    "rowid": "913520",
    "final_x": "3667642.84884",
    "final_y": "528734.782912",
    "longitude": "-90.11192011495264",
    "latitude": "29.948250706343114",
    "geocoded_column": {
      "latitude": "29.948250706343114",
      "longitude": "-90.11192011495264"
    }
  },
  {
    "service_request": "2022-913519",
    "request_type": "Trash/Recycling",
    "request_reason": "Request a Large Item Pick Up",
    "date_created": "2022-08-25T17:44:23.000",
    "date_modified": "2022-08-25T17:44:24.000",
    "request_status": "Pending",
    "responsible_agency": "Department of Sanitation",
    "final_address": "1430 N Prieur St A",
    "address_councildis": "D",
    "status": "Assigned to Contractor",
    "contractor": "Metro Disposal",
    "rowid": "913519",
    "final_x": "3680646.8548",
    "final_y": "537426.251208",
    "longitude": "-90.07055871520635",
    "latitude": "29.971761732430647",
    "geocoded_column": {
      "latitude": "29.971761732430647",
      "longitude": "-90.07055871520635"
    }
  },
  {
    "service_request": "2022-913518",
    "request_type": "Trash/Recycling",
    "request_reason": "Replace Trash Cart",
    "date_created": "2022-08-25T17:41:45.000",
    "date_modified": "2022-08-25T17:41:46.000",
    "request_status": "Pending",
    "responsible_agency": "Department of Sanitation",
    "final_address": "4031 Ulloa St, New Orleans, Louisiana, 70119",
    "address_councildis": "A",
    "status": "Assigned to Contractor",
    "contractor": "Richards Disposal",
    "rowid": "913518",
    "final_x": "3669861.37946",
    "final_y": "536370.184583",
    "longitude": "-90.10465677361671",
    "latitude": "29.96918032368568",
    "geocoded_column": {
      "latitude": "29.96918032368568",
      "longitude": "-90.10465677361671"
    }
  },
  {
    "service_request": "2022-913517",
    "request_type": "Roads/Drainage",
    "request_reason": "Accessibility Ramps, Curbs and Sidewalk Repair",
    "date_created": "2022-08-25T17:32:25.000",
    "date_modified": "2022-08-25T17:32:25.000",
    "request_status": "Pending",
    "responsible_agency": "Department of Public Works",
    "final_address": "2525 Pressburg St",
    "address_councildis": "D",
    "status": "Pending",
    "rowid": "913517",
    "final_x": "3685938.09468",
    "final_y": "554824.423448",
    "longitude": "-90.05323435527293",
    "latitude": "30.01943906243818",
    "geocoded_column": {
      "latitude": "30.01943906243818",
      "longitude": "-90.05323435527293"
    }
  },
  {
    "service_request": "2022-913516",
    "request_type": "Traffic Signals/Signs/Striping/Streetlights",
    "request_reason": "Street Light Outage/Malfunction",
    "date_created": "2022-08-25T17:32:08.000",
    "date_modified": "2022-08-25T17:32:09.000",
    "request_status": "Pending",
    "responsible_agency": "Department of Public Works",
    "final_address": "7821 Bass St",
    "address_councildis": "E",
    "status": "Pending",
    "contractor": "Legacy Professional Services",
    "rowid": "913516",
    "final_x": "3719967.50738",
    "final_y": "573864.06641",
    "longitude": "-89.94498531064497",
    "latitude": "30.070701048787313",
    "geocoded_column": {
      "latitude": "30.070701048787313",
      "longitude": "-89.94498531064497"
    }
  },
  {
    "service_request": "2022-913515",
    "request_type": "Trash/Recycling",
    "request_reason": "Request a Large Item Pick Up",
    "date_created": "2022-08-25T17:22:58.000",
    "date_modified": "2022-08-25T17:22:59.000",
    "request_status": "Pending",
    "responsible_agency": "Department of Sanitation",
    "final_address": "4519 Palmyra St, New Orleans, Louisiana, 70119",
    "address_councildis": "A",
    "status": "Assigned to Contractor",
    "contractor": "Richards Disposal",
    "rowid": "913515",
    "final_x": "3669110.117",
    "final_y": "538903.04481",
    "longitude": "-90.10694370972644",
    "latitude": "29.976166968466533",
    "geocoded_column": {
      "latitude": "29.976166968466533",
      "longitude": "-90.10694370972644"
    }
  },
  {
    "service_request": "2022-913514",
    "request_type": "Trash/Recycling",
    "request_reason": "Replace Trash Cart",
    "date_created": "2022-08-25T17:20:23.000",
    "date_modified": "2022-08-25T17:20:24.000",
    "request_status": "Pending",
    "responsible_agency": "Department of Sanitation",
    "final_address": "New Orleans,LA",
    "status": "Assigned to Contractor",
    "rowid": "913514",
    "longitude": "0.0",
    "latitude": "0.0",
    "geocoded_column": {
      "latitude": "0.0",
      "longitude": "0.0"
    }
  },
  {
    "service_request": "2022-913513",
    "request_type": "Trash/Recycling",
    "request_reason": "Illegal Dumping",
    "date_created": "2022-08-25T17:18:52.000",
    "date_modified": "2022-08-25T17:18:52.000",
    "request_status": "Pending",
    "responsible_agency": "Department of Sanitation",
    "final_address": "1934 Washington Ave",
    "address_councildis": "B",
    "status": "Pending",
    "rowid": "913513",
    "final_x": "3675122.91317",
    "final_y": "523668.533947",
    "longitude": "-90.08847623571377",
    "latitude": "29.934098823404454",
    "geocoded_column": {
      "latitude": "29.934098823404454",
      "longitude": "-90.08847623571377"
    }
  },
  {
    "service_request": "2022-913512",
    "request_type": "Trash/Recycling",
    "request_reason": "Replace Trash Cart",
    "date_created": "2022-08-25T17:16:57.000",
    "date_modified": "2022-08-25T17:16:57.000",
    "request_status": "Pending",
    "responsible_agency": "Department of Sanitation",
    "final_address": "5720 Kensington Blvd",
    "address_councildis": "E",
    "status": "Assigned to Contractor",
    "contractor": "Metro Disposal",
    "rowid": "913512",
    "final_x": "3713476.86245",
    "final_y": "560449.740766",
    "longitude": "-89.96600992902646",
    "latitude": "30.034031768145226",
    "geocoded_column": {
      "latitude": "30.034031768145226",
      "longitude": "-89.96600992902646"
    }
  },
  {
    "service_request": "2022-913511",
    "request_type": "Trash/Recycling",
    "request_reason": "Request a Large Item Pick Up",
    "date_created": "2022-08-25T17:13:31.000",
    "date_modified": "2022-08-25T17:13:31.000",
    "request_status": "Pending",
    "responsible_agency": "Department of Sanitation",
    "final_address": "1934 Washington Ave",
    "address_councildis": "B",
    "status": "Assigned to Contractor",
    "contractor": "Richards Disposal",
    "rowid": "913511",
    "final_x": "3675122.91317",
    "final_y": "523668.533947",
    "longitude": "-90.08847623571377",
    "latitude": "29.934098823404454",
    "geocoded_column": {
      "latitude": "29.934098823404454",
      "longitude": "-90.08847623571377"
    }
  },
  {
    "service_request": "2022-913510",
    "request_type": "Roads/Drainage",
    "request_reason": "Catch Basin - Broken/Damage",
    "date_created": "2022-08-25T17:12:24.000",
    "date_modified": "2022-08-25T17:12:25.000",
    "request_status": "Pending",
    "responsible_agency": "Department of Public Works",
    "final_address": "1024 Elysian Fields Ave",
    "address_councildis": "C",
    "status": "Pending",
    "rowid": "913510",
    "final_x": "3684927.24681",
    "final_y": "536146.658631",
    "longitude": "-90.05708560940525",
    "latitude": "29.968112896282314",
    "geocoded_column": {
      "latitude": "29.968112896282314",
      "longitude": "-90.05708560940525"
    }
  },
  {
    "service_request": "2022-913509",
    "request_type": "Traffic Signals/Signs/Striping/Streetlights",
    "request_reason": "Additional signage",
    "date_created": "2022-08-25T17:02:59.000",
    "date_modified": "2022-08-25T17:02:59.000",
    "request_status": "Pending",
    "responsible_agency": "Department of Public Works",
    "final_address": "6309 Freret St",
    "address_councildis": "A",
    "status": "Pending",
    "rowid": "913509",
    "final_x": "3665547.41024",
    "final_y": "524844.02214",
    "longitude": "-90.11866652856516",
    "latitude": "29.937613615592337",
    "geocoded_column": {
      "latitude": "29.937613615592337",
      "longitude": "-90.11866652856516"
    }
  },
  {
    "service_request": "2022-913508",
    "request_type": "Roads/Drainage",
    "request_reason": "Street Flooding / Drainage",
    "date_created": "2022-08-25T17:01:44.000",
    "date_modified": "2022-08-25T17:01:46.000",
    "request_status": "Pending",
    "responsible_agency": "Department of Public Works",
    "final_address": "1500 BLK Adams St",
    "address_councildis": "A",
    "status": "Pending",
    "rowid": "913508",
    "final_x": "3663879.76669",
    "final_y": "528288.69321",
    "longitude": "-90.12381663240991",
    "latitude": "29.947133863429766",
    "geocoded_column": {
      "latitude": "29.947133863429766",
      "longitude": "-90.12381663240991"
    }
  },
  {
    "service_request": "2022-913507",
    "request_type": "Property Maintenance",
    "request_reason": "Property Maintenance",
    "date_created": "2022-08-25T16:56:45.000",
    "date_modified": "2022-08-25T16:56:46.000",
    "request_status": "Pending",
    "responsible_agency": "Department of Code Enforcement",
    "final_address": "3311 Sullen Pl",
    "address_councildis": "C",
    "status": "Pending",
    "rowid": "913507",
    "final_x": "3707673.06993",
    "final_y": "518632.728375",
    "longitude": "-89.98590444201997",
    "latitude": "29.919239628520696",
    "geocoded_column": {
      "latitude": "29.919239628520696",
      "longitude": "-89.98590444201997"
    }
  },
  {
    "service_request": "2022-913506",
    "request_type": "Roads/Drainage",
    "request_reason": "Catch Basin - Clogged",
    "date_created": "2022-08-25T16:46:55.000",
    "date_modified": "2022-08-25T16:46:55.000",
    "request_status": "Pending",
    "responsible_agency": "Department of Public Works",
    "final_address": "131 Millaudon St",
    "address_councildis": "A",
    "status": "Pending",
    "rowid": "913506",
    "final_x": "3660857.76448",
    "final_y": "523432.896763",
    "longitude": "-90.13351881742025",
    "latitude": "29.93386932754744",
    "geocoded_column": {
      "latitude": "29.93386932754744",
      "longitude": "-90.13351881742025"
    }
  },
  {
    "service_request": "2022-913505",
    "request_type": "Trash/Recycling",
    "request_reason": "Illegal Dumping",
    "date_created": "2022-08-25T16:38:54.000",
    "date_modified": "2022-08-25T16:38:54.000",
    "request_status": "Pending",
    "responsible_agency": "Department of Sanitation",
    "final_address": "CHEF MENTEUR HWY & DODT AVE",
    "address_councildis": "E",
    "status": "Pending",
    "rowid": "913505",
    "final_x": "3705672.2",
    "final_y": "553008.68",
    "longitude": "-89.99094892936071",
    "latitude": "30.013825509312756",
    "geocoded_column": {
      "latitude": "30.013825509312756",
      "longitude": "-89.99094892936071"
    }
  },
  {
    "service_request": "2022-913504",
    "request_type": "Trash/Recycling",
    "request_reason": "MIssed Recycling Pick-Up",
    "date_created": "2022-08-25T16:33:47.000",
    "date_modified": "2022-08-25T16:33:47.000",
    "request_status": "Pending",
    "responsible_agency": "Department of Sanitation",
    "final_address": "19 Versailles Blvd",
    "address_councildis": "A",
    "status": "Assigned to Contractor",
    "contractor": "Richards Disposal",
    "rowid": "913504",
    "final_x": "3667204.02029",
    "final_y": "529023.788224",
    "longitude": "-90.11329596588124",
    "latitude": "29.94905823196018",
    "geocoded_column": {
      "latitude": "29.94905823196018",
      "longitude": "-90.11329596588124"
    }
  },
  {
    "service_request": "2022-913503",
    "request_type": "Trash/Recycling",
    "request_reason": "Dead Animal Pick Up",
    "date_created": "2022-08-25T16:32:07.000",
    "date_modified": "2022-08-25T16:32:08.000",
    "request_status": "Pending",
    "responsible_agency": "Department of Sanitation",
    "final_address": "2826 N Tonti St",
    "address_councildis": "D",
    "status": "Assigned to Contractor",
    "contractor": "Metro Disposal",
    "rowid": "913503",
    "final_x": "3688735.46454",
    "final_y": "540827.114699",
    "longitude": "-90.04489293838368",
    "latitude": "29.98086532041473",
    "geocoded_column": {
      "latitude": "29.98086532041473",
      "longitude": "-90.04489293838368"
    }
  },
  {
    "service_request": "2022-913502",
    "request_type": "Trash/Recycling",
    "request_reason": "Request a Large Item Pick Up",
    "date_created": "2022-08-25T16:24:48.000",
    "date_modified": "2022-08-25T16:24:48.000",
    "request_status": "Pending",
    "responsible_agency": "Department of Sanitation",
    "final_address": "1213 Third St",
    "address_councildis": "B",
    "status": "Assigned to Contractor",
    "contractor": "Richards Disposal",
    "rowid": "913502",
    "final_x": "3677365.20078",
    "final_y": "521621.053241",
    "longitude": "-90.08146803185676",
    "latitude": "29.92840174624419",
    "geocoded_column": {
      "latitude": "29.92840174624419",
      "longitude": "-90.08146803185676"
    }
  },
  {
    "service_request": "2022-913501",
    "request_type": "Roads/Drainage",
    "request_reason": "Pothole",
    "date_created": "2022-08-25T16:24:06.000",
    "date_modified": "2022-08-25T16:24:07.000",
    "request_status": "Pending",
    "responsible_agency": "Department of Public Works",
    "final_address": "MIRABEAU AVE & PARIS AVE",
    "address_councildis": "D",
    "status": "Pending",
    "rowid": "913501",
    "final_x": "3679261.8",
    "final_y": "550295.18",
    "longitude": "-90.07448642904647",
    "latitude": "30.00718867062235",
    "geocoded_column": {
      "latitude": "30.00718867062235",
      "longitude": "-90.07448642904647"
    }
  },
  {
    "service_request": "2022-913498",
    "request_type": "Trash/Recycling",
    "request_reason": "Order Recycling Cart",
    "date_created": "2022-08-25T16:19:53.000",
    "date_modified": "2022-08-25T16:19:53.000",
    "request_status": "Pending",
    "responsible_agency": "Department of Sanitation",
    "final_address": "1528 Lowerline St",
    "address_councildis": "A",
    "status": "Pending",
    "rowid": "913498",
    "final_x": "3664356.405",
    "final_y": "527945.641983",
    "longitude": "-90.12232314719351",
    "latitude": "29.946176740002368",
    "geocoded_column": {
      "latitude": "29.946176740002368",
      "longitude": "-90.12232314719351"
    }
  },
  {
    "service_request": "2022-913497",
    "request_type": "Trash/Recycling",
    "request_reason": "Replace Trash Cart",
    "date_created": "2022-08-25T16:18:42.000",
    "date_modified": "2022-08-25T16:18:42.000",
    "request_status": "Pending",
    "responsible_agency": "Department of Sanitation",
    "final_address": "2038 Camp St",
    "address_councildis": "B",
    "status": "Assigned to Contractor",
    "contractor": "Richards Disposal",
    "rowid": "913497",
    "final_x": "3679044.13851",
    "final_y": "522658.955962",
    "longitude": "-90.07613204117408",
    "latitude": "29.931205095107924",
    "geocoded_column": {
      "latitude": "29.931205095107924",
      "longitude": "-90.07613204117408"
    }
  },
  {
    "service_request": "2022-913496",
    "request_type": "Trash/Recycling",
    "request_reason": "Repair Trash Cart",
    "date_created": "2022-08-25T16:18:40.000",
    "date_modified": "2022-08-25T16:18:41.000",
    "request_status": "Pending",
    "responsible_agency": "Department of Sanitation",
    "final_address": "3323 Chestnut St",
    "address_councildis": "B",
    "status": "Assigned to Contractor",
    "contractor": "Richards Disposal",
    "rowid": "913496",
    "final_x": "3674908.11745",
    "final_y": "520425.896504",
    "longitude": "-90.08926548324463",
    "latitude": "29.925189035828662",
    "geocoded_column": {
      "latitude": "29.925189035828662",
      "longitude": "-90.08926548324463"
    }
  },
  {
    "service_request": "2022-913495",
    "request_type": "Trash/Recycling",
    "request_reason": "Repair Trash Cart",
    "date_created": "2022-08-25T16:17:43.000",
    "date_modified": "2022-08-25T16:17:44.000",
    "request_status": "Pending",
    "responsible_agency": "Department of Sanitation",
    "final_address": "3122 Audubon St",
    "address_councildis": "B",
    "status": "Assigned to Contractor",
    "contractor": "Richards Disposal",
    "rowid": "913495",
    "final_x": "3668182.44929",
    "final_y": "532163.532163",
    "longitude": "-90.11010079727544",
    "latitude": "29.957662818228236",
    "geocoded_column": {
      "latitude": "29.957662818228236",
      "longitude": "-90.11010079727544"
    }
  },
  {
    "service_request": "2022-913494",
    "request_type": "Trash/Recycling",
    "request_reason": "MIssed Recycling Pick-Up",
    "date_created": "2022-08-25T16:09:51.000",
    "date_modified": "2022-08-25T16:09:52.000",
    "request_status": "Pending",
    "responsible_agency": "Department of Sanitation",
    "final_address": "3321 Vincennes Pl",
    "address_councildis": "A",
    "status": "Assigned to Contractor",
    "contractor": "Richards Disposal",
    "rowid": "913494",
    "final_x": "3667942.65645",
    "final_y": "528304.937536",
    "longitude": "-90.11098797418931",
    "latitude": "29.947059980410238",
    "geocoded_column": {
      "latitude": "29.947059980410238",
      "longitude": "-90.11098797418931"
    }
  },
  {
    "service_request": "2022-913492",
    "request_type": "Trash/Recycling",
    "request_reason": "Replace Trash Cart",
    "date_created": "2022-08-25T16:05:21.000",
    "date_modified": "2022-08-25T16:05:22.000",
    "request_status": "Pending",
    "responsible_agency": "Department of Sanitation",
    "final_address": "7604 Zimple St",
    "address_councildis": "A",
    "status": "Assigned to Contractor",
    "contractor": "Richards Disposal",
    "rowid": "913492",
    "final_x": "3662996.55335",
    "final_y": "526915.582142",
    "longitude": "-90.12665093821458",
    "latitude": "29.94338385299006",
    "geocoded_column": {
      "latitude": "29.94338385299006",
      "longitude": "-90.12665093821458"
    }
  },
  {
    "service_request": "2022-913491",
    "request_type": "Trash/Recycling",
    "request_reason": "Replace Trash Cart",
    "date_created": "2022-08-25T16:04:01.000",
    "date_modified": "2022-08-25T16:04:02.000",
    "request_status": "Pending",
    "responsible_agency": "Department of Sanitation",
    "final_address": "7602 Zimple St",
    "address_councildis": "A",
    "status": "Assigned to Contractor",
    "contractor": "Richards Disposal",
    "rowid": "913491",
    "final_x": "3663009.63117",
    "final_y": "526902.859838",
    "longitude": "-90.12661007100039",
    "latitude": "29.943348492019815",
    "geocoded_column": {
      "latitude": "29.943348492019815",
      "longitude": "-90.12661007100039"
    }
  },
  {
    "service_request": "2022-913490",
    "request_type": "Safety & Permits",
    "request_reason": "Licenses & Permits",
    "date_created": "2022-08-25T16:02:32.000",
    "date_modified": "2022-08-25T16:02:32.000",
    "request_status": "Pending",
    "responsible_agency": "Safety and Permits",
    "status": "Pending",
    "rowid": "913490",
    "longitude": "0.0",
    "latitude": "0.0",
    "geocoded_column": {
      "latitude": "0.0",
      "longitude": "0.0"
    }
  },
  {
    "service_request": "2022-913489",
    "request_type": "Trash/Recycling",
    "request_reason": "Request a Large Item Pick Up",
    "date_created": "2022-08-25T16:02:19.000",
    "date_modified": "2022-08-25T16:02:20.000",
    "request_status": "Pending",
    "responsible_agency": "Department of Sanitation",
    "final_address": "2305 Washington Ave",
    "address_councildis": "B",
    "status": "Assigned to Contractor",
    "contractor": "Richards Disposal",
    "rowid": "913489",
    "final_x": "3674543.3236",
    "final_y": "524690.378236",
    "longitude": "-90.09027098473226",
    "latitude": "29.93692586350669",
    "geocoded_column": {
      "latitude": "29.93692586350669",
      "longitude": "-90.09027098473226"
    }
  },
  {
    "service_request": "2022-913488",
    "request_type": "Roads/Drainage",
    "request_reason": "Accessibility Ramps, Curbs and Sidewalk Repair",
    "date_created": "2022-08-25T16:01:42.000",
    "date_modified": "2022-08-25T16:01:42.000",
    "request_status": "Pending",
    "responsible_agency": "Department of Public Works",
    "final_address": "1201 N Dorgenois St",
    "address_councildis": "D",
    "status": "Pending",
    "rowid": "913488",
    "final_x": "3678250.37608",
    "final_y": "538143.360969",
    "longitude": "-90.0781023582876",
    "latitude": "29.97380594015685",
    "geocoded_column": {
      "latitude": "29.97380594015685",
      "longitude": "-90.0781023582876"
    }
  },
  {
    "service_request": "2022-913487",
    "request_type": "Trash/Recycling",
    "request_reason": "Request a Large Item Pick Up",
    "date_created": "2022-08-25T16:00:59.000",
    "date_modified": "2022-08-25T16:01:00.000",
    "request_status": "Pending",
    "responsible_agency": "Department of Sanitation",
    "final_address": "936 N Rampart St",
    "address_councildis": "C",
    "status": "Assigned to Contractor",
    "contractor": "Empire Services",
    "rowid": "913487",
    "final_x": "3682056.74408",
    "final_y": "534152.878149",
    "longitude": "-90.0662203900141",
    "latitude": "29.962718284240946",
    "geocoded_column": {
      "latitude": "29.962718284240946",
      "longitude": "-90.0662203900141"
    }
  },
  {
    "service_request": "2022-913486",
    "request_type": "Trash/Recycling",
    "request_reason": "Missed Trash Pick-Up",
    "date_created": "2022-08-25T15:59:17.000",
    "date_modified": "2022-08-25T15:59:18.000",
    "request_status": "Pending",
    "responsible_agency": "Department of Sanitation",
    "final_address": "2310 3rd St, New Orleans, Louisiana, 70113",
    "status": "Assigned to Contractor",
    "rowid": "913486",
    "longitude": "0.0",
    "latitude": "0.0",
    "geocoded_column": {
      "latitude": "0.0",
      "longitude": "0.0"
    }
  },
  {
    "service_request": "2022-913485",
    "request_type": "Trash/Recycling",
    "request_reason": "Request a Large Item Pick Up",
    "date_created": "2022-08-25T15:56:40.000",
    "date_modified": "2022-08-25T15:56:40.000",
    "request_status": "Pending",
    "responsible_agency": "Department of Sanitation",
    "final_address": "28 Eugenie Ct",
    "address_councildis": "C",
    "status": "Assigned to Contractor",
    "contractor": "Richards Disposal",
    "rowid": "913485",
    "final_x": "3700178.37572",
    "final_y": "511651.090416",
    "longitude": "-90.00981578596439",
    "latitude": "29.900282694795482",
    "geocoded_column": {
      "latitude": "29.900282694795482",
      "longitude": "-90.00981578596439"
    }
  },
  {
    "service_request": "2022-913484",
    "request_type": "Roads/Drainage",
    "request_reason": "Catch Basin - Clogged",
    "date_created": "2022-08-25T15:55:47.000",
    "date_modified": "2022-08-25T15:55:47.000",
    "request_status": "Pending",
    "responsible_agency": "Department of Public Works",
    "final_address": "28 Eugenie Ct",
    "address_councildis": "C",
    "status": "Pending",
    "rowid": "913484",
    "final_x": "3700178.37572",
    "final_y": "511651.090416",
    "longitude": "-90.00981578596439",
    "latitude": "29.900282694795482",
    "geocoded_column": {
      "latitude": "29.900282694795482",
      "longitude": "-90.00981578596439"
    }
  },
  {
    "service_request": "2022-913483",
    "request_type": "Trash/Recycling",
    "request_reason": "Repair Recycling Cart",
    "date_created": "2022-08-25T15:53:12.000",
    "date_modified": "2022-08-25T15:53:12.000",
    "request_status": "Pending",
    "responsible_agency": "Department of Sanitation",
    "final_address": "823 Harmony St",
    "address_councildis": "B",
    "status": "Pending",
    "rowid": "913483",
    "final_x": "3676238.3355",
    "final_y": "519192.564599",
    "longitude": "-90.08510881616917",
    "latitude": "29.92175799205178",
    "geocoded_column": {
      "latitude": "29.92175799205178",
      "longitude": "-90.08510881616917"
    }
  },
  {
    "service_request": "2022-913482",
    "request_type": "Trash/Recycling",
    "request_reason": "Replace Trash Cart",
    "date_created": "2022-08-25T15:46:44.000",
    "date_modified": "2022-08-25T15:46:47.000",
    "request_status": "Pending",
    "responsible_agency": "Department of Sanitation",
    "final_address": "2815 Jefferson Ave",
    "address_councildis": "B",
    "status": "Assigned to Contractor",
    "contractor": "Richards Disposal",
    "rowid": "913482",
    "final_x": "3668418.61844",
    "final_y": "525742.393021",
    "longitude": "-90.10957159108922",
    "latitude": "29.939999842947195",
    "geocoded_column": {
      "latitude": "29.939999842947195",
      "longitude": "-90.10957159108922"
    }
  },
  {
    "service_request": "2022-913481",
    "request_type": "Traffic Signals/Signs/Striping/Streetlights",
    "request_reason": "Street Light Outage/Malfunction",
    "date_created": "2022-08-25T15:44:29.000",
    "date_modified": "2022-08-25T15:44:30.000",
    "request_status": "Pending",
    "responsible_agency": "Department of Public Works",
    "final_address": "CLARA ST & UPPERLINE ST",
    "address_councildis": "B",
    "status": "Pending",
    "contractor": "Legacy Professional Services",
    "rowid": "913481",
    "final_x": "3669199.7",
    "final_y": "524963.08",
    "longitude": "-90.10713192197821",
    "latitude": "29.937834022816947",
    "geocoded_column": {
      "latitude": "29.937834022816947",
      "longitude": "-90.10713192197821"
    }
  },
  {
    "service_request": "2022-913480",
    "request_type": "Trash/Recycling",
    "request_reason": "Replace Trash Cart",
    "date_created": "2022-08-25T15:40:22.000",
    "date_modified": "2022-08-25T15:40:23.000",
    "request_status": "Pending",
    "responsible_agency": "Department of Sanitation",
    "final_address": "7822 Belfast St",
    "address_councildis": "A",
    "status": "Assigned to Contractor",
    "contractor": "Richards Disposal",
    "rowid": "913480",
    "final_x": "3666242.7017",
    "final_y": "531707.859267",
    "longitude": "-90.11624126190071",
    "latitude": "29.956466663300063",
    "geocoded_column": {
      "latitude": "29.956466663300063",
      "longitude": "-90.11624126190071"
    }
  },
  {
    "service_request": "2022-913479",
    "request_type": "Roads/Drainage",
    "request_reason": "Street Subsidence (Sinking)",
    "date_created": "2022-08-25T15:38:46.000",
    "date_modified": "2022-08-25T15:38:46.000",
    "request_status": "Pending",
    "responsible_agency": "Department of Public Works",
    "final_address": "1804 Oretha Castle Haley Blvd",
    "address_councildis": "B",
    "status": "Pending",
    "rowid": "913479",
    "final_x": "3677558.32091",
    "final_y": "525410.948221",
    "longitude": "-90.08072760696835",
    "latitude": "29.938816912867814",
    "geocoded_column": {
      "latitude": "29.938816912867814",
      "longitude": "-90.08072760696835"
    }
  },
  {
    "service_request": "2022-913478",
    "request_type": "Trash/Recycling",
    "request_reason": "Request a Large Item Pick Up",
    "date_created": "2022-08-25T15:35:04.000",
    "date_modified": "2022-08-25T15:35:05.000",
    "request_status": "Pending",
    "responsible_agency": "Department of Sanitation",
    "final_address": "2042 Royal St",
    "address_councildis": "C",
    "status": "Assigned to Contractor",
    "contractor": "Metro Disposal",
    "rowid": "913478",
    "final_x": "3684549.61199",
    "final_y": "534791.911302",
    "longitude": "-90.05832579929681",
    "latitude": "29.964399369637636",
    "geocoded_column": {
      "latitude": "29.964399369637636",
      "longitude": "-90.05832579929681"
    }
  },
  {
    "service_request": "2022-913477",
    "request_type": "Property Maintenance",
    "request_reason": "Property Maintenance",
    "date_created": "2022-08-25T15:33:02.000",
    "date_modified": "2022-08-25T15:33:02.000",
    "request_status": "Pending",
    "responsible_agency": "Department of Code Enforcement",
    "final_address": "5411 Eads St",
    "address_councildis": "D",
    "status": "Pending",
    "rowid": "913477",
    "final_x": "3687002.03663",
    "final_y": "553047.364183",
    "longitude": "-90.04993555343908",
    "latitude": "30.01452007977139",
    "geocoded_column": {
      "latitude": "30.01452007977139",
      "longitude": "-90.04993555343908"
    }
  },
  {
    "service_request": "2022-913476",
    "request_type": "Roads/Drainage",
    "request_reason": "Pothole",
    "date_created": "2022-08-25T15:29:57.000",
    "date_modified": "2022-08-25T15:29:57.000",
    "request_status": "Pending",
    "responsible_agency": "Department of Public Works",
    "final_address": "2741 Dumaine St",
    "address_councildis": "A",
    "status": "Pending",
    "rowid": "913476",
    "final_x": "3676864.56776",
    "final_y": "537796.12628",
    "longitude": "-90.08249101942967",
    "latitude": "29.97289283356405",
    "geocoded_column": {
      "latitude": "29.97289283356405",
      "longitude": "-90.08249101942967"
    }
  },
  {
    "service_request": "2022-913475",
    "request_type": "Property Maintenance",
    "request_reason": "Property Maintenance",
    "date_created": "2022-08-25T15:26:31.000",
    "date_modified": "2022-08-25T15:26:31.000",
    "request_status": "Pending",
    "responsible_agency": "Department of Code Enforcement",
    "final_address": "1932 Industry St",
    "address_councildis": "D",
    "status": "Pending",
    "rowid": "913475",
    "final_x": "3682507.75458",
    "final_y": "542743.075853",
    "longitude": "-90.06449577419103",
    "latitude": "29.9863246223359",
    "geocoded_column": {
      "latitude": "29.9863246223359",
      "longitude": "-90.06449577419103"
    }
  },
  {
    "service_request": "2022-913474",
    "request_type": "Trash/Recycling",
    "request_reason": "Missed Trash Pick-Up",
    "date_created": "2022-08-25T15:25:35.000",
    "date_modified": "2022-08-25T15:25:36.000",
    "request_status": "Pending",
    "responsible_agency": "Department of Sanitation",
    "final_address": "2901 First St",
    "address_councildis": "B",
    "status": "Assigned to Contractor",
    "contractor": "Richards Disposal",
    "rowid": "913474",
    "final_x": "3674442.02587",
    "final_y": "527096.449919",
    "longitude": "-90.0905083970815",
    "latitude": "29.943544793989016",
    "geocoded_column": {
      "latitude": "29.943544793989016",
      "longitude": "-90.0905083970815"
    }
  },
  {
    "service_request": "2022-913473",
    "request_type": "Property Maintenance",
    "request_reason": "Property Maintenance",
    "date_created": "2022-08-25T15:24:14.000",
    "date_modified": "2022-08-25T15:24:14.000",
    "request_status": "Pending",
    "responsible_agency": "Department of Code Enforcement",
    "final_address": "418 Belleville St",
    "address_councildis": "C",
    "status": "Pending",
    "rowid": "913473",
    "final_x": "3687908.99574",
    "final_y": "530176.185857",
    "longitude": "-90.04788067743664",
    "latitude": "29.951604507191174",
    "geocoded_column": {
      "latitude": "29.951604507191174",
      "longitude": "-90.04788067743664"
    }
  },
  {
    "service_request": "2022-913472",
    "request_type": "Abandoned Vehicles",
    "request_reason": "Abandoned/Junk Vehicles",
    "date_created": "2022-08-25T15:24:03.000",
    "date_modified": "2022-08-25T15:24:03.000",
    "request_status": "Pending",
    "responsible_agency": "Department of Public Works",
    "final_address": "934 Port St",
    "address_councildis": "C",
    "status": "Pending",
    "rowid": "913472",
    "final_x": "3687264.99522",
    "final_y": "535893.784327",
    "longitude": "-90.04971187264331",
    "latitude": "29.967345777334884",
    "geocoded_column": {
      "latitude": "29.967345777334884",
      "longitude": "-90.04971187264331"
    }
  },
  {
    "service_request": "2022-913471",
    "request_type": "Trash/Recycling",
    "request_reason": "Replace Trash Cart",
    "date_created": "2022-08-25T15:07:26.000",
    "date_modified": "2022-08-25T15:07:27.000",
    "request_status": "Pending",
    "responsible_agency": "Department of Sanitation",
    "final_address": "100 Audubon Blvd",
    "address_councildis": "A",
    "status": "Assigned to Contractor",
    "contractor": "Richards Disposal",
    "rowid": "913471",
    "final_x": "3665806.56557",
    "final_y": "527880.032127",
    "longitude": "-90.11774666924633",
    "latitude": "29.945954111893784",
    "geocoded_column": {
      "latitude": "29.945954111893784",
      "longitude": "-90.11774666924633"
    }
  },
  {
    "service_request": "2022-913468",
    "request_type": "Parks & Parkways",
    "request_reason": "Request Tree Service (Right of Way/Public Property)",
    "date_created": "2022-08-25T15:02:37.000",
    "date_modified": "2022-08-25T15:02:39.000",
    "request_status": "Pending",
    "responsible_agency": "Department of Parks & Parkway",
    "final_address": "7900 Pebble Dr",
    "address_councildis": "E",
    "status": "Pending",
    "rowid": "913468",
    "final_x": "3714469.59301",
    "final_y": "569729.988774",
    "longitude": "-89.96252196405383",
    "latitude": "30.05951606916631",
    "geocoded_column": {
      "latitude": "30.05951606916631",
      "longitude": "-89.96252196405383"
    }
  },
  {
    "service_request": "2022-913467",
    "request_type": "Trash/Recycling",
    "request_reason": "MIssed Recycling Pick-Up",
    "date_created": "2022-08-25T14:49:24.000",
    "date_modified": "2022-08-25T15:51:14.000",
    "request_status": "Pending",
    "responsible_agency": "Department of Sanitation",
    "final_address": "New Orleans,LA",
    "address_councildis": "A",
    "status": "Assigned to Contractor",
    "contractor": "Richards Disposal",
    "rowid": "913467",
    "final_x": "3668000.56372",
    "final_y": "526122.20595",
    "longitude": "-90.11087866377314",
    "latitude": "29.941056476295223",
    "geocoded_column": {
      "latitude": "29.941056476295223",
      "longitude": "-90.11087866377314"
    }
  },
  {
    "service_request": "2022-913466",
    "request_type": "Trash/Recycling",
    "request_reason": "MIssed Recycling Pick-Up",
    "date_created": "2022-08-25T14:45:44.000",
    "date_modified": "2022-08-25T14:45:45.000",
    "request_status": "Pending",
    "responsible_agency": "Department of Sanitation",
    "final_address": "1007 Piety St",
    "address_councildis": "C",
    "status": "Assigned to Contractor",
    "contractor": "Metro Disposal",
    "rowid": "913466",
    "final_x": "3689768.26569",
    "final_y": "535409.905286",
    "longitude": "-90.04182375639927",
    "latitude": "29.965937934171095",
    "geocoded_column": {
      "latitude": "29.965937934171095",
      "longitude": "-90.04182375639927"
    }
  },
  {
    "service_request": "2022-913464",
    "request_type": "Trash/Recycling",
    "request_reason": "Replace Trash Cart",
    "date_created": "2022-08-25T14:43:32.000",
    "date_modified": "2022-08-25T14:43:33.000",
    "request_status": "Pending",
    "responsible_agency": "Department of Sanitation",
    "final_address": "5817 S Robertson St",
    "address_councildis": "A",
    "status": "Assigned to Contractor",
    "contractor": "Richards Disposal",
    "rowid": "913464",
    "final_x": "3666820.99437",
    "final_y": "524625.500412",
    "longitude": "-90.11465305159962",
    "latitude": "29.936975566481554",
    "geocoded_column": {
      "latitude": "29.936975566481554",
      "longitude": "-90.11465305159962"
    }
  },
  {
    "service_request": "2022-913463",
    "request_type": "Trash/Recycling",
    "request_reason": "Request a Large Item Pick Up",
    "date_created": "2022-08-25T14:39:52.000",
    "date_modified": "2022-08-25T14:39:52.000",
    "request_status": "Pending",
    "responsible_agency": "Department of Sanitation",
    "final_address": "3316 Castiglione St, New Orleans, Louisiana, 70119",
    "address_councildis": "A",
    "status": "Assigned to Contractor",
    "contractor": "Metro Disposal",
    "rowid": "913463",
    "final_x": "3677482.48322",
    "final_y": "542765.360525",
    "longitude": "-90.0803679136531",
    "latitude": "29.986537950036",
    "geocoded_column": {
      "latitude": "29.986537950036",
      "longitude": "-90.0803679136531"
    }
  },
  {
    "service_request": "2022-913462",
    "request_type": "Trash/Recycling",
    "request_reason": "MIssed Recycling Pick-Up",
    "date_created": "2022-08-25T14:34:50.000",
    "date_modified": "2022-08-25T14:34:51.000",
    "request_status": "Pending",
    "responsible_agency": "Department of Sanitation",
    "final_address": "1101 Casa Calvo St",
    "address_councildis": "C",
    "status": "Assigned to Contractor",
    "contractor": "Richards Disposal",
    "rowid": "913462",
    "final_x": "3692070.148",
    "final_y": "527373.510591",
    "longitude": "-90.03484210538876",
    "latitude": "29.94376910275946",
    "geocoded_column": {
      "latitude": "29.94376910275946",
      "longitude": "-90.03484210538876"
    }
  },
  {
    "service_request": "2022-913461",
    "request_type": "Trash/Recycling",
    "request_reason": "Order Recycling Cart",
    "date_created": "2022-08-25T14:34:43.000",
    "date_modified": "2022-08-25T14:34:43.000",
    "request_status": "Pending",
    "responsible_agency": "Department of Sanitation",
    "final_address": "2722 New Orleans St",
    "address_councildis": "D",
    "status": "Pending",
    "contractor": "Metro Disposal",
    "rowid": "913461",
    "final_x": "3681852.25794",
    "final_y": "542551.978957",
    "longitude": "-90.0665729074769",
    "latitude": "29.98581911534121",
    "geocoded_column": {
      "latitude": "29.98581911534121",
      "longitude": "-90.0665729074769"
    }
  },
  {
    "service_request": "2022-913460",
    "request_type": "Roads/Drainage",
    "request_reason": "Pothole",
    "date_created": "2022-08-25T14:34:37.000",
    "date_modified": "2022-08-25T14:34:38.000",
    "request_status": "Pending",
    "responsible_agency": "Department of Public Works",
    "final_address": "3706 Upperline St",
    "address_councildis": "B",
    "status": "Pending",
    "rowid": "913460",
    "final_x": "3669227.46362",
    "final_y": "528458.114688",
    "longitude": "-90.10692617018252",
    "latitude": "29.947443418430616",
    "geocoded_column": {
      "latitude": "29.947443418430616",
      "longitude": "-90.10692617018252"
    }
  },
  {
    "service_request": "2022-913459",
    "request_type": "Trash/Recycling",
    "request_reason": "Order Recycling Cart",
    "date_created": "2022-08-25T14:34:18.000",
    "date_modified": "2022-08-25T14:34:19.000",
    "request_status": "Pending",
    "responsible_agency": "Department of Sanitation",
    "final_address": "2724 New Orleans St",
    "address_councildis": "D",
    "status": "Pending",
    "contractor": "Metro Disposal",
    "rowid": "913459",
    "final_x": "3681849.74114",
    "final_y": "542582.143309",
    "longitude": "-90.06657980372357",
    "latitude": "29.985902133215404",
    "geocoded_column": {
      "latitude": "29.985902133215404",
      "longitude": "-90.06657980372357"
    }
  },
  {
    "service_request": "2022-913458",
    "request_type": "Trash/Recycling",
    "request_reason": "MIssed Recycling Pick-Up",
    "date_created": "2022-08-25T14:34:05.000",
    "date_modified": "2022-08-25T14:34:06.000",
    "request_status": "Pending",
    "responsible_agency": "Department of Sanitation",
    "final_address": "1101 Casa Calvo St",
    "address_councildis": "C",
    "status": "Assigned to Contractor",
    "contractor": "Richards Disposal",
    "rowid": "913458",
    "final_x": "3692070.148",
    "final_y": "527373.510591",
    "longitude": "-90.03484210538876",
    "latitude": "29.94376910275946",
    "geocoded_column": {
      "latitude": "29.94376910275946",
      "longitude": "-90.03484210538876"
    }
  },
  {
    "service_request": "2022-913457",
    "request_type": "Trash/Recycling",
    "request_reason": "Order Trash Cart",
    "date_created": "2022-08-25T14:33:40.000",
    "date_modified": "2022-08-25T14:33:40.000",
    "request_status": "Pending",
    "responsible_agency": "Department of Sanitation",
    "final_address": "2724 New Orleans St",
    "address_councildis": "D",
    "status": "Assigned to Contractor",
    "contractor": "Metro Disposal",
    "rowid": "913457",
    "final_x": "3681849.74114",
    "final_y": "542582.143309",
    "longitude": "-90.06657980372357",
    "latitude": "29.985902133215404",
    "geocoded_column": {
      "latitude": "29.985902133215404",
      "longitude": "-90.06657980372357"
    }
  },
  {
    "service_request": "2022-913456",
    "request_type": "Trash/Recycling",
    "request_reason": "Order Trash Cart",
    "date_created": "2022-08-25T14:33:21.000",
    "date_modified": "2022-08-25T14:33:21.000",
    "request_status": "Pending",
    "responsible_agency": "Department of Sanitation",
    "final_address": "2722 New Orleans St",
    "address_councildis": "D",
    "status": "Assigned to Contractor",
    "contractor": "Metro Disposal",
    "rowid": "913456",
    "final_x": "3681852.25794",
    "final_y": "542551.978957",
    "longitude": "-90.0665729074769",
    "latitude": "29.98581911534121",
    "geocoded_column": {
      "latitude": "29.98581911534121",
      "longitude": "-90.0665729074769"
    }
  },
  {
    "service_request": "2022-913455",
    "request_type": "Abandoned Vehicles",
    "request_reason": "Abandoned/Junk Vehicles",
    "date_created": "2022-08-25T14:32:02.000",
    "date_modified": "2022-08-25T15:56:36.000",
    "request_status": "Pending",
    "responsible_agency": "Department of Public Works",
    "final_address": "New Orleans,LA",
    "address_councildis": "D",
    "rowid": "913455",
    "final_x": "3685806.4",
    "final_y": "540448.98",
    "longitude": "-90.05415753558265",
    "latitude": "29.97991582029789",
    "geocoded_column": {
      "latitude": "29.97991582029789",
      "longitude": "-90.05415753558265"
    }
  },
  {
    "service_request": "2022-913454",
    "request_type": "Roads/Drainage",
    "request_reason": "Road Shoulder Repair",
    "date_created": "2022-08-25T14:31:25.000",
    "date_modified": "2022-08-25T14:31:27.000",
    "request_status": "Pending",
    "responsible_agency": "Department of Public Works",
    "final_address": "3019 St Thomas St",
    "address_councildis": "B",
    "status": "Pending",
    "rowid": "913454",
    "final_x": "3677226.12846",
    "final_y": "518786.720055",
    "longitude": "-90.08200476411066",
    "latitude": "29.92061242560908",
    "geocoded_column": {
      "latitude": "29.92061242560908",
      "longitude": "-90.08200476411066"
    }
  },
  {
    "service_request": "2022-913453",
    "request_type": "Trash/Recycling",
    "request_reason": "Illegal Dumping",
    "date_created": "2022-08-25T14:30:11.000",
    "date_modified": "2022-08-25T14:30:12.000",
    "request_status": "Pending",
    "responsible_agency": "Department of Sanitation",
    "final_address": "CHERRY ST & DIXON ST",
    "address_councildis": "A",
    "status": "Pending",
    "rowid": "913453",
    "final_x": "3665294.9",
    "final_y": "538312.68",
    "longitude": "-90.11901309677044",
    "latitude": "29.97465539055838",
    "geocoded_column": {
      "latitude": "29.97465539055838",
      "longitude": "-90.11901309677044"
    }
  },
  {
    "service_request": "2022-913451",
    "request_type": "Abandoned Vehicles",
    "request_reason": "Abandoned/Junk Vehicles",
    "date_created": "2022-08-25T14:28:24.000",
    "date_modified": "2022-08-25T14:28:24.000",
    "request_status": "Pending",
    "responsible_agency": "Department of Public Works",
    "final_address": "7562 Lucerne St",
    "address_councildis": "E",
    "status": "Pending",
    "rowid": "913451",
    "final_x": "3711004.22769",
    "final_y": "565564.170722",
    "longitude": "-89.97363190280032",
    "latitude": "30.048175299358615",
    "geocoded_column": {
      "latitude": "30.048175299358615",
      "longitude": "-89.97363190280032"
    }
  },
  {
    "service_request": "2022-913450",
    "request_type": "Tax and Revenue",
    "request_reason": "Occupational License Tax",
    "date_created": "2022-08-25T14:27:36.000",
    "date_modified": "2022-08-25T14:35:57.000",
    "request_status": "Pending",
    "responsible_agency": "Bureau of Revenue",
    "final_address": "New Orleans,LA",
    "rowid": "913450",
    "longitude": "0.0",
    "latitude": "0.0",
    "geocoded_column": {
      "latitude": "0.0",
      "longitude": "0.0"
    }
  },
  {
    "service_request": "2022-913449",
    "request_type": "Trash/Recycling",
    "request_reason": "Start Trash Service",
    "date_created": "2022-08-25T14:26:49.000",
    "date_modified": "2022-08-25T14:26:49.000",
    "request_status": "Pending",
    "responsible_agency": "Department of Sanitation",
    "final_address": "3024 Laussat Pl",
    "address_councildis": "D",
    "status": "Assigned to Contractor",
    "contractor": "Metro Disposal",
    "rowid": "913449",
    "final_x": "3690115.04528",
    "final_y": "541969.037836",
    "longitude": "-90.04049493217296",
    "latitude": "29.98396247478063",
    "geocoded_column": {
      "latitude": "29.98396247478063",
      "longitude": "-90.04049493217296"
    }
  },
  {
    "service_request": "2022-913448",
    "request_type": "Trash/Recycling",
    "request_reason": "Start Trash Service",
    "date_created": "2022-08-25T14:26:31.000",
    "date_modified": "2022-08-25T14:26:32.000",
    "request_status": "Pending",
    "responsible_agency": "Department of Sanitation",
    "final_address": "3026 Laussat Pl",
    "address_councildis": "D",
    "status": "Assigned to Contractor",
    "contractor": "Metro Disposal",
    "rowid": "913448",
    "final_x": "3690128.23977",
    "final_y": "541964.52398",
    "longitude": "-90.04045341784389",
    "latitude": "29.983949653938947",
    "geocoded_column": {
      "latitude": "29.983949653938947",
      "longitude": "-90.04045341784389"
    }
  },
  {
    "service_request": "2022-913447",
    "request_type": "Trash/Recycling",
    "request_reason": "Order Trash Cart",
    "date_created": "2022-08-25T14:25:59.000",
    "date_modified": "2022-08-25T14:26:00.000",
    "request_status": "Pending",
    "responsible_agency": "Department of Sanitation",
    "final_address": "3026 Laussat Pl",
    "address_councildis": "D",
    "status": "Assigned to Contractor",
    "contractor": "Metro Disposal",
    "rowid": "913447",
    "final_x": "3690128.23977",
    "final_y": "541964.52398",
    "longitude": "-90.04045341784389",
    "latitude": "29.983949653938947",
    "geocoded_column": {
      "latitude": "29.983949653938947",
      "longitude": "-90.04045341784389"
    }
  },
  {
    "service_request": "2022-913446",
    "request_type": "Trash/Recycling",
    "request_reason": "Order Trash Cart",
    "date_created": "2022-08-25T14:25:45.000",
    "date_modified": "2022-08-25T14:25:47.000",
    "request_status": "Pending",
    "responsible_agency": "Department of Sanitation",
    "final_address": "3024 Laussat Pl",
    "address_councildis": "D",
    "status": "Assigned to Contractor",
    "contractor": "Metro Disposal",
    "rowid": "913446",
    "final_x": "3690115.04528",
    "final_y": "541969.037836",
    "longitude": "-90.04049493217296",
    "latitude": "29.98396247478063",
    "geocoded_column": {
      "latitude": "29.98396247478063",
      "longitude": "-90.04049493217296"
    }
  },
  {
    "service_request": "2022-913445",
    "request_type": "Roads/Drainage",
    "request_reason": "Road Shoulder Repair",
    "date_created": "2022-08-25T14:23:12.000",
    "date_modified": "2022-08-25T14:23:12.000",
    "request_status": "Pending",
    "responsible_agency": "Department of Public Works",
    "final_address": "4720 Painters St",
    "address_councildis": "D",
    "status": "Pending",
    "rowid": "913445",
    "final_x": "3686067.82652",
    "final_y": "550561.422676",
    "longitude": "-90.05297495639581",
    "latitude": "30.0077133874292",
    "geocoded_column": {
      "latitude": "30.0077133874292",
      "longitude": "-90.05297495639581"
    }
  },
  {
    "service_request": "2022-913444",
    "request_type": "Tax and Revenue",
    "request_reason": "General Tax Question",
    "date_created": "2022-08-25T14:18:20.000",
    "date_modified": "2022-08-25T14:26:16.000",
    "request_status": "Pending",
    "responsible_agency": "Bureau of Revenue",
    "final_address": "New Orleans,LA",
    "rowid": "913444",
    "longitude": "0.0",
    "latitude": "0.0",
    "geocoded_column": {
      "latitude": "0.0",
      "longitude": "0.0"
    }
  },
  {
    "service_request": "2022-913443",
    "request_type": "Trash/Recycling",
    "request_reason": "Illegal Dumping",
    "date_created": "2022-08-25T14:12:52.000",
    "date_modified": "2022-08-25T14:12:52.000",
    "request_status": "Pending",
    "responsible_agency": "Department of Sanitation",
    "final_address": "3037 S Carrollton Ave",
    "address_councildis": "B",
    "status": "Pending",
    "rowid": "913443",
    "final_x": "3666594.37716",
    "final_y": "533218.860868",
    "longitude": "-90.11508005470147",
    "latitude": "29.960611146193223",
    "geocoded_column": {
      "latitude": "29.960611146193223",
      "longitude": "-90.11508005470147"
    }
  },
  {
    "service_request": "2022-913442",
    "request_type": "Trash/Recycling",
    "request_reason": "Repair Recycling Cart",
    "date_created": "2022-08-25T14:08:27.000",
    "date_modified": "2022-08-25T14:08:28.000",
    "request_status": "Pending",
    "responsible_agency": "Department of Sanitation",
    "final_address": "4611 Mandeville St",
    "address_councildis": "D",
    "status": "Pending",
    "contractor": "Legacy Professional Services",
    "rowid": "913442",
    "final_x": "3684844.32585",
    "final_y": "549641.36258",
    "longitude": "-90.05687272777632",
    "latitude": "30.0052210902795",
    "geocoded_column": {
      "latitude": "30.0052210902795",
      "longitude": "-90.05687272777632"
    }
  },
  {
    "service_request": "2022-913441",
    "request_type": "Trash/Recycling",
    "request_reason": "Repair Trash Cart",
    "date_created": "2022-08-25T14:07:23.000",
    "date_modified": "2022-08-25T14:07:24.000",
    "request_status": "Pending",
    "responsible_agency": "Department of Sanitation",
    "final_address": "3615 Patterson St",
    "address_councildis": "C",
    "status": "Assigned to Contractor",
    "contractor": "Richards Disposal",
    "rowid": "913441",
    "final_x": "3697395.52611",
    "final_y": "527583.383423",
    "longitude": "-90.01802094299613",
    "latitude": "29.944179168050045",
    "geocoded_column": {
      "latitude": "29.944179168050045",
      "longitude": "-90.01802094299613"
    }
  },
  {
    "service_request": "2022-913440",
    "request_type": "Traffic Signals/Signs/Striping/Streetlights",
    "request_reason": "Street Light Outage/Malfunction",
    "date_created": "2022-08-25T14:06:34.000",
    "date_modified": "2022-08-25T14:06:35.000",
    "request_status": "Pending",
    "responsible_agency": "Department of Public Works",
    "final_address": "201 Baronne St",
    "address_councildis": "B",
    "status": "Pending",
    "contractor": "Legacy Professional Services",
    "rowid": "913440",
    "final_x": "3680155.78946",
    "final_y": "530664.581762",
    "longitude": "-90.07234457860008",
    "latitude": "29.953184316362155",
    "geocoded_column": {
      "latitude": "29.953184316362155",
      "longitude": "-90.07234457860008"
    }
  },
  {
    "service_request": "2022-913438",
    "request_type": "Trash/Recycling",
    "request_reason": "Illegal Dumping",
    "date_created": "2022-08-25T14:03:07.000",
    "date_modified": "2022-08-25T14:03:07.000",
    "request_status": "Pending",
    "responsible_agency": "Department of Sanitation",
    "final_address": "3020 Fern St",
    "address_councildis": "B",
    "status": "Pending",
    "rowid": "913438",
    "final_x": "3666937.22087",
    "final_y": "532804.176772",
    "longitude": "-90.1140113529496",
    "latitude": "29.95946087404469",
    "geocoded_column": {
      "latitude": "29.95946087404469",
      "longitude": "-90.1140113529496"
    }
  },
  {
    "service_request": "2022-913437",
    "request_type": "Trash/Recycling",
    "request_reason": "Missed Trash Pick-Up",
    "date_created": "2022-08-25T14:02:44.000",
    "date_modified": "2022-08-25T14:02:45.000",
    "request_status": "Pending",
    "responsible_agency": "Department of Sanitation",
    "final_address": "2622 S Carrollton Ave",
    "address_councildis": "A",
    "status": "Assigned to Contractor",
    "contractor": "Richards Disposal",
    "rowid": "913437",
    "final_x": "3665495.05639",
    "final_y": "532282.801923",
    "longitude": "-90.11858284251693",
    "latitude": "29.958069382715017",
    "geocoded_column": {
      "latitude": "29.958069382715017",
      "longitude": "-90.11858284251693"
    }
  },
  {
    "service_request": "2022-913436",
    "request_type": "Traffic Signals/Signs/Striping/Streetlights",
    "request_reason": "Street Light Outage/Malfunction",
    "date_created": "2022-08-25T14:02:40.000",
    "date_modified": "2022-08-25T14:02:41.000",
    "request_status": "Pending",
    "responsible_agency": "Department of Public Works",
    "final_address": "210 Baronne St",
    "address_councildis": "B",
    "status": "Pending",
    "contractor": "Legacy Professional Services",
    "rowid": "913436",
    "final_x": "3680240.2836",
    "final_y": "530605.158914",
    "longitude": "-90.0720798481",
    "latitude": "29.953018366512932",
    "geocoded_column": {
      "latitude": "29.953018366512932",
      "longitude": "-90.0720798481"
    }
  },
  {
    "service_request": "2022-913435",
    "request_type": "Property Maintenance",
    "request_reason": "Property Maintenance",
    "date_created": "2022-08-25T14:02:37.000",
    "date_modified": "2022-08-25T14:02:37.000",
    "request_status": "Pending",
    "responsible_agency": "Department of Code Enforcement",
    "final_address": "6300 St Claude Ave",
    "address_councildis": "E",
    "status": "Pending",
    "rowid": "913435",
    "final_x": "3700146.28816",
    "final_y": "532977.506564",
    "longitude": "-90.00913925230147",
    "latitude": "29.95892398960287",
    "geocoded_column": {
      "latitude": "29.95892398960287",
      "longitude": "-90.00913925230147"
    }
  },
  {
    "service_request": "2022-913434",
    "request_type": "Trash/Recycling",
    "request_reason": "Request a Large Item Pick Up",
    "date_created": "2022-08-25T14:01:25.000",
    "date_modified": "2022-08-25T14:01:26.000",
    "request_status": "Pending",
    "responsible_agency": "Department of Sanitation",
    "final_address": "7095 General Meyer Ave",
    "address_councildis": "C",
    "status": "Assigned to Contractor",
    "contractor": "Richards Disposal",
    "rowid": "913434",
    "final_x": "3710469.32504",
    "final_y": "519003.276343",
    "longitude": "-89.97706432441018",
    "latitude": "29.920167794624383",
    "geocoded_column": {
      "latitude": "29.920167794624383",
      "longitude": "-89.97706432441018"
    }
  },
  {
    "service_request": "2022-913433",
    "request_type": "Trash/Recycling",
    "request_reason": "Illegal Dumping",
    "date_created": "2022-08-25T14:01:12.000",
    "date_modified": "2022-08-25T14:01:12.000",
    "request_status": "Pending",
    "responsible_agency": "Department of Sanitation",
    "final_address": "3024 Fern St",
    "address_councildis": "B",
    "status": "Pending",
    "rowid": "913433",
    "final_x": "3666967.28071",
    "final_y": "532831.819076",
    "longitude": "-90.11391550175169",
    "latitude": "29.959536001710735",
    "geocoded_column": {
      "latitude": "29.959536001710735",
      "longitude": "-90.11391550175169"
    }
  },
  {
    "service_request": "2022-913432",
    "request_type": "Traffic Signals/Signs/Striping/Streetlights",
    "request_reason": "Street Light Outage/Malfunction",
    "date_created": "2022-08-25T13:59:16.000",
    "date_modified": "2022-08-25T13:59:17.000",
    "request_status": "Pending",
    "responsible_agency": "Department of Public Works",
    "final_address": "201 Baronne St",
    "address_councildis": "B",
    "status": "Pending",
    "contractor": "Legacy Professional Services",
    "rowid": "913432",
    "final_x": "3680155.78946",
    "final_y": "530664.581762",
    "longitude": "-90.07234457860008",
    "latitude": "29.953184316362155",
    "geocoded_column": {
      "latitude": "29.953184316362155",
      "longitude": "-90.07234457860008"
    }
  },
  {
    "service_request": "2022-913431",
    "request_type": "Traffic Signals/Signs/Striping/Streetlights",
    "request_reason": "Street Light Outage/Malfunction",
    "date_created": "2022-08-25T13:58:47.000",
    "date_modified": "2022-08-25T13:58:48.000",
    "request_status": "Pending",
    "responsible_agency": "Department of Public Works",
    "final_address": "3600 BLK Frenchmen St",
    "address_councildis": "D",
    "status": "Pending",
    "contractor": "Legacy Professional Services",
    "rowid": "913431",
    "final_x": "3683804.42501",
    "final_y": "546030.754839",
    "longitude": "-90.06028472273498",
    "latitude": "29.995325027388855",
    "geocoded_column": {
      "latitude": "29.995325027388855",
      "longitude": "-90.06028472273498"
    }
  },
  {
    "service_request": "2022-913430",
    "request_type": "Trash/Recycling",
    "request_reason": "Replace Trash Cart",
    "date_created": "2022-08-25T13:58:03.000",
    "date_modified": "2022-08-25T13:58:04.000",
    "request_status": "Pending",
    "responsible_agency": "Department of Sanitation",
    "final_address": "1330 Bordeaux St",
    "address_councildis": "B",
    "status": "Assigned to Contractor",
    "contractor": "Richards Disposal",
    "rowid": "913430",
    "final_x": "3669415.25863",
    "final_y": "520050.75404",
    "longitude": "-90.10661741641665",
    "latitude": "29.924320353887616",
    "geocoded_column": {
      "latitude": "29.924320353887616",
      "longitude": "-90.10661741641665"
    }
  },
  {
    "service_request": "2022-913429",
    "request_type": "Traffic Signals/Signs/Striping/Streetlights",
    "request_reason": "Street Light Outage/Malfunction",
    "date_created": "2022-08-25T13:56:43.000",
    "date_modified": "2022-08-25T13:56:44.000",
    "request_status": "Pending",
    "responsible_agency": "Department of Public Works",
    "final_address": "213 Baronne St",
    "address_councildis": "B",
    "status": "Pending",
    "contractor": "Legacy Professional Services",
    "rowid": "913429",
    "final_x": "3680139.06459",
    "final_y": "530596.27277",
    "longitude": "-90.07239976202912",
    "latitude": "29.952996995737255",
    "geocoded_column": {
      "latitude": "29.952996995737255",
      "longitude": "-90.07239976202912"
    }
  },
  {
    "service_request": "2022-913428",
    "request_type": "Traffic Signals/Signs/Striping/Streetlights",
    "request_reason": "Street Light Outage/Malfunction",
    "date_created": "2022-08-25T13:54:28.000",
    "date_modified": "2022-08-25T13:54:29.000",
    "request_status": "Pending",
    "responsible_agency": "Department of Public Works",
    "final_address": "216 Baronne St",
    "address_councildis": "B",
    "status": "Pending",
    "contractor": "Legacy Professional Services",
    "rowid": "913428",
    "final_x": "3680226.81455",
    "final_y": "530492.369986",
    "longitude": "-90.07212629739031",
    "latitude": "29.952708642622106",
    "geocoded_column": {
      "latitude": "29.952708642622106",
      "longitude": "-90.07212629739031"
    }
  },
  {
    "service_request": "2022-913427",
    "request_type": "Property Maintenance",
    "request_reason": "Property Maintenance",
    "date_created": "2022-08-25T13:53:25.000",
    "date_modified": "2022-08-25T13:53:25.000",
    "request_status": "Pending",
    "responsible_agency": "Department of Code Enforcement",
    "final_address": "3036 Fern St",
    "address_councildis": "B",
    "status": "Pending",
    "rowid": "913427",
    "final_x": "3667057.37933",
    "final_y": "532861.239108",
    "longitude": "-90.11363000130208",
    "latitude": "29.959614260327633",
    "geocoded_column": {
      "latitude": "29.959614260327633",
      "longitude": "-90.11363000130208"
    }
  },
  {
    "service_request": "2022-913426",
    "request_type": "Traffic Signals/Signs/Striping/Streetlights",
    "request_reason": "Street Light Outage/Malfunction",
    "date_created": "2022-08-25T13:51:23.000",
    "date_modified": "2022-08-25T13:51:25.000",
    "request_status": "Pending",
    "responsible_agency": "Department of Public Works",
    "final_address": "837 Gravier St",
    "address_councildis": "B",
    "status": "Pending",
    "contractor": "Legacy Professional Services",
    "rowid": "913426",
    "final_x": "3680203.48085",
    "final_y": "530400.816706",
    "longitude": "-90.07220315643896",
    "latitude": "29.95245760812071",
    "geocoded_column": {
      "latitude": "29.95245760812071",
      "longitude": "-90.07220315643896"
    }
  },
  {
    "service_request": "2022-913425",
    "request_type": "Trash/Recycling",
    "request_reason": "Order Recycling Cart",
    "date_created": "2022-08-25T13:47:22.000",
    "date_modified": "2022-08-25T13:47:22.000",
    "request_status": "Pending",
    "responsible_agency": "Department of Sanitation",
    "final_address": "8118 Hickory St",
    "address_councildis": "A",
    "status": "Pending",
    "rowid": "913425",
    "final_x": "3663233.09363",
    "final_y": "530012.214721",
    "longitude": "-90.12580108365623",
    "latitude": "29.95189174650475",
    "geocoded_column": {
      "latitude": "29.95189174650475",
      "longitude": "-90.12580108365623"
    }
  },
  {
    "service_request": "2022-913424",
    "request_type": "Traffic Signals/Signs/Striping/Streetlights",
    "request_reason": "Street Light Outage/Malfunction",
    "date_created": "2022-08-25T13:43:50.000",
    "date_modified": "2022-08-25T13:43:51.000",
    "request_status": "Pending",
    "responsible_agency": "Department of Public Works",
    "final_address": "225 Baronne St",
    "address_councildis": "B",
    "status": "Pending",
    "contractor": "Legacy Professional Services",
    "rowid": "913424",
    "final_x": "3680112.84251",
    "final_y": "530444.840962",
    "longitude": "-90.07248782128232",
    "latitude": "29.952581402696044",
    "geocoded_column": {
      "latitude": "29.952581402696044",
      "longitude": "-90.07248782128232"
    }
  },
  {
    "service_request": "2022-913423",
    "request_type": "Abandoned Vehicles",
    "request_reason": "Abandoned/Junk Vehicles",
    "date_created": "2022-08-25T13:41:32.000",
    "date_modified": "2022-08-25T13:43:57.000",
    "request_status": "Pending",
    "responsible_agency": "Department of Public Works",
    "final_address": "1174 City Park Ave",
    "address_councildis": "A",
    "status": "Pending",
    "rowid": "913423",
    "final_x": "3673772.69198",
    "final_y": "541401.144076",
    "longitude": "-90.0921324392487",
    "latitude": "29.98289784579432",
    "geocoded_column": {
      "latitude": "29.98289784579432",
      "longitude": "-90.0921324392487"
    }
  },
  {
    "service_request": "2022-913422",
    "request_type": "Property Maintenance",
    "request_reason": "Property Maintenance",
    "date_created": "2022-08-25T13:41:21.000",
    "date_modified": "2022-08-25T13:41:21.000",
    "request_status": "Pending",
    "responsible_agency": "Department of Code Enforcement",
    "final_address": "4602 S Tonti St",
    "address_councildis": "B",
    "status": "Pending",
    "rowid": "913422",
    "final_x": "3669335.06663",
    "final_y": "527989.227199",
    "longitude": "-90.1066022747641",
    "latitude": "29.946150963379086",
    "geocoded_column": {
      "latitude": "29.946150963379086",
      "longitude": "-90.1066022747641"
    }
  },
  {
    "service_request": "2022-913421",
    "request_type": "Abandoned Vehicles",
    "request_reason": "Abandoned/Junk Vehicles",
    "date_created": "2022-08-25T13:40:03.000",
    "date_modified": "2022-08-25T13:40:03.000",
    "request_status": "Pending",
    "responsible_agency": "Department of Public Works",
    "final_address": "1200 N Tonti St",
    "address_councildis": "D",
    "status": "Pending",
    "rowid": "913421",
    "final_x": "3678972.46914",
    "final_y": "537594.754888",
    "longitude": "-90.0758408443045",
    "latitude": "29.972275691709978",
    "geocoded_column": {
      "latitude": "29.972275691709978",
      "longitude": "-90.0758408443045"
    }
  },
  {
    "service_request": "2022-913420",
    "request_type": "Trash/Recycling",
    "request_reason": "Repair Trash Cart",
    "date_created": "2022-08-25T13:39:09.000",
    "date_modified": "2022-08-25T13:39:10.000",
    "request_status": "Pending",
    "responsible_agency": "Department of Sanitation",
    "final_address": "6954 Memphis St",
    "address_councildis": "A",
    "status": "Assigned to Contractor",
    "contractor": "Metro Disposal",
    "rowid": "913420",
    "final_x": "3669684.10273",
    "final_y": "553719.380631",
    "longitude": "-90.10462910469525",
    "latitude": "30.01688986358228",
    "geocoded_column": {
      "latitude": "30.01688986358228",
      "longitude": "-90.10462910469525"
    }
  },
  {
    "service_request": "2022-913419",
    "request_type": "Trash/Recycling",
    "request_reason": "Missed Trash Pick-Up",
    "date_created": "2022-08-25T13:38:02.000",
    "date_modified": "2022-08-25T13:38:03.000",
    "request_status": "Pending",
    "responsible_agency": "Department of Sanitation",
    "final_address": "4932 S Claiborne Ave",
    "address_councildis": "B",
    "status": "Assigned to Contractor",
    "contractor": "Richards Disposal",
    "rowid": "913419",
    "final_x": "3668956.20961",
    "final_y": "525757.144445",
    "longitude": "-90.10787383202296",
    "latitude": "29.9400246064321",
    "geocoded_column": {
      "latitude": "29.9400246064321",
      "longitude": "-90.10787383202296"
    }
  },
  {
    "service_request": "2022-913418",
    "request_type": "Traffic Signals/Signs/Striping/Streetlights",
    "request_reason": "Street Light Outage/Malfunction",
    "date_created": "2022-08-25T13:37:18.000",
    "date_modified": "2022-08-25T13:37:19.000",
    "request_status": "Pending",
    "responsible_agency": "Department of Public Works",
    "final_address": "305 Baronne St",
    "address_councildis": "B",
    "status": "Pending",
    "contractor": "Legacy Professional Services",
    "rowid": "913418",
    "final_x": "3680096.53634",
    "final_y": "530362.632706",
    "longitude": "-90.07254216494962",
    "latitude": "29.9523558510319",
    "geocoded_column": {
      "latitude": "29.9523558510319",
      "longitude": "-90.07254216494962"
    }
  },
  {
    "service_request": "2022-913417",
    "request_type": "Abandoned Vehicles",
    "request_reason": "Abandoned/Junk Vehicles",
    "date_created": "2022-08-25T13:36:54.000",
    "date_modified": "2022-08-25T13:36:54.000",
    "request_status": "Pending",
    "responsible_agency": "Department of Public Works",
    "final_address": "2418 Barracks St",
    "address_councildis": "D",
    "status": "Pending",
    "rowid": "913417",
    "final_x": "3678969.43458",
    "final_y": "537956.257225",
    "longitude": "-90.07583789860064",
    "latitude": "29.97326979045245",
    "geocoded_column": {
      "latitude": "29.97326979045245",
      "longitude": "-90.07583789860064"
    }
  },
  {
    "service_request": "2022-913416",
    "request_type": "Abandoned Vehicles",
    "request_reason": "Abandoned/Junk Vehicles",
    "date_created": "2022-08-25T13:31:56.000",
    "date_modified": "2022-08-25T13:35:17.000",
    "request_status": "Pending",
    "responsible_agency": "Department of Public Works",
    "final_address": "2100 BLK Thalia St",
    "address_councildis": "B",
    "status": "Pending",
    "rowid": "913416",
    "final_x": "3677609.09455",
    "final_y": "526904.453525",
    "longitude": "-90.08051575502802",
    "latitude": "29.942922032819226",
    "geocoded_column": {
      "latitude": "29.942922032819226",
      "longitude": "-90.08051575502802"
    }
  },
  {
    "service_request": "2022-913415",
    "request_type": "Traffic Signals/Signs/Striping/Streetlights",
    "request_reason": "Street Light Outage/Malfunction",
    "date_created": "2022-08-25T13:29:39.000",
    "date_modified": "2022-08-25T13:29:40.000",
    "request_status": "Pending",
    "responsible_agency": "Department of Public Works",
    "final_address": "300 Baronne St",
    "address_councildis": "B",
    "status": "Pending",
    "contractor": "Legacy Professional Services",
    "rowid": "913415",
    "final_x": "3680176.34837",
    "final_y": "530334.34989",
    "longitude": "-90.07229113812893",
    "latitude": "29.95227566785017",
    "geocoded_column": {
      "latitude": "29.95227566785017",
      "longitude": "-90.07229113812893"
    }
  },