[
  {
    "service_request": "2021-848451",
    "request_type": "Property Maintenance",
    "request_reason": "Property Maintenance",
    "date_created": "2021-12-16T02:04:38.000",
    "date_modified": "2021-12-16T02:04:38.000",
    "request_status": "Pending",
    "responsible_agency": "Department of Code Enforcement",
    "final_address": "517 S Dorgenois St",
    "address_councildis": "B",
    "status": "Pending",
    "rowid": "848451",
    "final_x": "3674655.69627",
    "final_y": "533363.271812",
    "longitude": "-90.08961902217646",
    "latitude": "29.960770098505655",
    "geocoded_column": {
      "latitude": "29.960770098505655",
      "longitude": "-90.08961902217646"
    }
  },
  {
    "service_request": "2021-848450",
    "request_type": "Roads/Drainage",
    "request_reason": "Catch Basin - Clogged",
    "date_created": "2021-12-16T01:59:44.000",
    "date_modified": "2021-12-16T01:59:44.000",
    "request_status": "Pending",
    "responsible_agency": "Department of Public Works",
    "final_address": "516 S Dorgenois St",
    "address_councildis": "B",
    "status": "Pending",
    "rowid": "848450",
    "final_x": "3674768.2411",
    "final_y": "533303.738564",
    "longitude": "-90.08926566797673",
    "latitude": "29.960603042633846",
    "geocoded_column": {
      "latitude": "29.960603042633846",
      "longitude": "-90.08926566797673"
    }
  },
  {
    "service_request": "2021-848449",
    "request_type": "Trash/Recycling",
    "request_reason": "Illegal Dumping",
    "date_created": "2021-12-16T01:55:51.000",
    "date_modified": "2021-12-16T01:55:51.000",
    "request_status": "Pending",
    "responsible_agency": "Department of Sanitation",
    "final_address": "516 S Dorgenois St",
    "address_councildis": "B",
    "status": "Pending",
    "rowid": "848449",
    "final_x": "3674768.2411",
    "final_y": "533303.738564",
    "longitude": "-90.08926566797673",
    "latitude": "29.960603042633846",
    "geocoded_column": {
      "latitude": "29.960603042633846",
      "longitude": "-90.08926566797673"
    }
  },
  {
    "service_request": "2021-848448",
    "request_type": "Traffic Signals/Signs/Striping/Streetlights",
    "request_reason": "Traffic Signal Malfunctioning/Damaged",
    "date_created": "2021-12-16T01:50:46.000",
    "date_modified": "2021-12-16T01:50:46.000",
    "request_status": "Pending",
    "responsible_agency": "Department of Public Works",
    "final_address": "1541 St Roch Ave",
    "address_councildis": "C",
    "status": "Pending",
    "rowid": "848448",
    "final_x": "3686470.14076",
    "final_y": "538237.511561",
    "longitude": "-90.05213927095564",
    "latitude": "29.973814668775066",
    "geocoded_column": {
      "latitude": "29.973814668775066",
      "longitude": "-90.05213927095564"
    }
  },
  {
    "service_request": "2021-848446",
    "request_type": "Trash/Recycling",
    "request_reason": "Replace Trash Cart",
    "date_created": "2021-12-16T00:24:58.000",
    "date_modified": "2021-12-16T00:24:59.000",
    "request_status": "Pending",
    "responsible_agency": "Department of Sanitation",
    "final_address": "6818 Milne Blvd",
    "address_councildis": "A",
    "status": "Assigned to Contractor",
    "contractor": "Metro Disposal",
    "rowid": "848446",
    "final_x": "3667470.43175",
    "final_y": "552919.128791",
    "longitude": "-90.11165036616391",
    "latitude": "30.01475453688969",
    "geocoded_column": {
      "latitude": "30.01475453688969",
      "longitude": "-90.11165036616391"
    }
  },
  {
    "service_request": "2021-848445",
    "request_type": "Abandoned Vehicles",
    "request_reason": "Abandoned/Junk Vehicles",
    "date_created": "2021-12-15T23:13:02.000",
    "date_modified": "2021-12-15T23:13:02.000",
    "request_status": "Pending",
    "responsible_agency": "Department of Public Works",
    "final_address": "2401 General De Gaulle Dr",
    "address_councildis": "C",
    "status": "Pending",
    "rowid": "848445",
    "final_x": "3692487.06275",
    "final_y": "522231.918138",
    "longitude": "-90.0337099192038",
    "latitude": "29.929618481014572",
    "geocoded_column": {
      "latitude": "29.929618481014572",
      "longitude": "-90.0337099192038"
    }
  },
  {
    "service_request": "2021-848444",
    "request_type": "Trash/Recycling",
    "request_reason": "Illegal Dumping",
    "date_created": "2021-12-15T22:09:54.000",
    "date_modified": "2021-12-15T22:09:54.000",
    "request_status": "Pending",
    "responsible_agency": "Department of Sanitation",
    "final_address": "1848 Gentilly Blvd",
    "address_councildis": "D",
    "status": "Pending",
    "rowid": "848444",
    "final_x": "3678915.9773",
    "final_y": "542698.901901",
    "longitude": "-90.07584235043339",
    "latitude": "29.98631203304439",
    "geocoded_column": {
      "latitude": "29.98631203304439",
      "longitude": "-90.07584235043339"
    }
  },
  {
    "service_request": "2021-848443",
    "request_type": "COVID-19",
    "request_reason": "COVID-19 Business Non-Compliance",
    "date_created": "2021-12-15T21:37:06.000",
    "date_modified": "2021-12-15T21:37:07.000",
    "request_status": "Pending",
    "responsible_agency": "Safety and Permits",
    "final_address": "901 Bourbon St",
    "address_councildis": "C",
    "status": "Pending",
    "rowid": "848443",
    "final_x": "3682707.32303",
    "final_y": "533304.72122",
    "longitude": "-90.06419561516127",
    "latitude": "29.960366345084232",
    "geocoded_column": {
      "latitude": "29.960366345084232",
      "longitude": "-90.06419561516127"
    }
  },
  {
    "service_request": "2021-848442",
    "request_type": "Traffic Signals/Signs/Striping/Streetlights",
    "request_reason": "Street Light Outage/Malfunction",
    "date_created": "2021-12-15T20:29:33.000",
    "date_modified": "2021-12-15T20:29:34.000",
    "request_status": "Pending",
    "responsible_agency": "Department of Public Works",
    "final_address": "ANNUNCIATION ST & OCTAVIA ST",
    "address_councildis": "A",
    "status": "Pending",
    "contractor": "Royal Engineering",
    "rowid": "848442",
    "final_x": "3666151.7",
    "final_y": "517560.78",
    "longitude": "-90.11700281651078",
    "latitude": "29.91756937431387",
    "geocoded_column": {
      "latitude": "29.91756937431387",
      "longitude": "-90.11700281651078"
    }
  },
  {
    "service_request": "2021-848441",
    "request_type": "Abandoned Vehicles",
    "request_reason": "Abandoned/Junk Vehicles",
    "date_created": "2021-12-15T20:25:38.000",
    "date_modified": "2021-12-15T21:00:43.000",
    "request_status": "Pending",
    "responsible_agency": "Department of Public Works",
    "final_address": "New Orleans,LA",
    "status": "Pending",
    "rowid": "848441",
    "longitude": "0.0",
    "latitude": "0.0",
    "geocoded_column": {
      "latitude": "0.0",
      "longitude": "0.0"
    }
  },
  {
    "service_request": "2021-848440",
    "request_type": "Abandoned Vehicles",
    "request_reason": "Abandoned/Junk Vehicles",
    "date_created": "2021-12-15T20:19:36.000",
    "date_modified": "2021-12-15T21:00:45.000",
    "request_status": "Pending",
    "responsible_agency": "Department of Public Works",
    "final_address": "3118 Robert St",
    "address_councildis": "B",
    "status": "Pending",
    "rowid": "848440",
    "final_x": "3668871.66606",
    "final_y": "526741.15315",
    "longitude": "-90.10810753054672",
    "latitude": "29.94273279811311",
    "geocoded_column": {
      "latitude": "29.94273279811311",
      "longitude": "-90.10810753054672"
    }
  },
  {
    "service_request": "2021-848439",
    "request_type": "Trash/Recycling",
    "request_reason": "Missed Trash Pick-Up",
    "date_created": "2021-12-15T20:13:52.000",
    "date_modified": "2021-12-15T20:13:53.000",
    "request_status": "Pending",
    "responsible_agency": "Department of Sanitation",
    "final_address": "1411 Madrid St",
    "address_councildis": "D",
    "status": "Assigned to Contractor",
    "contractor": "Metro Disposal",
    "rowid": "848439",
    "final_x": "3677609.17378",
    "final_y": "554646.07452",
    "longitude": "-90.07955712952284",
    "latitude": "30.019201886329242",
    "geocoded_column": {
      "latitude": "30.019201886329242",
      "longitude": "-90.07955712952284"
    }
  },
  {
    "service_request": "2021-848438",
    "request_type": "Traffic Signals/Signs/Striping/Streetlights",
    "request_reason": "Street Light Outage/Malfunction",
    "date_created": "2021-12-15T20:01:17.000",
    "date_modified": "2021-12-15T20:01:18.000",
    "request_status": "Pending",
    "responsible_agency": "Department of Public Works",
    "final_address": "5928 General Haig St",
    "address_councildis": "A",
    "status": "Pending",
    "contractor": "Royal Engineering",
    "rowid": "848438",
    "final_x": "3670435.13147",
    "final_y": "546685.038481",
    "longitude": "-90.10249490325195",
    "latitude": "29.997525725609407",
    "geocoded_column": {
      "latitude": "29.997525725609407",
      "longitude": "-90.10249490325195"
    }
  },
  {
    "service_request": "2021-848437",
    "request_type": "Traffic Signals/Signs/Striping/Streetlights",
    "request_reason": "Street Light Outage/Malfunction",
    "date_created": "2021-12-15T19:58:34.000",
    "date_modified": "2021-12-15T19:58:34.000",
    "request_status": "Pending",
    "responsible_agency": "Department of Public Works",
    "final_address": "4801 Chantilly Dr",
    "address_councildis": "E",
    "status": "Pending",
    "contractor": "Royal Engineering",
    "rowid": "848437",
    "final_x": "3700942.30135",
    "final_y": "554416.157464",
    "longitude": "-90.00584136099698",
    "latitude": "30.01784705165993",
    "geocoded_column": {
      "latitude": "30.01784705165993",
      "longitude": "-90.00584136099698"
    }
  },
  {
    "service_request": "2021-848436",
    "request_type": "Trash/Recycling",
    "request_reason": "Replace Trash Cart",
    "date_created": "2021-12-15T19:41:57.000",
    "date_modified": "2021-12-15T19:41:58.000",
    "request_status": "Pending",
    "responsible_agency": "Department of Sanitation",
    "final_address": "4815 Camp St",
    "address_councildis": "B",
    "status": "Assigned to Contractor",
    "contractor": "Richards Disposal",
    "rowid": "848436",
    "final_x": "3669419.38516",
    "final_y": "519026.403575",
    "longitude": "-90.10663900724877",
    "latitude": "29.92150359344555",
    "geocoded_column": {
      "latitude": "29.92150359344555",
      "longitude": "-90.10663900724877"
    }
  },
  {
    "service_request": "2021-848432",
    "request_type": "Property Maintenance",
    "request_reason": "Property Maintenance",
    "date_created": "2021-12-15T18:09:02.000",
    "date_modified": "2021-12-15T18:09:02.000",
    "request_status": "Pending",
    "responsible_agency": "Department of Code Enforcement",
    "final_address": "7849 Read Blvd Apt 12",
    "address_councildis": "E",
    "status": "Pending",
    "rowid": "848432",
    "final_x": "3708429.38795",
    "final_y": "565267.44797",
    "longitude": "-89.98178086429685",
    "latitude": "30.047443191521047",
    "geocoded_column": {
      "latitude": "30.047443191521047",
      "longitude": "-89.98178086429685"
    }
  },
  {
    "service_request": "2021-848431",
    "request_type": "Traffic Signals/Signs/Striping/Streetlights",
    "request_reason": "Street Light Outage/Malfunction",
    "date_created": "2021-12-15T18:06:54.000",
    "date_modified": "2021-12-15T19:00:42.000",
    "request_status": "Pending",
    "responsible_agency": "Department of Public Works",
    "final_address": "1775 Gentilly Blvd",
    "address_councildis": "A",
    "status": "Pending",
    "contractor": "Royal Engineering",
    "rowid": "848431",
    "final_x": "3678517.8955",
    "final_y": "542068.985164",
    "longitude": "-90.07712155111095",
    "latitude": "29.98459198793151",
    "geocoded_column": {
      "latitude": "29.98459198793151",
      "longitude": "-90.07712155111095"
    }
  },
  {
    "service_request": "2021-848429",
    "request_type": "Trash/Recycling",
    "request_reason": "Replace Trash Cart",
    "date_created": "2021-12-15T18:00:19.000",
    "date_modified": "2021-12-15T18:00:20.000",
    "request_status": "Pending",
    "responsible_agency": "Department of Sanitation",
    "final_address": "1800 Lapeyrouse St",
    "address_councildis": "D",
    "status": "Assigned to Contractor",
    "contractor": "Metro Disposal",
    "rowid": "848429",
    "final_x": "3681552.44584",
    "final_y": "538213.605961",
    "longitude": "-90.06767125456373",
    "latitude": "29.973899212814658",
    "geocoded_column": {
      "latitude": "29.973899212814658",
      "longitude": "-90.06767125456373"
    }
  },
  {
    "service_request": "2021-848428",
    "request_type": "Trash/Recycling",
    "request_reason": "Order Trash Cart",
    "date_created": "2021-12-15T17:47:09.000",
    "date_modified": "2021-12-15T17:47:09.000",
    "request_status": "Pending",
    "responsible_agency": "Department of Sanitation",
    "final_address": "1613 Pauger St",
    "address_councildis": "C",
    "status": "Assigned to Contractor",
    "contractor": "Metro Disposal",
    "rowid": "848428",
    "final_x": "3683962.23893",
    "final_y": "535615.851398",
    "longitude": "-90.06015176371747",
    "latitude": "29.966682878907957",
    "geocoded_column": {
      "latitude": "29.966682878907957",
      "longitude": "-90.06015176371747"
    }
  },
  {
    "service_request": "2021-848427",
    "request_type": "Abandoned Vehicles",
    "request_reason": "Abandoned/Junk Vehicles",
    "date_created": "2021-12-15T17:39:07.000",
    "date_modified": "2021-12-15T17:40:00.000",
    "request_status": "Pending",
    "responsible_agency": "Department of Public Works",
    "final_address": "1015 Spain St",
    "address_councildis": "C",
    "status": "Pending",
    "rowid": "848427",
    "final_x": "3686191.95023",
    "final_y": "536159.241031",
    "longitude": "-90.05309119101415",
    "latitude": "29.968108700185887",
    "geocoded_column": {
      "latitude": "29.968108700185887",
      "longitude": "-90.05309119101415"
    }
  },
  {
    "service_request": "2021-848426",
    "request_type": "Abandoned Vehicles",
    "request_reason": "Vehicle Blocking Your Driveway",
    "date_created": "2021-12-15T17:38:58.000",
    "date_modified": "2021-12-15T17:38:58.000",
    "request_status": "Pending",
    "responsible_agency": "Department of Public Works",
    "final_address": "724 Pleasant St",
    "address_councildis": "B",
    "status": "Pending",
    "rowid": "848426",
    "final_x": "3676132.66958",
    "final_y": "518670.150775",
    "longitude": "-90.08546031742358",
    "latitude": "29.920324686870227",
    "geocoded_column": {
      "latitude": "29.920324686870227",
      "longitude": "-90.08546031742358"
    }
  },
  {
    "service_request": "2021-848425",
    "request_type": "Trash/Recycling",
    "request_reason": "Return Trash Cart",
    "date_created": "2021-12-15T17:32:43.000",
    "date_modified": "2021-12-15T17:32:43.000",
    "request_status": "Pending",
    "responsible_agency": "Department of Sanitation",
    "final_address": "1800 Lapeyrouse St",
    "address_councildis": "D",
    "status": "Assigned to Contractor",
    "contractor": "Metro Disposal",
    "rowid": "848425",
    "final_x": "3681552.44584",
    "final_y": "538213.605961",
    "longitude": "-90.06767125456373",
    "latitude": "29.973899212814658",
    "geocoded_column": {
      "latitude": "29.973899212814658",
      "longitude": "-90.06767125456373"
    }
  },
  {
    "service_request": "2021-848421",
    "request_type": "Trash/Recycling",
    "request_reason": "Order Trash Cart",
    "date_created": "2021-12-15T16:39:12.000",
    "date_modified": "2021-12-15T16:39:12.000",
    "request_status": "Pending",
    "responsible_agency": "Department of Sanitation",
    "final_address": "920 Melpomene St",
    "address_councildis": "B",
    "status": "Assigned to Contractor",
    "contractor": "Richards Disposal",
    "rowid": "848421",
    "final_x": "3681047.05915",
    "final_y": "524699.109052",
    "longitude": "-90.0697380579231",
    "latitude": "29.936754263399134",
    "geocoded_column": {
      "latitude": "29.936754263399134",
      "longitude": "-90.0697380579231"
    }
  },
  {
    "service_request": "2021-848420",
    "request_type": "Abandoned Vehicles",
    "request_reason": "Abandoned/Junk Vehicles",
    "date_created": "2021-12-15T16:38:36.000",
    "date_modified": "2021-12-15T17:00:39.000",
    "request_status": "Pending",
    "responsible_agency": "Department of Public Works",
    "final_address": "305 S Alexander St",
    "address_councildis": "A",
    "status": "Pending",
    "rowid": "848420",
    "final_x": "3669451.59002",
    "final_y": "538522.169801",
    "longitude": "-90.10587812032126",
    "latitude": "29.97510963676059",
    "geocoded_column": {
      "latitude": "29.97510963676059",
      "longitude": "-90.10587812032126"
    }
  },
  {
    "service_request": "2021-848419",
    "request_type": "COVID-19",
    "request_reason": "COVID-19 Business Non-Compliance",
    "date_created": "2021-12-15T16:35:33.000",
    "date_modified": "2021-12-15T16:35:35.000",
    "request_status": "Pending",
    "responsible_agency": "Safety and Permits",
    "final_address": "2483 Burgundy St",
    "address_councildis": "C",
    "status": "Pending",
    "rowid": "848419",
    "final_x": "3686512.2543",
    "final_y": "535729.544519",
    "longitude": "-90.05209483397886",
    "latitude": "29.96691734010075",
    "geocoded_column": {
      "latitude": "29.96691734010075",
      "longitude": "-90.05209483397886"
    }
  },
  {
    "service_request": "2021-848418",
    "request_type": "Abandoned Vehicles",
    "request_reason": "Vehicle Blocking Your Driveway",
    "date_created": "2021-12-15T16:33:45.000",
    "date_modified": "2021-12-15T17:00:40.000",
    "request_status": "Pending",
    "responsible_agency": "Department of Public Works",
    "final_address": "3251 St. Ferdinand St. New Orleans",
    "status": "Pending",
    "rowid": "848418",
    "longitude": "0.0",
    "latitude": "0.0",
    "geocoded_column": {
      "latitude": "0.0",
      "longitude": "0.0"
    }
  },
  {
    "service_request": "2021-848417",
    "request_type": "Trash/Recycling",
    "request_reason": "Order Trash Cart",
    "date_created": "2021-12-15T16:33:20.000",
    "date_modified": "2021-12-15T16:33:21.000",
    "request_status": "Pending",
    "responsible_agency": "Department of Sanitation",
    "final_address": "2518 Alvar St",
    "address_councildis": "D",
    "status": "Assigned to Contractor",
    "contractor": "Metro Disposal",
    "rowid": "848417",
    "final_x": "3692800.63741",
    "final_y": "540863.013707",
    "longitude": "-90.03205208833482",
    "latitude": "29.98083771476148",
    "geocoded_column": {
      "latitude": "29.98083771476148",
      "longitude": "-90.03205208833482"
    }
  },
  {
    "service_request": "2021-848416",
    "request_type": "COVID-19",
    "request_reason": "COVID-19 Business Non-Compliance",
    "date_created": "2021-12-15T16:33:04.000",
    "date_modified": "2021-12-15T16:33:05.000",
    "request_status": "Pending",
    "responsible_agency": "Safety and Permits",
    "final_address": "3800 Canal St",
    "address_councildis": "A",
    "status": "Pending",
    "rowid": "848416",
    "final_x": "3671986.09812",
    "final_y": "537548.763208",
    "longitude": "-90.09790661212993",
    "latitude": "29.972358200415535",
    "geocoded_column": {
      "latitude": "29.972358200415535",
      "longitude": "-90.09790661212993"
    }
  },
  {
    "service_request": "2021-848415",
    "request_type": "COVID-19",
    "request_reason": "COVID-19 Business Non-Compliance",
    "date_created": "2021-12-15T16:30:40.000",
    "date_modified": "2021-12-15T16:30:41.000",
    "request_status": "Pending",
    "responsible_agency": "Safety and Permits",
    "final_address": "134 N Carrollton Ave",
    "address_councildis": "A",
    "status": "Pending",
    "rowid": "848415",
    "final_x": "3671470.58945",
    "final_y": "538505.152521",
    "longitude": "-90.09950215784033",
    "latitude": "29.975003220751937",
    "geocoded_column": {
      "latitude": "29.975003220751937",
      "longitude": "-90.09950215784033"
    }
  },
  {
    "service_request": "2021-848414",
    "request_type": "Trash/Recycling",
    "request_reason": "Replace Trash Cart",
    "date_created": "2021-12-15T16:30:14.000",
    "date_modified": "2021-12-15T17:00:43.000",
    "request_status": "Pending",
    "responsible_agency": "Department of Sanitation",
    "final_address": "2518 Alvar St, New Orleans, Louisiana, 70117",
    "address_councildis": "D",
    "status": "Assigned to Contractor",
    "contractor": "Metro Disposal",
    "rowid": "848414",
    "final_x": "3692800.63741",
    "final_y": "540863.013707",
    "longitude": "-90.03205208833482",
    "latitude": "29.98083771476148",
    "geocoded_column": {
      "latitude": "29.98083771476148",
      "longitude": "-90.03205208833482"
    }
  },
  {
    "service_request": "2021-848413",
    "request_type": "Trash/Recycling",
    "request_reason": "Request a Large Item Pick Up",
    "date_created": "2021-12-15T16:29:23.000",
    "date_modified": "2021-12-15T17:00:46.000",
    "request_status": "Pending",
    "responsible_agency": "Department of Sanitation",
    "final_address": "826 Ida St",
    "address_councildis": "A",
    "status": "Assigned to Contractor",
    "contractor": "Richards Disposal",
    "rowid": "848413",
    "final_x": "3673134.58036",
    "final_y": "540165.887051",
    "longitude": "-90.09419011571542",
    "latitude": "29.979520302438452",
    "geocoded_column": {
      "latitude": "29.979520302438452",
      "longitude": "-90.09419011571542"
    }
  },
  {
    "service_request": "2021-848412",
    "request_type": "Traffic Signals/Signs/Striping/Streetlights",
    "request_reason": "Street Light Outage/Malfunction",
    "date_created": "2021-12-15T16:28:07.000",
    "date_modified": "2021-12-15T17:00:48.000",
    "request_status": "Pending",
    "responsible_agency": "Department of Public Works",
    "final_address": "1131 Sumner St",
    "address_councildis": "C",
    "status": "Pending",
    "contractor": "Royal Engineering",
    "rowid": "848412",
    "final_x": "3691039.6358",
    "final_y": "527180.202623",
    "longitude": "-90.03810259665623",
    "latitude": "29.943269642390643",
    "geocoded_column": {
      "latitude": "29.943269642390643",
      "longitude": "-90.03810259665623"
    }
  },
  {
    "service_request": "2021-848411",
    "request_type": "Trash/Recycling",
    "request_reason": "Request a Large Item Pick Up",
    "date_created": "2021-12-15T16:23:23.000",
    "date_modified": "2021-12-15T17:00:51.000",
    "request_status": "Pending",
    "responsible_agency": "Department of Sanitation",
    "final_address": "831 Louisa St, New Orleans, Louisiana, 70117",
    "address_councildis": "C",
    "status": "Assigned to Contractor",
    "contractor": "Metro Disposal",
    "rowid": "848411",
    "final_x": "3689371.38556",
    "final_y": "534974.340742",
    "longitude": "-90.04309257658095",
    "latitude": "29.964752578131034",
    "geocoded_column": {
      "latitude": "29.964752578131034",
      "longitude": "-90.04309257658095"
    }
  },
  {
    "service_request": "2021-848410",
    "request_type": "Trash/Recycling",
    "request_reason": "Request a Large Item Pick Up",
    "date_created": "2021-12-15T16:21:48.000",
    "date_modified": "2021-12-15T16:21:49.000",
    "request_status": "Pending",
    "responsible_agency": "Department of Sanitation",
    "final_address": "3813 Laurel St",
    "address_councildis": "B",
    "status": "Assigned to Contractor",
    "contractor": "Richards Disposal",
    "rowid": "848410",
    "final_x": "3673436.20046",
    "final_y": "518339.27903",
    "longitude": "-90.09398310734706",
    "latitude": "29.919495366280945",
    "geocoded_column": {
      "latitude": "29.919495366280945",
      "longitude": "-90.09398310734706"
    }
  },
  {
    "service_request": "2021-848409",
    "request_type": "Parks & Parkways",
    "request_reason": "Request Tree Service (Right of Way/Public Property)",
    "date_created": "2021-12-15T16:14:20.000",
    "date_modified": "2021-12-15T16:14:20.000",
    "request_status": "Pending",
    "responsible_agency": "Department of Parks & Parkway",
    "final_address": "7228 Spruce St",
    "address_councildis": "A",
    "status": "Pending",
    "rowid": "848409",
    "final_x": "3665507.16672",
    "final_y": "528964.709824",
    "longitude": "-90.11865567206667",
    "latitude": "29.94894535549115",
    "geocoded_column": {
      "latitude": "29.94894535549115",
      "longitude": "-90.11865567206667"
    }
  },
  {
    "service_request": "2021-848408",
    "request_type": "Trash/Recycling",
    "request_reason": "Replace Trash Cart",
    "date_created": "2021-12-15T16:03:47.000",
    "date_modified": "2021-12-15T16:03:47.000",
    "request_status": "Pending",
    "responsible_agency": "Department of Sanitation",
    "final_address": "1906 Jena St",
    "address_councildis": "B",
    "status": "Assigned to Contractor",
    "contractor": "Richards Disposal",
    "rowid": "848408",
    "final_x": "3670295.81326",
    "final_y": "522023.891578",
    "longitude": "-90.10377096682107",
    "latitude": "29.92971990143083",
    "geocoded_column": {
      "latitude": "29.92971990143083",
      "longitude": "-90.10377096682107"
    }
  },
  {
    "service_request": "2021-848405",
    "request_type": "Property Maintenance",
    "request_reason": "Property Maintenance",
    "date_created": "2021-12-15T15:57:30.000",
    "date_modified": "2021-12-15T15:57:31.000",
    "request_status": "Pending",
    "responsible_agency": "Department of Code Enforcement",
    "final_address": "2028 Lauradale Dr",
    "address_councildis": "C",
    "status": "Pending",
    "rowid": "848405",
    "final_x": "3692742.72086",
    "final_y": "523712.574651",
    "longitude": "-90.03284980571267",
    "latitude": "29.933681807734782",
    "geocoded_column": {
      "latitude": "29.933681807734782",
      "longitude": "-90.03284980571267"
    }
  },
  {
    "service_request": "2021-848404",
    "request_type": "Safety & Permits",
    "request_reason": "Short term Rental (Enforcement)",
    "date_created": "2021-12-15T15:48:11.000",
    "date_modified": "2021-12-15T15:48:11.000",
    "request_status": "Pending",
    "responsible_agency": "Safety and Permits",
    "final_address": "1919 St Claude Ave",
    "address_councildis": "C",
    "status": "Pending",
    "rowid": "848404",
    "final_x": "3684049.72642",
    "final_y": "536256.034503",
    "longitude": "-90.0598530101838",
    "latitude": "29.968440487763626",
    "geocoded_column": {
      "latitude": "29.968440487763626",
      "longitude": "-90.0598530101838"
    }
  },
  {
    "service_request": "2021-848403",
    "request_type": "Trash/Recycling",
    "request_reason": "Request a Large Item Pick Up",
    "date_created": "2021-12-15T15:47:37.000",
    "date_modified": "2021-12-15T16:00:46.000",
    "request_status": "Pending",
    "responsible_agency": "Department of Sanitation",
    "final_address": "2540 Palmyra St",
    "address_councildis": "B",
    "status": "Assigned to Contractor",
    "contractor": "Richards Disposal",
    "rowid": "848403",
    "final_x": "3675347.49729",
    "final_y": "534023.596549",
    "longitude": "-90.08741177263461",
    "latitude": "29.96256510429831",
    "geocoded_column": {
      "latitude": "29.96256510429831",
      "longitude": "-90.08741177263461"
    }
  },
  {
    "service_request": "2021-848402",
    "request_type": "Abandoned Vehicles",
    "request_reason": "Abandoned/Junk Vehicles",
    "date_created": "2021-12-15T15:44:08.000",
    "date_modified": "2021-12-15T15:44:08.000",
    "request_status": "Pending",
    "responsible_agency": "Department of Public Works",
    "final_address": "1519 Tupelo St",
    "address_councildis": "E",
    "status": "Pending",
    "rowid": "848402",
    "final_x": "3700149.36605",
    "final_y": "534854.576646",
    "longitude": "-90.00906103006561",
    "latitude": "29.964085163713506",
    "geocoded_column": {
      "latitude": "29.964085163713506",
      "longitude": "-90.00906103006561"
    }
  },
  {
    "service_request": "2021-848401",
    "request_type": "Property Maintenance",
    "request_reason": "Property Maintenance",
    "date_created": "2021-12-15T15:44:03.000",
    "date_modified": "2021-12-15T15:44:03.000",
    "request_status": "Pending",
    "responsible_agency": "Department of Code Enforcement",
    "final_address": "7001 Lawrence Rd",
    "address_councildis": "E",
    "status": "Pending",
    "rowid": "848401",
    "final_x": "3704372.84279",
    "final_y": "559124.69238",
    "longitude": "-89.99482847374347",
    "latitude": "30.03068397272477",
    "geocoded_column": {
      "latitude": "30.03068397272477",
      "longitude": "-89.99482847374347"
    }
  },
  {
    "service_request": "2021-848400",
    "request_type": "Abandoned Vehicles",
    "request_reason": "Abandoned/Junk Vehicles",
    "date_created": "2021-12-15T15:40:26.000",
    "date_modified": "2021-12-15T15:44:49.000",
    "request_status": "Pending",
    "responsible_agency": "Department of Public Works",
    "final_address": "ORCHID ST & CRETE ST",
    "address_councildis": "A",
    "status": "Pending",
    "rowid": "848400",
    "final_x": "3677608.2",
    "final_y": "538707.08",
    "longitude": "-90.08011102026293",
    "latitude": "29.975375301695447",
    "geocoded_column": {
      "latitude": "29.975375301695447",
      "longitude": "-90.08011102026293"
    }
  },
  {
    "service_request": "2021-848399",
    "request_type": "Traffic Signals/Signs/Striping/Streetlights",
    "request_reason": "Street Light Outage/Malfunction",
    "date_created": "2021-12-15T15:39:53.000",
    "date_modified": "2021-12-15T16:00:47.000",
    "request_status": "Pending",
    "responsible_agency": "Department of Public Works",
    "final_address": "4425 Plum Orchard St",
    "address_councildis": "E",
    "status": "Pending",
    "contractor": "Royal Engineering",
    "rowid": "848399",
    "final_x": "3701937.67869",
    "final_y": "552812.50415",
    "longitude": "-90.00275521331432",
    "latitude": "30.013405870720806",
    "geocoded_column": {
      "latitude": "30.013405870720806",
      "longitude": "-90.00275521331432"
    }
  },
  {
    "service_request": "2021-848398",
    "request_type": "Trash/Recycling",
    "request_reason": "Order Trash Cart",
    "date_created": "2021-12-15T15:38:28.000",
    "date_modified": "2021-12-15T16:00:50.000",
    "request_status": "Pending",
    "responsible_agency": "Department of Sanitation",
    "final_address": "421 Alabo St",
    "address_councildis": "E",
    "status": "Assigned to Contractor",
    "contractor": "Metro Disposal",
    "rowid": "848398",
    "final_x": "3698401.94391",
    "final_y": "531178.44141",
    "longitude": "-90.01471279593594",
    "latitude": "29.95403251098095",
    "geocoded_column": {
      "latitude": "29.95403251098095",
      "longitude": "-90.01471279593594"
    }
  },
  {
    "service_request": "2021-848397",
    "request_type": "Trash/Recycling",
    "request_reason": "Repair Trash Cart",
    "date_created": "2021-12-15T15:29:45.000",
    "date_modified": "2021-12-15T15:29:46.000",
    "request_status": "Pending",
    "responsible_agency": "Department of Sanitation",
    "final_address": "8201 Green St",
    "address_councildis": "A",
    "status": "Assigned to Contractor",
    "contractor": "Richards Disposal",
    "rowid": "848397",
    "final_x": "3662882.63296",
    "final_y": "529979.645441",
    "longitude": "-90.12690876040115",
    "latitude": "29.951812342168573",
    "geocoded_column": {
      "latitude": "29.951812342168573",
      "longitude": "-90.12690876040115"
    }
  },
  {
    "service_request": "2021-848396",
    "request_type": "Trash/Recycling",
    "request_reason": "Replace Trash Cart",
    "date_created": "2021-12-15T15:23:12.000",
    "date_modified": "2021-12-15T15:23:13.000",
    "request_status": "Pending",
    "responsible_agency": "Department of Sanitation",
    "final_address": "4900 Danneel St",
    "address_councildis": "B",
    "status": "Assigned to Contractor",
    "contractor": "Richards Disposal",
    "rowid": "848396",
    "final_x": "3669077.07886",
    "final_y": "522090.284538",
    "longitude": "-90.10761606709765",
    "latitude": "29.92993836437614",
    "geocoded_column": {
      "latitude": "29.92993836437614",
      "longitude": "-90.10761606709765"
    }
  },
  {
    "service_request": "2021-848395",
    "request_type": "Trash/Recycling",
    "request_reason": "Replace Trash Cart",
    "date_created": "2021-12-15T15:22:37.000",
    "date_modified": "2021-12-15T15:22:53.000",
    "request_status": "Pending",
    "responsible_agency": "Department of Sanitation",
    "final_address": "2009 Magnolia St",
    "address_councildis": "B",
    "status": "Assigned to Contractor",
    "contractor": "Richards Disposal",
    "rowid": "848395",
    "final_x": "3675540.48001",
    "final_y": "527139.349695",
    "longitude": "-90.08703881274883",
    "latitude": "29.94362994820837",
    "geocoded_column": {
      "latitude": "29.94362994820837",
      "longitude": "-90.08703881274883"
    }
  },
  {
    "service_request": "2021-848393",
    "request_type": "Trash/Recycling",
    "request_reason": "Illegal Dumping",
    "date_created": "2021-12-15T15:19:34.000",
    "date_modified": "2021-12-15T16:00:57.000",
    "request_status": "Pending",
    "responsible_agency": "Department of Sanitation",
    "final_address": "1100 BLK Ninth St",
    "address_councildis": "B",
    "status": "Pending",
    "rowid": "848393",
    "final_x": "3675758.6222",
    "final_y": "520194.506315",
    "longitude": "-90.08658865552702",
    "latitude": "29.924527369245766",
    "geocoded_column": {
      "latitude": "29.924527369245766",
      "longitude": "-90.08658865552702"
    }
  },
  {
    "service_request": "2021-848392",
    "request_type": "Traffic Signals/Signs/Striping/Streetlights",
    "request_reason": "Street Light Outage/Malfunction",
    "date_created": "2021-12-15T15:17:31.000",
    "date_modified": "2021-12-15T16:01:01.000",
    "request_status": "Pending",
    "responsible_agency": "Department of Public Works",
    "final_address": "324 Opelousas Ave",
    "address_councildis": "C",
    "status": "Pending",
    "contractor": "Royal Engineering",
    "rowid": "848392",
    "final_x": "3686374.54095",
    "final_y": "529118.557504",
    "longitude": "-90.05276305498681",
    "latitude": "29.948743633988588",
    "geocoded_column": {
      "latitude": "29.948743633988588",
      "longitude": "-90.05276305498681"
    }
  },
  {
    "service_request": "2021-848391",
    "request_type": "Property Maintenance",
    "request_reason": "Property Maintenance",
    "date_created": "2021-12-15T15:17:24.000",
    "date_modified": "2021-12-15T15:17:24.000",
    "request_status": "Pending",
    "responsible_agency": "Department of Code Enforcement",
    "final_address": "7001 Lawrence Rd",
    "address_councildis": "E",
    "status": "Pending",
    "rowid": "848391",
    "final_x": "3704372.84279",
    "final_y": "559124.69238",
    "longitude": "-89.99482847374347",
    "latitude": "30.03068397272477",
    "geocoded_column": {
      "latitude": "30.03068397272477",
      "longitude": "-89.99482847374347"
    }
  },
  {
    "service_request": "2021-848390",
    "request_type": "Traffic Signals/Signs/Striping/Streetlights",
    "request_reason": "Street Light Outage/Malfunction",
    "date_created": "2021-12-15T15:17:18.000",
    "date_modified": "2021-12-15T16:01:03.000",
    "request_status": "Pending",
    "responsible_agency": "Department of Public Works",
    "final_address": "324 Opelousas Ave",
    "address_councildis": "C",
    "status": "Pending",
    "contractor": "Royal Engineering",
    "rowid": "848390",
    "final_x": "3686374.54095",
    "final_y": "529118.557504",
    "longitude": "-90.05276305498681",
    "latitude": "29.948743633988588",
    "geocoded_column": {
      "latitude": "29.948743633988588",
      "longitude": "-90.05276305498681"
    }
  },
  {
    "service_request": "2021-848389",
    "request_type": "Traffic Signals/Signs/Striping/Streetlights",
    "request_reason": "Street Light Outage/Malfunction",
    "date_created": "2021-12-15T15:17:03.000",
    "date_modified": "2021-12-15T16:01:05.000",
    "request_status": "Pending",
    "responsible_agency": "Department of Public Works",
    "final_address": "324 Opelousas Ave",
    "address_councildis": "C",
    "status": "Pending",
    "contractor": "Royal Engineering",
    "rowid": "848389",
    "final_x": "3686374.54095",
    "final_y": "529118.557504",
    "longitude": "-90.05276305498681",
    "latitude": "29.948743633988588",
    "geocoded_column": {
      "latitude": "29.948743633988588",
      "longitude": "-90.05276305498681"
    }
  },
  {
    "service_request": "2021-848388",
    "request_type": "Traffic Signals/Signs/Striping/Streetlights",
    "request_reason": "Street Light Outage/Malfunction",
    "date_created": "2021-12-15T15:16:46.000",
    "date_modified": "2021-12-15T16:01:08.000",
    "request_status": "Pending",
    "responsible_agency": "Department of Public Works",
    "final_address": "324 Opelousas Ave",
    "address_councildis": "C",
    "status": "Pending",
    "contractor": "Royal Engineering",
    "rowid": "848388",
    "final_x": "3686374.54095",
    "final_y": "529118.557504",
    "longitude": "-90.05276305498681",
    "latitude": "29.948743633988588",
    "geocoded_column": {
      "latitude": "29.948743633988588",
      "longitude": "-90.05276305498681"
    }
  },
  {
    "service_request": "2021-848387",
    "request_type": "Traffic Signals/Signs/Striping/Streetlights",
    "request_reason": "Street Light Outage/Malfunction",
    "date_created": "2021-12-15T15:16:20.000",
    "date_modified": "2021-12-15T16:01:10.000",
    "request_status": "Pending",
    "responsible_agency": "Department of Public Works",
    "final_address": "324 Opelousas Ave",
    "address_councildis": "C",
    "status": "Pending",
    "contractor": "Royal Engineering",
    "rowid": "848387",
    "final_x": "3686374.54095",
    "final_y": "529118.557504",
    "longitude": "-90.05276305498681",
    "latitude": "29.948743633988588",
    "geocoded_column": {
      "latitude": "29.948743633988588",
      "longitude": "-90.05276305498681"
    }
  },
  {
    "service_request": "2021-848386",
    "request_type": "Traffic Signals/Signs/Striping/Streetlights",
    "request_reason": "Street Light Outage/Malfunction",
    "date_created": "2021-12-15T15:15:53.000",
    "date_modified": "2021-12-15T16:01:12.000",
    "request_status": "Pending",
    "responsible_agency": "Department of Public Works",
    "final_address": "324 Opelousas Ave",
    "address_councildis": "C",
    "status": "Pending",
    "contractor": "Royal Engineering",
    "rowid": "848386",
    "final_x": "3686374.54095",
    "final_y": "529118.557504",
    "longitude": "-90.05276305498681",
    "latitude": "29.948743633988588",
    "geocoded_column": {
      "latitude": "29.948743633988588",
      "longitude": "-90.05276305498681"
    }
  },
  {
    "service_request": "2021-848385",
    "request_type": "Traffic Signals/Signs/Striping/Streetlights",
    "request_reason": "Street Light Outage/Malfunction",
    "date_created": "2021-12-15T15:15:16.000",
    "date_modified": "2021-12-15T16:01:15.000",
    "request_status": "Pending",
    "responsible_agency": "Department of Public Works",
    "final_address": "5313 Wingate Dr",
    "address_councildis": "D",
    "status": "Pending",
    "contractor": "Royal Engineering",
    "rowid": "848385",
    "final_x": "3681487.88853",
    "final_y": "552490.236886",
    "longitude": "-90.06737698757512",
    "latitude": "30.01315685007651",
    "geocoded_column": {
      "latitude": "30.01315685007651",
      "longitude": "-90.06737698757512"
    }
  },
  {
    "service_request": "2021-848384",
    "request_type": "Trash/Recycling",
    "request_reason": "Illegal Dumping",
    "date_created": "2021-12-15T15:12:04.000",
    "date_modified": "2021-12-15T15:12:47.000",
    "case_close_date": "2021-12-15T09:12:47.000",
    "request_status": "Closed",
    "responsible_agency": "Department of Sanitation",
    "final_address": "4800 Deanne St",
    "address_councildis": "D",
    "status": "Resolved",
    "rowid": "848384",
    "final_x": "3696246.2625",
    "final_y": "554336.338456",
    "longitude": "-90.02068184205876",
    "latitude": "30.01777633741343",
    "geocoded_column": {
      "latitude": "30.01777633741343",
      "longitude": "-90.02068184205876"
    }
  },
  {
    "service_request": "2021-848383",
    "request_type": "Trash/Recycling",
    "request_reason": "Illegal Dumping",
    "date_created": "2021-12-15T15:10:11.000",
    "date_modified": "2021-12-15T15:10:12.000",
    "request_status": "Pending",
    "responsible_agency": "Department of Sanitation",
    "final_address": "701 Tricou St",
    "address_councildis": "E",
    "status": "Pending",
    "rowid": "848383",
    "final_x": "3699607.37226",
    "final_y": "531643.140355",
    "longitude": "-90.01088963239076",
    "latitude": "29.955272070335056",
    "geocoded_column": {
      "latitude": "29.955272070335056",
      "longitude": "-90.01088963239076"
    }
  },
  {
    "service_request": "2021-848382",
    "request_type": "Roads/Drainage",
    "request_reason": "Catch Basin - Clogged",
    "date_created": "2021-12-15T15:09:16.000",
    "date_modified": "2021-12-15T15:11:04.000",
    "request_status": "Pending",
    "responsible_agency": "Department of Public Works",
    "final_address": "701 Tricou St",
    "address_councildis": "E",
    "status": "Pending",
    "rowid": "848382",
    "final_x": "3699607.37226",
    "final_y": "531643.140355",
    "longitude": "-90.01088963239076",
    "latitude": "29.955272070335056",
    "geocoded_column": {
      "latitude": "29.955272070335056",
      "longitude": "-90.01088963239076"
    }
  },
  {
    "service_request": "2021-848380",
    "request_type": "Roads/Drainage",
    "request_reason": "Street Subsidence (Sinking)",
    "date_created": "2021-12-15T15:05:19.000",
    "date_modified": "2021-12-15T16:01:17.000",
    "request_status": "Pending",
    "responsible_agency": "Department of Public Works",
    "final_address": "4866 Camelia St",
    "address_councildis": "E",
    "status": "Pending",
    "rowid": "848380",
    "final_x": "3701403.01565",
    "final_y": "554948.692056",
    "longitude": "-90.00436617659649",
    "latitude": "30.019296634096033",
    "geocoded_column": {
      "latitude": "30.019296634096033",
      "longitude": "-90.00436617659649"
    }
  },
  {
    "service_request": "2021-848378",
    "request_type": "Trash/Recycling",
    "request_reason": "Request a Large Item Pick Up",
    "date_created": "2021-12-15T14:58:47.000",
    "date_modified": "2021-12-15T15:00:33.000",
    "request_status": "Pending",
    "responsible_agency": "Department of Sanitation",
    "final_address": "4866 Camelia St",
    "address_councildis": "E",
    "status": "Assigned to Contractor",
    "contractor": "Metro Disposal",
    "rowid": "848378",
    "final_x": "3701403.01565",
    "final_y": "554948.692056",
    "longitude": "-90.00436617659649",
    "latitude": "30.019296634096033",
    "geocoded_column": {
      "latitude": "30.019296634096033",
      "longitude": "-90.00436617659649"
    }
  },
  {
    "service_request": "2021-848377",
    "request_type": "Roads/Drainage",
    "request_reason": "Road Shoulder Repair",
    "date_created": "2021-12-15T14:57:18.000",
    "date_modified": "2021-12-15T15:00:35.000",
    "request_status": "Pending",
    "responsible_agency": "Department of Public Works",
    "final_address": "7701 N Coronet Ct",
    "address_councildis": "E",
    "status": "Pending",
    "rowid": "848377",
    "final_x": "3702427.66909",
    "final_y": "557592.182939",
    "longitude": "-90.00103152657313",
    "latitude": "30.02653250001217",
    "geocoded_column": {
      "latitude": "30.02653250001217",
      "longitude": "-90.00103152657313"
    }
  },
  {
    "service_request": "2021-848376",
    "request_type": "Trash/Recycling",
    "request_reason": "Illegal Dumping",
    "date_created": "2021-12-15T14:57:14.000",
    "date_modified": "2021-12-15T14:57:16.000",
    "request_status": "Pending",
    "responsible_agency": "Department of Sanitation",
    "final_address": "11221 Old Gentilly Rd",
    "address_councildis": "E",
    "status": "Pending",
    "rowid": "848376",
    "final_x": "3717420.41919",
    "final_y": "554690.320664",
    "longitude": "-89.95376706950672",
    "latitude": "30.018065682811578",
    "geocoded_column": {
      "latitude": "30.018065682811578",
      "longitude": "-89.95376706950672"
    }
  },
  {
    "service_request": "2021-848375",
    "request_type": "Traffic Signals/Signs/Striping/Streetlights",
    "request_reason": "Street Light Outage/Malfunction",
    "date_created": "2021-12-15T14:54:55.000",
    "date_modified": "2021-12-15T14:54:56.000",
    "request_status": "Pending",
    "responsible_agency": "Department of Public Works",
    "final_address": "4726 Rosemont Pl",
    "address_councildis": "E",
    "status": "Pending",
    "contractor": "Royal Engineering",
    "rowid": "848375",
    "final_x": "3702676.54577",
    "final_y": "554804.42396",
    "longitude": "-90.0003475868234",
    "latitude": "30.018859276852496",
    "geocoded_column": {
      "latitude": "30.018859276852496",
      "longitude": "-90.0003475868234"
    }
  },
  {
    "service_request": "2021-848374",
    "request_type": "Traffic Signals/Signs/Striping/Streetlights",
    "request_reason": "Street Light Outage/Malfunction",
    "date_created": "2021-12-15T14:53:26.000",
    "date_modified": "2021-12-15T14:53:27.000",
    "request_status": "Pending",
    "responsible_agency": "Department of Public Works",
    "final_address": "2034 Agriculture St",
    "address_councildis": "D",
    "status": "Pending",
    "contractor": "Royal Engineering",
    "rowid": "848374",
    "final_x": "3683272.37564",
    "final_y": "543165.070989",
    "longitude": "-90.06206584487197",
    "latitude": "29.987461656626955",
    "geocoded_column": {
      "latitude": "29.987461656626955",
      "longitude": "-90.06206584487197"
    }
  },
  {
    "service_request": "2021-848373",
    "request_type": "Trash/Recycling",
    "request_reason": "Request a Large Item Pick Up",
    "date_created": "2021-12-15T14:42:48.000",
    "date_modified": "2021-12-15T15:00:36.000",
    "request_status": "Pending",
    "responsible_agency": "Department of Sanitation",
    "final_address": "3533 Mandeville St",
    "address_councildis": "D",
    "status": "Assigned to Contractor",
    "contractor": "Metro Disposal",
    "rowid": "848373",
    "final_x": "3685115.43503",
    "final_y": "545842.229776",
    "longitude": "-90.05615001773857",
    "latitude": "29.994766535705946",
    "geocoded_column": {
      "latitude": "29.994766535705946",
      "longitude": "-90.05615001773857"
    }
  },
  {
    "service_request": "2021-848370",
    "request_type": "Parks & Parkways",
    "request_reason": "Tree Stump (removal, grind)",
    "date_created": "2021-12-15T14:34:57.000",
    "date_modified": "2021-12-15T14:41:12.000",
    "case_close_date": "2021-12-15T08:41:12.000",
    "request_status": "Closed",
    "responsible_agency": "Department of Parks & Parkway",
    "final_address": "5712 Mandeville St",
    "address_councildis": "D",
    "status": "Invalid Case",
    "rowid": "848370",
    "final_x": "3684308.25039",
    "final_y": "553994.154072",
    "longitude": "-90.05841329729121",
    "latitude": "30.017206091549223",
    "geocoded_column": {
      "latitude": "30.017206091549223",
      "longitude": "-90.05841329729121"
    }
  },
  {
    "service_request": "2021-848369",
    "request_type": "Abandoned Vehicles",
    "request_reason": "Abandoned/Junk Vehicles",
    "date_created": "2021-12-15T14:34:03.000",
    "date_modified": "2021-12-15T14:34:03.000",
    "request_status": "Pending",
    "responsible_agency": "Department of Public Works",
    "status": "Inspected",
    "rowid": "848369",
    "longitude": "0.0",
    "latitude": "0.0",
    "geocoded_column": {
      "latitude": "0.0",
      "longitude": "0.0"
    }
  },
  {
    "service_request": "2021-848368",
    "request_type": "Property Maintenance",
    "request_reason": "Property Maintenance",
    "date_created": "2021-12-15T14:30:07.000",
    "date_modified": "2021-12-15T15:00:38.000",
    "request_status": "Pending",
    "responsible_agency": "Department of Code Enforcement",
    "final_address": "1512 Louisa St",
    "address_councildis": "D",
    "status": "Pending",
    "rowid": "848368",
    "final_x": "3689931.10697",
    "final_y": "537480.02292",
    "longitude": "-90.0412357921289",
    "latitude": "29.971624982462505",
    "geocoded_column": {
      "latitude": "29.971624982462505",
      "longitude": "-90.0412357921289"
    }
  },
  {
    "service_request": "2021-848367",
    "request_type": "Trash/Recycling",
    "request_reason": "Missed Trash Pick-Up",
    "date_created": "2021-12-15T14:29:34.000",
    "date_modified": "2021-12-15T15:00:40.000",
    "request_status": "Pending",
    "responsible_agency": "Department of Sanitation",
    "final_address": "3725 Red Oak Ct, New Orleans, Louisiana, 70131",
    "address_councildis": "C",
    "status": "Assigned to Contractor",
    "contractor": "Richards Disposal",
    "rowid": "848367",
    "final_x": "3703334.64279",
    "final_y": "514231.141427",
    "longitude": "-89.99976025323231",
    "latitude": "29.907276338341084",
    "geocoded_column": {
      "latitude": "29.907276338341084",
      "longitude": "-89.99976025323231"
    }
  },
  {
    "service_request": "2021-848366",
    "request_type": "Trash/Recycling",
    "request_reason": "Request a Large Item Pick Up",
    "date_created": "2021-12-15T14:26:48.000",
    "date_modified": "2021-12-15T14:26:50.000",
    "request_status": "Pending",
    "responsible_agency": "Department of Sanitation",
    "final_address": "2608 Wabash St",
    "address_councildis": "C",
    "status": "Assigned to Contractor",
    "contractor": "Richards Disposal",
    "rowid": "848366",
    "final_x": "3692991.83907",
    "final_y": "521544.433465",
    "longitude": "-90.03214108235447",
    "latitude": "29.92771237900195",
    "geocoded_column": {
      "latitude": "29.92771237900195",
      "longitude": "-90.03214108235447"
    }
  },
  {
    "service_request": "2021-848364",
    "request_type": "Roads/Drainage",
    "request_reason": "Catch Basin - Broken/Damage",
    "date_created": "2021-12-15T14:26:04.000",
    "date_modified": "2021-12-15T14:26:05.000",
    "request_status": "Pending",
    "responsible_agency": "Department of Public Works",
    "final_address": "AGRICULTURE ST & PAINTERS ST",
    "address_councildis": "D",
    "status": "Pending",
    "rowid": "848364",
    "final_x": "3687000.0",
    "final_y": "543505.28",
    "longitude": "-90.05027957319155",
    "latitude": "29.988282867356705",
    "geocoded_column": {
      "latitude": "29.988282867356705",
      "longitude": "-90.05027957319155"
    }
  },
  {
    "service_request": "2021-848363",
    "request_type": "Trash/Recycling",
    "request_reason": "Missed Trash Pick-Up",
    "date_created": "2021-12-15T14:25:59.000",
    "date_modified": "2021-12-15T15:00:42.000",
    "request_status": "Pending",
    "responsible_agency": "Department of Sanitation",
    "final_address": "3725 Red Oak Ct, New Orleans, Louisiana, 70131",
    "address_councildis": "C",
    "status": "Assigned to Contractor",
    "contractor": "Richards Disposal",
    "rowid": "848363",
    "final_x": "3703334.64279",
    "final_y": "514231.141427",
    "longitude": "-89.99976025323231",
    "latitude": "29.907276338341084",
    "geocoded_column": {
      "latitude": "29.907276338341084",
      "longitude": "-89.99976025323231"
    }
  },
  {
    "service_request": "2021-848362",
    "request_type": "Abandoned Vehicles",
    "request_reason": "Abandoned/Junk Vehicles",
    "date_created": "2021-12-15T14:25:46.000",
    "date_modified": "2021-12-15T14:25:46.000",
    "request_status": "Pending",
    "responsible_agency": "Department of Public Works",
    "status": "Inspected",
    "rowid": "848362",
    "longitude": "0.0",
    "latitude": "0.0",
    "geocoded_column": {
      "latitude": "0.0",
      "longitude": "0.0"
    }
  },
  {
    "service_request": "2021-848361",
    "request_type": "Roads/Drainage",
    "request_reason": "Pothole",
    "date_created": "2021-12-15T14:19:31.000",
    "date_modified": "2021-12-15T14:19:31.000",
    "request_status": "Pending",
    "responsible_agency": "Department of Public Works",
    "final_address": "1126 Euterpe St",
    "address_councildis": "B",
    "status": "Pending",
    "rowid": "848361",
    "final_x": "3680064.51663",
    "final_y": "524228.904828",
    "longitude": "-90.0728563197537",
    "latitude": "29.935491113772937",
    "geocoded_column": {
      "latitude": "29.935491113772937",
      "longitude": "-90.0728563197537"
    }
  },
  {
    "service_request": "2021-848360",
    "request_type": "Abandoned Vehicles",
    "request_reason": "Abandoned/Junk Vehicles",
    "date_created": "2021-12-15T14:14:12.000",
    "date_modified": "2021-12-15T14:14:12.000",
    "request_status": "Pending",
    "responsible_agency": "Department of Public Works",
    "final_address": "6031 Laurel St",
    "address_councildis": "A",
    "status": "Pending",
    "rowid": "848360",
    "final_x": "3664175.42042",
    "final_y": "518345.885366",
    "longitude": "-90.123214681298",
    "latitude": "29.919785706043815",
    "geocoded_column": {
      "latitude": "29.919785706043815",
      "longitude": "-90.123214681298"
    }
  },
  {
    "service_request": "2021-848359",
    "request_type": "Trash/Recycling",
    "request_reason": "Missed Trash Pick-Up",
    "date_created": "2021-12-15T14:11:58.000",
    "date_modified": "2021-12-15T15:00:44.000",
    "request_status": "Pending",
    "responsible_agency": "Department of Sanitation",
    "final_address": "7041 Curran Blvd, New Orleans, Louisiana, 70126",
    "status": "Assigned to Contractor",
    "rowid": "848359",
    "longitude": "0.0",
    "latitude": "0.0",
    "geocoded_column": {
      "latitude": "0.0",
      "longitude": "0.0"
    }
  },
  {
    "service_request": "2021-848358",
    "request_type": "Trash/Recycling",
    "request_reason": "Missed Trash Pick-Up",
    "date_created": "2021-12-15T14:09:54.000",
    "date_modified": "2021-12-15T14:09:55.000",
    "request_status": "Pending",
    "responsible_agency": "Department of Sanitation",
    "final_address": "3121 Fortin St",
    "address_councildis": "A",
    "status": "Assigned to Contractor",
    "contractor": "Metro Disposal",
    "rowid": "848358",
    "final_x": "3676421.66344",
    "final_y": "540994.540171",
    "longitude": "-90.08377964187608",
    "latitude": "29.981700660280833",
    "geocoded_column": {
      "latitude": "29.981700660280833",
      "longitude": "-90.08377964187608"
    }
  },
  {
    "service_request": "2021-848357",
    "request_type": "Trash/Recycling",
    "request_reason": "Repair Trash Cart",
    "date_created": "2021-12-15T14:07:33.000",
    "date_modified": "2021-12-15T14:07:37.000",
    "request_status": "Pending",
    "responsible_agency": "Department of Sanitation",
    "final_address": "2012 Bodenger Blvd",
    "address_councildis": "C",
    "status": "Assigned to Contractor",
    "contractor": "Richards Disposal",
    "rowid": "848357",
    "final_x": "3688536.11919",
    "final_y": "524345.069692",
    "longitude": "-90.0461073669246",
    "latitude": "29.935551563632405",
    "geocoded_column": {
      "latitude": "29.935551563632405",
      "longitude": "-90.0461073669246"
    }
  },
  {
    "service_request": "2021-848355",
    "request_type": "Trash/Recycling",
    "request_reason": "Dead Animal Pick Up",
    "date_created": "2021-12-15T14:01:45.000",
    "date_modified": "2021-12-15T14:01:45.000",
    "request_status": "Pending",
    "responsible_agency": "Department of Sanitation",
    "final_address": "KRAFT PL & GENERAL DE GAULLE DR",
    "address_councildis": "C",
    "status": "Assigned to Contractor",
    "contractor": "Richards Disposal",
    "rowid": "848355",
    "final_x": "3692433.9",
    "final_y": "522546.98",
    "longitude": "-90.03386646441663",
    "latitude": "29.930486452249415",
    "geocoded_column": {
      "latitude": "29.930486452249415",
      "longitude": "-90.03386646441663"
    }
  },
  {
    "service_request": "2021-848353",
    "request_type": "Traffic Signals/Signs/Striping/Streetlights",
    "request_reason": "Street Light Outage/Malfunction",
    "date_created": "2021-12-15T13:53:01.000",
    "date_modified": "2021-12-15T13:53:01.000",
    "request_status": "Pending",
    "responsible_agency": "Department of Public Works",
    "final_address": "313 Florida Blvd",
    "address_councildis": "A",
    "status": "Pending",
    "contractor": "Royal Engineering",
    "rowid": "848353",
    "final_x": "3666982.24871",
    "final_y": "545603.643472",
    "longitude": "-90.11343886606122",
    "latitude": "29.99465379373436",
    "geocoded_column": {
      "latitude": "29.99465379373436",
      "longitude": "-90.11343886606122"
    }
  },
  {
    "service_request": "2021-848351",
    "request_type": "Abandoned Vehicles",
    "request_reason": "Abandoned/Junk Vehicles",
    "date_created": "2021-12-15T13:47:42.000",
    "date_modified": "2021-12-15T13:47:42.000",
    "request_status": "Pending",
    "responsible_agency": "Department of Public Works",
    "final_address": "542 Third St",
    "address_councildis": "B",
    "status": "Pending",
    "rowid": "848351",
    "final_x": "3678568.4013",
    "final_y": "519588.94444",
    "longitude": "-90.07774008204477",
    "latitude": "29.92277790839905",
    "geocoded_column": {
      "latitude": "29.92277790839905",
      "longitude": "-90.07774008204477"
    }
  },
  {
    "service_request": "2021-848350",
    "request_type": "Abandoned Vehicles",
    "request_reason": "Abandoned/Junk Vehicles",
    "date_created": "2021-12-15T13:43:44.000",
    "date_modified": "2021-12-15T13:43:44.000",
    "request_status": "Pending",
    "responsible_agency": "Department of Public Works",
    "status": "Inspected",
    "rowid": "848350",
    "longitude": "0.0",
    "latitude": "0.0",
    "geocoded_column": {
      "latitude": "0.0",
      "longitude": "0.0"
    }
  },
  {
    "service_request": "2021-848349",
    "request_type": "Abandoned Vehicles",
    "request_reason": "Abandoned/Junk Vehicles",
    "date_created": "2021-12-15T13:39:24.000",
    "date_modified": "2021-12-15T13:39:24.000",
    "request_status": "Pending",
    "responsible_agency": "Department of Public Works",
    "status": "Inspected",
    "rowid": "848349",
    "longitude": "0.0",
    "latitude": "0.0",
    "geocoded_column": {
      "latitude": "0.0",
      "longitude": "0.0"
    }
  },
  {
    "service_request": "2021-848348",
    "request_type": "Property Maintenance",
    "request_reason": "Property Maintenance",
    "date_created": "2021-12-15T13:39:10.000",
    "date_modified": "2021-12-15T13:39:10.000",
    "request_status": "Pending",
    "responsible_agency": "Department of Code Enforcement",
    "final_address": "5845 Lafaye St",
    "address_councildis": "D",
    "status": "Pending",
    "rowid": "848348",
    "final_x": "3687202.94198",
    "final_y": "554840.8694",
    "longitude": "-90.04923728967222",
    "latitude": "30.0194453683588",
    "geocoded_column": {
      "latitude": "30.0194453683588",
      "longitude": "-90.04923728967222"
    }
  },
  {
    "service_request": "2021-848347",
    "request_type": "Abandoned Vehicles",
    "request_reason": "Abandoned/Junk Vehicles",
    "date_created": "2021-12-15T13:36:13.000",
    "date_modified": "2021-12-15T13:36:13.000",
    "request_status": "Pending",
    "responsible_agency": "Department of Public Works",
    "status": "Inspected",
    "rowid": "848347",
    "longitude": "0.0",
    "latitude": "0.0",
    "geocoded_column": {
      "latitude": "0.0",
      "longitude": "0.0"
    }
  },
  {
    "service_request": "2021-848346",
    "request_type": "Abandoned Vehicles",
    "request_reason": "Abandoned/Junk Vehicles",
    "date_created": "2021-12-15T13:35:47.000",
    "date_modified": "2021-12-15T14:00:37.000",
    "request_status": "Pending",
    "responsible_agency": "Department of Public Works",
    "final_address": "CALLIOPE ST & CAMP EXIT",
    "address_councildis": "B",
    "status": "Pending",
    "rowid": "848346",
    "final_x": "3679485.9",
    "final_y": "527005.78",
    "longitude": "-90.07458671198644",
    "latitude": "29.94314408957317",
    "geocoded_column": {
      "latitude": "29.94314408957317",
      "longitude": "-90.07458671198644"
    }
  },
  {
    "service_request": "2021-848344",
    "request_type": "Parks & Parkways",
    "request_reason": "Request Tree Service (Right of Way/Public Property)",
    "date_created": "2021-12-15T13:33:40.000",
    "date_modified": "2021-12-15T14:00:39.000",
    "request_status": "Pending",
    "responsible_agency": "Department of Parks & Parkway",
    "final_address": "636 S Lopez St",
    "address_councildis": "B",
    "status": "Pending",
    "rowid": "848344",
    "final_x": "3672478.6107",
    "final_y": "534328.883013",
    "longitude": "-90.09646093702555",
    "latitude": "29.963490002784503",
    "geocoded_column": {
      "latitude": "29.963490002784503",
      "longitude": "-90.09646093702555"
    }
  },
  {
    "service_request": "2021-848343",
    "request_type": "Abandoned Vehicles",
    "request_reason": "Abandoned/Junk Vehicles",
    "date_created": "2021-12-15T13:31:07.000",
    "date_modified": "2021-12-15T13:31:07.000",
    "request_status": "Pending",
    "responsible_agency": "Department of Public Works",
    "status": "Inspected",
    "rowid": "848343",
    "longitude": "0.0",
    "latitude": "0.0",
    "geocoded_column": {
      "latitude": "0.0",
      "longitude": "0.0"
    }
  },
  {
    "service_request": "2021-848341",
    "request_type": "Abandoned Vehicles",
    "request_reason": "Abandoned/Junk Vehicles",
    "date_created": "2021-12-15T13:26:23.000",
    "date_modified": "2021-12-15T13:26:23.000",
    "request_status": "Pending",
    "responsible_agency": "Department of Public Works",
    "status": "Inspected",
    "rowid": "848341",
    "longitude": "0.0",
    "latitude": "0.0",
    "geocoded_column": {
      "latitude": "0.0",
      "longitude": "0.0"
    }
  },
  {
    "service_request": "2021-848340",
    "request_type": "Abandoned Vehicles",
    "request_reason": "Abandoned/Junk Vehicles",
    "date_created": "2021-12-15T13:22:30.000",
    "date_modified": "2021-12-15T13:22:30.000",
    "request_status": "Pending",
    "responsible_agency": "Department of Public Works",
    "status": "Inspected",
    "rowid": "848340",
    "longitude": "0.0",
    "latitude": "0.0",
    "geocoded_column": {
      "latitude": "0.0",
      "longitude": "0.0"
    }
  },
  {
    "service_request": "2021-848339",
    "request_type": "Abandoned Vehicles",
    "request_reason": "Abandoned/Junk Vehicles",
    "date_created": "2021-12-15T13:16:11.000",
    "date_modified": "2021-12-15T13:16:11.000",
    "request_status": "Pending",
    "responsible_agency": "Department of Public Works",
    "status": "Inspected",
    "rowid": "848339",
    "longitude": "0.0",
    "latitude": "0.0",
    "geocoded_column": {
      "latitude": "0.0",
      "longitude": "0.0"
    }
  },
  {
    "service_request": "2021-848338",
    "request_type": "Trash/Recycling",
    "request_reason": "Request a Large Item Pick Up",
    "date_created": "2021-12-15T13:14:41.000",
    "date_modified": "2021-12-15T13:14:42.000",
    "request_status": "Pending",
    "responsible_agency": "Department of Sanitation",
    "final_address": "1724 Old Roman St",
    "address_councildis": "D",
    "status": "Assigned to Contractor",
    "contractor": "Metro Disposal",
    "rowid": "848338",
    "final_x": "3682285.72655",
    "final_y": "539028.248586",
    "longitude": "-90.06532692195425",
    "latitude": "29.976116905552228",
    "geocoded_column": {
      "latitude": "29.976116905552228",
      "longitude": "-90.06532692195425"
    }
  },
  {
    "service_request": "2021-848337",
    "request_type": "Trash/Recycling",
    "request_reason": "Repair Trash Cart",
    "date_created": "2021-12-15T13:14:08.000",
    "date_modified": "2021-12-15T13:14:08.000",
    "request_status": "Pending",
    "responsible_agency": "Department of Sanitation",
    "final_address": "2008 Milan St",
    "address_councildis": "B",
    "status": "Assigned to Contractor",
    "contractor": "Richards Disposal",
    "rowid": "848337",
    "final_x": "3671392.90279",
    "final_y": "522519.984698",
    "longitude": "-90.1002907869365",
    "latitude": "29.931051581963143",
    "geocoded_column": {
      "latitude": "29.931051581963143",
      "longitude": "-90.1002907869365"
    }
  },
  {
    "service_request": "2021-848336",
    "request_type": "Abandoned Vehicles",
    "request_reason": "Abandoned/Junk Vehicles",
    "date_created": "2021-12-15T13:11:28.000",
    "date_modified": "2021-12-15T13:11:28.000",
    "request_status": "Pending",
    "responsible_agency": "Department of Public Works",
    "final_address": "2273 N Derbigny St",
    "address_councildis": "D",
    "status": "Pending",
    "rowid": "848336",
    "final_x": "3685521.43279",
    "final_y": "538598.048905",
    "longitude": "-90.05512279136902",
    "latitude": "29.974835153878672",
    "geocoded_column": {
      "latitude": "29.974835153878672",
      "longitude": "-90.05512279136902"
    }
  },
  {
    "service_request": "2021-848335",
    "request_type": "Trash/Recycling",
    "request_reason": "Request a Large Item Pick Up",
    "date_created": "2021-12-15T13:10:32.000",
    "date_modified": "2021-12-15T14:00:42.000",
    "request_status": "Pending",
    "responsible_agency": "Department of Sanitation",
    "final_address": "190 W Greenbrier Dr",
    "address_councildis": "E",
    "status": "Assigned to Contractor",
    "contractor": "Metro Disposal",
    "rowid": "848335",
    "final_x": "3716817.04978",
    "final_y": "564889.968098",
    "longitude": "-89.95528588790133",
    "latitude": "30.046130575278024",
    "geocoded_column": {
      "latitude": "30.046130575278024",
      "longitude": "-89.95528588790133"
    }
  },
  {
    "service_request": "2021-848334",
    "request_type": "Abandoned Vehicles",
    "request_reason": "Abandoned/Junk Vehicles",
    "date_created": "2021-12-15T13:10:23.000",
    "date_modified": "2021-12-15T13:11:45.000",
    "request_status": "Pending",
    "responsible_agency": "Department of Public Works",
    "status": "Inspected",
    "rowid": "848334",
    "longitude": "0.0",
    "latitude": "0.0",
    "geocoded_column": {
      "latitude": "0.0",
      "longitude": "0.0"
    }
  },
  {
    "service_request": "2021-848331",
    "request_type": "Property Maintenance",
    "request_reason": "Property Maintenance",
    "date_created": "2021-12-15T12:55:06.000",
    "date_modified": "2021-12-15T12:55:06.000",
    "request_status": "Pending",
    "responsible_agency": "Department of Code Enforcement",
    "final_address": "8651 Gervais St",
    "address_councildis": "E",
    "status": "Pending",
    "rowid": "848331",
    "final_x": "3704150.23946",
    "final_y": "562906.638432",
    "longitude": "-89.99539235353079",
    "latitude": "30.041089989366004",
    "geocoded_column": {
      "latitude": "30.041089989366004",
      "longitude": "-89.99539235353079"
    }
  },
  {
    "service_request": "2021-848330",
    "request_type": "Trash/Recycling",
    "request_reason": "Request a Large Item Pick Up",
    "date_created": "2021-12-15T12:53:12.000",
    "date_modified": "2021-12-15T13:00:35.000",
    "request_status": "Pending",
    "responsible_agency": "Department of Sanitation",
    "final_address": "2625 Saint Philip St, New Orleans, Louisiana, 70119",
    "status": "Assigned to Contractor",
    "rowid": "848330",
    "longitude": "0.0",
    "latitude": "0.0",
    "geocoded_column": {
      "latitude": "0.0",
      "longitude": "0.0"
    }
  },
  {
    "service_request": "2021-848329",
    "request_type": "Trash/Recycling",
    "request_reason": "Illegal Dumping",
    "date_created": "2021-12-15T12:50:44.000",
    "date_modified": "2021-12-15T12:50:44.000",
    "request_status": "Pending",
    "responsible_agency": "Department of Sanitation",
    "final_address": "2301 Jourdan Ave",
    "address_councildis": "E",
    "status": "Pending",
    "rowid": "848329",
    "final_x": "3696353.68477",
    "final_y": "539008.478282",
    "longitude": "-90.02089714444112",
    "latitude": "29.97562698332521",
    "geocoded_column": {
      "latitude": "29.97562698332521",
      "longitude": "-90.02089714444112"
    }
  },
  {
    "service_request": "2021-848327",
    "request_type": "Traffic Signals/Signs/Striping/Streetlights",
    "request_reason": "Street Light Outage/Malfunction",
    "date_created": "2021-12-15T12:43:10.000",
    "date_modified": "2021-12-15T14:15:09.000",
    "request_status": "Pending",
    "responsible_agency": "Department of Public Works",
    "final_address": "731 Gallier St",
    "address_councildis": "C",
    "status": "Pending",
    "contractor": "Royal Engineering",
    "rowid": "848327",
    "final_x": "3690180.61372",
    "final_y": "534388.162885",
    "longitude": "-90.04055798182844",
    "latitude": "29.963115714097228",
    "geocoded_column": {
      "latitude": "29.963115714097228",
      "longitude": "-90.04055798182844"
    }
  },
  {
    "service_request": "2021-848326",
    "request_type": "Trash/Recycling",
    "request_reason": "Replace Trash Cart",
    "date_created": "2021-12-15T12:42:22.000",
    "date_modified": "2021-12-15T12:42:23.000",
    "request_status": "Pending",
    "responsible_agency": "Department of Sanitation",
    "final_address": "521 Hagan St",
    "address_councildis": "A",
    "status": "Assigned to Contractor",
    "contractor": "Richards Disposal",
    "rowid": "848326",
    "final_x": "3674308.0731",
    "final_y": "538073.050057",
    "longitude": "-90.09055544270412",
    "latitude": "29.97373076858494",
    "geocoded_column": {
      "latitude": "29.97373076858494",
      "longitude": "-90.09055544270412"
    }
  },
  {
    "service_request": "2021-848324",
    "request_type": "Trash/Recycling",
    "request_reason": "Request a Large Item Pick Up",
    "date_created": "2021-12-15T12:36:12.000",
    "date_modified": "2021-12-15T12:36:13.000",
    "request_status": "Pending",
    "responsible_agency": "Department of Sanitation",
    "final_address": "2918 Constance St",
    "address_councildis": "B",
    "status": "Assigned to Contractor",
    "contractor": "Richards Disposal",
    "rowid": "848324",
    "final_x": "3676712.37275",
    "final_y": "520110.25164",
    "longitude": "-90.08358088755922",
    "latitude": "29.924267127247962",
    "geocoded_column": {
      "latitude": "29.924267127247962",
      "longitude": "-90.08358088755922"
    }
  },
  {
    "service_request": "2021-848322",
    "request_type": "Roads/Drainage",
    "request_reason": "Road Shoulder Repair",
    "date_created": "2021-12-15T12:31:52.000",
    "date_modified": "2021-12-15T13:40:49.000",
    "case_close_date": "2021-12-15T07:40:49.000",
    "request_status": "Closed",
    "responsible_agency": "Department of Public Works",
    "final_address": "4861 Haydel St",
    "address_councildis": "E",
    "status": "Referred to External Agency",
    "rowid": "848322",
    "final_x": "3699027.64637",
    "final_y": "555147.075865",
    "longitude": "-90.01186426054107",
    "latitude": "30.019917652463153",
    "geocoded_column": {
      "latitude": "30.019917652463153",
      "longitude": "-90.01186426054107"
    }
  },
  {
    "service_request": "2021-848320",
    "request_type": "Property Maintenance",
    "request_reason": "Property Maintenance",
    "date_created": "2021-12-15T12:27:05.000",
    "date_modified": "2021-12-15T12:27:05.000",
    "request_status": "Pending",
    "responsible_agency": "Department of Code Enforcement",
    "final_address": "4939 N Villere St A",
    "address_councildis": "E",
    "status": "Pending",
    "rowid": "848320",
    "final_x": "3695833.94493",
    "final_y": "535516.648134",
    "longitude": "-90.02266476378544",
    "latitude": "29.96604205656024",
    "geocoded_column": {
      "latitude": "29.96604205656024",
      "longitude": "-90.02266476378544"
    }
  },
  {
    "service_request": "2021-848316",
    "request_type": "Traffic Signals/Signs/Striping/Streetlights",
    "request_reason": "Additional signage",
    "date_created": "2021-12-15T12:21:44.000",
    "date_modified": "2021-12-15T13:00:49.000",
    "request_status": "Pending",
    "responsible_agency": "Department of Public Works",
    "final_address": "PALMETTO ST & DUBLIN ST",
    "address_councildis": "A",
    "status": "Pending",
    "rowid": "848316",
    "final_x": "3667817.3",
    "final_y": "535391.98",
    "longitude": "-90.11114509846323",
    "latitude": "29.966550696631856",
    "geocoded_column": {
      "latitude": "29.966550696631856",
      "longitude": "-90.11114509846323"
    }
  },
  {
    "service_request": "2021-848315",
    "request_type": "Property Maintenance",
    "request_reason": "Property Maintenance",
    "date_created": "2021-12-15T12:20:26.000",
    "date_modified": "2021-12-15T12:20:26.000",
    "request_status": "Pending",
    "responsible_agency": "Department of Code Enforcement",
    "final_address": "2712 Verbena St",
    "address_councildis": "D",
    "status": "Pending",
    "rowid": "848315",
    "final_x": "3687851.9174",
    "final_y": "547781.698898",
    "longitude": "-90.04743705914153",
    "latitude": "30.00001522298953",
    "geocoded_column": {
      "latitude": "30.00001522298953",
      "longitude": "-90.04743705914153"
    }
  },
  {
    "service_request": "2021-848314",
    "request_type": "Property Maintenance",
    "request_reason": "Property Maintenance",
    "date_created": "2021-12-15T12:16:42.000",
    "date_modified": "2021-12-15T13:00:51.000",
    "request_status": "Pending",
    "responsible_agency": "Department of Code Enforcement",
    "final_address": "3303 Lamarque St",
    "address_councildis": "C",
    "status": "Pending",
    "rowid": "848314",
    "final_x": "3696428.89008",
    "final_y": "526567.661246",
    "longitude": "-90.02110959497826",
    "latitude": "29.941416759473466",
    "geocoded_column": {
      "latitude": "29.941416759473466",
      "longitude": "-90.02110959497826"
    }
  },
  {
    "service_request": "2021-848313",
    "request_type": "Roads/Drainage",
    "request_reason": "Damaged Sidewalk",
    "date_created": "2021-12-15T12:14:10.000",
    "date_modified": "2021-12-15T13:00:53.000",
    "request_status": "Pending",
    "responsible_agency": "Department of Public Works",
    "final_address": "3601 Huntlee Dr",
    "address_councildis": "C",
    "status": "Pending",
    "rowid": "848313",
    "final_x": "3701639.74455",
    "final_y": "517862.75327",
    "longitude": "-90.00497663496695",
    "latitude": "29.917316164973077",
    "geocoded_column": {
      "latitude": "29.917316164973077",
      "longitude": "-90.00497663496695"
    }
  },
  {
    "service_request": "2021-848312",
    "request_type": "Parks & Parkways",
    "request_reason": "Request Tree Service (Right of Way/Public Property)",
    "date_created": "2021-12-15T12:12:45.000",
    "date_modified": "2021-12-15T13:00:55.000",
    "request_status": "Pending",
    "responsible_agency": "Department of Parks & Parkway",
    "final_address": "3601 Huntlee Dr",
    "address_councildis": "C",
    "status": "Pending",
    "rowid": "848312",
    "final_x": "3701639.74455",
    "final_y": "517862.75327",
    "longitude": "-90.00497663496695",
    "latitude": "29.917316164973077",
    "geocoded_column": {
      "latitude": "29.917316164973077",
      "longitude": "-90.00497663496695"
    }
  },
  {
    "service_request": "2021-848311",
    "request_type": "Abandoned Vehicles",
    "request_reason": "Abandoned/Junk Vehicles",
    "date_created": "2021-12-15T12:04:18.000",
    "date_modified": "2021-12-15T12:04:18.000",
    "request_status": "Pending",
    "responsible_agency": "Department of Public Works",
    "final_address": "343 S Norman C Francis Prkwy",
    "address_councildis": "B",
    "status": "Pending",
    "rowid": "848311",
    "final_x": "3672395.98094",
    "final_y": "535903.909319",
    "longitude": "-90.09666819336914",
    "latitude": "29.96782324900864",
    "geocoded_column": {
      "latitude": "29.96782324900864",
      "longitude": "-90.09666819336914"
    }
  },
  {
    "service_request": "2021-848310",
    "request_type": "Trash/Recycling",
    "request_reason": "Request a Large Item Pick Up",
    "date_created": "2021-12-15T12:00:37.000",
    "date_modified": "2021-12-15T13:00:56.000",
    "request_status": "Pending",
    "responsible_agency": "Department of Sanitation",
    "final_address": "1821 Rosiere St",
    "address_councildis": "D",
    "status": "Assigned to Contractor",
    "contractor": "Metro Disposal",
    "rowid": "848310",
    "final_x": "3678933.48501",
    "final_y": "542375.520461",
    "longitude": "-90.07579826036493",
    "latitude": "29.985422318613715",
    "geocoded_column": {
      "latitude": "29.985422318613715",
      "longitude": "-90.07579826036493"
    }
  },
  {
    "service_request": "2021-848309",
    "request_type": "Roads/Drainage",
    "request_reason": "Catch Basin - Broken/Damage",
    "date_created": "2021-12-15T11:55:00.000",
    "date_modified": "2021-12-15T12:00:39.000",
    "request_status": "Pending",
    "responsible_agency": "Department of Public Works",
    "final_address": "1300 BLK Saint Philip St",
    "address_councildis": "C",
    "status": "Pending",
    "rowid": "848309",
    "final_x": "3681360.03094",
    "final_y": "534780.867562",
    "longitude": "-90.0683986247731",
    "latitude": "29.964466206685554",
    "geocoded_column": {
      "latitude": "29.964466206685554",
      "longitude": "-90.0683986247731"
    }
  },
  {
    "service_request": "2021-848307",
    "request_type": "Traffic Signals/Signs/Striping/Streetlights",
    "request_reason": "Street Light Outage/Malfunction",
    "date_created": "2021-12-15T11:52:04.000",
    "date_modified": "2021-12-15T11:52:05.000",
    "request_status": "Pending",
    "responsible_agency": "Department of Public Works",
    "final_address": "23 Charlotte Dr",
    "address_councildis": "D",
    "status": "Pending",
    "contractor": "Royal Engineering",
    "rowid": "848307",
    "final_x": "3680207.13941",
    "final_y": "551734.479317",
    "longitude": "-90.07144976501442",
    "latitude": "30.01111763504725",
    "geocoded_column": {
      "latitude": "30.01111763504725",
      "longitude": "-90.07144976501442"
    }
  },
  {
    "service_request": "2021-848306",
    "request_type": "Roads/Drainage",
    "request_reason": "Catch Basin - Broken/Damage",
    "date_created": "2021-12-15T11:50:37.000",
    "date_modified": "2021-12-15T12:00:41.000",
    "request_status": "Pending",
    "responsible_agency": "Department of Public Works",
    "final_address": "1200 BLK Saint Philip St",
    "address_councildis": "C",
    "status": "Pending",
    "rowid": "848306",
    "final_x": "3681608.30013",
    "final_y": "534588.225231",
    "longitude": "-90.06762133008787",
    "latitude": "29.963928967845668",
    "geocoded_column": {
      "latitude": "29.963928967845668",
      "longitude": "-90.06762133008787"
    }
  },
  {
    "service_request": "2021-848305",
    "request_type": "Roads/Drainage",
    "request_reason": "Catch Basin - Broken/Damage",
    "date_created": "2021-12-15T11:47:55.000",
    "date_modified": "2021-12-15T12:00:43.000",
    "request_status": "Pending",
    "responsible_agency": "Department of Public Works",
    "final_address": "1100 BLK Saint Philip St",
    "address_councildis": "C",
    "status": "Pending",
    "rowid": "848305",
    "final_x": "3681883.0545",
    "final_y": "534375.565223",
    "longitude": "-90.0667611053038",
    "latitude": "29.96333587765889",
    "geocoded_column": {
      "latitude": "29.96333587765889",
      "longitude": "-90.0667611053038"
    }
  },
  {
    "service_request": "2021-848304",
    "request_type": "Roads/Drainage",
    "request_reason": "Road Shoulder Repair",
    "date_created": "2021-12-15T11:40:59.000",
    "date_modified": "2021-12-15T12:00:44.000",
    "case_close_date": "2021-12-15T05:41:19.000",
    "request_status": "Closed",
    "responsible_agency": "Department of Public Works",
    "final_address": "5821 Colbert St",
    "address_councildis": "A",
    "status": "Resolved",
    "rowid": "848304",
    "final_x": "3667388.67578",
    "final_y": "546402.19976",
    "longitude": "-90.11212812283972",
    "latitude": "29.996837645331112",
    "geocoded_column": {
      "latitude": "29.996837645331112",
      "longitude": "-90.11212812283972"
    }
  },
  {
    "service_request": "2021-848303",
    "request_type": "Roads/Drainage",
    "request_reason": "Road Shoulder Repair",
    "date_created": "2021-12-15T11:39:56.000",
    "date_modified": "2021-12-15T12:00:46.000",
    "case_close_date": "2021-12-15T05:40:19.000",
    "request_status": "Closed",
    "responsible_agency": "Department of Public Works",
    "final_address": "6052 Canal Blvd",
    "address_councildis": "A",
    "status": "Resolved",
    "rowid": "848303",
    "final_x": "3668390.52782",
    "final_y": "547782.911186",
    "longitude": "-90.10891670659126",
    "latitude": "30.00060472721618",
    "geocoded_column": {
      "latitude": "30.00060472721618",
      "longitude": "-90.10891670659126"
    }
  },
  {
    "service_request": "2021-848302",
    "request_type": "Roads/Drainage",
    "request_reason": "Road Shoulder Repair",
    "date_created": "2021-12-15T11:37:28.000",
    "date_modified": "2021-12-15T12:00:47.000",
    "case_close_date": "2021-12-15T05:37:53.000",
    "request_status": "Closed",
    "responsible_agency": "Department of Public Works",
    "final_address": "6224 Canal Blvd",
    "address_councildis": "A",
    "status": "Resolved",
    "rowid": "848302",
    "final_x": "3668471.5867",
    "final_y": "548812.934163",
    "longitude": "-90.10862585647179",
    "latitude": "30.003434550969786",
    "geocoded_column": {
      "latitude": "30.003434550969786",
      "longitude": "-90.10862585647179"
    }
  },
  {
    "service_request": "2021-848300",
    "request_type": "Trash/Recycling",
    "request_reason": "Repair Trash Cart",
    "date_created": "2021-12-15T11:35:32.000",
    "date_modified": "2021-12-15T11:35:32.000",
    "request_status": "Pending",
    "responsible_agency": "Department of Sanitation",
    "final_address": "218 Norland Ave",
    "address_councildis": "C",
    "status": "Assigned to Contractor",
    "contractor": "Richards Disposal",
    "rowid": "848300",
    "final_x": "3706885.80612",
    "final_y": "520474.132536",
    "longitude": "-89.98832118653608",
    "latitude": "29.92432828021319",
    "geocoded_column": {
      "latitude": "29.92432828021319",
      "longitude": "-89.98832118653608"
    }
  },
  {
    "service_request": "2021-848299",
    "request_type": "Abandoned Vehicles",
    "request_reason": "Abandoned/Junk Vehicles",
    "date_created": "2021-12-15T11:33:43.000",
    "date_modified": "2021-12-15T12:00:51.000",
    "request_status": "Pending",
    "responsible_agency": "Department of Public Works",
    "final_address": "1634 Gentilly Blvd",
    "address_councildis": "D",
    "status": "Pending",
    "rowid": "848299",
    "final_x": "3678535.92866",
    "final_y": "540922.216523",
    "longitude": "-90.07710430316938",
    "latitude": "29.981438229018185",
    "geocoded_column": {
      "latitude": "29.981438229018185",
      "longitude": "-90.07710430316938"
    }
  },
  {
    "service_request": "2021-848298",
    "request_type": "Trash/Recycling",
    "request_reason": "Request a Large Item Pick Up",
    "date_created": "2021-12-15T11:29:17.000",
    "date_modified": "2021-12-15T11:29:18.000",
    "request_status": "Pending",
    "responsible_agency": "Department of Sanitation",
    "final_address": "2818 Hyman Pl",
    "address_councildis": "C",
    "status": "Assigned to Contractor",
    "contractor": "Richards Disposal",
    "rowid": "848298",
    "final_x": "3701083.80535",
    "final_y": "520764.116793",
    "longitude": "-90.00662537258833",
    "latitude": "29.92531162846845",
    "geocoded_column": {
      "latitude": "29.92531162846845",
      "longitude": "-90.00662537258833"
    }
  },
  {
    "service_request": "2021-848297",
    "request_type": "Traffic Signals/Signs/Striping/Streetlights",
    "request_reason": "Street Light Outage/Malfunction",
    "date_created": "2021-12-15T11:27:17.000",
    "date_modified": "2021-12-15T11:27:18.000",
    "request_status": "Pending",
    "responsible_agency": "Department of Public Works",
    "final_address": "606 Forstall St",
    "address_councildis": "E",
    "status": "Pending",
    "contractor": "Royal Engineering",
    "rowid": "848297",
    "final_x": "3695726.60106",
    "final_y": "532458.767363",
    "longitude": "-90.02311417126228",
    "latitude": "29.957637341591028",
    "geocoded_column": {
      "latitude": "29.957637341591028",
      "longitude": "-90.02311417126228"
    }
  },
  {
    "service_request": "2021-848296",
    "request_type": "Roads/Drainage",
    "request_reason": "Road Shoulder Repair",
    "date_created": "2021-12-15T11:27:14.000",
    "date_modified": "2021-12-15T12:00:52.000",
    "case_close_date": "2021-12-15T05:27:32.000",
    "request_status": "Closed",
    "responsible_agency": "Department of Public Works",
    "final_address": "6825 General Diaz St",
    "address_councildis": "A",
    "status": "Resolved",
    "rowid": "848296",
    "final_x": "3670106.43617",
    "final_y": "552806.765974",
    "longitude": "-90.10332565611077",
    "latitude": "30.014368037352064",
    "geocoded_column": {
      "latitude": "30.014368037352064",
      "longitude": "-90.10332565611077"
    }
  },
  {
    "service_request": "2021-848295",
    "request_type": "Trash/Recycling",
    "request_reason": "Request a Large Item Pick Up",
    "date_created": "2021-12-15T11:27:04.000",
    "date_modified": "2021-12-15T12:00:54.000",
    "request_status": "Pending",
    "responsible_agency": "Department of Sanitation",
    "final_address": "6620 Dorian St",
    "address_councildis": "D",
    "status": "Assigned to Contractor",
    "contractor": "Metro Disposal",
    "rowid": "848295",
    "final_x": "3696463.91952",
    "final_y": "555506.251609",
    "longitude": "-90.01995176455156",
    "latitude": "30.020986298470397",
    "geocoded_column": {
      "latitude": "30.020986298470397",
      "longitude": "-90.01995176455156"
    }
  },
  {
    "service_request": "2021-848294",
    "request_type": "Roads/Drainage",
    "request_reason": "Road Shoulder Repair",
    "date_created": "2021-12-15T11:23:50.000",
    "date_modified": "2021-12-15T12:00:55.000",
    "case_close_date": "2021-12-15T05:24:40.000",
    "request_status": "Closed",
    "responsible_agency": "Department of Public Works",
    "final_address": "5800 BLK General Haig St",
    "address_councildis": "A",
    "status": "Resolved",
    "rowid": "848294",
    "final_x": "3670437.99734",
    "final_y": "546110.482698",
    "longitude": "-90.10250534629168",
    "latitude": "29.995945811623017",
    "geocoded_column": {
      "latitude": "29.995945811623017",
      "longitude": "-90.10250534629168"
    }
  },
  {
    "service_request": "2021-848293",
    "request_type": "Traffic Signals/Signs/Striping/Streetlights",
    "request_reason": "Street Light Outage/Malfunction",
    "date_created": "2021-12-15T11:20:07.000",
    "date_modified": "2021-12-15T12:00:56.000",
    "request_status": "Pending",
    "responsible_agency": "Department of Public Works",
    "final_address": "8324 Forshey St, New Orleans, Louisiana, 70118",
    "address_councildis": "A",
    "status": "Pending",
    "contractor": "Royal Engineering",
    "rowid": "848293",
    "final_x": "3666277.09505",
    "final_y": "534530.520965",
    "longitude": "-90.11603796994119",
    "latitude": "29.964227051298902",
    "geocoded_column": {
      "latitude": "29.964227051298902",
      "longitude": "-90.11603796994119"
    }
  },
  {
    "service_request": "2021-848292",
    "request_type": "Trash/Recycling",
    "request_reason": "Request a Large Item Pick Up",
    "date_created": "2021-12-15T11:19:19.000",
    "date_modified": "2021-12-15T12:00:58.000",
    "request_status": "Pending",
    "responsible_agency": "Department of Sanitation",
    "final_address": "8324 Forshey St, New Orleans, Louisiana, 70118",
    "address_councildis": "A",
    "status": "Assigned to Contractor",
    "contractor": "Richards Disposal",
    "rowid": "848292",
    "final_x": "3666277.09505",
    "final_y": "534530.520965",
    "longitude": "-90.11603796994119",
    "latitude": "29.964227051298902",
    "geocoded_column": {
      "latitude": "29.964227051298902",
      "longitude": "-90.11603796994119"
    }
  },
  {
    "service_request": "2021-848291",
    "request_type": "Trash/Recycling",
    "request_reason": "Replace Trash Cart",
    "date_created": "2021-12-15T11:17:57.000",
    "date_modified": "2021-12-15T12:00:59.000",
    "request_status": "Pending",
    "responsible_agency": "Department of Sanitation",
    "final_address": "8324 Forshey St, New Orleans, Louisiana, 70118",
    "address_councildis": "A",
    "status": "Assigned to Contractor",
    "contractor": "Richards Disposal",
    "rowid": "848291",
    "final_x": "3666277.09505",
    "final_y": "534530.520965",
    "longitude": "-90.11603796994119",
    "latitude": "29.964227051298902",
    "geocoded_column": {
      "latitude": "29.964227051298902",
      "longitude": "-90.11603796994119"
    }
  },
  {
    "service_request": "2021-848290",
    "request_type": "Traffic Signals/Signs/Striping/Streetlights",
    "request_reason": "Street Light Outage/Malfunction",
    "date_created": "2021-12-15T11:14:53.000",
    "date_modified": "2021-12-15T12:01:03.000",
    "request_status": "Pending",
    "responsible_agency": "Department of Public Works",
    "final_address": "SENATE ST & DAVEY ST",
    "address_councildis": "D",
    "status": "Pending",
    "contractor": "Royal Engineering",
    "rowid": "848290",
    "final_x": "3676183.6",
    "final_y": "547084.58",
    "longitude": "-90.0843218872102",
    "latitude": "29.998453284139412",
    "geocoded_column": {
      "latitude": "29.998453284139412",
      "longitude": "-90.0843218872102"
    }
  },
  {
    "service_request": "2021-848288",
    "request_type": "Abandoned Vehicles",
    "request_reason": "Abandoned/Junk Vehicles",
    "date_created": "2021-12-15T11:12:42.000",
    "date_modified": "2021-12-15T11:12:42.000",
    "request_status": "Pending",
    "responsible_agency": "Department of Public Works",
    "final_address": "3429 Monroe St",
    "address_councildis": "A",
    "status": "Pending",
    "rowid": "848288",
    "final_x": "3665872.3161",
    "final_y": "535754.327175",
    "longitude": "-90.1172752178881",
    "latitude": "29.967603932077193",
    "geocoded_column": {
      "latitude": "29.967603932077193",
      "longitude": "-90.1172752178881"
    }
  },
  {
    "service_request": "2021-848287",
    "request_type": "Trash/Recycling",
    "request_reason": "Missed Trash Pick-Up",
    "date_created": "2021-12-15T11:11:09.000",
    "date_modified": "2021-12-15T12:01:04.000",
    "request_status": "Pending",
    "responsible_agency": "Department of Sanitation",
    "final_address": "925 Milan St",
    "address_councildis": "B",
    "status": "Assigned to Contractor",
    "contractor": "Richards Disposal",
    "rowid": "848287",
    "final_x": "3671819.99195",
    "final_y": "519082.471095",
    "longitude": "-90.09905941337516",
    "latitude": "29.921586876266588",
    "geocoded_column": {
      "latitude": "29.921586876266588",
      "longitude": "-90.09905941337516"
    }
  },
  {
    "service_request": "2021-848285",
    "request_type": "Trash/Recycling",
    "request_reason": "Repair Trash Cart",
    "date_created": "2021-12-15T11:10:08.000",
    "date_modified": "2021-12-15T12:01:07.000",
    "request_status": "Pending",
    "responsible_agency": "Department of Sanitation",
    "final_address": "925 Milan St",
    "address_councildis": "B",
    "status": "Assigned to Contractor",
    "contractor": "Richards Disposal",
    "rowid": "848285",
    "final_x": "3671819.99195",
    "final_y": "519082.471095",
    "longitude": "-90.09905941337516",
    "latitude": "29.921586876266588",
    "geocoded_column": {
      "latitude": "29.921586876266588",
      "longitude": "-90.09905941337516"
    }
  },
  {
    "service_request": "2021-848284",
    "request_type": "Trash/Recycling",
    "request_reason": "Request a Large Item Pick Up",
    "date_created": "2021-12-15T11:06:48.000",
    "date_modified": "2021-12-15T12:01:08.000",
    "request_status": "Pending",
    "responsible_agency": "Department of Sanitation",
    "final_address": "7730 Windward Ct",
    "address_councildis": "E",
    "status": "Assigned to Contractor",
    "contractor": "Metro Disposal",
    "rowid": "848284",
    "final_x": "3715393.59173",
    "final_y": "569873.698278",
    "longitude": "-89.95959585194159",
    "latitude": "30.059880783990454",
    "geocoded_column": {
      "latitude": "30.059880783990454",
      "longitude": "-89.95959585194159"
    }
  },
  {
    "service_request": "2021-848283",
    "request_type": "Abandoned Vehicles",
    "request_reason": "Abandoned/Junk Vehicles",
    "date_created": "2021-12-15T11:00:32.000",
    "date_modified": "2021-12-15T11:00:32.000",
    "request_status": "Pending",
    "responsible_agency": "Department of Public Works",
    "final_address": "3116 Cleveland Ave",
    "address_councildis": "B",
    "status": "Pending",
    "rowid": "848283",
    "final_x": "3673629.4315",
    "final_y": "535784.785991",
    "longitude": "-90.09277698587567",
    "latitude": "29.967459038374624",
    "geocoded_column": {
      "latitude": "29.967459038374624",
      "longitude": "-90.09277698587567"
    }
  },
  {
    "service_request": "2021-848282",
    "request_type": "Trash/Recycling",
    "request_reason": "Request a Large Item Pick Up",
    "date_created": "2021-12-15T10:49:45.000",
    "date_modified": "2021-12-15T11:01:43.000",
    "request_status": "Pending",
    "responsible_agency": "Department of Sanitation",
    "final_address": "3253 Annunciation St",
    "address_councildis": "B",
    "status": "Assigned to Contractor",
    "contractor": "Richards Disposal",
    "rowid": "848282",
    "final_x": "3675868.69678",
    "final_y": "518824.904247",
    "longitude": "-90.08628823936537",
    "latitude": "29.920758111251835",
    "geocoded_column": {
      "latitude": "29.920758111251835",
      "longitude": "-90.08628823936537"
    }
  },
  {
    "service_request": "2021-848281",
    "request_type": "Trash/Recycling",
    "request_reason": "Illegal Dumping",
    "date_created": "2021-12-15T10:46:02.000",
    "date_modified": "2021-12-15T10:46:03.000",
    "request_status": "Pending",
    "responsible_agency": "Department of Sanitation",
    "final_address": "S CLAIBORNE AVE & TOLEDANO ST",
    "address_councildis": "B",
    "status": "Pending",
    "rowid": "848281",
    "final_x": "3672686.1",
    "final_y": "526316.28",
    "longitude": "-90.09607892276615",
    "latitude": "29.941451833708907",
    "geocoded_column": {
      "latitude": "29.941451833708907",
      "longitude": "-90.09607892276615"
    }
  },
  {
    "service_request": "2021-848280",
    "request_type": "Abandoned Vehicles",
    "request_reason": "Abandoned/Junk Vehicles",
    "date_created": "2021-12-15T10:42:47.000",
    "date_modified": "2021-12-15T10:44:08.000",
    "request_status": "Pending",
    "responsible_agency": "Department of Public Works",
    "status": "Inspected",
    "rowid": "848280",
    "longitude": "0.0",
    "latitude": "0.0",
    "geocoded_column": {
      "latitude": "0.0",
      "longitude": "0.0"
    }
  },
  {
    "service_request": "2021-848279",
    "request_type": "Abandoned Vehicles",
    "request_reason": "Abandoned/Junk Vehicles",
    "date_created": "2021-12-15T10:41:55.000",
    "date_modified": "2021-12-15T10:41:55.000",
    "request_status": "Pending",
    "responsible_agency": "Department of Public Works",
    "status": "Inspected",
    "rowid": "848279",
    "longitude": "0.0",
    "latitude": "0.0",
    "geocoded_column": {
      "latitude": "0.0",
      "longitude": "0.0"
    }
  },
  {
    "service_request": "2021-848278",
    "request_type": "Property Maintenance",
    "request_reason": "Property Maintenance",
    "date_created": "2021-12-15T10:41:51.000",
    "date_modified": "2021-12-15T11:01:45.000",
    "request_status": "Pending",
    "responsible_agency": "Department of Code Enforcement",
    "final_address": "2400 Magazine St",
    "address_councildis": "B",
    "status": "Pending",
    "rowid": "848278",
    "final_x": "3678071.20245",
    "final_y": "521434.307385",
    "longitude": "-90.07924578920101",
    "latitude": "29.927867028146228",
    "geocoded_column": {
      "latitude": "29.927867028146228",
      "longitude": "-90.07924578920101"
    }
  },
  {
    "service_request": "2021-848277",
    "request_type": "Trash/Recycling",
    "request_reason": "Order Trash Cart",
    "date_created": "2021-12-15T10:40:24.000",
    "date_modified": "2021-12-15T10:40:24.000",
    "request_status": "Pending",
    "responsible_agency": "Department of Sanitation",
    "final_address": "1221 Lamanche St",
    "address_councildis": "E",
    "status": "Assigned to Contractor",
    "contractor": "Metro Disposal",
    "rowid": "848277",
    "final_x": "3698603.01879",
    "final_y": "534257.784069",
    "longitude": "-90.01396592904581",
    "latitude": "29.96249324675746",
    "geocoded_column": {
      "latitude": "29.96249324675746",
      "longitude": "-90.01396592904581"
    }
  },
  {
    "service_request": "2021-848276",
    "request_type": "Roads/Drainage",
    "request_reason": "Damaged Sidewalk",
    "date_created": "2021-12-15T10:38:58.000",
    "date_modified": "2021-12-15T10:38:58.000",
    "request_status": "Pending",
    "responsible_agency": "Department of Public Works",
    "final_address": "2310 St Louis St",
    "address_councildis": "B",
    "status": "Pending",
    "rowid": "848276",
    "final_x": "3677478.83259",
    "final_y": "535305.630342",
    "longitude": "-90.08063704266294",
    "latitude": "29.9660263671589",
    "geocoded_column": {
      "latitude": "29.9660263671589",
      "longitude": "-90.08063704266294"
    }
  },