[
  {
    "service_request": "2022-950841",
    "request_type": "Trash/Recycling",
    "request_reason": "MIssed Recycling Pick-Up",
    "date_created": "2022-12-08T00:08:40.000",
    "date_modified": "2022-12-08T00:08:41.000",
    "request_status": "Pending",
    "responsible_agency": "Department of Sanitation",
    "final_address": "130 S Murat St",
    "address_councildis": "A",
    "status": "Assigned to Contractor",
    "contractor": "Richards Disposal",
    "rowid": "950841",
    "final_x": "3669543.29223",
    "final_y": "539119.185482",
    "longitude": "-90.10556829656949",
    "latitude": "29.976748527138856",
    "geocoded_column": {
      "latitude": "29.976748527138856",
      "longitude": "-90.10556829656949"
    }
  },
  {
    "service_request": "2022-950840",
    "request_type": "Trash/Recycling",
    "request_reason": "MIssed Recycling Pick-Up",
    "date_created": "2022-12-07T22:23:35.000",
    "date_modified": "2022-12-07T22:23:36.000",
    "request_status": "Pending",
    "responsible_agency": "Department of Sanitation",
    "final_address": "1301 General Taylor St",
    "address_councildis": "B",
    "status": "Assigned to Contractor",
    "contractor": "Richards Disposal",
    "rowid": "950840",
    "final_x": "3672844.37032",
    "final_y": "520291.135864",
    "longitude": "-90.09578468200387",
    "latitude": "29.924879936904606",
    "geocoded_column": {
      "latitude": "29.924879936904606",
      "longitude": "-90.09578468200387"
    }
  },
  {
    "service_request": "2022-950839",
    "request_type": "Trash/Recycling",
    "request_reason": "MIssed Recycling Pick-Up",
    "date_created": "2022-12-07T22:13:36.000",
    "date_modified": "2022-12-07T22:13:37.000",
    "request_status": "Pending",
    "responsible_agency": "Department of Sanitation",
    "final_address": "2222 Constance St",
    "address_councildis": "B",
    "status": "Assigned to Contractor",
    "contractor": "Richards Disposal",
    "rowid": "950839",
    "final_x": "3678934.23131",
    "final_y": "521635.209081",
    "longitude": "-90.07651445262637",
    "latitude": "29.928393441669865",
    "geocoded_column": {
      "latitude": "29.928393441669865",
      "longitude": "-90.07651445262637"
    }
  },
  {
    "service_request": "2022-950838",
    "request_type": "Trash/Recycling",
    "request_reason": "MIssed Recycling Pick-Up",
    "date_created": "2022-12-07T22:03:34.000",
    "date_modified": "2022-12-07T22:03:34.000",
    "request_status": "Pending",
    "responsible_agency": "Department of Sanitation",
    "final_address": "1321 Coliseum St",
    "address_councildis": "B",
    "status": "Assigned to Contractor",
    "contractor": "Richards Disposal",
    "rowid": "950838",
    "final_x": "3680001.24495",
    "final_y": "525179.628797",
    "longitude": "-90.07302305597607",
    "latitude": "29.938107203843167",
    "geocoded_column": {
      "latitude": "29.938107203843167",
      "longitude": "-90.07302305597607"
    }
  },
  {
    "service_request": "2022-950837",
    "request_type": "Abandoned Vehicles",
    "request_reason": "Abandoned/Junk Vehicles",
    "date_created": "2022-12-07T21:55:29.000",
    "date_modified": "2022-12-07T21:55:29.000",
    "request_status": "Pending",
    "responsible_agency": "Department of Public Works",
    "final_address": "2927 Banks St",
    "address_councildis": "B",
    "status": "Pending",
    "rowid": "950837",
    "final_x": "3673730.25192",
    "final_y": "534908.163206",
    "longitude": "-90.09248857186466",
    "latitude": "29.965045619216117",
    "geocoded_column": {
      "latitude": "29.965045619216117",
      "longitude": "-90.09248857186466"
    }
  },
  {
    "service_request": "2022-950835",
    "request_type": "Parks & Parkways",
    "request_reason": "Request Tree Service (Right of Way/Public Property)",
    "date_created": "2022-12-07T21:39:05.000",
    "date_modified": "2022-12-07T21:39:05.000",
    "request_status": "Pending",
    "responsible_agency": "Department of Parks & Parkway",
    "final_address": "8100 St Charles Ave",
    "address_councildis": "A",
    "status": "Pending",
    "rowid": "950835",
    "final_x": "3660489.76742",
    "final_y": "526782.162494",
    "longitude": "-90.13456995565971",
    "latitude": "29.943089341603667",
    "geocoded_column": {
      "latitude": "29.943089341603667",
      "longitude": "-90.13456995565971"
    }
  },
  {
    "service_request": "2022-950834",
    "request_type": "Trash/Recycling",
    "request_reason": "MIssed Recycling Pick-Up",
    "date_created": "2022-12-07T21:33:59.000",
    "date_modified": "2022-12-07T21:34:00.000",
    "request_status": "Pending",
    "responsible_agency": "Department of Sanitation",
    "final_address": "727 Harmony St",
    "address_councildis": "B",
    "status": "Assigned to Contractor",
    "contractor": "Richards Disposal",
    "rowid": "950834",
    "final_x": "3676410.07675",
    "final_y": "518860.946423",
    "longitude": "-90.08457810990397",
    "latitude": "29.92084100352949",
    "geocoded_column": {
      "latitude": "29.92084100352949",
      "longitude": "-90.08457810990397"
    }
  },
  {
    "service_request": "2022-950833",
    "request_type": "Abandoned Vehicles",
    "request_reason": "Abandoned/Junk Vehicles",
    "date_created": "2022-12-07T21:33:41.000",
    "date_modified": "2022-12-07T21:33:41.000",
    "request_status": "Pending",
    "responsible_agency": "Department of Public Works",
    "final_address": "1401 Napoleon Ave",
    "address_councildis": "B",
    "status": "Pending",
    "rowid": "950833",
    "final_x": "3671003.01166",
    "final_y": "520381.132408",
    "longitude": "-90.10159420677928",
    "latitude": "29.925181953978193",
    "geocoded_column": {
      "latitude": "29.925181953978193",
      "longitude": "-90.10159420677928"
    }
  },
  {
    "service_request": "2022-950832",
    "request_type": "Trash/Recycling",
    "request_reason": "Request a Large Item Pick Up",
    "date_created": "2022-12-07T21:25:43.000",
    "date_modified": "2022-12-07T21:25:44.000",
    "request_status": "Pending",
    "responsible_agency": "Department of Sanitation",
    "final_address": "2042 Royal St",
    "address_councildis": "C",
    "status": "Assigned to Contractor",
    "contractor": "IV Waste",
    "rowid": "950832",
    "final_x": "3684549.61199",
    "final_y": "534791.911302",
    "longitude": "-90.05832579929681",
    "latitude": "29.964399369637636",
    "geocoded_column": {
      "latitude": "29.964399369637636",
      "longitude": "-90.05832579929681"
    }
  },
  {
    "service_request": "2022-950831",
    "request_type": "Trash/Recycling",
    "request_reason": "Missed Trash Pick-Up",
    "date_created": "2022-12-07T20:57:03.000",
    "date_modified": "2022-12-07T20:57:04.000",
    "request_status": "Pending",
    "responsible_agency": "Department of Sanitation",
    "final_address": "1604 Pauger St",
    "address_councildis": "C",
    "status": "Assigned to Contractor",
    "contractor": "IV Waste",
    "rowid": "950831",
    "final_x": "3683896.44636",
    "final_y": "535554.161862",
    "longitude": "-90.0603617002551",
    "latitude": "29.966515263945738",
    "geocoded_column": {
      "latitude": "29.966515263945738",
      "longitude": "-90.0603617002551"
    }
  },
  {
    "service_request": "2022-950830",
    "request_type": "Abandoned Vehicles",
    "request_reason": "Abandoned/Junk Vehicles",
    "date_created": "2022-12-07T20:56:14.000",
    "date_modified": "2022-12-07T20:56:14.000",
    "request_status": "Pending",
    "responsible_agency": "Department of Public Works",
    "final_address": "2612 State St",
    "address_councildis": "A",
    "status": "Pending",
    "rowid": "950830",
    "final_x": "3666907.35457",
    "final_y": "526227.16851",
    "longitude": "-90.11432661239448",
    "latitude": "29.94137711383006",
    "geocoded_column": {
      "latitude": "29.94137711383006",
      "longitude": "-90.11432661239448"
    }
  },
  {
    "service_request": "2022-950829",
    "request_type": "Abandoned Vehicles",
    "request_reason": "Abandoned/Junk Vehicles",
    "date_created": "2022-12-07T20:51:34.000",
    "date_modified": "2022-12-07T20:51:34.000",
    "request_status": "Pending",
    "responsible_agency": "Department of Public Works",
    "final_address": "2040 Burgundy St, New Orleans, Louisiana, 70116",
    "address_councildis": "C",
    "status": "Pending",
    "rowid": "950829",
    "final_x": "3684608.2358",
    "final_y": "535515.768774",
    "longitude": "-90.05811523035665",
    "latitude": "29.966387933778154",
    "geocoded_column": {
      "latitude": "29.966387933778154",
      "longitude": "-90.05811523035665"
    }
  },
  {
    "service_request": "2022-950828",
    "request_type": "Roads/Drainage",
    "request_reason": "Accessibility Ramps, Curbs and Sidewalk Repair",
    "date_created": "2022-12-07T20:49:17.000",
    "date_modified": "2022-12-07T20:49:17.000",
    "request_status": "Pending",
    "responsible_agency": "Department of Public Works",
    "final_address": "815 Spain St",
    "address_councildis": "C",
    "status": "Pending",
    "rowid": "950828",
    "final_x": "3686245.12514",
    "final_y": "535462.859974",
    "longitude": "-90.05294783720854",
    "latitude": "29.96619226060629",
    "geocoded_column": {
      "latitude": "29.96619226060629",
      "longitude": "-90.05294783720854"
    }
  },
  {
    "service_request": "2022-950826",
    "request_type": "Trash/Recycling",
    "request_reason": "Illegal Dumping",
    "date_created": "2022-12-07T20:47:48.000",
    "date_modified": "2022-12-07T20:47:48.000",
    "request_status": "Pending",
    "responsible_agency": "Department of Sanitation",
    "final_address": "3036 Baronne St",
    "address_councildis": "B",
    "status": "Pending",
    "rowid": "950826",
    "final_x": "3674627.33345",
    "final_y": "522523.727354",
    "longitude": "-90.09007997837843",
    "latitude": "29.930965772175682",
    "geocoded_column": {
      "latitude": "29.930965772175682",
      "longitude": "-90.09007997837843"
    }
  },
  {
    "service_request": "2022-950825",
    "request_type": "Roads/Drainage",
    "request_reason": "Damaged Sidewalk",
    "date_created": "2022-12-07T20:47:16.000",
    "date_modified": "2022-12-07T20:47:16.000",
    "request_status": "Pending",
    "responsible_agency": "Department of Public Works",
    "final_address": "2613 Magazine St",
    "address_councildis": "B",
    "status": "Pending",
    "rowid": "950825",
    "final_x": "3677405.96309",
    "final_y": "521145.714233",
    "longitude": "-90.08135574937307",
    "latitude": "29.927093494026682",
    "geocoded_column": {
      "latitude": "29.927093494026682",
      "longitude": "-90.08135574937307"
    }
  },
  {
    "service_request": "2022-950824",
    "request_type": "Health Related Request",
    "request_reason": "Noise Ordinance Complaint",
    "date_created": "2022-12-07T20:46:46.000",
    "date_modified": "2022-12-07T20:46:46.000",
    "request_status": "Pending",
    "responsible_agency": "Health Department",
    "final_address": "2040 Burgundy St, New Orleans, Louisiana, 70116",
    "address_councildis": "C",
    "status": "Pending",
    "rowid": "950824",
    "final_x": "3684608.2358",
    "final_y": "535515.768774",
    "longitude": "-90.05811523035665",
    "latitude": "29.966387933778154",
    "geocoded_column": {
      "latitude": "29.966387933778154",
      "longitude": "-90.05811523035665"
    }
  },
  {
    "service_request": "2022-950823",
    "request_type": "Trash/Recycling",
    "request_reason": "MIssed Recycling Pick-Up",
    "date_created": "2022-12-07T20:46:10.000",
    "date_modified": "2022-12-07T20:46:11.000",
    "request_status": "Pending",
    "responsible_agency": "Department of Sanitation",
    "final_address": "1716 Sixth St",
    "address_councildis": "B",
    "status": "Assigned to Contractor",
    "contractor": "Richards Disposal",
    "rowid": "950823",
    "final_x": "3675164.96219",
    "final_y": "522683.141562",
    "longitude": "-90.08837728773",
    "latitude": "29.931388058726576",
    "geocoded_column": {
      "latitude": "29.931388058726576",
      "longitude": "-90.08837728773"
    }
  },
  {
    "service_request": "2022-950822",
    "request_type": "Safety & Permits",
    "request_reason": "Licenses & Permits",
    "date_created": "2022-12-07T20:43:39.000",
    "date_modified": "2022-12-07T20:43:39.000",
    "request_status": "Pending",
    "responsible_agency": "Safety and Permits",
    "final_address": "2613 Magazine St",
    "address_councildis": "B",
    "status": "Pending",
    "rowid": "950822",
    "final_x": "3677405.96309",
    "final_y": "521145.714233",
    "longitude": "-90.08135574937307",
    "latitude": "29.927093494026682",
    "geocoded_column": {
      "latitude": "29.927093494026682",
      "longitude": "-90.08135574937307"
    }
  },
  {
    "service_request": "2022-950821",
    "request_type": "Trash/Recycling",
    "request_reason": "Return Recycling Cart",
    "date_created": "2022-12-07T20:41:49.000",
    "date_modified": "2022-12-07T20:41:49.000",
    "request_status": "Pending",
    "responsible_agency": "Department of Sanitation",
    "final_address": "815 Spain St",
    "address_councildis": "C",
    "status": "Pending",
    "rowid": "950821",
    "final_x": "3686245.12514",
    "final_y": "535462.859974",
    "longitude": "-90.05294783720854",
    "latitude": "29.96619226060629",
    "geocoded_column": {
      "latitude": "29.96619226060629",
      "longitude": "-90.05294783720854"
    }
  },
  {
    "service_request": "2022-950819",
    "request_type": "Traffic Signals/Signs/Striping/Streetlights",
    "request_reason": "Street Light Outage/Malfunction",
    "date_created": "2022-12-07T20:31:31.000",
    "date_modified": "2022-12-07T20:31:32.000",
    "request_status": "Pending",
    "responsible_agency": "Department of Public Works",
    "final_address": "6101 Argonne Blvd",
    "address_councildis": "A",
    "status": "Pending",
    "contractor": "Legacy Professional Services",
    "rowid": "950819",
    "final_x": "3670281.2923",
    "final_y": "547836.900178",
    "longitude": "-90.1029418059407",
    "latitude": "30.000697488116646",
    "geocoded_column": {
      "latitude": "30.000697488116646",
      "longitude": "-90.1029418059407"
    }
  },
  {
    "service_request": "2022-950818",
    "request_type": "Abandoned Vehicles",
    "request_reason": "Abandoned/Junk Vehicles",
    "date_created": "2022-12-07T20:27:28.000",
    "date_modified": "2022-12-07T20:27:29.000",
    "request_status": "Pending",
    "responsible_agency": "Department of Public Works",
    "final_address": "PAUGER ST & N PRIEUR ST",
    "address_councildis": "D",
    "status": "Pending",
    "rowid": "950818",
    "final_x": "3683635.0",
    "final_y": "539164.18",
    "longitude": "-90.06106076065049",
    "latitude": "29.976449544638854",
    "geocoded_column": {
      "latitude": "29.976449544638854",
      "longitude": "-90.06106076065049"
    }
  },
  {
    "service_request": "2022-950817",
    "request_type": "Trash/Recycling",
    "request_reason": "Illegal Dumping",
    "date_created": "2022-12-07T20:26:06.000",
    "date_modified": "2022-12-07T20:26:07.000",
    "request_status": "Pending",
    "responsible_agency": "Department of Sanitation",
    "final_address": "PAUGER ST & N JOHNSON ST",
    "address_councildis": "D",
    "status": "Pending",
    "rowid": "950817",
    "final_x": "3683608.7",
    "final_y": "539527.28",
    "longitude": "-90.06113109146264",
    "latitude": "29.97744874574606",
    "geocoded_column": {
      "latitude": "29.97744874574606",
      "longitude": "-90.06113109146264"
    }
  },
  {
    "service_request": "2022-950816",
    "request_type": "Traffic Signals/Signs/Striping/Streetlights",
    "request_reason": "Street Light Outage/Malfunction",
    "date_created": "2022-12-07T20:22:15.000",
    "date_modified": "2022-12-07T20:22:16.000",
    "request_status": "Pending",
    "responsible_agency": "Department of Public Works",
    "final_address": "N DERBIGNY ST & TOURO ST",
    "address_councildis": "D",
    "status": "Pending",
    "contractor": "Legacy Professional Services",
    "rowid": "950816",
    "final_x": "3684054.8",
    "final_y": "538450.98",
    "longitude": "-90.05975994297576",
    "latitude": "29.974475670193904",
    "geocoded_column": {
      "latitude": "29.974475670193904",
      "longitude": "-90.05975994297576"
    }
  },
  {
    "service_request": "2022-950815",
    "request_type": "Traffic Signals/Signs/Striping/Streetlights",
    "request_reason": "Street Light Outage/Malfunction",
    "date_created": "2022-12-07T20:21:05.000",
    "date_modified": "2022-12-07T20:21:06.000",
    "request_status": "Pending",
    "responsible_agency": "Department of Public Works",
    "final_address": "TOURO ST & N GALVEZ ST",
    "address_councildis": "D",
    "status": "Pending",
    "contractor": "Legacy Professional Services",
    "rowid": "950815",
    "final_x": "3683936.8",
    "final_y": "539927.48",
    "longitude": "-90.0600807982313",
    "latitude": "29.978539135109536",
    "geocoded_column": {
      "latitude": "29.978539135109536",
      "longitude": "-90.0600807982313"
    }
  },
  {
    "service_request": "2022-950814",
    "request_type": "Traffic Signals/Signs/Striping/Streetlights",
    "request_reason": "Street Light Outage/Malfunction",
    "date_created": "2022-12-07T20:17:33.000",
    "date_modified": "2022-12-07T20:18:25.000",
    "request_status": "Pending",
    "responsible_agency": "Department of Public Works",
    "final_address": "2005 N Galvez St",
    "address_councildis": "D",
    "status": "Pending",
    "contractor": "Legacy Professional Services",
    "rowid": "950814",
    "final_x": "3683650.85097",
    "final_y": "539934.31489",
    "longitude": "-90.06098368991105",
    "latitude": "29.97856666245599",
    "geocoded_column": {
      "latitude": "29.97856666245599",
      "longitude": "-90.06098368991105"
    }
  },
  {
    "service_request": "2022-950813",
    "request_type": "Trash/Recycling",
    "request_reason": "Missed Trash Pick-Up",
    "date_created": "2022-12-07T20:07:55.000",
    "date_modified": "2022-12-07T20:07:56.000",
    "request_status": "Pending",
    "responsible_agency": "Department of Sanitation",
    "final_address": "6466 Avenue B",
    "address_councildis": "A",
    "status": "Assigned to Contractor",
    "contractor": "IV Waste",
    "rowid": "950813",
    "final_x": "3665638.37268",
    "final_y": "551152.180181",
    "longitude": "-90.11749804695698",
    "latitude": "30.009949627390217",
    "geocoded_column": {
      "latitude": "30.009949627390217",
      "longitude": "-90.11749804695698"
    }
  },
  {
    "service_request": "2022-950812",
    "request_type": "Trash/Recycling",
    "request_reason": "MIssed Recycling Pick-Up",
    "date_created": "2022-12-07T19:53:29.000",
    "date_modified": "2022-12-07T19:54:08.000",
    "request_status": "Pending",
    "responsible_agency": "Department of Sanitation",
    "final_address": "1388 Camp St",
    "address_councildis": "B",
    "status": "Assigned to Contractor",
    "contractor": "Richards Disposal",
    "rowid": "950812",
    "final_x": "3680028.4708",
    "final_y": "524661.761788",
    "longitude": "-90.07295508536109",
    "latitude": "29.936682417573795",
    "geocoded_column": {
      "latitude": "29.936682417573795",
      "longitude": "-90.07295508536109"
    }
  },
  {
    "service_request": "2022-950811",
    "request_type": "Trash/Recycling",
    "request_reason": "Replace Trash Cart",
    "date_created": "2022-12-07T19:48:39.000",
    "date_modified": "2022-12-07T19:48:40.000",
    "request_status": "Pending",
    "responsible_agency": "Department of Sanitation",
    "final_address": "1540 Richland Rd",
    "address_councildis": "C",
    "status": "Assigned to Contractor",
    "contractor": "Richards Disposal",
    "rowid": "950811",
    "final_x": "3698037.84522",
    "final_y": "525409.346173",
    "longitude": "-90.01607188146359",
    "latitude": "29.938181032323637",
    "geocoded_column": {
      "latitude": "29.938181032323637",
      "longitude": "-90.01607188146359"
    }
  },
  {
    "service_request": "2022-950810",
    "request_type": "Trash/Recycling",
    "request_reason": "MIssed Recycling Pick-Up",
    "date_created": "2022-12-07T19:48:30.000",
    "date_modified": "2022-12-07T19:48:31.000",
    "request_status": "Pending",
    "responsible_agency": "Department of Sanitation",
    "final_address": "1821 Delachaise St",
    "address_councildis": "B",
    "status": "Assigned to Contractor",
    "contractor": "Richards Disposal",
    "rowid": "950810",
    "final_x": "3673543.1595",
    "final_y": "522281.719546",
    "longitude": "-90.09351084033159",
    "latitude": "29.930332630031966",
    "geocoded_column": {
      "latitude": "29.930332630031966",
      "longitude": "-90.09351084033159"
    }
  },
  {
    "service_request": "2022-950809",
    "request_type": "Trash/Recycling",
    "request_reason": "Order Recycling Cart",
    "date_created": "2022-12-07T19:46:18.000",
    "date_modified": "2022-12-07T19:46:18.000",
    "request_status": "Pending",
    "responsible_agency": "Department of Sanitation",
    "final_address": "5532 Garfield St",
    "address_councildis": "A",
    "status": "Pending",
    "rowid": "950809",
    "final_x": "3666704.77716",
    "final_y": "521139.764409",
    "longitude": "-90.11513695275525",
    "latitude": "29.927394299975422",
    "geocoded_column": {
      "latitude": "29.927394299975422",
      "longitude": "-90.11513695275525"
    }
  },
  {
    "service_request": "2022-950808",
    "request_type": "Trash/Recycling",
    "request_reason": "MIssed Recycling Pick-Up",
    "date_created": "2022-12-07T19:31:29.000",
    "date_modified": "2022-12-07T19:31:30.000",
    "request_status": "Pending",
    "responsible_agency": "Department of Sanitation",
    "final_address": "502 S Scott St",
    "address_councildis": "B",
    "status": "Assigned to Contractor",
    "contractor": "Richards Disposal",
    "rowid": "950808",
    "final_x": "3670824.25217",
    "final_y": "536445.320263",
    "longitude": "-90.10161339303356",
    "latitude": "29.969358496726638",
    "geocoded_column": {
      "latitude": "29.969358496726638",
      "longitude": "-90.10161339303356"
    }
  },
  {
    "service_request": "2022-950807",
    "request_type": "Trash/Recycling",
    "request_reason": "MIssed Recycling Pick-Up",
    "date_created": "2022-12-07T19:30:06.000",
    "date_modified": "2022-12-07T19:30:07.000",
    "request_status": "Pending",
    "responsible_agency": "Department of Sanitation",
    "final_address": "502 S Scott St",
    "address_councildis": "B",
    "status": "Assigned to Contractor",
    "contractor": "Richards Disposal",
    "rowid": "950807",
    "final_x": "3670824.25217",
    "final_y": "536445.320263",
    "longitude": "-90.10161339303356",
    "latitude": "29.969358496726638",
    "geocoded_column": {
      "latitude": "29.969358496726638",
      "longitude": "-90.10161339303356"
    }
  },
  {
    "service_request": "2022-950806",
    "request_type": "Roads/Drainage",
    "request_reason": "Damaged Sidewalk",
    "date_created": "2022-12-07T19:20:52.000",
    "date_modified": "2022-12-07T19:20:52.000",
    "request_status": "Pending",
    "responsible_agency": "Department of Public Works",
    "final_address": "2406 Kerlerec St",
    "address_councildis": "D",
    "status": "Pending",
    "rowid": "950806",
    "final_x": "3679180.93557",
    "final_y": "538649.662409",
    "longitude": "-90.07514588936534",
    "latitude": "29.97517003191912",
    "geocoded_column": {
      "latitude": "29.97517003191912",
      "longitude": "-90.07514588936534"
    }
  },
  {
    "service_request": "2022-950805",
    "request_type": "Trash/Recycling",
    "request_reason": "Missed Trash Pick-Up",
    "date_created": "2022-12-07T19:19:12.000",
    "date_modified": "2022-12-07T19:19:13.000",
    "request_status": "Pending",
    "responsible_agency": "Department of Sanitation",
    "final_address": "4230 Vincennes Pl",
    "address_councildis": "B",
    "status": "Assigned to Contractor",
    "contractor": "Richards Disposal",
    "rowid": "950805",
    "final_x": "3668768.08385",
    "final_y": "531497.844291",
    "longitude": "-90.10827400207368",
    "latitude": "29.955815192032095",
    "geocoded_column": {
      "latitude": "29.955815192032095",
      "longitude": "-90.10827400207368"
    }
  },
  {
    "service_request": "2022-950804",
    "request_type": "Trash/Recycling",
    "request_reason": "MIssed Recycling Pick-Up",
    "date_created": "2022-12-07T19:17:15.000",
    "date_modified": "2022-12-07T19:17:16.000",
    "request_status": "Pending",
    "responsible_agency": "Department of Sanitation",
    "final_address": "502 S Scott St",
    "address_councildis": "B",
    "status": "Assigned to Contractor",
    "contractor": "Richards Disposal",
    "rowid": "950804",
    "final_x": "3670824.25217",
    "final_y": "536445.320263",
    "longitude": "-90.10161339303356",
    "latitude": "29.969358496726638",
    "geocoded_column": {
      "latitude": "29.969358496726638",
      "longitude": "-90.10161339303356"
    }
  },
  {
    "service_request": "2022-950803",
    "request_type": "Trash/Recycling",
    "request_reason": "MIssed Recycling Pick-Up",
    "date_created": "2022-12-07T19:11:44.000",
    "date_modified": "2022-12-07T19:11:45.000",
    "request_status": "Pending",
    "responsible_agency": "Department of Sanitation",
    "final_address": "4024 Constance St",
    "address_councildis": "B",
    "status": "Assigned to Contractor",
    "contractor": "Richards Disposal",
    "rowid": "950803",
    "final_x": "3672339.00116",
    "final_y": "518500.723255",
    "longitude": "-90.09744092892",
    "latitude": "29.91997187242374",
    "geocoded_column": {
      "latitude": "29.91997187242374",
      "longitude": "-90.09744092892"
    }
  },
  {
    "service_request": "2022-950802",
    "request_type": "Trash/Recycling",
    "request_reason": "MIssed Recycling Pick-Up",
    "date_created": "2022-12-07T19:09:52.000",
    "date_modified": "2022-12-07T19:09:53.000",
    "request_status": "Pending",
    "responsible_agency": "Department of Sanitation",
    "final_address": "312 S Genois St",
    "address_councildis": "B",
    "status": "Assigned to Contractor",
    "contractor": "Richards Disposal",
    "rowid": "950802",
    "final_x": "3672061.14561",
    "final_y": "536426.030791",
    "longitude": "-90.09770783487232",
    "latitude": "29.969268839802982",
    "geocoded_column": {
      "latitude": "29.969268839802982",
      "longitude": "-90.09770783487232"
    }
  },
  {
    "service_request": "2022-950801",
    "request_type": "Abandoned Vehicles",
    "request_reason": "Abandoned/Junk Vehicles",
    "date_created": "2022-12-07T19:08:50.000",
    "date_modified": "2022-12-07T19:08:50.000",
    "request_status": "Pending",
    "responsible_agency": "Department of Public Works",
    "final_address": "246 18Th St",
    "address_councildis": "A",
    "status": "Pending",
    "rowid": "950801",
    "final_x": "3665326.82068",
    "final_y": "548662.072211",
    "longitude": "-90.11856576126468",
    "latitude": "30.003111779401518",
    "geocoded_column": {
      "latitude": "30.003111779401518",
      "longitude": "-90.11856576126468"
    }
  },
  {
    "service_request": "2022-950800",
    "request_type": "Trash/Recycling",
    "request_reason": "MIssed Recycling Pick-Up",
    "date_created": "2022-12-07T19:04:58.000",
    "date_modified": "2022-12-07T19:04:59.000",
    "request_status": "Pending",
    "responsible_agency": "Department of Sanitation",
    "final_address": "502 S Scott St",
    "address_councildis": "B",
    "status": "Assigned to Contractor",
    "contractor": "Richards Disposal",
    "rowid": "950800",
    "final_x": "3670824.25217",
    "final_y": "536445.320263",
    "longitude": "-90.10161339303356",
    "latitude": "29.969358496726638",
    "geocoded_column": {
      "latitude": "29.969358496726638",
      "longitude": "-90.10161339303356"
    }
  },
  {
    "service_request": "2022-950799",
    "request_type": "Trash/Recycling",
    "request_reason": "MIssed Recycling Pick-Up",
    "date_created": "2022-12-07T19:03:54.000",
    "date_modified": "2022-12-07T19:03:55.000",
    "request_status": "Pending",
    "responsible_agency": "Department of Sanitation",
    "final_address": "502 S Scott St",
    "address_councildis": "B",
    "status": "Assigned to Contractor",
    "contractor": "Richards Disposal",
    "rowid": "950799",
    "final_x": "3670824.25217",
    "final_y": "536445.320263",
    "longitude": "-90.10161339303356",
    "latitude": "29.969358496726638",
    "geocoded_column": {
      "latitude": "29.969358496726638",
      "longitude": "-90.10161339303356"
    }
  },
  {
    "service_request": "2022-950798",
    "request_type": "Trash/Recycling",
    "request_reason": "MIssed Recycling Pick-Up",
    "date_created": "2022-12-07T19:02:56.000",
    "date_modified": "2022-12-07T19:02:57.000",
    "request_status": "Pending",
    "responsible_agency": "Department of Sanitation",
    "final_address": "502 S Scott St",
    "address_councildis": "B",
    "status": "Assigned to Contractor",
    "contractor": "Richards Disposal",
    "rowid": "950798",
    "final_x": "3670824.25217",
    "final_y": "536445.320263",
    "longitude": "-90.10161339303356",
    "latitude": "29.969358496726638",
    "geocoded_column": {
      "latitude": "29.969358496726638",
      "longitude": "-90.10161339303356"
    }
  },
  {
    "service_request": "2022-950797",
    "request_type": "Trash/Recycling",
    "request_reason": "MIssed Recycling Pick-Up",
    "date_created": "2022-12-07T19:01:48.000",
    "date_modified": "2022-12-07T19:01:49.000",
    "request_status": "Pending",
    "responsible_agency": "Department of Sanitation",
    "final_address": "719 Ninth St",
    "address_councildis": "B",
    "status": "Assigned to Contractor",
    "contractor": "Richards Disposal",
    "rowid": "950797",
    "final_x": "3676638.94773",
    "final_y": "518953.604919",
    "longitude": "-90.0838524787258",
    "latitude": "29.92108892410324",
    "geocoded_column": {
      "latitude": "29.92108892410324",
      "longitude": "-90.0838524787258"
    }
  },
  {
    "service_request": "2022-950796",
    "request_type": "Trash/Recycling",
    "request_reason": "MIssed Recycling Pick-Up",
    "date_created": "2022-12-07T19:01:28.000",
    "date_modified": "2022-12-07T19:01:29.000",
    "request_status": "Pending",
    "responsible_agency": "Department of Sanitation",
    "final_address": "3717 Gentilly Blvd",
    "address_councildis": "D",
    "status": "Assigned to Contractor",
    "contractor": "IV Waste",
    "rowid": "950796",
    "final_x": "3687102.84822",
    "final_y": "548973.525587",
    "longitude": "-90.04976122380779",
    "latitude": "30.00331540745377",
    "geocoded_column": {
      "latitude": "30.00331540745377",
      "longitude": "-90.04976122380779"
    }
  },
  {
    "service_request": "2022-950795",
    "request_type": "Trash/Recycling",
    "request_reason": "MIssed Recycling Pick-Up",
    "date_created": "2022-12-07T19:01:17.000",
    "date_modified": "2022-12-07T19:01:18.000",
    "request_status": "Pending",
    "responsible_agency": "Department of Sanitation",
    "final_address": "502 S Scott St",
    "address_councildis": "B",
    "status": "Assigned to Contractor",
    "contractor": "Richards Disposal",
    "rowid": "950795",
    "final_x": "3670824.25217",
    "final_y": "536445.320263",
    "longitude": "-90.10161339303356",
    "latitude": "29.969358496726638",
    "geocoded_column": {
      "latitude": "29.969358496726638",
      "longitude": "-90.10161339303356"
    }
  },
  {
    "service_request": "2022-950794",
    "request_type": "Abandoned Vehicles",
    "request_reason": "Abandoned/Junk Vehicles",
    "date_created": "2022-12-07T19:00:42.000",
    "date_modified": "2022-12-07T19:00:42.000",
    "request_status": "Pending",
    "responsible_agency": "Department of Public Works",
    "final_address": "1709 Lafitte Ave",
    "address_councildis": "D",
    "status": "Pending",
    "rowid": "950794",
    "final_x": "3679437.0205",
    "final_y": "534522.247877",
    "longitude": "-90.07448031723492",
    "latitude": "29.963813322532527",
    "geocoded_column": {
      "latitude": "29.963813322532527",
      "longitude": "-90.07448031723492"
    }
  },
  {
    "service_request": "2022-950793",
    "request_type": "Trash/Recycling",
    "request_reason": "Missed Trash Pick-Up",
    "date_created": "2022-12-07T18:59:45.000",
    "date_modified": "2022-12-07T18:59:46.000",
    "request_status": "Pending",
    "responsible_agency": "Department of Sanitation",
    "final_address": "4916 Baronne St",
    "address_councildis": "B",
    "status": "Assigned to Contractor",
    "contractor": "Richards Disposal",
    "rowid": "950793",
    "final_x": "3668936.39834",
    "final_y": "521391.117817",
    "longitude": "-90.10808377428931",
    "latitude": "29.92802001600356",
    "geocoded_column": {
      "latitude": "29.92802001600356",
      "longitude": "-90.10808377428931"
    }
  },
  {
    "service_request": "2022-950792",
    "request_type": "Abandoned Vehicles",
    "request_reason": "Abandoned/Junk Vehicles",
    "date_created": "2022-12-07T18:56:31.000",
    "date_modified": "2022-12-07T18:56:31.000",
    "request_status": "Pending",
    "responsible_agency": "Department of Public Works",
    "final_address": "1709 Lafitte Ave",
    "address_councildis": "D",
    "status": "Pending",
    "rowid": "950792",
    "final_x": "3679437.0205",
    "final_y": "534522.247877",
    "longitude": "-90.07448031723492",
    "latitude": "29.963813322532527",
    "geocoded_column": {
      "latitude": "29.963813322532527",
      "longitude": "-90.07448031723492"
    }
  },
  {
    "service_request": "2022-950791",
    "request_type": "Trash/Recycling",
    "request_reason": "MIssed Recycling Pick-Up",
    "date_created": "2022-12-07T18:48:49.000",
    "date_modified": "2022-12-07T18:48:50.000",
    "request_status": "Pending",
    "responsible_agency": "Department of Sanitation",
    "final_address": "1107 Napoleon Ave",
    "address_councildis": "B",
    "status": "Assigned to Contractor",
    "contractor": "Richards Disposal",
    "rowid": "950791",
    "final_x": "3671051.84206",
    "final_y": "519633.057976",
    "longitude": "-90.10146545166515",
    "latitude": "29.9231235443977",
    "geocoded_column": {
      "latitude": "29.9231235443977",
      "longitude": "-90.10146545166515"
    }
  },
  {
    "service_request": "2022-950790",
    "request_type": "Trash/Recycling",
    "request_reason": "Missed Trash Pick-Up",
    "date_created": "2022-12-07T18:46:34.000",
    "date_modified": "2022-12-07T18:46:34.000",
    "request_status": "Pending",
    "responsible_agency": "Department of Sanitation",
    "final_address": "7910 Alabama St",
    "address_councildis": "D",
    "status": "Assigned to Contractor",
    "contractor": "Waste Pro",
    "rowid": "950790",
    "final_x": "3694566.07267",
    "final_y": "559362.853981",
    "longitude": "-90.02580933622197",
    "latitude": "30.031650168884997",
    "geocoded_column": {
      "latitude": "30.031650168884997",
      "longitude": "-90.02580933622197"
    }
  },
  {
    "service_request": "2022-950789",
    "request_type": "Abandoned Vehicles",
    "request_reason": "Abandoned/Junk Vehicles",
    "date_created": "2022-12-07T18:45:33.000",
    "date_modified": "2022-12-07T18:45:34.000",
    "request_status": "Pending",
    "responsible_agency": "Department of Public Works",
    "final_address": "2600 BLK Palmyra St",
    "address_councildis": "B",
    "status": "Pending",
    "rowid": "950789",
    "final_x": "3675110.20092",
    "final_y": "534288.004046",
    "longitude": "-90.0881520496087",
    "latitude": "29.963299228514085",
    "geocoded_column": {
      "latitude": "29.963299228514085",
      "longitude": "-90.0881520496087"
    }
  },
  {
    "service_request": "2022-950788",
    "request_type": "Property Maintenance",
    "request_reason": "Property Maintenance",
    "date_created": "2022-12-07T18:39:38.000",
    "date_modified": "2022-12-07T18:39:38.000",
    "request_status": "Pending",
    "responsible_agency": "Department of Code Enforcement",
    "final_address": "5501 Edenboro Rd",
    "address_councildis": "E",
    "status": "Pending",
    "rowid": "950788",
    "final_x": "3708222.78052",
    "final_y": "558086.456859",
    "longitude": "-89.98270137350146",
    "latitude": "30.027705012642564",
    "geocoded_column": {
      "latitude": "30.027705012642564",
      "longitude": "-89.98270137350146"
    }
  },
  {
    "service_request": "2022-950787",
    "request_type": "Abandoned Vehicles",
    "request_reason": "Abandoned/Junk Vehicles",
    "date_created": "2022-12-07T18:37:20.000",
    "date_modified": "2022-12-07T18:37:20.000",
    "request_status": "Pending",
    "responsible_agency": "Department of Public Works",
    "final_address": "1915 Philip St",
    "address_councildis": "B",
    "status": "Pending",
    "rowid": "950787",
    "final_x": "3676400.06331",
    "final_y": "524518.256188",
    "longitude": "-90.08441507795172",
    "latitude": "29.93639706763835",
    "geocoded_column": {
      "latitude": "29.93639706763835",
      "longitude": "-90.08441507795172"
    }
  },
  {
    "service_request": "2022-950786",
    "request_type": "Trash/Recycling",
    "request_reason": "Missed Trash Pick-Up",
    "date_created": "2022-12-07T18:36:48.000",
    "date_modified": "2022-12-07T18:36:49.000",
    "request_status": "Pending",
    "responsible_agency": "Department of Sanitation",
    "final_address": "12930 Jeanne Ct",
    "address_councildis": "E",
    "status": "Assigned to Contractor",
    "contractor": "Waste Pro",
    "rowid": "950786",
    "final_x": "3716670.82508",
    "final_y": "568059.652517",
    "longitude": "-89.95562757788927",
    "latitude": "30.05485074222983",
    "geocoded_column": {
      "latitude": "30.05485074222983",
      "longitude": "-89.95562757788927"
    }
  },
  {
    "service_request": "2022-950785",
    "request_type": "Trash/Recycling",
    "request_reason": "Order Trash Cart",
    "date_created": "2022-12-07T18:36:36.000",
    "date_modified": "2022-12-07T18:36:37.000",
    "request_status": "Pending",
    "responsible_agency": "Department of Sanitation",
    "final_address": "14050 Kingswood Dr",
    "address_councildis": "E",
    "status": "Assigned to Contractor",
    "contractor": "Waste Pro",
    "rowid": "950785",
    "final_x": "3719552.09394",
    "final_y": "568577.908581",
    "longitude": "-89.94650079235394",
    "latitude": "30.056180161634703",
    "geocoded_column": {
      "latitude": "30.056180161634703",
      "longitude": "-89.94650079235394"
    }
  },
  {
    "service_request": "2022-950784",
    "request_type": "Trash/Recycling",
    "request_reason": "Missed Trash Pick-Up",
    "date_created": "2022-12-07T18:35:17.000",
    "date_modified": "2022-12-07T18:35:18.000",
    "request_status": "Pending",
    "responsible_agency": "Department of Sanitation",
    "final_address": "7904 Birch St",
    "address_councildis": "A",
    "status": "Assigned to Contractor",
    "contractor": "Richards Disposal",
    "rowid": "950784",
    "final_x": "3663425.44275",
    "final_y": "528884.306048",
    "longitude": "-90.12523128271538",
    "latitude": "29.94878478609542",
    "geocoded_column": {
      "latitude": "29.94878478609542",
      "longitude": "-90.12523128271538"
    }
  },
  {
    "service_request": "2022-950783",
    "request_type": "Traffic Signals/Signs/Striping/Streetlights",
    "request_reason": "Street Light Outage/Malfunction",
    "date_created": "2022-12-07T18:34:58.000",
    "date_modified": "2022-12-07T18:34:59.000",
    "request_status": "Pending",
    "responsible_agency": "Department of Public Works",
    "final_address": "1468 Calhoun St",
    "address_councildis": "A",
    "status": "Pending",
    "contractor": "Legacy Professional Services",
    "rowid": "950783",
    "final_x": "3664397.67629",
    "final_y": "522142.380538",
    "longitude": "-90.12238647921444",
    "latitude": "29.93021842043449",
    "geocoded_column": {
      "latitude": "29.93021842043449",
      "longitude": "-90.12238647921444"
    }
  },
  {
    "service_request": "2022-950782",
    "request_type": "Trash/Recycling",
    "request_reason": "Order Recycling Cart",
    "date_created": "2022-12-07T18:34:36.000",
    "date_modified": "2022-12-07T18:34:36.000",
    "request_status": "Pending",
    "responsible_agency": "Department of Sanitation",
    "final_address": "14050 Kingswood Dr",
    "address_councildis": "E",
    "status": "Pending",
    "rowid": "950782",
    "final_x": "3719552.09394",
    "final_y": "568577.908581",
    "longitude": "-89.94650079235394",
    "latitude": "30.056180161634703",
    "geocoded_column": {
      "latitude": "30.056180161634703",
      "longitude": "-89.94650079235394"
    }
  },
  {
    "service_request": "2022-950781",
    "request_type": "Trash/Recycling",
    "request_reason": "Request a Large Item Pick Up",
    "date_created": "2022-12-07T18:28:18.000",
    "date_modified": "2022-12-07T18:28:19.000",
    "request_status": "Pending",
    "responsible_agency": "Department of Sanitation",
    "final_address": "2134 Annette St, New Orleans, Louisiana, 70119",
    "address_councildis": "D",
    "status": "Assigned to Contractor",
    "contractor": "IV Waste",
    "rowid": "950781",
    "final_x": "3682784.43176",
    "final_y": "540120.646731",
    "longitude": "-90.0637136386477",
    "latitude": "29.979105435288606",
    "geocoded_column": {
      "latitude": "29.979105435288606",
      "longitude": "-90.0637136386477"
    }
  },
  {
    "service_request": "2022-950780",
    "request_type": "Trash/Recycling",
    "request_reason": "Missed Trash Pick-Up",
    "date_created": "2022-12-07T18:28:09.000",
    "date_modified": "2022-12-07T18:28:09.000",
    "request_status": "Pending",
    "responsible_agency": "Department of Sanitation",
    "final_address": "237 Adams St",
    "address_councildis": "A",
    "status": "Assigned to Contractor",
    "contractor": "Richards Disposal",
    "rowid": "950780",
    "final_x": "3660917.43552",
    "final_y": "524980.091837",
    "longitude": "-90.13327928222685",
    "latitude": "29.938121908461333",
    "geocoded_column": {
      "latitude": "29.938121908461333",
      "longitude": "-90.13327928222685"
    }
  },
  {
    "service_request": "2022-950779",
    "request_type": "Trash/Recycling",
    "request_reason": "Replace Trash Cart",
    "date_created": "2022-12-07T18:27:35.000",
    "date_modified": "2022-12-07T18:27:36.000",
    "request_status": "Pending",
    "responsible_agency": "Department of Sanitation",
    "final_address": "1240 Carondelet St",
    "address_councildis": "B",
    "status": "Assigned to Contractor",
    "contractor": "Richards Disposal",
    "rowid": "950779",
    "final_x": "3679183.07055",
    "final_y": "526306.219262",
    "longitude": "-90.07556706433624",
    "latitude": "29.941229673700775",
    "geocoded_column": {
      "latitude": "29.941229673700775",
      "longitude": "-90.07556706433624"
    }
  },
  {
    "service_request": "2022-950778",
    "request_type": "Trash/Recycling",
    "request_reason": "MIssed Recycling Pick-Up",
    "date_created": "2022-12-07T18:16:54.000",
    "date_modified": "2022-12-07T18:16:55.000",
    "request_status": "Pending",
    "responsible_agency": "Department of Sanitation",
    "final_address": "1413 St Mary St, New Orleans, Louisiana, 70130",
    "status": "Assigned to Contractor",
    "rowid": "950778",
    "longitude": "0.0",
    "latitude": "0.0",
    "geocoded_column": {
      "latitude": "0.0",
      "longitude": "0.0"
    }
  },
  {
    "service_request": "2022-950777",
    "request_type": "Trash/Recycling",
    "request_reason": "MIssed Recycling Pick-Up",
    "date_created": "2022-12-07T18:14:02.000",
    "date_modified": "2022-12-07T18:14:03.000",
    "request_status": "Pending",
    "responsible_agency": "Department of Sanitation",
    "final_address": "1410 Thalia St",
    "address_councildis": "B",
    "status": "Assigned to Contractor",
    "contractor": "Richards Disposal",
    "rowid": "950777",
    "final_x": "3679969.49877",
    "final_y": "525375.765245",
    "longitude": "-90.0731164711927",
    "latitude": "29.938647474163314",
    "geocoded_column": {
      "latitude": "29.938647474163314",
      "longitude": "-90.0731164711927"
    }
  },
  {
    "service_request": "2022-950776",
    "request_type": "Trash/Recycling",
    "request_reason": "MIssed Recycling Pick-Up",
    "date_created": "2022-12-07T18:11:36.000",
    "date_modified": "2022-12-07T18:11:37.000",
    "request_status": "Pending",
    "responsible_agency": "Department of Sanitation",
    "final_address": "1620 Fourth St",
    "address_councildis": "B",
    "status": "Assigned to Contractor",
    "contractor": "Richards Disposal",
    "rowid": "950776",
    "final_x": "3676043.77665",
    "final_y": "522866.967739",
    "longitude": "-90.08559665644712",
    "latitude": "29.931867236838222",
    "geocoded_column": {
      "latitude": "29.931867236838222",
      "longitude": "-90.08559665644712"
    }
  },
  {
    "service_request": "2022-950775",
    "request_type": "Trash/Recycling",
    "request_reason": "MIssed Recycling Pick-Up",
    "date_created": "2022-12-07T18:02:16.000",
    "date_modified": "2022-12-07T18:02:17.000",
    "request_status": "Pending",
    "responsible_agency": "Department of Sanitation",
    "final_address": "1620 Fourth St",
    "address_councildis": "B",
    "status": "Assigned to Contractor",
    "contractor": "Richards Disposal",
    "rowid": "950775",
    "final_x": "3676043.77665",
    "final_y": "522866.967739",
    "longitude": "-90.08559665644712",
    "latitude": "29.931867236838222",
    "geocoded_column": {
      "latitude": "29.931867236838222",
      "longitude": "-90.08559665644712"
    }
  },
  {
    "service_request": "2022-950774",
    "request_type": "Trash/Recycling",
    "request_reason": "Order Recycling Cart",
    "date_created": "2022-12-07T17:53:52.000",
    "date_modified": "2022-12-07T17:53:52.000",
    "request_status": "Pending",
    "responsible_agency": "Department of Sanitation",
    "final_address": "8009 Wales St",
    "address_councildis": "E",
    "status": "Pending",
    "rowid": "950774",
    "final_x": "3701863.09591",
    "final_y": "562226.702431",
    "longitude": "-90.00264543267566",
    "latitude": "30.039293664515522",
    "geocoded_column": {
      "latitude": "30.039293664515522",
      "longitude": "-90.00264543267566"
    }
  },
  {
    "service_request": "2022-950773",
    "request_type": "Trash/Recycling",
    "request_reason": "Missed Trash Pick-Up",
    "date_created": "2022-12-07T17:53:43.000",
    "date_modified": "2022-12-07T17:53:44.000",
    "request_status": "Pending",
    "responsible_agency": "Department of Sanitation",
    "final_address": "429 Lowerline St",
    "address_councildis": "A",
    "status": "Assigned to Contractor",
    "contractor": "Richards Disposal",
    "rowid": "950773",
    "final_x": "3661910.91411",
    "final_y": "524107.527932",
    "longitude": "-90.13017169033658",
    "latitude": "29.93569398625973",
    "geocoded_column": {
      "latitude": "29.93569398625973",
      "longitude": "-90.13017169033658"
    }
  },
  {
    "service_request": "2022-950772",
    "request_type": "Trash/Recycling",
    "request_reason": "MIssed Recycling Pick-Up",
    "date_created": "2022-12-07T17:52:53.000",
    "date_modified": "2022-12-07T17:52:54.000",
    "request_status": "Pending",
    "responsible_agency": "Department of Sanitation",
    "final_address": "1218 St Mary St",
    "address_councildis": "B",
    "status": "Assigned to Contractor",
    "contractor": "Richards Disposal",
    "rowid": "950772",
    "final_x": "3679346.67362",
    "final_y": "523214.533499",
    "longitude": "-90.07515771841543",
    "latitude": "29.932723620166904",
    "geocoded_column": {
      "latitude": "29.932723620166904",
      "longitude": "-90.07515771841543"
    }
  },
  {
    "service_request": "2022-950771",
    "request_type": "Trash/Recycling",
    "request_reason": "Missed Trash Pick-Up",
    "date_created": "2022-12-07T17:52:35.000",
    "date_modified": "2022-12-07T17:52:36.000",
    "request_status": "Pending",
    "responsible_agency": "Department of Sanitation",
    "final_address": "4724 Marigny St",
    "address_councildis": "D",
    "status": "Assigned to Contractor",
    "contractor": "IV Waste",
    "rowid": "950771",
    "final_x": "3684330.85487",
    "final_y": "550294.935764",
    "longitude": "-90.05847191728496",
    "latitude": "30.007033898044526",
    "geocoded_column": {
      "latitude": "30.007033898044526",
      "longitude": "-90.05847191728496"
    }
  },
  {
    "service_request": "2022-950770",
    "request_type": "Trash/Recycling",
    "request_reason": "Request a Large Item Pick Up",
    "date_created": "2022-12-07T17:49:57.000",
    "date_modified": "2022-12-07T17:49:58.000",
    "request_status": "Pending",
    "responsible_agency": "Department of Sanitation",
    "final_address": "3410 Robert St",
    "address_councildis": "B",
    "status": "Assigned to Contractor",
    "contractor": "Richards Disposal",
    "rowid": "950770",
    "final_x": "3668897.17031",
    "final_y": "527386.502527",
    "longitude": "-90.10800521869379",
    "latitude": "29.944506549776687",
    "geocoded_column": {
      "latitude": "29.944506549776687",
      "longitude": "-90.10800521869379"
    }
  },
  {
    "service_request": "2022-950769",
    "request_type": "Trash/Recycling",
    "request_reason": "MIssed Recycling Pick-Up",
    "date_created": "2022-12-07T17:48:40.000",
    "date_modified": "2022-12-07T17:48:41.000",
    "request_status": "Pending",
    "responsible_agency": "Department of Sanitation",
    "final_address": "4023 Constance St",
    "address_councildis": "B",
    "status": "Assigned to Contractor",
    "contractor": "Richards Disposal",
    "rowid": "950769",
    "final_x": "3672366.09415",
    "final_y": "518582.256823",
    "longitude": "-90.09735263319833",
    "latitude": "29.920195260223256",
    "geocoded_column": {
      "latitude": "29.920195260223256",
      "longitude": "-90.09735263319833"
    }
  },
  {
    "service_request": "2022-950768",
    "request_type": "Trash/Recycling",
    "request_reason": "Request a Large Item Pick Up",
    "date_created": "2022-12-07T17:45:48.000",
    "date_modified": "2022-12-07T17:45:49.000",
    "request_status": "Pending",
    "responsible_agency": "Department of Sanitation",
    "final_address": "1924 N Tonti St Apt E",
    "address_councildis": "D",
    "status": "Assigned to Contractor",
    "contractor": "IV Waste",
    "rowid": "950768",
    "final_x": "3682317.22031",
    "final_y": "540406.425675",
    "longitude": "-90.06517928238594",
    "latitude": "29.97990545376859",
    "geocoded_column": {
      "latitude": "29.97990545376859",
      "longitude": "-90.06517928238594"
    }
  },
  {
    "service_request": "2022-950767",
    "request_type": "Abandoned Vehicles",
    "request_reason": "Abandoned/Junk Vehicles",
    "date_created": "2022-12-07T17:44:15.000",
    "date_modified": "2022-12-07T17:44:15.000",
    "request_status": "Pending",
    "responsible_agency": "Department of Public Works",
    "final_address": "7801 Jahncke Rd",
    "address_councildis": "E",
    "status": "Pending",
    "rowid": "950767",
    "final_x": "3713823.77368",
    "final_y": "568844.480357",
    "longitude": "-89.96459676950148",
    "latitude": "30.057102513223278",
    "geocoded_column": {
      "latitude": "30.057102513223278",
      "longitude": "-89.96459676950148"
    }
  },
  {
    "service_request": "2022-950766",
    "request_type": "Trash/Recycling",
    "request_reason": "MIssed Recycling Pick-Up",
    "date_created": "2022-12-07T17:40:41.000",
    "date_modified": "2022-12-07T17:40:42.000",
    "request_status": "Pending",
    "responsible_agency": "Department of Sanitation",
    "final_address": "700 N Gayoso St",
    "address_councildis": "A",
    "status": "Assigned to Contractor",
    "contractor": "Richards Disposal",
    "rowid": "950766",
    "final_x": "3675716.57544",
    "final_y": "537619.758152",
    "longitude": "-90.08612266445469",
    "latitude": "29.972442289874373",
    "geocoded_column": {
      "latitude": "29.972442289874373",
      "longitude": "-90.08612266445469"
    }
  },
  {
    "service_request": "2022-950765",
    "request_type": "Abandoned Vehicles",
    "request_reason": "Abandoned/Junk Vehicles",
    "date_created": "2022-12-07T17:40:05.000",
    "date_modified": "2022-12-07T17:40:06.000",
    "request_status": "Pending",
    "responsible_agency": "Department of Public Works",
    "final_address": "2800 BLK N Rocheblave St",
    "address_councildis": "D",
    "status": "Pending",
    "rowid": "950765",
    "final_x": "3688074.23799",
    "final_y": "541368.883257",
    "longitude": "-90.04696216891287",
    "latitude": "29.98237541918475",
    "geocoded_column": {
      "latitude": "29.98237541918475",
      "longitude": "-90.04696216891287"
    }
  },
  {
    "service_request": "2022-950763",
    "request_type": "Mosquito, Termite & Rodent Control",
    "request_reason": "Non-Rodent Complaint (Mice, Possums, Snakes)",
    "date_created": "2022-12-07T17:37:48.000",
    "date_modified": "2022-12-07T17:37:48.000",
    "request_status": "Pending",
    "responsible_agency": "Mosquito, Termite & Rodent Control Board",
    "final_address": "3143 Yupon St",
    "address_councildis": "D",
    "status": "Pending",
    "rowid": "950763",
    "final_x": "3675637.86293",
    "final_y": "544055.971086",
    "longitude": "-90.0861500079001",
    "latitude": "29.99014201445666",
    "geocoded_column": {
      "latitude": "29.99014201445666",
      "longitude": "-90.0861500079001"
    }
  },
  {
    "service_request": "2022-950762",
    "request_type": "Trash/Recycling",
    "request_reason": "Missed Trash Pick-Up",
    "date_created": "2022-12-07T17:37:10.000",
    "date_modified": "2022-12-07T17:37:11.000",
    "request_status": "Pending",
    "responsible_agency": "Department of Sanitation",
    "final_address": "2119 Short St",
    "address_councildis": "A",
    "status": "Assigned to Contractor",
    "contractor": "Richards Disposal",
    "rowid": "950762",
    "final_x": "3664561.2418",
    "final_y": "530497.321602",
    "longitude": "-90.12159120485326",
    "latitude": "29.953187080508314",
    "geocoded_column": {
      "latitude": "29.953187080508314",
      "longitude": "-90.12159120485326"
    }
  },
  {
    "service_request": "2022-950761",
    "request_type": "Trash/Recycling",
    "request_reason": "MIssed Recycling Pick-Up",
    "date_created": "2022-12-07T17:34:09.000",
    "date_modified": "2022-12-07T17:34:09.000",
    "request_status": "Pending",
    "responsible_agency": "Department of Sanitation",
    "final_address": "1421 General Pershing St",
    "address_councildis": "B",
    "status": "Assigned to Contractor",
    "contractor": "Richards Disposal",
    "rowid": "950761",
    "final_x": "3671361.78433",
    "final_y": "520550.771576",
    "longitude": "-90.10045591150714",
    "latitude": "29.925637797976027",
    "geocoded_column": {
      "latitude": "29.925637797976027",
      "longitude": "-90.10045591150714"
    }
  },
  {
    "service_request": "2022-950760",
    "request_type": "Trash/Recycling",
    "request_reason": "Order Recycling Cart",
    "date_created": "2022-12-07T17:32:02.000",
    "date_modified": "2022-12-07T17:32:02.000",
    "request_status": "Pending",
    "responsible_agency": "Department of Sanitation",
    "final_address": "2526 Chartres St",
    "address_councildis": "C",
    "status": "Pending",
    "rowid": "950760",
    "final_x": "3686511.5421",
    "final_y": "534588.246341",
    "longitude": "-90.05213738286753",
    "latitude": "29.963779188174605",
    "geocoded_column": {
      "latitude": "29.963779188174605",
      "longitude": "-90.05213738286753"
    }
  },
  {
    "service_request": "2022-950759",
    "request_type": "Trash/Recycling",
    "request_reason": "Missed Trash Pick-Up",
    "date_created": "2022-12-07T17:31:46.000",
    "date_modified": "2022-12-07T17:31:46.000",
    "request_status": "Pending",
    "responsible_agency": "Department of Sanitation",
    "final_address": "2126 Seventh St",
    "address_councildis": "B",
    "status": "Assigned to Contractor",
    "contractor": "Richards Disposal",
    "rowid": "950759",
    "final_x": "3674107.4235",
    "final_y": "523751.260987",
    "longitude": "-90.09167927391977",
    "latitude": "29.934356592358267",
    "geocoded_column": {
      "latitude": "29.934356592358267",
      "longitude": "-90.09167927391977"
    }
  },
  {
    "service_request": "2022-950758",
    "request_type": "Health Related Request",
    "request_reason": "Noise Ordinance Complaint",
    "date_created": "2022-12-07T17:24:59.000",
    "date_modified": "2022-12-07T17:24:59.000",
    "request_status": "Pending",
    "responsible_agency": "Health Department",
    "final_address": "1129 Burgundy St",
    "address_councildis": "C",
    "status": "Pending",
    "rowid": "950758",
    "final_x": "3682698.86965",
    "final_y": "534490.682501",
    "longitude": "-90.06418082868214",
    "latitude": "29.96362758974944",
    "geocoded_column": {
      "latitude": "29.96362758974944",
      "longitude": "-90.06418082868214"
    }
  },
  {
    "service_request": "2022-950757",
    "request_type": "Trash/Recycling",
    "request_reason": "MIssed Recycling Pick-Up",
    "date_created": "2022-12-07T17:24:34.000",
    "date_modified": "2022-12-07T17:24:35.000",
    "request_status": "Pending",
    "responsible_agency": "Department of Sanitation",
    "final_address": "3114 General Taylor St",
    "address_councildis": "B",
    "status": "Assigned to Contractor",
    "contractor": "Richards Disposal",
    "rowid": "950757",
    "final_x": "3671306.10459",
    "final_y": "526487.037374",
    "longitude": "-90.10043004773328",
    "latitude": "29.941962261328804",
    "geocoded_column": {
      "latitude": "29.941962261328804",
      "longitude": "-90.10043004773328"
    }
  },
  {
    "service_request": "2022-950756",
    "request_type": "Trash/Recycling",
    "request_reason": "Repair Trash Cart",
    "date_created": "2022-12-07T17:23:15.000",
    "date_modified": "2022-12-07T17:25:14.000",
    "request_status": "Pending",
    "responsible_agency": "Department of Sanitation",
    "final_address": "4901 Perelli Dr",
    "address_councildis": "E",
    "status": "Assigned to Contractor",
    "contractor": "Waste Pro",
    "rowid": "950756",
    "final_x": "3711706.26565",
    "final_y": "556970.295194",
    "longitude": "-89.97173584072611",
    "latitude": "30.024522646685334",
    "geocoded_column": {
      "latitude": "30.024522646685334",
      "longitude": "-89.97173584072611"
    }
  },
  {
    "service_request": "2022-950755",
    "request_type": "Trash/Recycling",
    "request_reason": "Missed Trash Pick-Up",
    "date_created": "2022-12-07T17:21:06.000",
    "date_modified": "2022-12-07T17:21:07.000",
    "request_status": "Pending",
    "responsible_agency": "Department of Sanitation",
    "final_address": "738 St Ferdinand St",
    "address_councildis": "C",
    "status": "Assigned to Contractor",
    "contractor": "IV Waste",
    "rowid": "950755",
    "final_x": "3687380.12086",
    "final_y": "535139.019334",
    "longitude": "-90.04937501373945",
    "latitude": "29.96526688973412",
    "geocoded_column": {
      "latitude": "29.96526688973412",
      "longitude": "-90.04937501373945"
    }
  },
  {
    "service_request": "2022-950754",
    "request_type": "Abandoned Vehicles",
    "request_reason": "Abandoned/Junk Vehicles",
    "date_created": "2022-12-07T17:17:44.000",
    "date_modified": "2022-12-07T17:17:44.000",
    "request_status": "Pending",
    "responsible_agency": "Department of Public Works",
    "final_address": "2721 Carondelet St",
    "address_councildis": "B",
    "status": "Pending",
    "rowid": "950754",
    "final_x": "3675797.50497",
    "final_y": "522965.478075",
    "longitude": "-90.08637072613497",
    "latitude": "29.932145479741017",
    "geocoded_column": {
      "latitude": "29.932145479741017",
      "longitude": "-90.08637072613497"
    }
  },
  {
    "service_request": "2022-950753",
    "request_type": "Trash/Recycling",
    "request_reason": "MIssed Recycling Pick-Up",
    "date_created": "2022-12-07T17:14:55.000",
    "date_modified": "2022-12-07T17:14:56.000",
    "request_status": "Pending",
    "responsible_agency": "Department of Sanitation",
    "final_address": "620 Soraparu St",
    "address_councildis": "B",
    "status": "Assigned to Contractor",
    "contractor": "Richards Disposal",
    "rowid": "950753",
    "final_x": "3679239.42933",
    "final_y": "520277.98508",
    "longitude": "-90.0755980373529",
    "latitude": "29.924652310462665",
    "geocoded_column": {
      "latitude": "29.924652310462665",
      "longitude": "-90.0755980373529"
    }
  },
  {
    "service_request": "2022-950752",
    "request_type": "Trash/Recycling",
    "request_reason": "MIssed Recycling Pick-Up",
    "date_created": "2022-12-07T17:10:25.000",
    "date_modified": "2022-12-07T17:10:25.000",
    "request_status": "Pending",
    "responsible_agency": "Department of Sanitation",
    "final_address": "4300 S Dorgenois St, New Orleans, Louisiana, 70125",
    "address_councildis": "B",
    "status": "Assigned to Contractor",
    "contractor": "Richards Disposal",
    "rowid": "950752",
    "final_x": "3670402.91687",
    "final_y": "528799.334912",
    "longitude": "-90.10320323561777",
    "latitude": "29.948347016477204",
    "geocoded_column": {
      "latitude": "29.948347016477204",
      "longitude": "-90.10320323561777"
    }
  },
  {
    "service_request": "2022-950751",
    "request_type": "Trash/Recycling",
    "request_reason": "MIssed Recycling Pick-Up",
    "date_created": "2022-12-07T17:09:17.000",
    "date_modified": "2022-12-07T17:09:18.000",
    "request_status": "Pending",
    "responsible_agency": "Department of Sanitation",
    "final_address": "2015 Sixth St",
    "address_councildis": "B",
    "status": "Assigned to Contractor",
    "contractor": "Richards Disposal",
    "rowid": "950751",
    "final_x": "3674655.1611",
    "final_y": "523585.780283",
    "longitude": "-90.08995574861271",
    "latitude": "29.933885242539358",
    "geocoded_column": {
      "latitude": "29.933885242539358",
      "longitude": "-90.08995574861271"
    }
  },
  {
    "service_request": "2022-950750",
    "request_type": "Trash/Recycling",
    "request_reason": "Missed Trash Pick-Up",
    "date_created": "2022-12-07T17:09:01.000",
    "date_modified": "2022-12-07T17:09:02.000",
    "request_status": "Pending",
    "responsible_agency": "Department of Sanitation",
    "final_address": "208 Hillary St",
    "address_councildis": "A",
    "status": "Assigned to Contractor",
    "contractor": "Richards Disposal",
    "rowid": "950750",
    "final_x": "3660791.92806",
    "final_y": "524467.190908",
    "longitude": "-90.13369247583448",
    "latitude": "29.936715206414828",
    "geocoded_column": {
      "latitude": "29.936715206414828",
      "longitude": "-90.13369247583448"
    }
  },
  {
    "service_request": "2022-950749",
    "request_type": "Trash/Recycling",
    "request_reason": "MIssed Recycling Pick-Up",
    "date_created": "2022-12-07T17:08:08.000",
    "date_modified": "2022-12-07T17:08:09.000",
    "request_status": "Pending",
    "responsible_agency": "Department of Sanitation",
    "final_address": "3660 Laurel St",
    "address_councildis": "B",
    "status": "Assigned to Contractor",
    "contractor": "Richards Disposal",
    "rowid": "950749",
    "final_x": "3673914.16091",
    "final_y": "518399.04415",
    "longitude": "-90.09247237927659",
    "latitude": "29.91964547771596",
    "geocoded_column": {
      "latitude": "29.91964547771596",
      "longitude": "-90.09247237927659"
    }
  },
  {
    "service_request": "2022-950748",
    "request_type": "Trash/Recycling",
    "request_reason": "MIssed Recycling Pick-Up",
    "date_created": "2022-12-07T17:05:49.000",
    "date_modified": "2022-12-07T17:05:50.000",
    "request_status": "Pending",
    "responsible_agency": "Department of Sanitation",
    "final_address": "3401 General Taylor St",
    "address_councildis": "B",
    "status": "Assigned to Contractor",
    "contractor": "Richards Disposal",
    "rowid": "950748",
    "final_x": "3671199.26164",
    "final_y": "527358.308031",
    "longitude": "-90.10073778377108",
    "latitude": "29.94436113229455",
    "geocoded_column": {
      "latitude": "29.94436113229455",
      "longitude": "-90.10073778377108"
    }
  },
  {
    "service_request": "2022-950747",
    "request_type": "Trash/Recycling",
    "request_reason": "Request a Large Item Pick Up",
    "date_created": "2022-12-07T17:05:34.000",
    "date_modified": "2022-12-07T17:05:35.000",
    "request_status": "Pending",
    "responsible_agency": "Department of Sanitation",
    "final_address": "142 Middle Park Pl",
    "address_councildis": "A",
    "status": "Assigned to Contractor",
    "contractor": "IV Waste",
    "rowid": "950747",
    "final_x": "3670114.5193",
    "final_y": "544272.495822",
    "longitude": "-90.10358950247087",
    "latitude": "29.99090153175548",
    "geocoded_column": {
      "latitude": "29.99090153175548",
      "longitude": "-90.10358950247087"
    }
  },
  {
    "service_request": "2022-950746",
    "request_type": "Trash/Recycling",
    "request_reason": "MIssed Recycling Pick-Up",
    "date_created": "2022-12-07T17:05:22.000",
    "date_modified": "2022-12-07T17:05:23.000",
    "request_status": "Pending",
    "responsible_agency": "Department of Sanitation",
    "final_address": "7707 Benjamin St",
    "address_councildis": "A",
    "status": "Assigned to Contractor",
    "contractor": "Richards Disposal",
    "rowid": "950746",
    "final_x": "3660901.9527",
    "final_y": "525120.793213",
    "longitude": "-90.13332351107603",
    "latitude": "29.93850923866763",
    "geocoded_column": {
      "latitude": "29.93850923866763",
      "longitude": "-90.13332351107603"
    }
  },
  {
    "service_request": "2022-950745",
    "request_type": "Trash/Recycling",
    "request_reason": "Missed Trash Pick-Up",
    "date_created": "2022-12-07T17:04:29.000",
    "date_modified": "2022-12-07T17:04:30.000",
    "request_status": "Pending",
    "responsible_agency": "Department of Sanitation",
    "final_address": "7707 Benjamin St",
    "address_councildis": "A",
    "status": "Assigned to Contractor",
    "contractor": "Richards Disposal",
    "rowid": "950745",
    "final_x": "3660901.9527",
    "final_y": "525120.793213",
    "longitude": "-90.13332351107603",
    "latitude": "29.93850923866763",
    "geocoded_column": {
      "latitude": "29.93850923866763",
      "longitude": "-90.13332351107603"
    }
  },
  {
    "service_request": "2022-950744",
    "request_type": "Trash/Recycling",
    "request_reason": "Request a Large Item Pick Up",
    "date_created": "2022-12-07T17:01:41.000",
    "date_modified": "2022-12-07T17:01:42.000",
    "request_status": "Pending",
    "responsible_agency": "Department of Sanitation",
    "final_address": "4667 Western St",
    "address_councildis": "D",
    "status": "Assigned to Contractor",
    "contractor": "IV Waste",
    "rowid": "950744",
    "final_x": "3684239.28725",
    "final_y": "549932.574292",
    "longitude": "-90.0587739378066",
    "latitude": "30.006040336149802",
    "geocoded_column": {
      "latitude": "30.006040336149802",
      "longitude": "-90.0587739378066"
    }
  },
  {
    "service_request": "2022-950743",
    "request_type": "Trash/Recycling",
    "request_reason": "Missed Trash Pick-Up",
    "date_created": "2022-12-07T17:00:13.000",
    "date_modified": "2022-12-07T17:00:13.000",
    "request_status": "Pending",
    "responsible_agency": "Department of Sanitation",
    "final_address": "7707 Benjamin St",
    "address_councildis": "A",
    "status": "Assigned to Contractor",
    "contractor": "Richards Disposal",
    "rowid": "950743",
    "final_x": "3660901.9527",
    "final_y": "525120.793213",
    "longitude": "-90.13332351107603",
    "latitude": "29.93850923866763",
    "geocoded_column": {
      "latitude": "29.93850923866763",
      "longitude": "-90.13332351107603"
    }
  },
  {
    "service_request": "2022-950741",
    "request_type": "Roads/Drainage",
    "request_reason": "Pothole",
    "date_created": "2022-12-07T16:56:18.000",
    "date_modified": "2022-12-07T16:56:18.000",
    "request_status": "Pending",
    "responsible_agency": "Department of Public Works",
    "final_address": "507 Harrison Ave",
    "address_councildis": "A",
    "status": "Pending",
    "rowid": "950741",
    "final_x": "3668008.75169",
    "final_y": "549437.193875",
    "longitude": "-90.11006697607102",
    "latitude": "30.005164642282004",
    "geocoded_column": {
      "latitude": "30.005164642282004",
      "longitude": "-90.11006697607102"
    }
  },
  {
    "service_request": "2022-950740",
    "request_type": "Trash/Recycling",
    "request_reason": "Request a Large Item Pick Up",
    "date_created": "2022-12-07T16:54:22.000",
    "date_modified": "2022-12-07T16:54:23.000",
    "request_status": "Pending",
    "responsible_agency": "Department of Sanitation",
    "final_address": "911 Hagan St",
    "address_councildis": "A",
    "status": "Assigned to Contractor",
    "contractor": "Richards Disposal",
    "rowid": "950740",
    "final_x": "3675145.72072",
    "final_y": "539161.112522",
    "longitude": "-90.08787261557006",
    "latitude": "29.976697561213516",
    "geocoded_column": {
      "latitude": "29.976697561213516",
      "longitude": "-90.08787261557006"
    }
  },
  {
    "service_request": "2022-950739",
    "request_type": "Abandoned Vehicles",
    "request_reason": "Vehicle Blocking Your Driveway",
    "date_created": "2022-12-07T16:53:12.000",
    "date_modified": "2022-12-07T16:53:12.000",
    "request_status": "Pending",
    "responsible_agency": "Department of Public Works",
    "final_address": "2823 Constance St",
    "address_councildis": "B",
    "status": "Pending",
    "rowid": "950739",
    "final_x": "3677073.46702",
    "final_y": "520431.680248",
    "longitude": "-90.08242996112584",
    "latitude": "29.92514011750468",
    "geocoded_column": {
      "latitude": "29.92514011750468",
      "longitude": "-90.08242996112584"
    }
  },
  {
    "service_request": "2022-950738",
    "request_type": "Trash/Recycling",
    "request_reason": "Repair Trash Cart",
    "date_created": "2022-12-07T16:48:08.000",
    "date_modified": "2022-12-07T16:48:09.000",
    "request_status": "Pending",
    "responsible_agency": "Department of Sanitation",
    "final_address": "3243 Chestnut St",
    "address_councildis": "B",
    "status": "Assigned to Contractor",
    "contractor": "Richards Disposal",
    "rowid": "950738",
    "final_x": "3675112.89147",
    "final_y": "520528.477496",
    "longitude": "-90.0886155585535",
    "latitude": "29.925464985569292",
    "geocoded_column": {
      "latitude": "29.925464985569292",
      "longitude": "-90.0886155585535"
    }
  },
  {
    "service_request": "2022-950737",
    "request_type": "Traffic Signals/Signs/Striping/Streetlights",
    "request_reason": "Traffic Sign Missing/Damaged",
    "date_created": "2022-12-07T16:46:46.000",
    "date_modified": "2022-12-07T16:46:46.000",
    "request_status": "Pending",
    "responsible_agency": "Department of Public Works",
    "final_address": "3900 Dublin St",
    "address_councildis": "A",
    "status": "Pending",
    "rowid": "950737",
    "final_x": "3667971.22266",
    "final_y": "535895.698247",
    "longitude": "-90.11064203636731",
    "latitude": "29.967931239067607",
    "geocoded_column": {
      "latitude": "29.967931239067607",
      "longitude": "-90.11064203636731"
    }
  },
  {
    "service_request": "2022-950736",
    "request_type": "Trash/Recycling",
    "request_reason": "MIssed Recycling Pick-Up",
    "date_created": "2022-12-07T16:44:36.000",
    "date_modified": "2022-12-07T16:44:37.000",
    "request_status": "Pending",
    "responsible_agency": "Department of Sanitation",
    "final_address": "504 S Alexander St",
    "address_councildis": "A",
    "status": "Assigned to Contractor",
    "contractor": "Richards Disposal",
    "rowid": "950736",
    "final_x": "3669008.93767",
    "final_y": "537821.549065",
    "longitude": "-90.10729981214295",
    "latitude": "29.97319619614067",
    "geocoded_column": {
      "latitude": "29.97319619614067",
      "longitude": "-90.10729981214295"
    }
  },
  {
    "service_request": "2022-950735",
    "request_type": "Trash/Recycling",
    "request_reason": "Request a Large Item Pick Up",
    "date_created": "2022-12-07T16:41:17.000",
    "date_modified": "2022-12-07T16:41:18.000",
    "request_status": "Pending",
    "responsible_agency": "Department of Sanitation",
    "final_address": "1207 France St",
    "address_councildis": "D",
    "status": "Assigned to Contractor",
    "contractor": "IV Waste",
    "rowid": "950735",
    "final_x": "3692529.84361",
    "final_y": "535578.38311",
    "longitude": "-90.03309677360788",
    "latitude": "29.9663153125797",
    "geocoded_column": {
      "latitude": "29.9663153125797",
      "longitude": "-90.03309677360788"
    }
  },
  {
    "service_request": "2022-950734",
    "request_type": "Trash/Recycling",
    "request_reason": "Missed Trash Pick-Up",
    "date_created": "2022-12-07T16:40:18.000",
    "date_modified": "2022-12-07T16:40:19.000",
    "request_status": "Pending",
    "responsible_agency": "Department of Sanitation",
    "final_address": "410 Lowerline St",
    "address_councildis": "A",
    "status": "Assigned to Contractor",
    "contractor": "Richards Disposal",
    "rowid": "950734",
    "final_x": "3661666.96403",
    "final_y": "524041.37734",
    "longitude": "-90.13094403947427",
    "latitude": "29.93551913414109",
    "geocoded_column": {
      "latitude": "29.93551913414109",
      "longitude": "-90.13094403947427"
    }
  },
  {
    "service_request": "2022-950732",
    "request_type": "Traffic Signals/Signs/Striping/Streetlights",
    "request_reason": "Request for Stop Sign",
    "date_created": "2022-12-07T16:34:39.000",
    "date_modified": "2022-12-07T16:34:39.000",
    "request_status": "Pending",
    "responsible_agency": "Department of Public Works",
    "final_address": "IBERVILLE ST & N MIRO ST",
    "address_councildis": "B",
    "status": "Pending",
    "rowid": "950732",
    "final_x": "3676961.9",
    "final_y": "534430.08",
    "longitude": "-90.08229969101703",
    "latitude": "29.963634429743433",
    "geocoded_column": {
      "latitude": "29.963634429743433",
      "longitude": "-90.08229969101703"
    }
  },
  {
    "service_request": "2022-950731",
    "request_type": "Trash/Recycling",
    "request_reason": "MIssed Recycling Pick-Up",
    "date_created": "2022-12-07T16:31:26.000",
    "date_modified": "2022-12-07T16:32:20.000",
    "request_status": "Pending",
    "responsible_agency": "Department of Sanitation",
    "final_address": "1618 S Liberty St",
    "address_councildis": "B",
    "status": "Assigned to Contractor",
    "contractor": "Richards Disposal",
    "rowid": "950731",
    "final_x": "3676745.19873",
    "final_y": "526531.537982",
    "longitude": "-90.08325613022687",
    "latitude": "29.941922581934552",
    "geocoded_column": {
      "latitude": "29.941922581934552",
      "longitude": "-90.08325613022687"
    }
  },
  {
    "service_request": "2022-950730",
    "request_type": "Trash/Recycling",
    "request_reason": "Missed Trash Pick-Up",
    "date_created": "2022-12-07T16:31:13.000",
    "date_modified": "2022-12-07T16:32:50.000",
    "request_status": "Pending",
    "responsible_agency": "Department of Sanitation",
    "final_address": "2735 Jefferson Ave",
    "address_councildis": "B",
    "status": "Assigned to Contractor",
    "contractor": "Richards Disposal",
    "rowid": "950730",
    "final_x": "3668386.30183",
    "final_y": "525560.465085",
    "longitude": "-90.10967975358967",
    "latitude": "29.939500548758836",
    "geocoded_column": {
      "latitude": "29.939500548758836",
      "longitude": "-90.10967975358967"
    }
  },
  {
    "service_request": "2022-950729",
    "request_type": "Trash/Recycling",
    "request_reason": "Replace Trash Cart",
    "date_created": "2022-12-07T16:31:11.000",
    "date_modified": "2022-12-07T16:32:03.000",
    "request_status": "Pending",
    "responsible_agency": "Department of Sanitation",
    "final_address": "7744 St Charles Ave",
    "address_councildis": "A",
    "status": "Assigned to Contractor",
    "contractor": "Richards Disposal",
    "rowid": "950729",
    "final_x": "3661392.67366",
    "final_y": "525997.454014",
    "longitude": "-90.13174522285735",
    "latitude": "29.940905637962846",
    "geocoded_column": {
      "latitude": "29.940905637962846",
      "longitude": "-90.13174522285735"
    }
  },
  {
    "service_request": "2022-950728",
    "request_type": "Trash/Recycling",
    "request_reason": "Replace Trash Cart",
    "date_created": "2022-12-07T16:29:44.000",
    "date_modified": "2022-12-07T16:29:44.000",
    "request_status": "Pending",
    "responsible_agency": "Department of Sanitation",
    "final_address": "9821 Andover Dr",
    "address_councildis": "E",
    "status": "Assigned to Contractor",
    "contractor": "Waste Pro",
    "rowid": "950728",
    "final_x": "3708889.53284",
    "final_y": "562115.217247",
    "longitude": "-89.98044419591733",
    "latitude": "30.038760885065365",
    "geocoded_column": {
      "latitude": "30.038760885065365",
      "longitude": "-89.98044419591733"
    }
  },
  {
    "service_request": "2022-950727",
    "request_type": "Trash/Recycling",
    "request_reason": "Order Trash Cart",
    "date_created": "2022-12-07T16:26:47.000",
    "date_modified": "2022-12-07T16:26:48.000",
    "request_status": "Pending",
    "responsible_agency": "Department of Sanitation",
    "final_address": "423 Saint Maurice avenue New Orleans Louisiana 70117",
    "status": "Assigned to Contractor",
    "rowid": "950727",
    "longitude": "0.0",
    "latitude": "0.0",
    "geocoded_column": {
      "latitude": "0.0",
      "longitude": "0.0"
    }
  },
  {
    "service_request": "2022-950726",
    "request_type": "Roads/Drainage",
    "request_reason": "Accessibility Ramps, Curbs and Sidewalk Repair",
    "date_created": "2022-12-07T16:24:40.000",
    "date_modified": "2022-12-07T16:24:41.000",
    "request_status": "Pending",
    "responsible_agency": "Department of Public Works",
    "final_address": "7047 Louis Xiv St",
    "address_councildis": "A",
    "status": "Pending",
    "rowid": "950726",
    "final_x": "3668803.45447",
    "final_y": "554442.844952",
    "longitude": "-90.10738713869574",
    "latitude": "30.018905070627447",
    "geocoded_column": {
      "latitude": "30.018905070627447",
      "longitude": "-90.10738713869574"
    }
  },
  {
    "service_request": "2022-950725",
    "request_type": "Trash/Recycling",
    "request_reason": "Repair Trash Cart",
    "date_created": "2022-12-07T16:20:28.000",
    "date_modified": "2022-12-07T16:20:28.000",
    "request_status": "Pending",
    "responsible_agency": "Department of Sanitation",
    "final_address": "1811 Fern St",
    "address_councildis": "A",
    "status": "Assigned to Contractor",
    "contractor": "Richards Disposal",
    "rowid": "950725",
    "final_x": "3664049.79636",
    "final_y": "529455.851009",
    "longitude": "-90.12324086447998",
    "latitude": "29.950338235124903",
    "geocoded_column": {
      "latitude": "29.950338235124903",
      "longitude": "-90.12324086447998"
    }
  },
  {
    "service_request": "2022-950724",
    "request_type": "Trash/Recycling",
    "request_reason": "Request a Large Item Pick Up",
    "date_created": "2022-12-07T16:19:51.000",
    "date_modified": "2022-12-07T16:19:52.000",
    "request_status": "Pending",
    "responsible_agency": "Department of Sanitation",
    "final_address": "1724 Desire St",
    "address_councildis": "D",
    "status": "Assigned to Contractor",
    "contractor": "IV Waste",
    "rowid": "950724",
    "final_x": "3690739.71721",
    "final_y": "538146.543241",
    "longitude": "-90.03865830462227",
    "latitude": "29.97343258095788",
    "geocoded_column": {
      "latitude": "29.97343258095788",
      "longitude": "-90.03865830462227"
    }
  },
  {
    "service_request": "2022-950722",
    "request_type": "Trash/Recycling",
    "request_reason": "Missed Trash Pick-Up",
    "date_created": "2022-12-07T16:19:31.000",
    "date_modified": "2022-12-07T16:19:32.000",
    "request_status": "Pending",
    "responsible_agency": "Department of Sanitation",
    "final_address": "1916 S Lopez St",
    "address_councildis": "B",
    "status": "Assigned to Contractor",
    "contractor": "Richards Disposal",
    "rowid": "950722",
    "final_x": "3669591.81038",
    "final_y": "529896.087553",
    "longitude": "-90.10572714159562",
    "latitude": "29.951386645895244",
    "geocoded_column": {
      "latitude": "29.951386645895244",
      "longitude": "-90.10572714159562"
    }
  },
  {
    "service_request": "2022-950723",
    "request_type": "Trash/Recycling",
    "request_reason": "Repair Trash Cart",
    "date_created": "2022-12-07T16:19:31.000",
    "date_modified": "2022-12-07T16:19:32.000",
    "request_status": "Pending",
    "responsible_agency": "Department of Sanitation",
    "final_address": "2641 Hudson Pl",
    "address_councildis": "C",
    "status": "Assigned to Contractor",
    "contractor": "Richards Disposal",
    "rowid": "950723",
    "final_x": "3703346.37668",
    "final_y": "521176.738617",
    "longitude": "-89.99946803855156",
    "latitude": "29.926373968126807",
    "geocoded_column": {
      "latitude": "29.926373968126807",
      "longitude": "-89.99946803855156"
    }
  },
  {
    "service_request": "2022-950721",
    "request_type": "Trash/Recycling",
    "request_reason": "MIssed Recycling Pick-Up",
    "date_created": "2022-12-07T16:18:05.000",
    "date_modified": "2022-12-07T16:18:05.000",
    "request_status": "Pending",
    "responsible_agency": "Department of Sanitation",
    "final_address": "7634 St Charles Ave",
    "address_councildis": "A",
    "status": "Assigned to Contractor",
    "contractor": "Richards Disposal",
    "rowid": "950721",
    "final_x": "3661639.96198",
    "final_y": "525772.142397",
    "longitude": "-90.13097194986607",
    "latitude": "29.940278969745183",
    "geocoded_column": {
      "latitude": "29.940278969745183",
      "longitude": "-90.13097194986607"
    }
  },
  {
    "service_request": "2022-950720",
    "request_type": "Trash/Recycling",
    "request_reason": "Order Trash Cart",
    "date_created": "2022-12-07T16:17:22.000",
    "date_modified": "2022-12-07T16:17:23.000",
    "request_status": "Pending",
    "responsible_agency": "Department of Sanitation",
    "final_address": "7551 Branch Dr",
    "address_councildis": "E",
    "status": "Assigned to Contractor",
    "contractor": "Waste Pro",
    "rowid": "950720",
    "final_x": "3715053.49861",
    "final_y": "568325.239397",
    "longitude": "-89.96072948801448",
    "latitude": "30.055634366729418",
    "geocoded_column": {
      "latitude": "30.055634366729418",
      "longitude": "-89.96072948801448"
    }
  },
  {
    "service_request": "2022-950719",
    "request_type": "Trash/Recycling",
    "request_reason": "Request a Large Item Pick Up",
    "date_created": "2022-12-07T16:17:06.000",
    "date_modified": "2022-12-07T16:17:07.000",
    "request_status": "Pending",
    "responsible_agency": "Department of Sanitation",
    "final_address": "5524 Spain St",
    "address_councildis": "D",
    "status": "Assigned to Contractor",
    "contractor": "IV Waste",
    "rowid": "950719",
    "final_x": "3684725.9437",
    "final_y": "553324.291223",
    "longitude": "-90.05711713147481",
    "latitude": "30.015351428856558",
    "geocoded_column": {
      "latitude": "30.015351428856558",
      "longitude": "-90.05711713147481"
    }
  },
  {
    "service_request": "2022-950718",
    "request_type": "Trash/Recycling",
    "request_reason": "Order Trash Cart",
    "date_created": "2022-12-07T16:14:58.000",
    "date_modified": "2022-12-07T16:14:59.000",
    "request_status": "Pending",
    "responsible_agency": "Department of Sanitation",
    "final_address": "1866 Benefit St",
    "address_councildis": "D",
    "status": "Assigned to Contractor",
    "contractor": "IV Waste",
    "rowid": "950718",
    "final_x": "3681973.22741",
    "final_y": "544169.317646",
    "longitude": "-90.06613431787908",
    "latitude": "29.990262548984255",
    "geocoded_column": {
      "latitude": "29.990262548984255",
      "longitude": "-90.06613431787908"
    }
  },
  {
    "service_request": "2022-950717",
    "request_type": "Trash/Recycling",
    "request_reason": "MIssed Recycling Pick-Up",
    "date_created": "2022-12-07T16:13:54.000",
    "date_modified": "2022-12-07T16:13:55.000",
    "request_status": "Pending",
    "responsible_agency": "Department of Sanitation",
    "final_address": "4312 S Dorgenois St",
    "address_councildis": "B",
    "status": "Assigned to Contractor",
    "contractor": "Richards Disposal",
    "rowid": "950717",
    "final_x": "3670336.3225",
    "final_y": "528792.06336",
    "longitude": "-90.10341374859375",
    "latitude": "29.948328987744194",
    "geocoded_column": {
      "latitude": "29.948328987744194",
      "longitude": "-90.10341374859375"
    }
  },
  {
    "service_request": "2022-950716",
    "request_type": "Trash/Recycling",
    "request_reason": "MIssed Recycling Pick-Up",
    "date_created": "2022-12-07T16:13:08.000",
    "date_modified": "2022-12-07T16:13:09.000",
    "request_status": "Pending",
    "responsible_agency": "Department of Sanitation",
    "final_address": "4312 Coliseum St, New Orleans, Louisiana, 70115",
    "address_councildis": "B",
    "status": "Assigned to Contractor",
    "contractor": "Richards Disposal",
    "rowid": "950716",
    "final_x": "3671244.94766",
    "final_y": "519766.51916",
    "longitude": "-90.10085135858562",
    "latitude": "29.92348481027771",
    "geocoded_column": {
      "latitude": "29.92348481027771",
      "longitude": "-90.10085135858562"
    }
  },
  {
    "service_request": "2022-950715",
    "request_type": "Trash/Recycling",
    "request_reason": "MIssed Recycling Pick-Up",
    "date_created": "2022-12-07T16:11:34.000",
    "date_modified": "2022-12-07T16:11:35.000",
    "request_status": "Pending",
    "responsible_agency": "Department of Sanitation",
    "final_address": "8727 Apricot St",
    "address_councildis": "A",
    "status": "Assigned to Contractor",
    "contractor": "Richards Disposal",
    "rowid": "950715",
    "final_x": "3664110.13172",
    "final_y": "534242.916101",
    "longitude": "-90.12289068360873",
    "latitude": "29.963499354241172",
    "geocoded_column": {
      "latitude": "29.963499354241172",
      "longitude": "-90.12289068360873"
    }
  },
  {
    "service_request": "2022-950714",
    "request_type": "Traffic Signals/Signs/Striping/Streetlights",
    "request_reason": "Street Light Outage/Malfunction",
    "date_created": "2022-12-07T16:10:31.000",
    "date_modified": "2022-12-07T16:10:32.000",
    "request_status": "Pending",
    "responsible_agency": "Department of Public Works",
    "final_address": "7101 Camberley Dr",
    "address_councildis": "E",
    "status": "Pending",
    "contractor": "Legacy Professional Services",
    "rowid": "950714",
    "final_x": "3713486.33957",
    "final_y": "564712.352418",
    "longitude": "-89.96581921734001",
    "latitude": "30.045751924345264",
    "geocoded_column": {
      "latitude": "30.045751924345264",
      "longitude": "-89.96581921734001"
    }
  },
  {
    "service_request": "2022-950713",
    "request_type": "Traffic Signals/Signs/Striping/Streetlights",
    "request_reason": "Street Light Outage/Malfunction",
    "date_created": "2022-12-07T16:09:43.000",
    "date_modified": "2022-12-07T16:09:44.000",
    "request_status": "Pending",
    "responsible_agency": "Department of Public Works",
    "final_address": "7121 Camberley Dr",
    "address_councildis": "E",
    "status": "Pending",
    "contractor": "Legacy Professional Services",
    "rowid": "950713",
    "final_x": "3713411.91307",
    "final_y": "564812.593314",
    "longitude": "-89.96605065926423",
    "latitude": "30.046029988349403",
    "geocoded_column": {
      "latitude": "30.046029988349403",
      "longitude": "-89.96605065926423"
    }
  },
  {
    "service_request": "2022-950712",
    "request_type": "Trash/Recycling",
    "request_reason": "Missed Trash Pick-Up",
    "date_created": "2022-12-07T16:08:19.000",
    "date_modified": "2022-12-07T16:08:19.000",
    "request_status": "Pending",
    "responsible_agency": "Department of Sanitation",
    "final_address": "259 Broadway St",
    "address_councildis": "A",
    "status": "Assigned to Contractor",
    "contractor": "Richards Disposal",
    "rowid": "950712",
    "final_x": "3661429.15725",
    "final_y": "522323.76025",
    "longitude": "-90.13175166460076",
    "latitude": "29.930803086581534",
    "geocoded_column": {
      "latitude": "29.930803086581534",
      "longitude": "-90.13175166460076"
    }
  },
  {
    "service_request": "2022-950711",
    "request_type": "Trash/Recycling",
    "request_reason": "Missed Trash Pick-Up",
    "date_created": "2022-12-07T16:07:44.000",
    "date_modified": "2022-12-07T16:07:45.000",
    "request_status": "Pending",
    "responsible_agency": "Department of Sanitation",
    "final_address": "12970 Jeanne Ct",
    "address_councildis": "E",
    "status": "Assigned to Contractor",
    "contractor": "Waste Pro",
    "rowid": "950711",
    "final_x": "3716863.64869",
    "final_y": "568199.851173",
    "longitude": "-89.95501278041864",
    "latitude": "30.055229854555048",
    "geocoded_column": {
      "latitude": "30.055229854555048",
      "longitude": "-89.95501278041864"
    }
  },
  {
    "service_request": "2022-950710",
    "request_type": "Trash/Recycling",
    "request_reason": "Return Trash Cart",
    "date_created": "2022-12-07T16:06:22.000",
    "date_modified": "2022-12-07T16:06:23.000",
    "request_status": "Pending",
    "responsible_agency": "Department of Sanitation",
    "final_address": "6228 Vermillion Blvd",
    "address_councildis": "D",
    "status": "Assigned to Contractor",
    "contractor": "IV Waste",
    "rowid": "950710",
    "final_x": "3682943.97948",
    "final_y": "556096.101146",
    "longitude": "-90.0626501852816",
    "latitude": "30.02302734268725",
    "geocoded_column": {
      "latitude": "30.02302734268725",
      "longitude": "-90.0626501852816"
    }
  },
  {
    "service_request": "2022-950709",
    "request_type": "Trash/Recycling",
    "request_reason": "Order Recycling Cart",
    "date_created": "2022-12-07T16:04:06.000",
    "date_modified": "2022-12-07T16:04:06.000",
    "request_status": "Pending",
    "responsible_agency": "Department of Sanitation",
    "final_address": "5653 Catina St",
    "address_councildis": "A",
    "status": "Pending",
    "rowid": "950709",
    "final_x": "3666701.94785",
    "final_y": "545142.056911",
    "longitude": "-90.11433981783817",
    "latitude": "29.993392791124908",
    "geocoded_column": {
      "latitude": "29.993392791124908",
      "longitude": "-90.11433981783817"
    }
  },
  {
    "service_request": "2022-950708",
    "request_type": "Trash/Recycling",
    "request_reason": "Order Recycling Cart",
    "date_created": "2022-12-07T16:02:19.000",
    "date_modified": "2022-12-07T16:02:20.000",
    "request_status": "Pending",
    "responsible_agency": "Department of Sanitation",
    "final_address": "4422 Cerise Ave",
    "address_councildis": "E",
    "status": "Pending",
    "rowid": "950708",
    "final_x": "3708712.60568",
    "final_y": "553922.727063",
    "longitude": "-89.98130882174473",
    "latitude": "30.016240494939822",
    "geocoded_column": {
      "latitude": "30.016240494939822",
      "longitude": "-89.98130882174473"
    }
  },
  {
    "service_request": "2022-950707",
    "request_type": "Trash/Recycling",
    "request_reason": "Missed Trash Pick-Up",
    "date_created": "2022-12-07T16:01:13.000",
    "date_modified": "2022-12-07T16:01:14.000",
    "request_status": "Pending",
    "responsible_agency": "Department of Sanitation",
    "final_address": "4422 Cerise Ave",
    "address_councildis": "E",
    "status": "Assigned to Contractor",
    "contractor": "Waste Pro",
    "rowid": "950707",
    "final_x": "3708712.60568",
    "final_y": "553922.727063",
    "longitude": "-89.98130882174473",
    "latitude": "30.016240494939822",
    "geocoded_column": {
      "latitude": "30.016240494939822",
      "longitude": "-89.98130882174473"
    }
  },
  {
    "service_request": "2022-950706",
    "request_type": "Roads/Drainage",
    "request_reason": "Pothole",
    "date_created": "2022-12-07T15:58:51.000",
    "date_modified": "2022-12-07T15:58:51.000",
    "request_status": "Pending",
    "responsible_agency": "Department of Public Works",
    "final_address": "632 Deslonde St",
    "address_councildis": "E",
    "status": "Pending",
    "rowid": "950706",
    "final_x": "3694916.82576",
    "final_y": "532892.22906",
    "longitude": "-90.02565557190628",
    "latitude": "29.958854644290653",
    "geocoded_column": {
      "latitude": "29.958854644290653",
      "longitude": "-90.02565557190628"
    }
  },
  {
    "service_request": "2022-950705",
    "request_type": "Trash/Recycling",
    "request_reason": "Replace Trash Cart",
    "date_created": "2022-12-07T15:58:39.000",
    "date_modified": "2022-12-07T15:58:40.000",
    "request_status": "Pending",
    "responsible_agency": "Department of Sanitation",
    "final_address": "1005 Decatur St",
    "address_councildis": "C",
    "status": "Assigned to Contractor",
    "contractor": "Empire Services",
    "rowid": "950705",
    "final_x": "3683837.92149",
    "final_y": "532943.723844",
    "longitude": "-90.06063808471202",
    "latitude": "29.959339244818747",
    "geocoded_column": {
      "latitude": "29.959339244818747",
      "longitude": "-90.06063808471202"
    }
  },
  {
    "service_request": "2022-950704",
    "request_type": "Trash/Recycling",
    "request_reason": "Request a Large Item Pick Up",
    "date_created": "2022-12-07T15:55:11.000",
    "date_modified": "2022-12-07T15:55:12.000",
    "request_status": "Pending",
    "responsible_agency": "Department of Sanitation",
    "final_address": "744 Aline St, New Orleans, Louisiana, 70115",
    "address_councildis": "B",
    "status": "Assigned to Contractor",
    "contractor": "Richards Disposal",
    "rowid": "950704",
    "final_x": "3674835.17614",
    "final_y": "518192.82975",
    "longitude": "-90.08957225081107",
    "latitude": "29.91905099697402",
    "geocoded_column": {
      "latitude": "29.91905099697402",
      "longitude": "-90.08957225081107"
    }
  },
  {
    "service_request": "2022-950703",
    "request_type": "Mosquito, Termite & Rodent Control",
    "request_reason": "Rodent Complaint (Rats)",
    "date_created": "2022-12-07T15:54:31.000",
    "date_modified": "2022-12-07T15:54:32.000",
    "request_status": "Pending",
    "responsible_agency": "Mosquito, Termite & Rodent Control Board",
    "final_address": "2019 Washington Ave",
    "address_councildis": "B",
    "status": "Pending",
    "rowid": "950703",
    "final_x": "3675069.71899",
    "final_y": "523892.492284",
    "longitude": "-90.08863648771484",
    "latitude": "29.934716224807005",
    "geocoded_column": {
      "latitude": "29.934716224807005",
      "longitude": "-90.08863648771484"
    }
  },
  {
    "service_request": "2022-950702",
    "request_type": "Trash/Recycling",
    "request_reason": "MIssed Recycling Pick-Up",
    "date_created": "2022-12-07T15:53:33.000",
    "date_modified": "2022-12-07T15:53:34.000",
    "request_status": "Pending",
    "responsible_agency": "Department of Sanitation",
    "final_address": "3817 Palmyra St",
    "address_councildis": "A",
    "status": "Assigned to Contractor",
    "contractor": "Richards Disposal",
    "rowid": "950702",
    "final_x": "3671489.92289",
    "final_y": "537096.625288",
    "longitude": "-90.09948899924301",
    "latitude": "29.971129674039933",
    "geocoded_column": {
      "latitude": "29.971129674039933",
      "longitude": "-90.09948899924301"
    }
  },
  {
    "service_request": "2022-950701",
    "request_type": "Traffic Signals/Signs/Striping/Streetlights",
    "request_reason": "Request for Stop Sign",
    "date_created": "2022-12-07T15:52:54.000",
    "date_modified": "2022-12-07T15:52:54.000",
    "request_status": "Pending",
    "responsible_agency": "Department of Public Works",
    "final_address": "5000 Laurel St",
    "address_councildis": "B",
    "status": "Pending",
    "rowid": "950701",
    "final_x": "3668548.3714",
    "final_y": "517798.014454",
    "longitude": "-90.10942984387758",
    "latitude": "29.918151521998347",
    "geocoded_column": {
      "latitude": "29.918151521998347",
      "longitude": "-90.10942984387758"
    }
  },
  {
    "service_request": "2022-950700",
    "request_type": "Trash/Recycling",
    "request_reason": "MIssed Recycling Pick-Up",
    "date_created": "2022-12-07T15:47:33.000",
    "date_modified": "2022-12-07T15:47:33.000",
    "request_status": "Pending",
    "responsible_agency": "Department of Sanitation",
    "final_address": "1804 Second St",
    "address_councildis": "B",
    "status": "Assigned to Contractor",
    "contractor": "Richards Disposal",
    "rowid": "950700",
    "final_x": "3676224.04494",
    "final_y": "523701.274619",
    "longitude": "-90.08499887423883",
    "latitude": "29.93415590971917",
    "geocoded_column": {
      "latitude": "29.93415590971917",
      "longitude": "-90.08499887423883"
    }
  },
  {
    "service_request": "2022-950699",
    "request_type": "Trash/Recycling",
    "request_reason": "MIssed Recycling Pick-Up",
    "date_created": "2022-12-07T15:44:39.000",
    "date_modified": "2022-12-07T15:49:34.000",
    "request_status": "Pending",
    "responsible_agency": "Department of Sanitation",
    "final_address": "New Orleans,LA",
    "address_councildis": "B",
    "status": "Assigned to Contractor",
    "contractor": "Richards Disposal",
    "rowid": "950699",
    "final_x": "3671534.05883",
    "final_y": "535854.966791",
    "longitude": "-90.09939183997633",
    "latitude": "29.967714223827528",
    "geocoded_column": {
      "latitude": "29.967714223827528",
      "longitude": "-90.09939183997633"
    }
  },