[
  {
    "service_request": "2024-1092516",
    "request_type": "Health Related Request",
    "request_reason": "Noise Ordinance Complaint",
    "date_created": "2024-05-12T23:29:22.000",
    "date_modified": "2024-05-12T23:29:22.000",
    "request_status": "Pending",
    "responsible_agency": "Health Department",
    "final_address": "530 Bourbon St",
    "address_councildis": "C",
    "status": "Pending",
    "rowid": "1092516",
    "final_x": "3681986.9444",
    "final_y": "532265.683267",
    "longitude": "-90.0665066956375",
    "latitude": "29.95753126456209",
    "geocoded_column": {
      "latitude": "29.95753126456209",
      "longitude": "-90.0665066956375"
    }
  },
  {
    "service_request": "2024-1092515",
    "request_type": "Trash/Recycling",
    "request_reason": "Illegal Dumping",
    "date_created": "2024-05-12T23:17:58.000",
    "date_modified": "2024-05-12T23:17:58.000",
    "request_status": "Pending",
    "responsible_agency": "Department of Sanitation",
    "final_address": "8003 Green St",
    "address_councildis": "A",
    "status": "Pending",
    "rowid": "1092515",
    "final_x": "3663472.34554",
    "final_y": "529423.650433",
    "longitude": "-90.12506523263052",
    "latitude": "29.95026644961858",
    "geocoded_column": {
      "latitude": "29.95026644961858",
      "longitude": "-90.12506523263052"
    }
  },
  {
    "service_request": "2024-1092513",
    "request_type": "Traffic Signals/Signs/Striping/Streetlights",
    "request_reason": "Street Light Outage/Malfunction",
    "date_created": "2024-05-12T21:54:51.000",
    "date_modified": "2024-05-12T21:54:52.000",
    "request_status": "Pending",
    "responsible_agency": "Department of Public Works",
    "final_address": "851 Harrison Ave",
    "address_councildis": "A",
    "status": "Assigned to Contractor",
    "contractor": "Legacy Professional Services",
    "rowid": "1092513",
    "final_x": "3669786.86702",
    "final_y": "549319.015827",
    "longitude": "-90.10445352052868",
    "latitude": "30.004787378537902",
    "geocoded_column": {
      "latitude": "30.004787378537902",
      "longitude": "-90.10445352052868"
    }
  },
  {
    "service_request": "2024-1092512",
    "request_type": "Traffic Signals/Signs/Striping/Streetlights",
    "request_reason": "Street Light Outage/Malfunction",
    "date_created": "2024-05-12T21:52:01.000",
    "date_modified": "2024-05-12T21:52:02.000",
    "request_status": "Pending",
    "responsible_agency": "Department of Public Works",
    "final_address": "766 Harrison Ave",
    "address_councildis": "A",
    "status": "Assigned to Contractor",
    "contractor": "Legacy Professional Services",
    "rowid": "1092512",
    "final_x": "3669236.15246",
    "final_y": "549082.044115",
    "longitude": "-90.10620136087446",
    "latitude": "30.004152017571418",
    "geocoded_column": {
      "latitude": "30.004152017571418",
      "longitude": "-90.10620136087446"
    }
  },
  {
    "service_request": "2024-1092511",
    "request_type": "Traffic Signals/Signs/Striping/Streetlights",
    "request_reason": "Street Light Outage/Malfunction",
    "date_created": "2024-05-12T21:50:25.000",
    "date_modified": "2024-05-12T21:50:25.000",
    "request_status": "Pending",
    "responsible_agency": "Department of Public Works",
    "final_address": "6254 Vicksburg St",
    "address_councildis": "A",
    "status": "Assigned to Contractor",
    "contractor": "Legacy Professional Services",
    "rowid": "1092511",
    "final_x": "3668958.89498",
    "final_y": "549008.874963",
    "longitude": "-90.10707974366686",
    "latitude": "30.003958989432427",
    "geocoded_column": {
      "latitude": "30.003958989432427",
      "longitude": "-90.10707974366686"
    }
  },
  {
    "service_request": "2024-1092510",
    "request_type": "Traffic Signals/Signs/Striping/Streetlights",
    "request_reason": "Street Light Outage/Malfunction",
    "date_created": "2024-05-12T21:50:24.000",
    "date_modified": "2024-05-12T21:50:25.000",
    "request_status": "Pending",
    "responsible_agency": "Department of Public Works",
    "final_address": "6254 Vicksburg St",
    "address_councildis": "A",
    "status": "Assigned to Contractor",
    "contractor": "Legacy Professional Services",
    "rowid": "1092510",
    "final_x": "3668958.89498",
    "final_y": "549008.874963",
    "longitude": "-90.10707974366686",
    "latitude": "30.003958989432427",
    "geocoded_column": {
      "latitude": "30.003958989432427",
      "longitude": "-90.10707974366686"
    }
  },
  {
    "service_request": "2024-1092509",
    "request_type": "Abandoned Vehicles",
    "request_reason": "Vehicle Blocking Your Driveway",
    "date_created": "2024-05-12T21:50:15.000",
    "date_modified": "2024-05-12T21:50:15.000",
    "request_status": "Pending",
    "responsible_agency": "Department of Public Works",
    "final_address": "1600 Gentilly Blvd",
    "address_councildis": "D",
    "status": "Pending",
    "rowid": "1092509",
    "final_x": "3678568.73922",
    "final_y": "540356.915531",
    "longitude": "-90.07702024850462",
    "latitude": "29.979882858061806",
    "geocoded_column": {
      "latitude": "29.979882858061806",
      "longitude": "-90.07702024850462"
    }
  },
  {
    "service_request": "2024-1092508",
    "request_type": "Traffic Signals/Signs/Striping/Streetlights",
    "request_reason": "Street Light Outage/Malfunction",
    "date_created": "2024-05-12T21:49:17.000",
    "date_modified": "2024-05-12T21:49:17.000",
    "request_status": "Pending",
    "responsible_agency": "Department of Public Works",
    "final_address": "760 Harrison Ave",
    "address_councildis": "A",
    "status": "Assigned to Contractor",
    "contractor": "Legacy Professional Services",
    "rowid": "1092508",
    "final_x": "3669127.11316",
    "final_y": "549118.469139",
    "longitude": "-90.10654460468272",
    "latitude": "30.004255384142354",
    "geocoded_column": {
      "latitude": "30.004255384142354",
      "longitude": "-90.10654460468272"
    }
  },
  {
    "service_request": "2024-1092507",
    "request_type": "Traffic Signals/Signs/Striping/Streetlights",
    "request_reason": "Street Light Outage/Malfunction",
    "date_created": "2024-05-12T21:48:03.000",
    "date_modified": "2024-05-12T21:48:03.000",
    "request_status": "Pending",
    "responsible_agency": "Department of Public Works",
    "final_address": "720 Harrison Ave",
    "address_councildis": "A",
    "status": "Assigned to Contractor",
    "contractor": "Legacy Professional Services",
    "rowid": "1092507",
    "final_x": "3668923.52922",
    "final_y": "549136.977555",
    "longitude": "-90.10718713998315",
    "latitude": "30.004312267565492",
    "geocoded_column": {
      "latitude": "30.004312267565492",
      "longitude": "-90.10718713998315"
    }
  },
  {
    "service_request": "2024-1092506",
    "request_type": "Traffic Signals/Signs/Striping/Streetlights",
    "request_reason": "Street Light Outage/Malfunction",
    "date_created": "2024-05-12T21:46:39.000",
    "date_modified": "2024-05-12T21:46:40.000",
    "request_status": "Pending",
    "responsible_agency": "Department of Public Works",
    "final_address": "729 Harrison Ave",
    "address_councildis": "A",
    "status": "Assigned to Contractor",
    "contractor": "Legacy Professional Services",
    "rowid": "1092506",
    "final_x": "3668951.66817",
    "final_y": "549383.324627",
    "longitude": "-90.10708991488733",
    "latitude": "30.004988808161826",
    "geocoded_column": {
      "latitude": "30.004988808161826",
      "longitude": "-90.10708991488733"
    }
  },
  {
    "service_request": "2024-1092505",
    "request_type": "Traffic Signals/Signs/Striping/Streetlights",
    "request_reason": "Street Light Outage/Malfunction",
    "date_created": "2024-05-12T21:45:24.000",
    "date_modified": "2024-05-12T21:45:25.000",
    "request_status": "Pending",
    "responsible_agency": "Department of Public Works",
    "final_address": "729 Harrison Ave",
    "address_councildis": "A",
    "status": "Assigned to Contractor",
    "contractor": "Legacy Professional Services",
    "rowid": "1092505",
    "final_x": "3668951.66817",
    "final_y": "549383.324627",
    "longitude": "-90.10708991488733",
    "latitude": "30.004988808161826",
    "geocoded_column": {
      "latitude": "30.004988808161826",
      "longitude": "-90.10708991488733"
    }
  },
  {
    "service_request": "2024-1092504",
    "request_type": "Traffic Signals/Signs/Striping/Streetlights",
    "request_reason": "Street Light Outage/Malfunction",
    "date_created": "2024-05-12T21:44:50.000",
    "date_modified": "2024-05-12T21:44:51.000",
    "request_status": "Pending",
    "responsible_agency": "Department of Public Works",
    "final_address": "729 Harrison Ave",
    "address_councildis": "A",
    "status": "Assigned to Contractor",
    "contractor": "Legacy Professional Services",
    "rowid": "1092504",
    "final_x": "3668951.66817",
    "final_y": "549383.324627",
    "longitude": "-90.10708991488733",
    "latitude": "30.004988808161826",
    "geocoded_column": {
      "latitude": "30.004988808161826",
      "longitude": "-90.10708991488733"
    }
  },
  {
    "service_request": "2024-1092503",
    "request_type": "Traffic Signals/Signs/Striping/Streetlights",
    "request_reason": "Street Light Outage/Malfunction",
    "date_created": "2024-05-12T21:43:20.000",
    "date_modified": "2024-05-12T21:43:21.000",
    "request_status": "Pending",
    "responsible_agency": "Department of Public Works",
    "final_address": "729 Harrison Ave",
    "address_councildis": "A",
    "status": "Assigned to Contractor",
    "contractor": "Legacy Professional Services",
    "rowid": "1092503",
    "final_x": "3668951.66817",
    "final_y": "549383.324627",
    "longitude": "-90.10708991488733",
    "latitude": "30.004988808161826",
    "geocoded_column": {
      "latitude": "30.004988808161826",
      "longitude": "-90.10708991488733"
    }
  },
  {
    "service_request": "2024-1092502",
    "request_type": "Traffic Signals/Signs/Striping/Streetlights",
    "request_reason": "Street Light Outage/Malfunction",
    "date_created": "2024-05-12T21:42:33.000",
    "date_modified": "2024-05-12T21:42:34.000",
    "request_status": "Pending",
    "responsible_agency": "Department of Public Works",
    "final_address": "729 Harrison Ave",
    "address_councildis": "A",
    "status": "Assigned to Contractor",
    "contractor": "Legacy Professional Services",
    "rowid": "1092502",
    "final_x": "3668951.66817",
    "final_y": "549383.324627",
    "longitude": "-90.10708991488733",
    "latitude": "30.004988808161826",
    "geocoded_column": {
      "latitude": "30.004988808161826",
      "longitude": "-90.10708991488733"
    }
  },
  {
    "service_request": "2024-1092501",
    "request_type": "Traffic Signals/Signs/Striping/Streetlights",
    "request_reason": "Street Light Outage/Malfunction",
    "date_created": "2024-05-12T21:41:35.000",
    "date_modified": "2024-05-12T21:41:36.000",
    "request_status": "Pending",
    "responsible_agency": "Department of Public Works",
    "final_address": "729 Harrison Ave",
    "address_councildis": "A",
    "status": "Assigned to Contractor",
    "contractor": "Legacy Professional Services",
    "rowid": "1092501",
    "final_x": "3668951.66817",
    "final_y": "549383.324627",
    "longitude": "-90.10708991488733",
    "latitude": "30.004988808161826",
    "geocoded_column": {
      "latitude": "30.004988808161826",
      "longitude": "-90.10708991488733"
    }
  },
  {
    "service_request": "2024-1092500",
    "request_type": "Traffic Signals/Signs/Striping/Streetlights",
    "request_reason": "Street Light Outage/Malfunction",
    "date_created": "2024-05-12T21:39:56.000",
    "date_modified": "2024-05-12T21:39:57.000",
    "request_status": "Pending",
    "responsible_agency": "Department of Public Works",
    "final_address": "775 Harrison Ave",
    "address_councildis": "A",
    "status": "Assigned to Contractor",
    "contractor": "Legacy Professional Services",
    "rowid": "1092500",
    "final_x": "3669142.44615",
    "final_y": "549354.159059",
    "longitude": "-90.10648819254023",
    "latitude": "30.004902997837632",
    "geocoded_column": {
      "latitude": "30.004902997837632",
      "longitude": "-90.10648819254023"
    }
  },
  {
    "service_request": "2024-1092499",
    "request_type": "Traffic Signals/Signs/Striping/Streetlights",
    "request_reason": "Street Light Outage/Malfunction",
    "date_created": "2024-05-12T21:38:53.000",
    "date_modified": "2024-05-12T21:38:54.000",
    "request_status": "Pending",
    "responsible_agency": "Department of Public Works",
    "final_address": "775 Harrison Ave",
    "address_councildis": "A",
    "status": "Assigned to Contractor",
    "contractor": "Legacy Professional Services",
    "rowid": "1092499",
    "final_x": "3669142.44615",
    "final_y": "549354.159059",
    "longitude": "-90.10648819254023",
    "latitude": "30.004902997837632",
    "geocoded_column": {
      "latitude": "30.004902997837632",
      "longitude": "-90.10648819254023"
    }
  },
  {
    "service_request": "2024-1092498",
    "request_type": "Traffic Signals/Signs/Striping/Streetlights",
    "request_reason": "Street Light Outage/Malfunction",
    "date_created": "2024-05-12T21:37:29.000",
    "date_modified": "2024-05-12T21:37:30.000",
    "request_status": "Pending",
    "responsible_agency": "Department of Public Works",
    "final_address": "789 Harrison Ave",
    "address_councildis": "A",
    "status": "Assigned to Contractor",
    "contractor": "Legacy Professional Services",
    "rowid": "1092498",
    "final_x": "3669333.1458",
    "final_y": "549321.749139",
    "longitude": "-90.10588682848493",
    "latitude": "30.004808266233592",
    "geocoded_column": {
      "latitude": "30.004808266233592",
      "longitude": "-90.10588682848493"
    }
  },
  {
    "service_request": "2024-1092497",
    "request_type": "Traffic Signals/Signs/Striping/Streetlights",
    "request_reason": "Street Light Outage/Malfunction",
    "date_created": "2024-05-12T21:35:59.000",
    "date_modified": "2024-05-12T21:36:00.000",
    "request_status": "Pending",
    "responsible_agency": "Department of Public Works",
    "final_address": "800 Harrison Ave",
    "address_councildis": "A",
    "status": "Assigned to Contractor",
    "contractor": "Legacy Professional Services",
    "rowid": "1092497",
    "final_x": "3669440.34254",
    "final_y": "549079.068371",
    "longitude": "-90.10555638646417",
    "latitude": "30.004137820908213",
    "geocoded_column": {
      "latitude": "30.004137820908213",
      "longitude": "-90.10555638646417"
    }
  },
  {
    "service_request": "2024-1092496",
    "request_type": "Traffic Signals/Signs/Striping/Streetlights",
    "request_reason": "Street Light Outage/Malfunction",
    "date_created": "2024-05-12T21:33:55.000",
    "date_modified": "2024-05-12T21:33:55.000",
    "request_status": "Pending",
    "responsible_agency": "Department of Public Works",
    "final_address": "826 Harrison Ave Ste A",
    "address_councildis": "A",
    "status": "Assigned to Contractor",
    "contractor": "Legacy Professional Services",
    "rowid": "1092496",
    "final_x": "3669619.3778",
    "final_y": "549094.351827",
    "longitude": "-90.10499026267702",
    "latitude": "30.00417456900778",
    "geocoded_column": {
      "latitude": "30.00417456900778",
      "longitude": "-90.10499026267702"
    }
  },
  {
    "service_request": "2024-1092495",
    "request_type": "Traffic Signals/Signs/Striping/Streetlights",
    "request_reason": "Street Light Outage/Malfunction",
    "date_created": "2024-05-12T21:32:34.000",
    "date_modified": "2024-05-12T21:32:35.000",
    "request_status": "Pending",
    "responsible_agency": "Department of Public Works",
    "final_address": "848 Harrison Ave",
    "address_councildis": "A",
    "status": "Assigned to Contractor",
    "contractor": "Legacy Professional Services",
    "rowid": "1092495",
    "final_x": "3669766.08046",
    "final_y": "549034.592147",
    "longitude": "-90.10452882573644",
    "latitude": "30.00400592568403",
    "geocoded_column": {
      "latitude": "30.00400592568403",
      "longitude": "-90.10452882573644"
    }
  },
  {
    "service_request": "2024-1092494",
    "request_type": "Traffic Signals/Signs/Striping/Streetlights",
    "request_reason": "Street Light Outage/Malfunction",
    "date_created": "2024-05-12T21:31:57.000",
    "date_modified": "2024-05-12T21:31:57.000",
    "request_status": "Pending",
    "responsible_agency": "Department of Public Works",
    "final_address": "848 Harrison Ave",
    "address_councildis": "A",
    "status": "Assigned to Contractor",
    "contractor": "Legacy Professional Services",
    "rowid": "1092494",
    "final_x": "3669766.08046",
    "final_y": "549034.592147",
    "longitude": "-90.10452882573644",
    "latitude": "30.00400592568403",
    "geocoded_column": {
      "latitude": "30.00400592568403",
      "longitude": "-90.10452882573644"
    }
  },
  {
    "service_request": "2024-1092493",
    "request_type": "Traffic Signals/Signs/Striping/Streetlights",
    "request_reason": "Street Light Outage/Malfunction",
    "date_created": "2024-05-12T21:29:45.000",
    "date_modified": "2024-05-12T21:29:46.000",
    "request_status": "Pending",
    "responsible_agency": "Department of Public Works",
    "final_address": "908 Harrison Ave",
    "address_councildis": "A",
    "status": "Assigned to Contractor",
    "contractor": "Legacy Professional Services",
    "rowid": "1092493",
    "final_x": "3670106.13639",
    "final_y": "548991.765843",
    "longitude": "-90.10345597860912",
    "latitude": "30.003878136580354",
    "geocoded_column": {
      "latitude": "30.003878136580354",
      "longitude": "-90.10345597860912"
    }
  },
  {
    "service_request": "2024-1092492",
    "request_type": "Traffic Signals/Signs/Striping/Streetlights",
    "request_reason": "Street Light Outage/Malfunction",
    "date_created": "2024-05-12T21:26:48.000",
    "date_modified": "2024-05-12T21:26:48.000",
    "request_status": "Pending",
    "responsible_agency": "Department of Public Works",
    "final_address": "905 Harrison Ave",
    "address_councildis": "A",
    "status": "Assigned to Contractor",
    "contractor": "Legacy Professional Services",
    "rowid": "1092492",
    "final_x": "3670113.47521",
    "final_y": "549288.768147",
    "longitude": "-90.10342272271762",
    "latitude": "30.004694572556534",
    "geocoded_column": {
      "latitude": "30.004694572556534",
      "longitude": "-90.10342272271762"
    }
  },
  {
    "service_request": "2024-1092491",
    "request_type": "Traffic Signals/Signs/Striping/Streetlights",
    "request_reason": "Street Light Outage/Malfunction",
    "date_created": "2024-05-12T21:25:29.000",
    "date_modified": "2024-05-12T21:25:30.000",
    "request_status": "Pending",
    "responsible_agency": "Department of Public Works",
    "final_address": "6300 Argonne Blvd",
    "address_councildis": "A",
    "status": "Assigned to Contractor",
    "contractor": "Legacy Professional Services",
    "rowid": "1092491",
    "final_x": "3670263.31745",
    "final_y": "549349.481619",
    "longitude": "-90.10294728065384",
    "latitude": "30.00485709009762",
    "geocoded_column": {
      "latitude": "30.00485709009762",
      "longitude": "-90.10294728065384"
    }
  },
  {
    "service_request": "2024-1092490",
    "request_type": "Traffic Signals/Signs/Striping/Streetlights",
    "request_reason": "Street Light Outage/Malfunction",
    "date_created": "2024-05-12T21:24:34.000",
    "date_modified": "2024-05-12T21:24:35.000",
    "request_status": "Pending",
    "responsible_agency": "Department of Public Works",
    "final_address": "6300 Argonne Blvd",
    "address_councildis": "A",
    "status": "Assigned to Contractor",
    "contractor": "Legacy Professional Services",
    "rowid": "1092490",
    "final_x": "3670263.31745",
    "final_y": "549349.481619",
    "longitude": "-90.10294728065384",
    "latitude": "30.00485709009762",
    "geocoded_column": {
      "latitude": "30.00485709009762",
      "longitude": "-90.10294728065384"
    }
  },
  {
    "service_request": "2024-1092489",
    "request_type": "Traffic Signals/Signs/Striping/Streetlights",
    "request_reason": "Street Light Outage/Malfunction",
    "date_created": "2024-05-12T21:23:23.000",
    "date_modified": "2024-05-12T21:23:23.000",
    "request_status": "Pending",
    "responsible_agency": "Department of Public Works",
    "final_address": "932 Harrison Ave",
    "address_councildis": "A",
    "status": "Assigned to Contractor",
    "contractor": "Legacy Professional Services",
    "rowid": "1092489",
    "final_x": "3670225.90574",
    "final_y": "549040.399251",
    "longitude": "-90.10307595606615",
    "latitude": "30.0040083261583",
    "geocoded_column": {
      "latitude": "30.0040083261583",
      "longitude": "-90.10307595606615"
    }
  },
  {
    "service_request": "2024-1092488",
    "request_type": "Traffic Signals/Signs/Striping/Streetlights",
    "request_reason": "Street Light Outage/Malfunction",
    "date_created": "2024-05-12T21:22:33.000",
    "date_modified": "2024-05-12T21:22:34.000",
    "request_status": "Pending",
    "responsible_agency": "Department of Public Works",
    "final_address": "932 Harrison Ave",
    "address_councildis": "A",
    "status": "Assigned to Contractor",
    "contractor": "Legacy Professional Services",
    "rowid": "1092488",
    "final_x": "3670225.90574",
    "final_y": "549040.399251",
    "longitude": "-90.10307595606615",
    "latitude": "30.0040083261583",
    "geocoded_column": {
      "latitude": "30.0040083261583",
      "longitude": "-90.10307595606615"
    }
  },
  {
    "service_request": "2024-1092487",
    "request_type": "Traffic Signals/Signs/Striping/Streetlights",
    "request_reason": "Street Light Outage/Malfunction",
    "date_created": "2024-05-12T21:21:45.000",
    "date_modified": "2024-05-12T21:21:46.000",
    "request_status": "Pending",
    "responsible_agency": "Department of Public Works",
    "final_address": "932 Harrison Ave",
    "address_councildis": "A",
    "status": "Assigned to Contractor",
    "contractor": "Legacy Professional Services",
    "rowid": "1092487",
    "final_x": "3670225.90574",
    "final_y": "549040.399251",
    "longitude": "-90.10307595606615",
    "latitude": "30.0040083261583",
    "geocoded_column": {
      "latitude": "30.0040083261583",
      "longitude": "-90.10307595606615"
    }
  },
  {
    "service_request": "2024-1092486",
    "request_type": "Traffic Signals/Signs/Striping/Streetlights",
    "request_reason": "Street Light Outage/Malfunction",
    "date_created": "2024-05-12T21:20:44.000",
    "date_modified": "2024-05-12T21:20:44.000",
    "request_status": "Pending",
    "responsible_agency": "Department of Public Works",
    "final_address": "949 Harrison Ave",
    "address_councildis": "A",
    "status": "Assigned to Contractor",
    "contractor": "Legacy Professional Services",
    "rowid": "1092486",
    "final_x": "3670458.59099",
    "final_y": "549218.430803",
    "longitude": "-90.10233481823421",
    "latitude": "30.004490979248192",
    "geocoded_column": {
      "latitude": "30.004490979248192",
      "longitude": "-90.10233481823421"
    }
  },
  {
    "service_request": "2024-1092485",
    "request_type": "Traffic Signals/Signs/Striping/Streetlights",
    "request_reason": "Street Light Outage/Malfunction",
    "date_created": "2024-05-12T21:19:23.000",
    "date_modified": "2024-05-12T21:19:23.000",
    "request_status": "Pending",
    "responsible_agency": "Department of Public Works",
    "final_address": "949 Harrison Ave",
    "address_councildis": "A",
    "status": "Assigned to Contractor",
    "contractor": "Legacy Professional Services",
    "rowid": "1092485",
    "final_x": "3670458.59099",
    "final_y": "549218.430803",
    "longitude": "-90.10233481823421",
    "latitude": "30.004490979248192",
    "geocoded_column": {
      "latitude": "30.004490979248192",
      "longitude": "-90.10233481823421"
    }
  },
  {
    "service_request": "2024-1092484",
    "request_type": "Traffic Signals/Signs/Striping/Streetlights",
    "request_reason": "Street Light Outage/Malfunction",
    "date_created": "2024-05-12T21:15:43.000",
    "date_modified": "2024-05-12T21:15:43.000",
    "request_status": "Pending",
    "responsible_agency": "Department of Public Works",
    "final_address": "6325 General Haig St",
    "address_councildis": "A",
    "status": "Assigned to Contractor",
    "contractor": "Legacy Professional Services",
    "rowid": "1092484",
    "final_x": "3670801.5787",
    "final_y": "549307.423379",
    "longitude": "-90.10124822878299",
    "latitude": "30.00472554137156",
    "geocoded_column": {
      "latitude": "30.00472554137156",
      "longitude": "-90.10124822878299"
    }
  },
  {
    "service_request": "2024-1092483",
    "request_type": "Traffic Signals/Signs/Striping/Streetlights",
    "request_reason": "Traffic Signal Malfunctioning/Damaged",
    "date_created": "2024-05-12T21:04:46.000",
    "date_modified": "2024-05-12T21:04:46.000",
    "request_status": "Pending",
    "responsible_agency": "Department of Public Works",
    "final_address": "GRAVIER ST & S CLAIBORNE AVE & S CLAIBORNE AV OVERPASS",
    "address_councildis": "B",
    "status": "Pending",
    "rowid": "1092483",
    "final_x": "3677409.4",
    "final_y": "531610.08",
    "longitude": "-90.0809838615513",
    "latitude": "29.955866939021757",
    "geocoded_column": {
      "latitude": "29.955866939021757",
      "longitude": "-90.0809838615513"
    }
  },
  {
    "service_request": "2024-1092482",
    "request_type": "Trash/Recycling",
    "request_reason": "Replace Trash Cart",
    "date_created": "2024-05-12T21:00:16.000",
    "date_modified": "2024-05-12T21:00:16.000",
    "request_status": "Pending",
    "responsible_agency": "Department of Sanitation",
    "final_address": "7825 Sycamore St",
    "address_councildis": "A",
    "status": "Assigned to Contractor",
    "contractor": "IV Waste",
    "rowid": "1092482",
    "final_x": "3665031.75924",
    "final_y": "530387.096258",
    "longitude": "-90.12010919344",
    "latitude": "29.952870306448016",
    "geocoded_column": {
      "latitude": "29.952870306448016",
      "longitude": "-90.12010919344"
    }
  },
  {
    "service_request": "2024-1092481",
    "request_type": "Roads/Drainage",
    "request_reason": "Catch Basin - Clogged",
    "date_created": "2024-05-12T20:30:28.000",
    "date_modified": "2024-05-12T20:30:28.000",
    "request_status": "Pending",
    "responsible_agency": "Department of Public Works",
    "final_address": "1400 BLK S Rendon St",
    "address_councildis": "B",
    "status": "Pending",
    "rowid": "1092481",
    "final_x": "3670094.99704",
    "final_y": "531473.66814",
    "longitude": "-90.10408488217384",
    "latitude": "29.955709640734305",
    "geocoded_column": {
      "latitude": "29.955709640734305",
      "longitude": "-90.10408488217384"
    }
  },
  {
    "service_request": "2024-1092480",
    "request_type": "Trash/Recycling",
    "request_reason": "Repair Trash Cart",
    "date_created": "2024-05-12T19:51:37.000",
    "date_modified": "2024-05-12T19:51:37.000",
    "request_status": "Pending",
    "responsible_agency": "Department of Sanitation",
    "final_address": "4719 Camelot Dr",
    "address_councildis": "E",
    "status": "Assigned to Contractor",
    "contractor": "Waste Pro",
    "rowid": "1092480",
    "final_x": "3708459.53124",
    "final_y": "555468.107417",
    "longitude": "-89.98205083754154",
    "latitude": "30.02049789933478",
    "geocoded_column": {
      "latitude": "30.02049789933478",
      "longitude": "-89.98205083754154"
    }
  },
  {
    "service_request": "2024-1092479",
    "request_type": "Trash/Recycling",
    "request_reason": "Order Trash Cart",
    "date_created": "2024-05-12T19:35:52.000",
    "date_modified": "2024-05-12T19:35:52.000",
    "request_status": "Pending",
    "responsible_agency": "Department of Sanitation",
    "final_address": "5304 St Anthony Ave",
    "address_councildis": "D",
    "status": "Assigned to Contractor",
    "contractor": "IV Waste",
    "rowid": "1092479",
    "final_x": "3682111.7062",
    "final_y": "552273.616214",
    "longitude": "-90.06541363218116",
    "latitude": "30.0125422562854",
    "geocoded_column": {
      "latitude": "30.0125422562854",
      "longitude": "-90.06541363218116"
    }
  },
  {
    "service_request": "2024-1092478",
    "request_type": "Trash/Recycling",
    "request_reason": "Illegal Dumping",
    "date_created": "2024-05-12T19:35:12.000",
    "date_modified": "2024-05-12T19:35:12.000",
    "request_status": "Pending",
    "responsible_agency": "Department of Sanitation",
    "final_address": "1101 Wagner St",
    "address_councildis": "C",
    "status": "Pending",
    "rowid": "1092478",
    "final_x": "3690431.65392",
    "final_y": "527412.229311",
    "longitude": "-90.04001387418793",
    "latitude": "29.943926519412223",
    "geocoded_column": {
      "latitude": "29.943926519412223",
      "longitude": "-90.04001387418793"
    }
  },
  {
    "service_request": "2024-1092477",
    "request_type": "Trash/Recycling",
    "request_reason": "Illegal Dumping",
    "date_created": "2024-05-12T19:34:21.000",
    "date_modified": "2024-05-12T19:34:21.000",
    "request_status": "Pending",
    "responsible_agency": "Department of Sanitation",
    "final_address": "1600 Sumner St",
    "address_councildis": "C",
    "status": "Pending",
    "rowid": "1092477",
    "final_x": "3691049.16208",
    "final_y": "525459.911229",
    "longitude": "-90.03813391352638",
    "latitude": "29.938539132722163",
    "geocoded_column": {
      "latitude": "29.938539132722163",
      "longitude": "-90.03813391352638"
    }
  },
  {
    "service_request": "2024-1092476",
    "request_type": "Trash/Recycling",
    "request_reason": "Illegal Dumping",
    "date_created": "2024-05-12T19:30:35.000",
    "date_modified": "2024-05-12T19:30:35.000",
    "request_status": "Pending",
    "responsible_agency": "Department of Sanitation",
    "final_address": "1310 Brooklyn Ave",
    "address_councildis": "C",
    "status": "Pending",
    "rowid": "1092476",
    "final_x": "3686319.17526",
    "final_y": "526636.98643",
    "longitude": "-90.05302541643191",
    "latitude": "29.941921856758835",
    "geocoded_column": {
      "latitude": "29.941921856758835",
      "longitude": "-90.05302541643191"
    }
  },
  {
    "service_request": "2024-1092475",
    "request_type": "Trash/Recycling",
    "request_reason": "Illegal Dumping",
    "date_created": "2024-05-12T19:26:34.000",
    "date_modified": "2024-05-12T19:26:34.000",
    "request_status": "Pending",
    "responsible_agency": "Department of Sanitation",
    "final_address": "1800 Thayer St",
    "address_councildis": "C",
    "status": "Pending",
    "rowid": "1092475",
    "final_x": "3689920.31222",
    "final_y": "524987.915773",
    "longitude": "-90.04171459481374",
    "latitude": "29.937276342810502",
    "geocoded_column": {
      "latitude": "29.937276342810502",
      "longitude": "-90.04171459481374"
    }
  },
  {
    "service_request": "2024-1092474",
    "request_type": "Property Maintenance",
    "request_reason": "Property Maintenance",
    "date_created": "2024-05-12T19:20:12.000",
    "date_modified": "2024-05-12T19:20:12.000",
    "request_status": "Pending",
    "responsible_agency": "Department of Code Enforcement",
    "final_address": "4600 BLK Berkley Dr",
    "address_councildis": "C",
    "status": "Pending",
    "rowid": "1092474",
    "final_x": "3700783.22602",
    "final_y": "518285.468794",
    "longitude": "-90.00766472291953",
    "latitude": "29.9185057632501",
    "geocoded_column": {
      "latitude": "29.9185057632501",
      "longitude": "-90.00766472291953"
    }
  },
  {
    "service_request": "2024-1092473",
    "request_type": "Abandoned Vehicles",
    "request_reason": "Vehicle Blocking Your Driveway",
    "date_created": "2024-05-12T19:09:49.000",
    "date_modified": "2024-05-12T19:09:49.000",
    "request_status": "Pending",
    "responsible_agency": "Department of Public Works",
    "final_address": "1701 Louisa St",
    "address_councildis": "D",
    "status": "Pending",
    "rowid": "1092473",
    "final_x": "3690175.39612",
    "final_y": "538147.157961",
    "longitude": "-90.04044051984286",
    "latitude": "29.973451791527623",
    "geocoded_column": {
      "latitude": "29.973451791527623",
      "longitude": "-90.04044051984286"
    }
  },
  {
    "service_request": "2024-1092471",
    "request_type": "Trash/Recycling",
    "request_reason": "Missed Trash Pick-Up",
    "date_created": "2024-05-12T18:54:55.000",
    "date_modified": "2024-05-12T18:54:56.000",
    "request_status": "Pending",
    "responsible_agency": "Department of Sanitation",
    "final_address": "336 S Alexander St, New Orleans, Louisiana, 70119",
    "status": "Assigned to Contractor",
    "rowid": "1092471",
    "longitude": "0.0",
    "latitude": "0.0",
    "geocoded_column": {
      "latitude": "0.0",
      "longitude": "0.0"
    }
  },
  {
    "service_request": "2024-1092470",
    "request_type": "Healthy Homes",
    "request_reason": "Healthy Homes",
    "date_created": "2024-05-12T18:49:37.000",
    "date_modified": "2024-05-12T18:49:37.000",
    "request_status": "Pending",
    "responsible_agency": "Department of Code Enforcement",
    "final_address": "8725 Colapissa St",
    "address_councildis": "A",
    "status": "Pending",
    "rowid": "1092470",
    "final_x": "3664842.01549",
    "final_y": "534992.963014",
    "longitude": "-90.12055439359091",
    "latitude": "29.96554045730387",
    "geocoded_column": {
      "latitude": "29.96554045730387",
      "longitude": "-90.12055439359091"
    }
  },
  {
    "service_request": "2024-1092469",
    "request_type": "Property Maintenance",
    "request_reason": "Property Maintenance",
    "date_created": "2024-05-12T18:47:25.000",
    "date_modified": "2024-05-12T18:47:25.000",
    "request_status": "Pending",
    "responsible_agency": "Department of Code Enforcement",
    "final_address": "3200 Albert St",
    "address_councildis": "C",
    "status": "Pending",
    "rowid": "1092469",
    "final_x": "3712053.25067",
    "final_y": "518679.332151",
    "longitude": "-89.97207682692103",
    "latitude": "29.919225416313246",
    "geocoded_column": {
      "latitude": "29.919225416313246",
      "longitude": "-89.97207682692103"
    }
  },
  {
    "service_request": "2024-1092468",
    "request_type": "Trash/Recycling",
    "request_reason": "Request a Large Item Pick Up",
    "date_created": "2024-05-12T18:45:54.000",
    "date_modified": "2024-05-12T18:45:55.000",
    "request_status": "Pending",
    "responsible_agency": "Department of Sanitation",
    "final_address": "5611 Painters St",
    "address_councildis": "D",
    "status": "Assigned to Contractor",
    "contractor": "IV Waste",
    "rowid": "1092468",
    "final_x": "3686223.08335",
    "final_y": "553710.706647",
    "longitude": "-90.05237322795638",
    "latitude": "30.016367994379024",
    "geocoded_column": {
      "latitude": "30.016367994379024",
      "longitude": "-90.05237322795638"
    }
  },
  {
    "service_request": "2024-1092467",
    "request_type": "Property Maintenance",
    "request_reason": "Property Maintenance",
    "date_created": "2024-05-12T18:40:33.000",
    "date_modified": "2024-05-12T18:40:33.000",
    "request_status": "Pending",
    "responsible_agency": "Department of Code Enforcement",
    "final_address": "6629 Peony St",
    "address_councildis": "C",
    "status": "Pending",
    "rowid": "1092467",
    "final_x": "3708413.61227",
    "final_y": "516344.79698",
    "longitude": "-89.98365201211037",
    "latitude": "29.91292464752084",
    "geocoded_column": {
      "latitude": "29.91292464752084",
      "longitude": "-89.98365201211037"
    }
  },
  {
    "service_request": "2024-1092466",
    "request_type": "Traffic Signals/Signs/Striping/Streetlights",
    "request_reason": "Request for Stop Sign",
    "date_created": "2024-05-12T18:39:33.000",
    "date_modified": "2024-05-12T18:39:33.000",
    "request_status": "Pending",
    "responsible_agency": "Department of Public Works",
    "final_address": "4200 Vendome Pl",
    "address_councildis": "B",
    "status": "Pending",
    "rowid": "1092466",
    "final_x": "3668890.16442",
    "final_y": "531139.474178",
    "longitude": "-90.10790061529472",
    "latitude": "29.954826202543426",
    "geocoded_column": {
      "latitude": "29.954826202543426",
      "longitude": "-90.10790061529472"
    }
  },
  {
    "service_request": "2024-1092465",
    "request_type": "Roads/Drainage",
    "request_reason": "Catch Basin - Clogged",
    "date_created": "2024-05-12T18:21:05.000",
    "date_modified": "2024-05-12T18:21:05.000",
    "request_status": "Pending",
    "responsible_agency": "Department of Public Works",
    "final_address": "6400 BLK Saint Charles Ave",
    "address_councildis": "A",
    "status": "Pending",
    "rowid": "1092465",
    "final_x": "3664433.28986",
    "final_y": "523563.192163",
    "longitude": "-90.12222664476718",
    "latitude": "29.934124167909424",
    "geocoded_column": {
      "latitude": "29.934124167909424",
      "longitude": "-90.12222664476718"
    }
  },
  {
    "service_request": "2024-1092464",
    "request_type": "Traffic Signals/Signs/Striping/Streetlights",
    "request_reason": "Street Light Outage/Malfunction",
    "date_created": "2024-05-12T17:59:56.000",
    "date_modified": "2024-05-12T17:59:56.000",
    "request_status": "Pending",
    "responsible_agency": "Department of Public Works",
    "final_address": "609 Eleonore St",
    "address_councildis": "A",
    "status": "Assigned to Contractor",
    "contractor": "Legacy Professional Services",
    "rowid": "1092464",
    "final_x": "3665134.981",
    "final_y": "518484.693558",
    "longitude": "-90.12018116679658",
    "latitude": "29.920139485356092",
    "geocoded_column": {
      "latitude": "29.920139485356092",
      "longitude": "-90.12018116679658"
    }
  },
  {
    "service_request": "2024-1092463",
    "request_type": "Trash/Recycling",
    "request_reason": "Request a Large Item Pick Up",
    "date_created": "2024-05-12T17:54:57.000",
    "date_modified": "2024-05-12T17:54:57.000",
    "request_status": "Pending",
    "responsible_agency": "Department of Sanitation",
    "final_address": "4422 Kennon Ave",
    "address_councildis": "D",
    "status": "Assigned to Contractor",
    "contractor": "IV Waste",
    "rowid": "1092463",
    "final_x": "3677387.28859",
    "final_y": "548646.546707",
    "longitude": "-90.08046548184433",
    "latitude": "30.00271200783628",
    "geocoded_column": {
      "latitude": "30.00271200783628",
      "longitude": "-90.08046548184433"
    }
  },
  {
    "service_request": "2024-1092462",
    "request_type": "Traffic Signals/Signs/Striping/Streetlights",
    "request_reason": "Traffic Sign Missing/Damaged",
    "date_created": "2024-05-12T17:17:33.000",
    "date_modified": "2024-05-12T17:17:33.000",
    "request_status": "Pending",
    "responsible_agency": "Department of Public Works",
    "final_address": "8600 BLK Pontchartrain Blvd",
    "address_councildis": "A",
    "status": "Pending",
    "rowid": "1092462",
    "final_x": "3666576.23079",
    "final_y": "555489.401604",
    "longitude": "-90.11438922974862",
    "latitude": "30.021848065415632",
    "geocoded_column": {
      "latitude": "30.021848065415632",
      "longitude": "-90.11438922974862"
    }
  },
  {
    "service_request": "2024-1092461",
    "request_type": "Graffiti Removal",
    "request_reason": "Graffiti Removal",
    "date_created": "2024-05-12T16:54:32.000",
    "date_modified": "2024-05-12T16:54:32.000",
    "request_status": "Pending",
    "responsible_agency": "Department of Code Enforcement",
    "final_address": "2141 Robert St",
    "address_councildis": "B",
    "status": "Pending",
    "rowid": "1092461",
    "final_x": "3668861.80001",
    "final_y": "523507.588027",
    "longitude": "-90.10824783200816",
    "latitude": "29.933841825983073",
    "geocoded_column": {
      "latitude": "29.933841825983073",
      "longitude": "-90.10824783200816"
    }
  },
  {
    "service_request": "2024-1092460",
    "request_type": "Roads/Drainage",
    "request_reason": "Pothole",
    "date_created": "2024-05-12T16:49:54.000",
    "date_modified": "2024-05-12T16:49:54.000",
    "request_status": "Pending",
    "responsible_agency": "Department of Public Works",
    "final_address": "5921 Coliseum St",
    "address_councildis": "A",
    "status": "Pending",
    "rowid": "1092460",
    "final_x": "3665303.22644",
    "final_y": "520189.895096",
    "longitude": "-90.11959307956585",
    "latitude": "29.924823355758967",
    "geocoded_column": {
      "latitude": "29.924823355758967",
      "longitude": "-90.11959307956585"
    }
  },
  {
    "service_request": "2024-1092459",
    "request_type": "Property Maintenance",
    "request_reason": "Property Maintenance",
    "date_created": "2024-05-12T16:47:57.000",
    "date_modified": "2024-05-12T16:47:57.000",
    "request_status": "Pending",
    "responsible_agency": "Department of Code Enforcement",
    "final_address": "3801 Laurel St",
    "address_councildis": "B",
    "status": "Pending",
    "rowid": "1092459",
    "final_x": "3673511.2596",
    "final_y": "518358.668342",
    "longitude": "-90.0937455205776",
    "latitude": "29.91954644817221",
    "geocoded_column": {
      "latitude": "29.91954644817221",
      "longitude": "-90.0937455205776"
    }
  },
  {
    "service_request": "2024-1092458",
    "request_type": "Roads/Drainage",
    "request_reason": "Street Subsidence (Sinking)",
    "date_created": "2024-05-12T16:43:26.000",
    "date_modified": "2024-05-12T16:43:26.000",
    "request_status": "Pending",
    "responsible_agency": "Department of Public Works",
    "final_address": "4001 Octavia St",
    "address_councildis": "B",
    "status": "Pending",
    "rowid": "1092458",
    "final_x": "3668950.36033",
    "final_y": "530028.996545",
    "longitude": "-90.10774804399345",
    "latitude": "29.951770982887787",
    "geocoded_column": {
      "latitude": "29.951770982887787",
      "longitude": "-90.10774804399345"
    }
  },
  {
    "service_request": "2024-1092457",
    "request_type": "Parks & Parkways",
    "request_reason": "Request Tree Service (Right of Way/Public Property)",
    "date_created": "2024-05-12T16:41:35.000",
    "date_modified": "2024-05-12T16:41:35.000",
    "request_status": "Pending",
    "responsible_agency": "Department of Parks & Parkway",
    "final_address": "4001 Octavia St",
    "address_councildis": "B",
    "status": "Pending",
    "rowid": "1092457",
    "final_x": "3668950.36033",
    "final_y": "530028.996545",
    "longitude": "-90.10774804399345",
    "latitude": "29.951770982887787",
    "geocoded_column": {
      "latitude": "29.951770982887787",
      "longitude": "-90.10774804399345"
    }
  },
  {
    "service_request": "2024-1092456",
    "request_type": "Roads/Drainage",
    "request_reason": "Catch Basin - Broken/Damage",
    "date_created": "2024-05-12T16:39:13.000",
    "date_modified": "2024-05-12T16:39:13.000",
    "request_status": "Pending",
    "responsible_agency": "Department of Public Works",
    "final_address": "4001 Vendome Pl",
    "address_councildis": "B",
    "status": "Pending",
    "rowid": "1092456",
    "final_x": "3668753.29319",
    "final_y": "529810.854145",
    "longitude": "-90.10837765325668",
    "latitude": "29.951176956964733",
    "geocoded_column": {
      "latitude": "29.951176956964733",
      "longitude": "-90.10837765325668"
    }
  },
  {
    "service_request": "2024-1092455",
    "request_type": "Trash/Recycling",
    "request_reason": "Request a Large Item Pick Up",
    "date_created": "2024-05-12T16:32:48.000",
    "date_modified": "2024-05-12T16:32:48.000",
    "request_status": "Pending",
    "responsible_agency": "Department of Sanitation",
    "final_address": "6125 Patton St",
    "address_councildis": "A",
    "status": "Assigned to Contractor",
    "contractor": "IV Waste",
    "rowid": "1092455",
    "final_x": "3663704.36954",
    "final_y": "518927.199991",
    "longitude": "-90.12468221000961",
    "latitude": "29.92139781066274",
    "geocoded_column": {
      "latitude": "29.92139781066274",
      "longitude": "-90.12468221000961"
    }
  },
  {
    "service_request": "2024-1092454",
    "request_type": "Trash/Recycling",
    "request_reason": "Request a Large Item Pick Up",
    "date_created": "2024-05-12T15:50:10.000",
    "date_modified": "2024-05-12T15:50:11.000",
    "request_status": "Pending",
    "responsible_agency": "Department of Sanitation",
    "final_address": "705 Patterson St",
    "address_councildis": "C",
    "status": "Assigned to Contractor",
    "contractor": "Richards Disposal",
    "rowid": "1092454",
    "final_x": "3687673.99535",
    "final_y": "531408.048899",
    "longitude": "-90.04857908142694",
    "latitude": "29.954998954409437",
    "geocoded_column": {
      "latitude": "29.954998954409437",
      "longitude": "-90.04857908142694"
    }
  },
  {
    "service_request": "2024-1092453",
    "request_type": "Property Maintenance",
    "request_reason": "Property Maintenance",
    "date_created": "2024-05-12T15:43:28.000",
    "date_modified": "2024-05-12T15:43:28.000",
    "request_status": "Pending",
    "responsible_agency": "Department of Code Enforcement",
    "final_address": "3414 Robert St",
    "address_councildis": "B",
    "status": "Pending",
    "rowid": "1092453",
    "final_x": "3668896.96282",
    "final_y": "527422.482623",
    "longitude": "-90.10800465899901",
    "latitude": "29.944605489464006",
    "geocoded_column": {
      "latitude": "29.944605489464006",
      "longitude": "-90.10800465899901"
    }
  },
  {
    "service_request": "2024-1092452",
    "request_type": "Roads/Drainage",
    "request_reason": "Pothole",
    "date_created": "2024-05-12T15:16:13.000",
    "date_modified": "2024-05-12T15:16:13.000",
    "request_status": "Pending",
    "responsible_agency": "Department of Public Works",
    "final_address": "6024 Benjamin St",
    "address_councildis": "A",
    "status": "Pending",
    "rowid": "1092452",
    "final_x": "3665395.13933",
    "final_y": "522178.833594",
    "longitude": "-90.11923641544821",
    "latitude": "29.93028963171796",
    "geocoded_column": {
      "latitude": "29.93028963171796",
      "longitude": "-90.11923641544821"
    }
  },
  {
    "service_request": "2024-1092451",
    "request_type": "Abandoned Vehicles",
    "request_reason": "Abandoned/Junk Vehicles",
    "date_created": "2024-05-12T15:08:48.000",
    "date_modified": "2024-05-12T15:08:48.000",
    "request_status": "Pending",
    "responsible_agency": "Department of Public Works",
    "final_address": "2407 St Thomas St",
    "address_councildis": "B",
    "status": "Pending",
    "rowid": "1092451",
    "final_x": "3678985.68392",
    "final_y": "519956.18124",
    "longitude": "-90.07641016953328",
    "latitude": "29.923775110696408",
    "geocoded_column": {
      "latitude": "29.923775110696408",
      "longitude": "-90.07641016953328"
    }
  },
  {
    "service_request": "2024-1092450",
    "request_type": "Trash/Recycling",
    "request_reason": "Replace Trash Cart",
    "date_created": "2024-05-12T15:07:30.000",
    "date_modified": "2024-05-12T15:07:31.000",
    "request_status": "Pending",
    "responsible_agency": "Department of Sanitation",
    "final_address": "1032 Bourbon St",
    "address_councildis": "C",
    "status": "Assigned to Contractor",
    "contractor": "Empire Services",
    "rowid": "1092450",
    "final_x": "3683117.50517",
    "final_y": "533759.093893",
    "longitude": "-90.06288443750766",
    "latitude": "29.961603215673943",
    "geocoded_column": {
      "latitude": "29.961603215673943",
      "longitude": "-90.06288443750766"
    }
  },
  {
    "service_request": "2024-1092449",
    "request_type": "Property Maintenance",
    "request_reason": "Property Maintenance",
    "date_created": "2024-05-12T15:06:45.000",
    "date_modified": "2024-05-12T15:06:45.000",
    "request_status": "Pending",
    "responsible_agency": "Department of Code Enforcement",
    "final_address": "1100 S Carrollton Ave",
    "address_councildis": "A",
    "status": "Pending",
    "rowid": "1092449",
    "final_x": "3661751.90522",
    "final_y": "528190.900672",
    "longitude": "-90.13053836561525",
    "latitude": "29.946926554318562",
    "geocoded_column": {
      "latitude": "29.946926554318562",
      "longitude": "-90.13053836561525"
    }
  },
  {
    "service_request": "2024-1092448",
    "request_type": "Trash/Recycling",
    "request_reason": "Replace Trash Cart",
    "date_created": "2024-05-12T15:06:01.000",
    "date_modified": "2024-05-12T15:06:02.000",
    "request_status": "Pending",
    "responsible_agency": "Department of Sanitation",
    "final_address": "7810 St Charles Ave",
    "address_councildis": "A",
    "status": "Assigned to Contractor",
    "contractor": "IV Waste",
    "rowid": "1092448",
    "final_x": "3661285.4425",
    "final_y": "526091.573758",
    "longitude": "-90.13208065731001",
    "latitude": "29.941167528931338",
    "geocoded_column": {
      "latitude": "29.941167528931338",
      "longitude": "-90.13208065731001"
    }
  },
  {
    "service_request": "2024-1092447",
    "request_type": "Trash/Recycling",
    "request_reason": "Request a Large Item Pick Up",
    "date_created": "2024-05-12T15:03:43.000",
    "date_modified": "2024-05-12T15:03:44.000",
    "request_status": "Pending",
    "responsible_agency": "Department of Sanitation",
    "final_address": "1032 Bourbon St",
    "address_councildis": "C",
    "status": "Assigned to Contractor",
    "contractor": "Empire Services",
    "rowid": "1092447",
    "final_x": "3683117.50517",
    "final_y": "533759.093893",
    "longitude": "-90.06288443750766",
    "latitude": "29.961603215673943",
    "geocoded_column": {
      "latitude": "29.961603215673943",
      "longitude": "-90.06288443750766"
    }
  },
  {
    "service_request": "2024-1092446",
    "request_type": "Trash/Recycling",
    "request_reason": "Order Recycling Cart",
    "date_created": "2024-05-12T14:58:54.000",
    "date_modified": "2024-05-12T14:58:54.000",
    "request_status": "Pending",
    "responsible_agency": "Department of Sanitation",
    "final_address": "4223 Camp St",
    "address_councildis": "B",
    "status": "Pending",
    "rowid": "1092446",
    "final_x": "3671567.37895",
    "final_y": "519250.268471",
    "longitude": "-90.0998511033834",
    "latitude": "29.92205574532109",
    "geocoded_column": {
      "latitude": "29.92205574532109",
      "longitude": "-90.0998511033834"
    }
  },
  {
    "service_request": "2024-1092445",
    "request_type": "Trash/Recycling",
    "request_reason": "Replace Trash Cart",
    "date_created": "2024-05-12T14:58:09.000",
    "date_modified": "2024-05-12T14:58:10.000",
    "request_status": "Pending",
    "responsible_agency": "Department of Sanitation",
    "final_address": "4223 Camp St",
    "address_councildis": "B",
    "status": "Assigned to Contractor",
    "contractor": "IV Waste",
    "rowid": "1092445",
    "final_x": "3671567.37895",
    "final_y": "519250.268471",
    "longitude": "-90.0998511033834",
    "latitude": "29.92205574532109",
    "geocoded_column": {
      "latitude": "29.92205574532109",
      "longitude": "-90.0998511033834"
    }
  },
  {
    "service_request": "2024-1092444",
    "request_type": "Trash/Recycling",
    "request_reason": "Order Trash Cart",
    "date_created": "2024-05-12T14:57:22.000",
    "date_modified": "2024-05-12T14:57:23.000",
    "request_status": "Pending",
    "responsible_agency": "Department of Sanitation",
    "final_address": "1401 Napoleon Ave",
    "address_councildis": "B",
    "status": "Assigned to Contractor",
    "contractor": "IV Waste",
    "rowid": "1092444",
    "final_x": "3671000.37281",
    "final_y": "520394.879928",
    "longitude": "-90.10160207031225",
    "latitude": "29.925219833269168",
    "geocoded_column": {
      "latitude": "29.925219833269168",
      "longitude": "-90.10160207031225"
    }
  },
  {
    "service_request": "2024-1092443",
    "request_type": "Trash/Recycling",
    "request_reason": "Request a Large Item Pick Up",
    "date_created": "2024-05-12T14:27:21.000",
    "date_modified": "2024-05-12T14:27:22.000",
    "request_status": "Pending",
    "responsible_agency": "Department of Sanitation",
    "final_address": "4040 Virgil Blvd",
    "address_councildis": "D",
    "status": "Assigned to Contractor",
    "contractor": "IV Waste",
    "rowid": "1092443",
    "final_x": "3679671.16443",
    "final_y": "547254.479249",
    "longitude": "-90.07329877170346",
    "latitude": "29.998815455686035",
    "geocoded_column": {
      "latitude": "29.998815455686035",
      "longitude": "-90.07329877170346"
    }
  },
  {
    "service_request": "2024-1092442",
    "request_type": "Trash/Recycling",
    "request_reason": "Request a Large Item Pick Up",
    "date_created": "2024-05-12T14:23:26.000",
    "date_modified": "2024-05-12T14:23:27.000",
    "request_status": "Pending",
    "responsible_agency": "Department of Sanitation",
    "final_address": "4040 Virgil Blvd",
    "address_councildis": "D",
    "status": "Assigned to Contractor",
    "contractor": "IV Waste",
    "rowid": "1092442",
    "final_x": "3679671.16443",
    "final_y": "547254.479249",
    "longitude": "-90.07329877170346",
    "latitude": "29.998815455686035",
    "geocoded_column": {
      "latitude": "29.998815455686035",
      "longitude": "-90.07329877170346"
    }
  },
  {
    "service_request": "2024-1092441",
    "request_type": "Abandoned Vehicles",
    "request_reason": "Abandoned/Junk Vehicles",
    "date_created": "2024-05-12T14:13:02.000",
    "date_modified": "2024-05-12T14:13:02.000",
    "request_status": "Pending",
    "responsible_agency": "Department of Public Works",
    "final_address": "1801 Robert St",
    "address_councildis": "B",
    "status": "Pending",
    "rowid": "1092441",
    "final_x": "3668788.98305",
    "final_y": "522189.74841",
    "longitude": "-90.10852218352696",
    "latitude": "29.930220329058432",
    "geocoded_column": {
      "latitude": "29.930220329058432",
      "longitude": "-90.10852218352696"
    }
  },
  {
    "service_request": "2024-1092440",
    "request_type": "Roads/Drainage",
    "request_reason": "Catch Basin - Clogged",
    "date_created": "2024-05-12T13:58:43.000",
    "date_modified": "2024-05-12T13:58:43.000",
    "request_status": "Pending",
    "responsible_agency": "Department of Public Works",
    "final_address": "296 Walnut St, New Orleans, Louisiana, 70118",
    "address_councildis": "A",
    "status": "Pending",
    "rowid": "1092440",
    "final_x": "3661605.66042",
    "final_y": "521775.388154",
    "longitude": "-90.1312126277596",
    "latitude": "29.92929014462182",
    "geocoded_column": {
      "latitude": "29.92929014462182",
      "longitude": "-90.1312126277596"
    }
  },
  {
    "service_request": "2024-1092439",
    "request_type": "Trash/Recycling",
    "request_reason": "Repair Trash Cart",
    "date_created": "2024-05-12T13:55:50.000",
    "date_modified": "2024-05-12T13:55:50.000",
    "request_status": "Pending",
    "responsible_agency": "Department of Sanitation",
    "final_address": "2308 Dauphine St",
    "address_councildis": "C",
    "status": "Assigned to Contractor",
    "contractor": "IV Waste",
    "rowid": "1092439",
    "final_x": "3685603.80105",
    "final_y": "535244.20519",
    "longitude": "-90.0549808244843",
    "latitude": "29.965610724972848",
    "geocoded_column": {
      "latitude": "29.965610724972848",
      "longitude": "-90.0549808244843"
    }
  },
  {
    "service_request": "2024-1092438",
    "request_type": "Trash/Recycling",
    "request_reason": "Request a Large Item Pick Up",
    "date_created": "2024-05-12T13:30:34.000",
    "date_modified": "2024-05-12T13:30:35.000",
    "request_status": "Pending",
    "responsible_agency": "Department of Sanitation",
    "final_address": "535 Belleville St",
    "address_councildis": "C",
    "status": "Assigned to Contractor",
    "contractor": "Richards Disposal",
    "rowid": "1092438",
    "final_x": "3687790.07535",
    "final_y": "529639.179457",
    "longitude": "-90.048275185763",
    "latitude": "29.950131591368322",
    "geocoded_column": {
      "latitude": "29.950131591368322",
      "longitude": "-90.048275185763"
    }
  },
  {
    "service_request": "2024-1092437",
    "request_type": "Traffic Signals/Signs/Striping/Streetlights",
    "request_reason": "Road Surface Marking Maintenance-Traffic Control",
    "date_created": "2024-05-12T13:18:15.000",
    "date_modified": "2024-05-12T13:18:15.000",
    "request_status": "Pending",
    "responsible_agency": "Department of Public Works",
    "final_address": "EARHART BLVD & HAMILTON ST",
    "address_councildis": "A",
    "status": "Pending",
    "rowid": "1092437",
    "final_x": "3663184.2",
    "final_y": "534965.98",
    "longitude": "-90.12579062775865",
    "latitude": "29.965514406045376",
    "geocoded_column": {
      "latitude": "29.965514406045376",
      "longitude": "-90.12579062775865"
    }
  },
  {
    "service_request": "2024-1092436",
    "request_type": "Roads/Drainage",
    "request_reason": "Street Flooding / Drainage",
    "date_created": "2024-05-12T13:12:21.000",
    "date_modified": "2024-05-12T13:12:21.000",
    "request_status": "Pending",
    "responsible_agency": "Department of Public Works",
    "final_address": "HICKORY ST & HOLLYGROVE ST",
    "address_councildis": "A",
    "status": "Pending",
    "rowid": "1092436",
    "final_x": "3661029.0",
    "final_y": "532070.08",
    "longitude": "-90.1326925183436",
    "latitude": "29.9576138973449",
    "geocoded_column": {
      "latitude": "29.9576138973449",
      "longitude": "-90.1326925183436"
    }
  },
  {
    "service_request": "2024-1092435",
    "request_type": "Roads/Drainage",
    "request_reason": "Man hole cover issue",
    "date_created": "2024-05-12T13:10:22.000",
    "date_modified": "2024-05-12T13:10:22.000",
    "request_status": "Pending",
    "responsible_agency": "Department of Public Works",
    "final_address": "HICKORY ST & GENERAL OGDEN ST",
    "address_councildis": "A",
    "status": "Pending",
    "rowid": "1092435",
    "final_x": "3661291.4",
    "final_y": "531837.58",
    "longitude": "-90.1318716297159",
    "latitude": "29.95696703470724",
    "geocoded_column": {
      "latitude": "29.95696703470724",
      "longitude": "-90.1318716297159"
    }
  },
  {
    "service_request": "2024-1092433",
    "request_type": "Trash/Recycling",
    "request_reason": "Illegal Dumping",
    "date_created": "2024-05-12T13:02:44.000",
    "date_modified": "2024-05-12T13:02:44.000",
    "request_status": "Pending",
    "responsible_agency": "Department of Sanitation",
    "final_address": "GREEN ST & GENERAL OGDEN ST",
    "address_councildis": "A",
    "status": "Pending",
    "rowid": "1092433",
    "final_x": "3661050.8",
    "final_y": "531574.98",
    "longitude": "-90.132640062209",
    "latitude": "29.956251904127978",
    "geocoded_column": {
      "latitude": "29.956251904127978",
      "longitude": "-90.132640062209"
    }
  },
  {
    "service_request": "2024-1092432",
    "request_type": "Abandoned Vehicles",
    "request_reason": "Abandoned/Junk Vehicles",
    "date_created": "2024-05-12T12:32:40.000",
    "date_modified": "2024-05-12T12:32:40.000",
    "request_status": "Pending",
    "responsible_agency": "Department of Public Works",
    "final_address": "4400 BLK Coliseum St",
    "address_councildis": "B",
    "status": "Pending",
    "rowid": "1092432",
    "final_x": "3670734.38979",
    "final_y": "519800.063534",
    "longitude": "-90.10246186616638",
    "latitude": "29.923592136965574",
    "geocoded_column": {
      "latitude": "29.923592136965574",
      "longitude": "-90.10246186616638"
    }
  },
  {
    "service_request": "2024-1092431",
    "request_type": "Abandoned Vehicles",
    "request_reason": "Abandoned/Junk Vehicles",
    "date_created": "2024-05-12T12:30:04.000",
    "date_modified": "2024-05-12T12:30:04.000",
    "request_status": "Pending",
    "responsible_agency": "Department of Public Works",
    "final_address": "4400 BLK Coliseum St",
    "address_councildis": "B",
    "status": "Pending",
    "rowid": "1092431",
    "final_x": "3670734.38979",
    "final_y": "519800.063534",
    "longitude": "-90.10246186616638",
    "latitude": "29.923592136965574",
    "geocoded_column": {
      "latitude": "29.923592136965574",
      "longitude": "-90.10246186616638"
    }
  },
  {
    "service_request": "2024-1092430",
    "request_type": "Abandoned Vehicles",
    "request_reason": "Abandoned/Junk Vehicles",
    "date_created": "2024-05-12T12:24:15.000",
    "date_modified": "2024-05-12T12:24:15.000",
    "request_status": "Pending",
    "responsible_agency": "Department of Public Works",
    "final_address": "1200 BLK Jena St",
    "address_councildis": "B",
    "status": "Pending",
    "rowid": "1092430",
    "final_x": "3670540.83014",
    "final_y": "519905.224741",
    "longitude": "-90.10306929996226",
    "latitude": "29.923887012615133",
    "geocoded_column": {
      "latitude": "29.923887012615133",
      "longitude": "-90.10306929996226"
    }
  },
  {
    "service_request": "2024-1092427",
    "request_type": "Abandoned Vehicles",
    "request_reason": "Abandoned/Junk Vehicles",
    "date_created": "2024-05-12T11:55:43.000",
    "date_modified": "2024-05-12T11:55:43.000",
    "request_status": "Pending",
    "responsible_agency": "Department of Public Works",
    "final_address": "4754 Warren Dr",
    "address_councildis": "E",
    "status": "Pending",
    "rowid": "1092427",
    "final_x": "3713373.59371",
    "final_y": "556395.735578",
    "longitude": "-89.96648908851341",
    "latitude": "30.022888251520044",
    "geocoded_column": {
      "latitude": "30.022888251520044",
      "longitude": "-89.96648908851341"
    }
  },
  {
    "service_request": "2024-1092426",
    "request_type": "Trash/Recycling",
    "request_reason": "Order Recycling Cart",
    "date_created": "2024-05-12T11:54:58.000",
    "date_modified": "2024-05-12T11:54:58.000",
    "request_status": "Pending",
    "responsible_agency": "Department of Sanitation",
    "final_address": "6412 N Roman St",
    "address_councildis": "E",
    "status": "Pending",
    "rowid": "1092426",
    "final_x": "3701570.5457",
    "final_y": "535365.332806",
    "longitude": "-90.00455439716171",
    "latitude": "29.965444320097543",
    "geocoded_column": {
      "latitude": "29.965444320097543",
      "longitude": "-90.00455439716171"
    }
  },
  {
    "service_request": "2024-1092425",
    "request_type": "Abandoned Vehicles",
    "request_reason": "Abandoned/Junk Vehicles",
    "date_created": "2024-05-12T11:54:06.000",
    "date_modified": "2024-05-12T11:54:06.000",
    "request_status": "Pending",
    "responsible_agency": "Department of Public Works",
    "final_address": "4754 Warren Dr",
    "address_councildis": "E",
    "status": "Pending",
    "rowid": "1092425",
    "final_x": "3713373.59371",
    "final_y": "556395.735578",
    "longitude": "-89.96648908851341",
    "latitude": "30.022888251520044",
    "geocoded_column": {
      "latitude": "30.022888251520044",
      "longitude": "-89.96648908851341"
    }
  },
  {
    "service_request": "2024-1092424",
    "request_type": "Traffic Signals/Signs/Striping/Streetlights",
    "request_reason": "Crosswalks and Signage",
    "date_created": "2024-05-12T11:53:28.000",
    "date_modified": "2024-05-12T11:53:28.000",
    "request_status": "Pending",
    "responsible_agency": "Department of Public Works",
    "final_address": "2700 BLK Marengo St",
    "address_councildis": "B",
    "status": "Pending",
    "rowid": "1092424",
    "final_x": "3671552.74774",
    "final_y": "525022.776514",
    "longitude": "-90.099701113173",
    "latitude": "29.937928720381",
    "geocoded_column": {
      "latitude": "29.937928720381",
      "longitude": "-90.099701113173"
    }
  },
  {
    "service_request": "2024-1092423",
    "request_type": "Property Maintenance",
    "request_reason": "Property Maintenance",
    "date_created": "2024-05-12T11:52:02.000",
    "date_modified": "2024-05-12T11:52:02.000",
    "request_status": "Pending",
    "responsible_agency": "Department of Code Enforcement",
    "final_address": "5851 Read Blvd",
    "address_councildis": "E",
    "status": "Pending",
    "rowid": "1092423",
    "final_x": "3710972.66885",
    "final_y": "561102.245214",
    "longitude": "-89.97389895558436",
    "latitude": "30.03590782320124",
    "geocoded_column": {
      "latitude": "30.03590782320124",
      "longitude": "-89.97389895558436"
    }
  },
  {
    "service_request": "2024-1092422",
    "request_type": "Property Maintenance",
    "request_reason": "Property Maintenance",
    "date_created": "2024-05-12T11:50:56.000",
    "date_modified": "2024-05-12T11:50:56.000",
    "request_status": "Pending",
    "responsible_agency": "Department of Code Enforcement",
    "final_address": "5611 Read Blvd",
    "address_councildis": "E",
    "status": "Pending",
    "rowid": "1092422",
    "final_x": "3711940.79518",
    "final_y": "559236.923292",
    "longitude": "-89.97090961711362",
    "latitude": "30.03074731271116",
    "geocoded_column": {
      "latitude": "30.03074731271116",
      "longitude": "-89.97090961711362"
    }
  },
  {
    "service_request": "2024-1092420",
    "request_type": "Trash/Recycling",
    "request_reason": "Request a Large Item Pick Up",
    "date_created": "2024-05-12T11:28:54.000",
    "date_modified": "2024-05-12T11:28:54.000",
    "request_status": "Pending",
    "responsible_agency": "Department of Sanitation",
    "final_address": "4127 Cleveland Ave",
    "address_councildis": "A",
    "status": "Assigned to Contractor",
    "contractor": "IV Waste",
    "rowid": "1092420",
    "final_x": "3670658.31662",
    "final_y": "538254.202377",
    "longitude": "-90.10207604745034",
    "latitude": "29.97433721741901",
    "geocoded_column": {
      "latitude": "29.97433721741901",
      "longitude": "-90.10207604745034"
    }
  },
  {
    "service_request": "2024-1092419",
    "request_type": "Trash/Recycling",
    "request_reason": "Replace Trash Cart",
    "date_created": "2024-05-12T10:45:01.000",
    "date_modified": "2024-05-12T10:45:02.000",
    "request_status": "Pending",
    "responsible_agency": "Department of Sanitation",
    "final_address": "1614 Simon Bolivar Ave",
    "address_councildis": "B",
    "status": "Assigned to Contractor",
    "contractor": "IV Waste",
    "rowid": "1092419",
    "final_x": "3677135.02856",
    "final_y": "526306.382654",
    "longitude": "-90.0820331175139",
    "latitude": "29.941291779238668",
    "geocoded_column": {
      "latitude": "29.941291779238668",
      "longitude": "-90.0820331175139"
    }
  },
  {
    "service_request": "2024-1092418",
    "request_type": "Trash/Recycling",
    "request_reason": "Request a Large Item Pick Up",
    "date_created": "2024-05-12T10:39:25.000",
    "date_modified": "2024-05-12T10:39:25.000",
    "request_status": "Pending",
    "responsible_agency": "Department of Sanitation",
    "final_address": "735 Navarre St",
    "address_councildis": "A",
    "status": "Assigned to Contractor",
    "contractor": "IV Waste",
    "rowid": "1092418",
    "final_x": "3668598.5451",
    "final_y": "543884.950542",
    "longitude": "-90.10839120392609",
    "latitude": "29.98988056409855",
    "geocoded_column": {
      "latitude": "29.98988056409855",
      "longitude": "-90.10839120392609"
    }
  },
  {
    "service_request": "2024-1092417",
    "request_type": "Trash/Recycling",
    "request_reason": "Replace Recycling Cart",
    "date_created": "2024-05-12T10:29:09.000",
    "date_modified": "2024-05-12T10:29:09.000",
    "request_status": "Pending",
    "responsible_agency": "Department of Sanitation",
    "final_address": "3015 Maurepas St",
    "address_councildis": "A",
    "status": "Pending",
    "rowid": "1092417",
    "final_x": "3677022.63464",
    "final_y": "540758.304907",
    "longitude": "-90.08188964063434",
    "latitude": "29.98103306093414",
    "geocoded_column": {
      "latitude": "29.98103306093414",
      "longitude": "-90.08188964063434"
    }
  },
  {
    "service_request": "2024-1092416",
    "request_type": "Traffic Signals/Signs/Striping/Streetlights",
    "request_reason": "Street Light Outage/Malfunction",
    "date_created": "2024-05-12T10:10:50.000",
    "date_modified": "2024-05-12T10:10:51.000",
    "request_status": "Pending",
    "responsible_agency": "Department of Public Works",
    "final_address": "42 Versailles Blvd",
    "address_councildis": "A",
    "status": "Assigned to Contractor",
    "contractor": "Legacy Professional Services",
    "rowid": "1092416",
    "final_x": "3667444.8905",
    "final_y": "529955.053953",
    "longitude": "-90.11250410239965",
    "latitude": "29.951611855332235",
    "geocoded_column": {
      "latitude": "29.951611855332235",
      "longitude": "-90.11250410239965"
    }
  },
  {
    "service_request": "2024-1092415",
    "request_type": "Traffic Signals/Signs/Striping/Streetlights",
    "request_reason": "Street Light Outage/Malfunction",
    "date_created": "2024-05-12T10:08:53.000",
    "date_modified": "2024-05-12T10:08:54.000",
    "request_status": "Pending",
    "responsible_agency": "Department of Public Works",
    "final_address": "23 Versailles Blvd",
    "address_councildis": "A",
    "status": "Assigned to Contractor",
    "contractor": "Legacy Professional Services",
    "rowid": "1092415",
    "final_x": "3667254.13748",
    "final_y": "529132.268928",
    "longitude": "-90.11313407599573",
    "latitude": "29.94935505125669",
    "geocoded_column": {
      "latitude": "29.94935505125669",
      "longitude": "-90.11313407599573"
    }
  },
  {
    "service_request": "2024-1092414",
    "request_type": "Traffic Signals/Signs/Striping/Streetlights",
    "request_reason": "Street Light Outage/Malfunction",
    "date_created": "2024-05-12T10:06:44.000",
    "date_modified": "2024-05-12T10:06:45.000",
    "request_status": "Pending",
    "responsible_agency": "Department of Public Works",
    "final_address": "17 Versailles Blvd",
    "address_councildis": "A",
    "status": "Assigned to Contractor",
    "contractor": "Legacy Professional Services",
    "rowid": "1092414",
    "final_x": "3667178.86778",
    "final_y": "528969.64992",
    "longitude": "-90.11337720356356",
    "latitude": "29.948910105580993",
    "geocoded_column": {
      "latitude": "29.948910105580993",
      "longitude": "-90.11337720356356"
    }
  },
  {
    "service_request": "2024-1092413",
    "request_type": "Traffic Signals/Signs/Striping/Streetlights",
    "request_reason": "Street Light Outage/Malfunction",
    "date_created": "2024-05-12T10:05:00.000",
    "date_modified": "2024-05-12T10:05:01.000",
    "request_status": "Pending",
    "responsible_agency": "Department of Public Works",
    "final_address": "8 Versailles Blvd",
    "address_councildis": "A",
    "status": "Assigned to Contractor",
    "contractor": "Legacy Professional Services",
    "rowid": "1092413",
    "final_x": "3666905.26682",
    "final_y": "529000.388864",
    "longitude": "-90.11424005041931",
    "latitude": "29.949002634595903",
    "geocoded_column": {
      "latitude": "29.949002634595903",
      "longitude": "-90.11424005041931"
    }
  },
  {
    "service_request": "2024-1092412",
    "request_type": "Traffic Signals/Signs/Striping/Streetlights",
    "request_reason": "Street Light Outage/Malfunction",
    "date_created": "2024-05-12T10:02:59.000",
    "date_modified": "2024-05-12T10:03:00.000",
    "request_status": "Pending",
    "responsible_agency": "Department of Public Works",
    "final_address": "5 Versailles Blvd",
    "address_councildis": "A",
    "status": "Assigned to Contractor",
    "contractor": "Legacy Professional Services",
    "rowid": "1092412",
    "final_x": "3667046.22778",
    "final_y": "528683.194624",
    "longitude": "-90.11380563308809",
    "latitude": "29.948126328888005",
    "geocoded_column": {
      "latitude": "29.948126328888005",
      "longitude": "-90.11380563308809"
    }
  },
  {
    "service_request": "2024-1092411",
    "request_type": "Traffic Signals/Signs/Striping/Streetlights",
    "request_reason": "Street Light Outage/Malfunction",
    "date_created": "2024-05-12T10:00:35.000",
    "date_modified": "2024-05-12T10:00:35.000",
    "request_status": "Pending",
    "responsible_agency": "Department of Public Works",
    "final_address": "2 Versailles Blvd",
    "address_councildis": "A",
    "status": "Assigned to Contractor",
    "contractor": "Legacy Professional Services",
    "rowid": "1092411",
    "final_x": "3666839.58125",
    "final_y": "528811.059392",
    "longitude": "-90.11445380807919",
    "latitude": "29.948483961417054",
    "geocoded_column": {
      "latitude": "29.948483961417054",
      "longitude": "-90.11445380807919"
    }
  },
  {
    "service_request": "2024-1092410",
    "request_type": "Traffic Signals/Signs/Striping/Streetlights",
    "request_reason": "Street Light Outage/Malfunction",
    "date_created": "2024-05-12T09:57:54.000",
    "date_modified": "2024-05-12T09:57:55.000",
    "request_status": "Pending",
    "responsible_agency": "Department of Public Works",
    "final_address": "36 Versailles Blvd",
    "address_councildis": "A",
    "status": "Assigned to Contractor",
    "contractor": "Legacy Professional Services",
    "rowid": "1092410",
    "final_x": "3667364.09997",
    "final_y": "529796.166913",
    "longitude": "-90.1127645448514",
    "latitude": "29.95117733435958",
    "geocoded_column": {
      "latitude": "29.95117733435958",
      "longitude": "-90.1127645448514"
    }
  },
  {
    "service_request": "2024-1092409",
    "request_type": "Traffic Signals/Signs/Striping/Streetlights",
    "request_reason": "Street Light Outage/Malfunction",
    "date_created": "2024-05-12T09:55:29.000",
    "date_modified": "2024-05-12T09:55:30.000",
    "request_status": "Pending",
    "responsible_agency": "Department of Public Works",
    "final_address": "32 Versailles Blvd",
    "address_councildis": "A",
    "status": "Assigned to Contractor",
    "contractor": "Legacy Professional Services",
    "rowid": "1092409",
    "final_x": "3667300.36609",
    "final_y": "529689.792449",
    "longitude": "-90.11296936273048",
    "latitude": "29.95088670583765",
    "geocoded_column": {
      "latitude": "29.95088670583765",
      "longitude": "-90.11296936273048"
    }
  },
  {
    "service_request": "2024-1092408",
    "request_type": "Property Maintenance",
    "request_reason": "Property Maintenance",
    "date_created": "2024-05-12T09:48:19.000",
    "date_modified": "2024-05-12T09:48:19.000",
    "request_status": "Pending",
    "responsible_agency": "Department of Code Enforcement",
    "final_address": "4735 Warren Dr",
    "address_councildis": "E",
    "status": "Pending",
    "rowid": "1092408",
    "final_x": "3713531.44159",
    "final_y": "556259.939418",
    "longitude": "-89.96599545061848",
    "latitude": "30.022509687381667",
    "geocoded_column": {
      "latitude": "30.022509687381667",
      "longitude": "-89.96599545061848"
    }
  },
  {
    "service_request": "2024-1092407",
    "request_type": "Trash/Recycling",
    "request_reason": "Order Recycling Cart",
    "date_created": "2024-05-12T09:48:17.000",
    "date_modified": "2024-05-12T09:48:17.000",
    "request_status": "Pending",
    "responsible_agency": "Department of Sanitation",
    "final_address": "925 N Rendon St",
    "address_councildis": "A",
    "status": "Pending",
    "rowid": "1092407",
    "final_x": "3675515.57397",
    "final_y": "539044.61153",
    "longitude": "-90.0867085058202",
    "latitude": "29.976366164335086",
    "geocoded_column": {
      "latitude": "29.976366164335086",
      "longitude": "-90.0867085058202"
    }
  },
  {
    "service_request": "2024-1092406",
    "request_type": "Property Maintenance",
    "request_reason": "Property Maintenance",
    "date_created": "2024-05-12T09:33:31.000",
    "date_modified": "2024-05-12T09:33:31.000",
    "request_status": "Pending",
    "responsible_agency": "Department of Code Enforcement",
    "final_address": "6300 St Claude Ave",
    "address_councildis": "E",
    "status": "Pending",
    "rowid": "1092406",
    "final_x": "3700146.28816",
    "final_y": "532977.506564",
    "longitude": "-90.00913925230147",
    "latitude": "29.95892398960287",
    "geocoded_column": {
      "latitude": "29.95892398960287",
      "longitude": "-90.00913925230147"
    }
  },
  {
    "service_request": "2024-1092405",
    "request_type": "Property Maintenance",
    "request_reason": "Property Maintenance",
    "date_created": "2024-05-12T09:32:36.000",
    "date_modified": "2024-05-12T09:32:36.000",
    "request_status": "Pending",
    "responsible_agency": "Department of Code Enforcement",
    "final_address": "814 Wilson Dr",
    "address_councildis": "A",
    "status": "Pending",
    "rowid": "1092405",
    "final_x": "3674065.57281",
    "final_y": "539340.674634",
    "longitude": "-90.09127791642366",
    "latitude": "29.977223534037932",
    "geocoded_column": {
      "latitude": "29.977223534037932",
      "longitude": "-90.09127791642366"
    }
  },
  {
    "service_request": "2024-1092404",
    "request_type": "Abandoned Vehicles",
    "request_reason": "Abandoned/Junk Vehicles",
    "date_created": "2024-05-12T09:32:19.000",
    "date_modified": "2024-05-12T09:32:19.000",
    "request_status": "Pending",
    "responsible_agency": "Department of Public Works",
    "final_address": "DUMAINE ST & N JOHNSON ST",
    "address_councildis": "D",
    "status": "Pending",
    "rowid": "1092404",
    "final_x": "3679080.3",
    "final_y": "536053.48",
    "longitude": "-90.07555372735133",
    "latitude": "29.96803445974206",
    "geocoded_column": {
      "latitude": "29.96803445974206",
      "longitude": "-90.07555372735133"
    }
  },
  {
    "service_request": "2024-1092403",
    "request_type": "Roads/Drainage",
    "request_reason": "WaterMain Break",
    "date_created": "2024-05-12T09:29:28.000",
    "date_modified": "2024-05-12T09:29:28.000",
    "request_status": "Pending",
    "responsible_agency": "Department of Public Works",
    "final_address": "2903 Castiglione St",
    "address_councildis": "D",
    "status": "Pending",
    "rowid": "1092403",
    "final_x": "3679342.00431",
    "final_y": "542353.454157",
    "longitude": "-90.07450868233599",
    "latitude": "29.98534930984134",
    "geocoded_column": {
      "latitude": "29.98534930984134",
      "longitude": "-90.07450868233599"
    }
  },
  {
    "service_request": "2024-1092402",
    "request_type": "Trash/Recycling",
    "request_reason": "Illegal Dumping",
    "date_created": "2024-05-12T09:19:39.000",
    "date_modified": "2024-05-12T09:19:39.000",
    "request_status": "Pending",
    "responsible_agency": "Department of Sanitation",
    "final_address": "800 Louisa St",
    "address_councildis": "C",
    "status": "Pending",
    "rowid": "1092402",
    "final_x": "3689244.42243",
    "final_y": "534760.519622",
    "longitude": "-90.0435011172329",
    "latitude": "29.964168575080784",
    "geocoded_column": {
      "latitude": "29.964168575080784",
      "longitude": "-90.0435011172329"
    }
  },
  {
    "service_request": "2024-1092400",
    "request_type": "Trash/Recycling",
    "request_reason": "Order Trash Cart",
    "date_created": "2024-05-12T08:53:06.000",
    "date_modified": "2024-05-12T08:53:07.000",
    "request_status": "Pending",
    "responsible_agency": "Department of Sanitation",
    "final_address": "2522 N Prieur St",
    "address_councildis": "D",
    "status": "Assigned to Contractor",
    "contractor": "IV Waste",
    "rowid": "1092400",
    "final_x": "3687137.88418",
    "final_y": "539405.632266",
    "longitude": "-90.04998907679634",
    "latitude": "29.9770060435729",
    "geocoded_column": {
      "latitude": "29.9770060435729",
      "longitude": "-90.04998907679634"
    }
  },
  {
    "service_request": "2024-1092399",
    "request_type": "Trash/Recycling",
    "request_reason": "Request a Large Item Pick Up",
    "date_created": "2024-05-12T08:40:50.000",
    "date_modified": "2024-05-12T08:40:51.000",
    "request_status": "Pending",
    "responsible_agency": "Department of Sanitation",
    "final_address": "2222 N Robertson St",
    "address_councildis": "C",
    "status": "Assigned to Contractor",
    "contractor": "IV Waste",
    "rowid": "1092399",
    "final_x": "3685158.03458",
    "final_y": "537765.012168",
    "longitude": "-90.05629981406902",
    "latitude": "29.972555735318245",
    "geocoded_column": {
      "latitude": "29.972555735318245",
      "longitude": "-90.05629981406902"
    }
  },
  {
    "service_request": "2024-1092398",
    "request_type": "Roads/Drainage",
    "request_reason": "Pothole",
    "date_created": "2024-05-12T08:31:17.000",
    "date_modified": "2024-05-12T08:31:17.000",
    "request_status": "Pending",
    "responsible_agency": "Department of Public Works",
    "final_address": "4900 Carondelet St",
    "address_councildis": "B",
    "status": "Pending",
    "rowid": "1092398",
    "final_x": "3669013.15508",
    "final_y": "521008.061497",
    "longitude": "-90.10785440277594",
    "latitude": "29.9269644760373",
    "geocoded_column": {
      "latitude": "29.9269644760373",
      "longitude": "-90.10785440277594"
    }
  },
  {
    "service_request": "2024-1092397",
    "request_type": "Trash/Recycling",
    "request_reason": "Request a Large Item Pick Up",
    "date_created": "2024-05-12T08:27:31.000",
    "date_modified": "2024-05-12T08:27:32.000",
    "request_status": "Pending",
    "responsible_agency": "Department of Sanitation",
    "final_address": "1400 BLK Congress St",
    "address_councildis": "C",
    "status": "Assigned to Contractor",
    "contractor": "IV Waste",
    "rowid": "1092397",
    "final_x": "3691041.10246",
    "final_y": "536872.99133",
    "longitude": "-90.03775194848686",
    "latitude": "29.969921396465146",
    "geocoded_column": {
      "latitude": "29.969921396465146",
      "longitude": "-90.03775194848686"
    }
  },
  {
    "service_request": "2024-1092396",
    "request_type": "Trash/Recycling",
    "request_reason": "Order Recycling Cart",
    "date_created": "2024-05-12T07:58:32.000",
    "date_modified": "2024-05-12T07:58:32.000",
    "request_status": "Pending",
    "responsible_agency": "Department of Sanitation",
    "final_address": "2201 Fern St B",
    "address_councildis": "A",
    "status": "Pending",
    "rowid": "1092396",
    "final_x": "3664990.60077",
    "final_y": "530488.92333",
    "longitude": "-90.12023575022009",
    "latitude": "29.95315149605302",
    "geocoded_column": {
      "latitude": "29.95315149605302",
      "longitude": "-90.12023575022009"
    }
  },
  {
    "service_request": "2024-1092395",
    "request_type": "Trash/Recycling",
    "request_reason": "Request a Large Item Pick Up",
    "date_created": "2024-05-12T06:45:33.000",
    "date_modified": "2024-05-12T06:45:34.000",
    "request_status": "Pending",
    "responsible_agency": "Department of Sanitation",
    "final_address": "6222 Curie St",
    "address_councildis": "D",
    "status": "Assigned to Contractor",
    "contractor": "IV Waste",
    "rowid": "1092395",
    "final_x": "3682432.32239",
    "final_y": "555984.082009",
    "longitude": "-90.06427082677494",
    "latitude": "30.022734922838247",
    "geocoded_column": {
      "latitude": "30.022734922838247",
      "longitude": "-90.06427082677494"
    }
  },
  {
    "service_request": "2024-1092394",
    "request_type": "Property Maintenance",
    "request_reason": "Property Maintenance",
    "date_created": "2024-05-12T06:38:34.000",
    "date_modified": "2024-05-12T06:38:34.000",
    "request_status": "Pending",
    "responsible_agency": "Department of Code Enforcement",
    "final_address": "1851 Agriculture St",
    "address_councildis": "D",
    "status": "Pending",
    "rowid": "1092394",
    "final_x": "3681921.99304",
    "final_y": "543137.645005",
    "longitude": "-90.06633218749519",
    "latitude": "29.987427370947184",
    "geocoded_column": {
      "latitude": "29.987427370947184",
      "longitude": "-90.06633218749519"
    }
  },
  {
    "service_request": "2024-1092393",
    "request_type": "Utility Poles",
    "request_reason": "Utility Pole Leaning",
    "date_created": "2024-05-12T06:36:03.000",
    "date_modified": "2024-05-12T06:36:09.000",
    "request_status": "Pending",
    "responsible_agency": "Utility Company Collective",
    "final_address": "1851 Agriculture St",
    "address_councildis": "D",
    "status": "Pending",
    "rowid": "1092393",
    "final_x": "3681921.99304",
    "final_y": "543137.645005",
    "longitude": "-90.06633218749519",
    "latitude": "29.987427370947184",
    "geocoded_column": {
      "latitude": "29.987427370947184",
      "longitude": "-90.06633218749519"
    }
  },
  {
    "service_request": "2024-1092392",
    "request_type": "Trash/Recycling",
    "request_reason": "Request a Large Item Pick Up",
    "date_created": "2024-05-12T06:10:27.000",
    "date_modified": "2024-05-12T06:10:28.000",
    "request_status": "Pending",
    "responsible_agency": "Department of Sanitation",
    "final_address": "204 River Oaks Dr",
    "address_councildis": "C",
    "status": "Assigned to Contractor",
    "contractor": "Richards Disposal",
    "rowid": "1092392",
    "final_x": "3701641.96938",
    "final_y": "523219.150843",
    "longitude": "-90.00477358129226",
    "latitude": "29.932044339710185",
    "geocoded_column": {
      "latitude": "29.932044339710185",
      "longitude": "-90.00477358129226"
    }
  },
  {
    "service_request": "2024-1092390",
    "request_type": "Mosquito, Termite & Rodent Control",
    "request_reason": "Mosquito Complaint",
    "date_created": "2024-05-12T01:16:10.000",
    "date_modified": "2024-05-12T01:16:10.000",
    "request_status": "Pending",
    "responsible_agency": "Mosquito, Termite & Rodent Control Board",
    "final_address": "7500 BLK Sandy Cove Dr",
    "address_councildis": "E",
    "status": "Pending",
    "rowid": "1092390",
    "final_x": "3715970.08049",
    "final_y": "568867.387971",
    "longitude": "-89.95781180801146",
    "latitude": "30.05709482997554",
    "geocoded_column": {
      "latitude": "30.05709482997554",
      "longitude": "-89.95781180801146"
    }
  },
  {
    "service_request": "2024-1092389",
    "request_type": "Health Related Request",
    "request_reason": "Noise Ordinance Complaint",
    "date_created": "2024-05-11T23:37:35.000",
    "date_modified": "2024-05-11T23:37:35.000",
    "request_status": "Pending",
    "responsible_agency": "Health Department",
    "final_address": "4715 Eastview Dr, New Orleans, Louisiana, 70126",
    "address_councildis": "E",
    "status": "Pending",
    "rowid": "1092389",
    "final_x": "3705169.58622",
    "final_y": "555156.066457",
    "longitude": "-89.99245752353974",
    "latitude": "30.01974617722018",
    "geocoded_column": {
      "latitude": "30.01974617722018",
      "longitude": "-89.99245752353974"
    }
  },
  {
    "service_request": "2024-1092388",
    "request_type": "Roads/Drainage",
    "request_reason": "Pothole",
    "date_created": "2024-05-11T23:37:28.000",
    "date_modified": "2024-05-11T23:37:28.000",
    "request_status": "Pending",
    "responsible_agency": "Department of Public Works",
    "final_address": "1501 General Taylor St",
    "address_councildis": "B",
    "status": "Pending",
    "rowid": "1092388",
    "final_x": "3672757.23963",
    "final_y": "520814.498105",
    "longitude": "-90.09604188611411",
    "latitude": "29.926321602463354",
    "geocoded_column": {
      "latitude": "29.926321602463354",
      "longitude": "-90.09604188611411"
    }
  },
  {
    "service_request": "2024-1092387",
    "request_type": "Roads/Drainage",
    "request_reason": "Pothole",
    "date_created": "2024-05-11T22:54:36.000",
    "date_modified": "2024-05-11T22:54:36.000",
    "request_status": "Pending",
    "responsible_agency": "Department of Public Works",
    "final_address": "1420 General Pershing St",
    "address_councildis": "B",
    "status": "Pending",
    "rowid": "1092387",
    "final_x": "3671242.41179",
    "final_y": "520513.52268",
    "longitude": "-90.10083399992165",
    "latitude": "29.925538906557254",
    "geocoded_column": {
      "latitude": "29.925538906557254",
      "longitude": "-90.10083399992165"
    }
  },
  {
    "service_request": "2024-1092386",
    "request_type": "Graffiti Removal",
    "request_reason": "Graffiti Removal",
    "date_created": "2024-05-11T22:49:40.000",
    "date_modified": "2024-05-11T22:49:40.000",
    "request_status": "Pending",
    "responsible_agency": "Department of Code Enforcement",
    "final_address": "2016 Dufossat St",
    "address_councildis": "B",
    "status": "Pending",
    "rowid": "1092386",
    "final_x": "3668154.23194",
    "final_y": "523050.421627",
    "longitude": "-90.11049700222063",
    "latitude": "29.93260554696835",
    "geocoded_column": {
      "latitude": "29.93260554696835",
      "longitude": "-90.11049700222063"
    }
  },
  {
    "service_request": "2024-1092385",
    "request_type": "Health Related Request",
    "request_reason": "Noise Ordinance Complaint",
    "date_created": "2024-05-11T22:48:05.000",
    "date_modified": "2024-05-11T22:48:05.000",
    "request_status": "Pending",
    "responsible_agency": "Health Department",
    "final_address": "600 BLK N Broad St",
    "address_councildis": "A",
    "status": "Pending",
    "rowid": "1092385",
    "final_x": "3676359.9435",
    "final_y": "536531.150807",
    "longitude": "-90.08412827453832",
    "latitude": "29.969429719559482",
    "geocoded_column": {
      "latitude": "29.969429719559482",
      "longitude": "-90.08412827453832"
    }
  },
  {
    "service_request": "2024-1092384",
    "request_type": "Graffiti Removal",
    "request_reason": "Graffiti Removal",
    "date_created": "2024-05-11T22:45:21.000",
    "date_modified": "2024-05-11T22:45:21.000",
    "request_status": "Pending",
    "responsible_agency": "Department of Code Enforcement",
    "final_address": "2016 Dufossat St",
    "address_councildis": "B",
    "status": "Pending",
    "rowid": "1092384",
    "final_x": "3668154.23194",
    "final_y": "523050.421627",
    "longitude": "-90.11049700222063",
    "latitude": "29.93260554696835",
    "geocoded_column": {
      "latitude": "29.93260554696835",
      "longitude": "-90.11049700222063"
    }
  },
  {
    "service_request": "2024-1092383",
    "request_type": "Trash/Recycling",
    "request_reason": "Illegal Dumping",
    "date_created": "2024-05-11T22:44:03.000",
    "date_modified": "2024-05-11T22:44:03.000",
    "request_status": "Pending",
    "responsible_agency": "Department of Sanitation",
    "final_address": "4303 Fontainebleau Dr",
    "address_councildis": "B",
    "status": "Pending",
    "rowid": "1092383",
    "final_x": "3669474.13031",
    "final_y": "529430.428801",
    "longitude": "-90.10611446613142",
    "latitude": "29.950109702954535",
    "geocoded_column": {
      "latitude": "29.950109702954535",
      "longitude": "-90.10611446613142"
    }
  },
  {
    "service_request": "2024-1092382",
    "request_type": "Property Maintenance",
    "request_reason": "Property Maintenance",
    "date_created": "2024-05-11T22:07:23.000",
    "date_modified": "2024-05-11T22:07:23.000",
    "request_status": "Pending",
    "responsible_agency": "Department of Code Enforcement",
    "final_address": "13545 St Marie Ct",
    "address_councildis": "E",
    "status": "Pending",
    "rowid": "1092382",
    "final_x": "3724106.53363",
    "final_y": "569330.799142",
    "longitude": "-89.93207609262069",
    "latitude": "30.05809794051616",
    "geocoded_column": {
      "latitude": "30.05809794051616",
      "longitude": "-89.93207609262069"
    }
  },
  {
    "service_request": "2024-1092381",
    "request_type": "Trash/Recycling",
    "request_reason": "Request a Large Item Pick Up",
    "date_created": "2024-05-11T20:26:00.000",
    "date_modified": "2024-05-11T20:26:00.000",
    "request_status": "Pending",
    "responsible_agency": "Department of Sanitation",
    "final_address": "1816 Milan St",
    "address_councildis": "B",
    "status": "Assigned to Contractor",
    "contractor": "IV Waste",
    "rowid": "1092381",
    "final_x": "3671423.59476",
    "final_y": "521805.481594",
    "longitude": "-90.1002181701879",
    "latitude": "29.92908601979738",
    "geocoded_column": {
      "latitude": "29.92908601979738",
      "longitude": "-90.1002181701879"
    }
  },
  {
    "service_request": "2024-1092379",
    "request_type": "Abandoned Vehicles",
    "request_reason": "Abandoned/Junk Vehicles",
    "date_created": "2024-05-11T19:44:21.000",
    "date_modified": "2024-05-11T19:44:21.000",
    "request_status": "Pending",
    "responsible_agency": "Department of Public Works",
    "final_address": "5840 Brunswick Ct",
    "address_councildis": "C",
    "status": "Pending",
    "rowid": "1092379",
    "final_x": "3705303.07787",
    "final_y": "517184.860597",
    "longitude": "-89.99343868632837",
    "latitude": "29.915334911506523",
    "geocoded_column": {
      "latitude": "29.915334911506523",
      "longitude": "-89.99343868632837"
    }
  },
  {
    "service_request": "2024-1092378",
    "request_type": "Trash/Recycling",
    "request_reason": "Request a Large Item Pick Up",
    "date_created": "2024-05-11T19:36:16.000",
    "date_modified": "2024-05-11T19:36:17.000",
    "request_status": "Pending",
    "responsible_agency": "Department of Sanitation",
    "final_address": "7711 Hansbrough Ave",
    "address_councildis": "E",
    "status": "Assigned to Contractor",
    "contractor": "Waste Pro",
    "rowid": "1092378",
    "final_x": "3707535.90993",
    "final_y": "564756.963234",
    "longitude": "-89.98462371346729",
    "latitude": "30.04606851022154",
    "geocoded_column": {
      "latitude": "30.04606851022154",
      "longitude": "-89.98462371346729"
    }
  },
  {
    "service_request": "2024-1092377",
    "request_type": "Abandoned Vehicles",
    "request_reason": "Abandoned/Junk Vehicles",
    "date_created": "2024-05-11T19:31:46.000",
    "date_modified": "2024-05-11T19:31:46.000",
    "request_status": "Pending",
    "responsible_agency": "Department of Public Works",
    "final_address": "3343 Esplanade Ave",
    "address_councildis": "A",
    "status": "Pending",
    "rowid": "1092377",
    "final_x": "3675778.57781",
    "final_y": "540915.894027",
    "longitude": "-90.08581351461964",
    "latitude": "29.981503677945287",
    "geocoded_column": {
      "latitude": "29.981503677945287",
      "longitude": "-90.08581351461964"
    }
  },
  {
    "service_request": "2024-1092376",
    "request_type": "Trash/Recycling",
    "request_reason": "Request a Large Item Pick Up",
    "date_created": "2024-05-11T19:16:43.000",
    "date_modified": "2024-05-11T19:16:43.000",
    "request_status": "Pending",
    "responsible_agency": "Department of Sanitation",
    "final_address": "New Orleans,LA",
    "status": "Assigned to Contractor",
    "rowid": "1092376",
    "longitude": "0.0",
    "latitude": "0.0",
    "geocoded_column": {
      "latitude": "0.0",
      "longitude": "0.0"
    }
  },
  {
    "service_request": "2024-1092375",
    "request_type": "Trash/Recycling",
    "request_reason": "Request a Large Item Pick Up",
    "date_created": "2024-05-11T19:03:07.000",
    "date_modified": "2024-05-11T19:03:07.000",
    "request_status": "Pending",
    "responsible_agency": "Department of Sanitation",
    "final_address": "New Orleans,LA",
    "status": "Assigned to Contractor",
    "rowid": "1092375",
    "longitude": "0.0",
    "latitude": "0.0",
    "geocoded_column": {
      "latitude": "0.0",
      "longitude": "0.0"
    }
  },
  {
    "service_request": "2024-1092374",
    "request_type": "Trash/Recycling",
    "request_reason": "Request a Large Item Pick Up",
    "date_created": "2024-05-11T18:50:28.000",
    "date_modified": "2024-05-11T18:50:29.000",
    "request_status": "Pending",
    "responsible_agency": "Department of Sanitation",
    "final_address": "1229 Governor Nicholls St",
    "address_councildis": "C",
    "status": "Assigned to Contractor",
    "contractor": "IV Waste",
    "rowid": "1092374",
    "final_x": "3682014.20962",
    "final_y": "535274.299718",
    "longitude": "-90.06631555004992",
    "latitude": "29.965803102282084",
    "geocoded_column": {
      "latitude": "29.965803102282084",
      "longitude": "-90.06631555004992"
    }
  },
  {
    "service_request": "2024-1092373",
    "request_type": "Trash/Recycling",
    "request_reason": "Request a Large Item Pick Up",
    "date_created": "2024-05-11T18:41:32.000",
    "date_modified": "2024-05-11T18:41:32.000",
    "request_status": "Pending",
    "responsible_agency": "Department of Sanitation",
    "final_address": "2324 Nashville Ave",
    "address_councildis": "A",
    "status": "Assigned to Contractor",
    "contractor": "IV Waste",
    "rowid": "1092373",
    "final_x": "3666952.38125",
    "final_y": "524748.614396",
    "longitude": "-90.11423411933036",
    "latitude": "29.93731024749183",
    "geocoded_column": {
      "latitude": "29.93731024749183",
      "longitude": "-90.11423411933036"
    }
  },
  {
    "service_request": "2024-1092372",
    "request_type": "Roads/Drainage",
    "request_reason": "Street Flooding / Drainage",
    "date_created": "2024-05-11T18:30:21.000",
    "date_modified": "2024-05-11T18:30:21.000",
    "request_status": "Pending",
    "responsible_agency": "Department of Public Works",
    "final_address": "1456 N Robertson St",
    "address_councildis": "C",
    "status": "Pending",
    "rowid": "1092372",
    "final_x": "3681921.242",
    "final_y": "536740.547143",
    "longitude": "-90.06655794781453",
    "latitude": "29.969837604288074",
    "geocoded_column": {
      "latitude": "29.969837604288074",
      "longitude": "-90.06655794781453"
    }
  },
  {
    "service_request": "2024-1092371",
    "request_type": "Roads/Drainage",
    "request_reason": "Street Flooding / Drainage",
    "date_created": "2024-05-11T17:58:31.000",
    "date_modified": "2024-05-11T17:58:31.000",
    "request_status": "Pending",
    "responsible_agency": "Department of Public Works",
    "final_address": "3904 Louisiana Avenue Prkwy",
    "address_councildis": "B",
    "status": "Pending",
    "rowid": "1092371",
    "final_x": "3671130.59956",
    "final_y": "529084.515584",
    "longitude": "-90.10089594990632",
    "latitude": "29.949109669006113",
    "geocoded_column": {
      "latitude": "29.949109669006113",
      "longitude": "-90.10089594990632"
    }
  },