[
  {
    "service_request": "2026-1266779",
    "request_type": "Traffic Signals",
    "request_reason": "Traffic Signal Malfunctioning or Damaged",
    "date_created": "2026-03-18T23:49:01.000",
    "date_modified": "2026-03-18T23:49:03.000",
    "request_status": "Pending",
    "responsible_agency": "Department of Public Works",
    "final_address": "113 S Hennessey St",
    "address_councildis": "A",
    "status": "Pending",
    "rowid": "1266779",
    "final_x": "3670110.18202",
    "final_y": "538796.802185",
    "longitude": "-90.103788802251",
    "latitude": "29.975845367813363",
    "geocoded_column": {
      "latitude": "29.975845367813363",
      "longitude": "-90.103788802251"
    }
  },
  {
    "service_request": "2026-1266778",
    "request_type": "Health Related Request",
    "request_reason": "Noise Ordinance Complaint",
    "date_created": "2026-03-18T23:09:22.000",
    "date_modified": "2026-03-18T23:09:24.000",
    "request_status": "Pending",
    "responsible_agency": "Health Department",
    "final_address": "801 Bourbon St, New Orleans, Louisiana, 70116",
    "address_councildis": "C",
    "status": "Pending",
    "rowid": "1266778",
    "final_x": "3682490.98735",
    "final_y": "533018.672772",
    "longitude": "-90.06488875731978",
    "latitude": "29.959586396383013",
    "geocoded_column": {
      "latitude": "29.959586396383013",
      "longitude": "-90.06488875731978"
    }
  },
  {
    "service_request": "2026-1266777",
    "request_type": "Health Related Request",
    "request_reason": "Noise Ordinance Complaint",
    "date_created": "2026-03-18T23:09:01.000",
    "date_modified": "2026-03-18T23:09:04.000",
    "request_status": "Pending",
    "responsible_agency": "Health Department",
    "final_address": "801 Bourbon St, New Orleans, Louisiana, 70116",
    "address_councildis": "C",
    "status": "Pending",
    "rowid": "1266777",
    "final_x": "3682490.98735",
    "final_y": "533018.672772",
    "longitude": "-90.06488875731978",
    "latitude": "29.959586396383013",
    "geocoded_column": {
      "latitude": "29.959586396383013",
      "longitude": "-90.06488875731978"
    }
  },
  {
    "service_request": "2026-1266776",
    "request_type": "Trash/Recycling",
    "request_reason": "Request a Large Item Pick Up",
    "date_created": "2026-03-18T23:00:24.000",
    "date_modified": "2026-03-18T23:00:25.000",
    "request_status": "Pending",
    "responsible_agency": "Department of Sanitation",
    "final_address": "2224 N Prieur St",
    "address_councildis": "D",
    "status": "Assigned to Contractor",
    "contractor": "IV Waste",
    "rowid": "1266776",
    "final_x": "3685047.53653",
    "final_y": "539234.544138",
    "longitude": "-90.05659707399515",
    "latitude": "29.97659982031186",
    "geocoded_column": {
      "latitude": "29.97659982031186",
      "longitude": "-90.05659707399515"
    }
  },
  {
    "service_request": "2026-1266775",
    "request_type": "Abandoned Vehicles",
    "request_reason": "Abandoned/Junk Vehicles",
    "date_created": "2026-03-18T22:58:01.000",
    "date_modified": "2026-03-18T22:58:03.000",
    "request_status": "Pending",
    "responsible_agency": "Department of Public Works",
    "final_address": "2109 Elysian Fields Ave",
    "address_councildis": "D",
    "status": "Pending",
    "rowid": "1266775",
    "final_x": "3684816.22921",
    "final_y": "540096.455947",
    "longitude": "-90.05729729757883",
    "latitude": "29.978976860257017",
    "geocoded_column": {
      "latitude": "29.978976860257017",
      "longitude": "-90.05729729757883"
    }
  },
  {
    "service_request": "2026-1266773",
    "request_type": "Health Related Request",
    "request_reason": "Noise Ordinance Complaint",
    "date_created": "2026-03-18T22:15:39.000",
    "date_modified": "2026-03-18T22:15:41.000",
    "request_status": "Pending",
    "responsible_agency": "Health Department",
    "final_address": "801 Bourbon St, New Orleans, Louisiana, 70116",
    "address_councildis": "C",
    "status": "Pending",
    "rowid": "1266773",
    "final_x": "3682490.98735",
    "final_y": "533018.672772",
    "longitude": "-90.06488875731978",
    "latitude": "29.959586396383013",
    "geocoded_column": {
      "latitude": "29.959586396383013",
      "longitude": "-90.06488875731978"
    }
  },
  {
    "service_request": "2026-1266772",
    "request_type": "Health Related Request",
    "request_reason": "Noise Ordinance Complaint",
    "date_created": "2026-03-18T22:15:20.000",
    "date_modified": "2026-03-18T22:15:22.000",
    "request_status": "Pending",
    "responsible_agency": "Health Department",
    "final_address": "801 Bourbon St, New Orleans, Louisiana, 70116",
    "address_councildis": "C",
    "status": "Pending",
    "rowid": "1266772",
    "final_x": "3682490.98735",
    "final_y": "533018.672772",
    "longitude": "-90.06488875731978",
    "latitude": "29.959586396383013",
    "geocoded_column": {
      "latitude": "29.959586396383013",
      "longitude": "-90.06488875731978"
    }
  },
  {
    "service_request": "2026-1266771",
    "request_type": "Health Related Request",
    "request_reason": "Noise Ordinance Complaint",
    "date_created": "2026-03-18T22:15:00.000",
    "date_modified": "2026-03-18T22:15:01.000",
    "request_status": "Pending",
    "responsible_agency": "Health Department",
    "final_address": "801 Bourbon St, New Orleans, Louisiana, 70116",
    "address_councildis": "C",
    "status": "Pending",
    "rowid": "1266771",
    "final_x": "3682490.98735",
    "final_y": "533018.672772",
    "longitude": "-90.06488875731978",
    "latitude": "29.959586396383013",
    "geocoded_column": {
      "latitude": "29.959586396383013",
      "longitude": "-90.06488875731978"
    }
  },
  {
    "service_request": "2026-1266770",
    "request_type": "Trash/Recycling",
    "request_reason": "Order Recycling Cart",
    "date_created": "2026-03-18T22:05:02.000",
    "date_modified": "2026-03-18T22:05:07.000",
    "request_status": "Pending",
    "responsible_agency": "Department of Sanitation",
    "final_address": "1214 Eagle St",
    "address_councildis": "A",
    "status": "Pending",
    "rowid": "1266770",
    "final_x": "3660192.68384",
    "final_y": "530170.161409",
    "longitude": "-90.13539609617789",
    "latitude": "29.952413801333165",
    "geocoded_column": {
      "latitude": "29.952413801333165",
      "longitude": "-90.13539609617789"
    }
  },
  {
    "service_request": "2026-1266769",
    "request_type": "Trash/Recycling",
    "request_reason": "Illegal Dumping",
    "date_created": "2026-03-18T21:40:56.000",
    "date_modified": "2026-03-18T21:40:57.000",
    "request_status": "Pending",
    "responsible_agency": "Department of Sanitation",
    "final_address": "1600 Filmore Ave",
    "address_councildis": "D",
    "status": "Pending",
    "rowid": "1266769",
    "final_x": "3679305.24443",
    "final_y": "551797.25807",
    "longitude": "-90.07429703330367",
    "latitude": "30.01131753351933",
    "geocoded_column": {
      "latitude": "30.01131753351933",
      "longitude": "-90.07429703330367"
    }
  },
  {
    "service_request": "2026-1266768",
    "request_type": "Trash/Recycling",
    "request_reason": "Request a Large Item Pick Up",
    "date_created": "2026-03-18T21:34:13.000",
    "date_modified": "2026-03-18T21:34:14.000",
    "request_status": "Pending",
    "responsible_agency": "Department of Sanitation",
    "final_address": "621 First St",
    "address_councildis": "B",
    "status": "Assigned to Contractor",
    "contractor": "IV Waste",
    "rowid": "1266768",
    "final_x": "3679004.1636",
    "final_y": "520156.274104",
    "longitude": "-90.07634490701231",
    "latitude": "29.92432474356475",
    "geocoded_column": {
      "latitude": "29.92432474356475",
      "longitude": "-90.07634490701231"
    }
  },
  {
    "service_request": "2026-1266767",
    "request_type": "Streetlights",
    "request_reason": "Streetlight Outage/Malfunction",
    "date_created": "2026-03-18T21:31:15.000",
    "date_modified": "2026-03-18T21:31:18.000",
    "request_status": "Pending",
    "responsible_agency": "Department of Public Works",
    "final_address": "6831 Marshal Foch St",
    "address_councildis": "A",
    "status": "Pending",
    "rowid": "1266767",
    "final_x": "3670430.55623",
    "final_y": "552796.860758",
    "longitude": "-90.10230193108235",
    "latitude": "30.014331230754884",
    "geocoded_column": {
      "latitude": "30.014331230754884",
      "longitude": "-90.10230193108235"
    }
  },
  {
    "service_request": "2026-1266766",
    "request_type": "Trash/Recycling",
    "request_reason": "Order Second Trash Cart",
    "date_created": "2026-03-18T20:41:50.000",
    "date_modified": "2026-03-18T20:41:52.000",
    "request_status": "Pending",
    "responsible_agency": "Department of Sanitation",
    "final_address": "4717 Nottingham Dr",
    "address_councildis": "E",
    "status": "Assigned to Contractor",
    "contractor": "Waste Pro",
    "rowid": "1266766",
    "final_x": "3716476.96146",
    "final_y": "556868.97449",
    "longitude": "-89.95666529902793",
    "latitude": "30.024087316055784",
    "geocoded_column": {
      "latitude": "30.024087316055784",
      "longitude": "-89.95666529902793"
    }
  },
  {
    "service_request": "2026-1266765",
    "request_type": "Abandoned Vehicles",
    "request_reason": "Abandoned/Junk Vehicles",
    "date_created": "2026-03-18T20:40:00.000",
    "date_modified": "2026-03-18T20:40:02.000",
    "request_status": "Pending",
    "responsible_agency": "Department of Public Works",
    "final_address": "5410 Glouster Rd",
    "address_councildis": "E",
    "status": "Pending",
    "rowid": "1266765",
    "final_x": "3707476.28984",
    "final_y": "557846.134619",
    "longitude": "-89.98506914368409",
    "latitude": "30.02706839355895",
    "geocoded_column": {
      "latitude": "30.02706839355895",
      "longitude": "-89.98506914368409"
    }
  },
  {
    "service_request": "2026-1266764",
    "request_type": "Abandoned Vehicles",
    "request_reason": "Abandoned/Junk Vehicles",
    "date_created": "2026-03-18T20:28:49.000",
    "date_modified": "2026-03-18T20:28:51.000",
    "request_status": "Pending",
    "responsible_agency": "Department of Public Works",
    "final_address": "8910 Tilford Rd",
    "address_councildis": "E",
    "status": "Pending",
    "rowid": "1266764",
    "final_x": "3707928.6899",
    "final_y": "557209.386331",
    "longitude": "-89.98366331459664",
    "latitude": "30.02530294024195",
    "geocoded_column": {
      "latitude": "30.02530294024195",
      "longitude": "-89.98366331459664"
    }
  },
  {
    "service_request": "2026-1266763",
    "request_type": "Trash/Recycling",
    "request_reason": "Request a Large Item Pick Up",
    "date_created": "2026-03-18T20:21:59.000",
    "date_modified": "2026-03-18T20:22:01.000",
    "request_status": "Pending",
    "responsible_agency": "Department of Sanitation",
    "final_address": "2712 S Johnson St",
    "address_councildis": "B",
    "status": "Assigned to Contractor",
    "contractor": "IV Waste",
    "rowid": "1266763",
    "final_x": "3672575.30151",
    "final_y": "527946.032063",
    "longitude": "-90.09637318970053",
    "latitude": "29.945936407751354",
    "geocoded_column": {
      "latitude": "29.945936407751354",
      "longitude": "-90.09637318970053"
    }
  },
  {
    "service_request": "2026-1266762",
    "request_type": "Trash/Recycling",
    "request_reason": "Order Trash Cart",
    "date_created": "2026-03-18T19:47:07.000",
    "date_modified": "2026-03-18T19:47:09.000",
    "request_status": "Pending",
    "responsible_agency": "Department of Sanitation",
    "final_address": "2435 Touro St",
    "address_councildis": "D",
    "status": "Assigned to Contractor",
    "contractor": "IV Waste",
    "rowid": "1266762",
    "final_x": "3683861.90281",
    "final_y": "541321.2395",
    "longitude": "-90.06026844320809",
    "latitude": "29.98237377287004",
    "geocoded_column": {
      "latitude": "29.98237377287004",
      "longitude": "-90.06026844320809"
    }
  },
  {
    "service_request": "2026-1266761",
    "request_type": "Trash/Recycling",
    "request_reason": "Damaged Caused By Contractor",
    "date_created": "2026-03-18T19:19:44.000",
    "date_modified": "2026-03-18T19:19:46.000",
    "request_status": "Pending",
    "responsible_agency": "Department of Sanitation",
    "final_address": "4438 Carondelet St",
    "address_councildis": "B",
    "status": "Assigned to Contractor",
    "contractor": "IV Waste",
    "rowid": "1266761",
    "final_x": "3670471.85089",
    "final_y": "521156.633273",
    "longitude": "-90.10324463626748",
    "latitude": "29.92733002326596",
    "geocoded_column": {
      "latitude": "29.92733002326596",
      "longitude": "-90.10324463626748"
    }
  },
  {
    "service_request": "2026-1266760",
    "request_type": "Trash/Recycling",
    "request_reason": "Replace Recycling Cart",
    "date_created": "2026-03-18T19:12:43.000",
    "date_modified": "2026-03-18T19:12:46.000",
    "request_status": "Pending",
    "responsible_agency": "Department of Sanitation",
    "final_address": "6466 Memphis St",
    "address_councildis": "A",
    "status": "Pending",
    "rowid": "1266760",
    "final_x": "3669393.52993",
    "final_y": "550494.024148",
    "longitude": "-90.1056563827353",
    "latitude": "30.00802983382561",
    "geocoded_column": {
      "latitude": "30.00802983382561",
      "longitude": "-90.1056563827353"
    }
  },
  {
    "service_request": "2026-1266759",
    "request_type": "Abandoned Vehicles",
    "request_reason": "Abandoned/Junk Vehicles",
    "date_created": "2026-03-18T19:10:28.000",
    "date_modified": "2026-03-18T19:10:30.000",
    "request_status": "Pending",
    "responsible_agency": "Department of Public Works",
    "final_address": "3743 Fairmont Dr",
    "address_councildis": "D",
    "status": "Pending",
    "rowid": "1266759",
    "final_x": "3685197.45455",
    "final_y": "546405.880144",
    "longitude": "-90.05587107785144",
    "latitude": "29.99631385830065",
    "geocoded_column": {
      "latitude": "29.99631385830065",
      "longitude": "-90.05587107785144"
    }
  },
  {
    "service_request": "2026-1266758",
    "request_type": "General Services",
    "request_reason": "General Service Request",
    "date_created": "2026-03-18T19:09:09.000",
    "date_modified": "2026-03-18T19:09:13.000",
    "request_status": "Pending",
    "responsible_agency": "Orleans Parish Communication District",
    "final_address": "3234 De Soto St",
    "address_councildis": "A",
    "status": "Pending",
    "rowid": "1266758",
    "final_x": "3675780.26984",
    "final_y": "539983.675851",
    "longitude": "-90.08584022626646",
    "latitude": "29.97894034804727",
    "geocoded_column": {
      "latitude": "29.97894034804727",
      "longitude": "-90.08584022626646"
    }
  },
  {
    "service_request": "2026-1266757",
    "request_type": "Trash/Recycling",
    "request_reason": "Request a Large Item Pick Up",
    "date_created": "2026-03-18T18:53:06.000",
    "date_modified": "2026-03-18T18:53:07.000",
    "request_status": "Pending",
    "responsible_agency": "Department of Sanitation",
    "final_address": "3741 Rue Delphine",
    "address_councildis": "C",
    "status": "Assigned to Contractor",
    "contractor": "Richards Disposal",
    "rowid": "1266757",
    "final_x": "3702961.81335",
    "final_y": "516744.936053",
    "longitude": "-90.00084467550288",
    "latitude": "29.91420034179204",
    "geocoded_column": {
      "latitude": "29.91420034179204",
      "longitude": "-90.00084467550288"
    }
  },
  {
    "service_request": "2026-1266756",
    "request_type": "Trash/Recycling",
    "request_reason": "Request a Large Item Pick Up",
    "date_created": "2026-03-18T18:49:43.000",
    "date_modified": "2026-03-18T18:49:45.000",
    "request_status": "Pending",
    "responsible_agency": "Department of Sanitation",
    "final_address": "2324 George Nick Connor Dr",
    "address_councildis": "D",
    "status": "Assigned to Contractor",
    "contractor": "IV Waste",
    "rowid": "1266756",
    "final_x": "3681172.22152",
    "final_y": "540650.053899",
    "longitude": "-90.06878716671181",
    "latitude": "29.980610140999396",
    "geocoded_column": {
      "latitude": "29.980610140999396",
      "longitude": "-90.06878716671181"
    }
  },
  {
    "service_request": "2026-1266755",
    "request_type": "Trash/Recycling",
    "request_reason": "Repair Trash Cart",
    "date_created": "2026-03-18T18:29:34.000",
    "date_modified": "2026-03-18T18:29:37.000",
    "request_status": "Pending",
    "responsible_agency": "Department of Sanitation",
    "final_address": "2029 Palmer Ave, New Orleans, Louisiana, 70118",
    "address_councildis": "A",
    "status": "Assigned to Contractor",
    "contractor": "IV Waste",
    "rowid": "1266755",
    "final_x": "3665969.06215",
    "final_y": "524494.769212",
    "longitude": "-90.11734703814584",
    "latitude": "29.936640984411206",
    "geocoded_column": {
      "latitude": "29.936640984411206",
      "longitude": "-90.11734703814584"
    }
  },
  {
    "service_request": "2026-1266754",
    "request_type": "Roads and Streets",
    "request_reason": "Pothole",
    "date_created": "2026-03-18T18:26:43.000",
    "date_modified": "2026-03-18T18:26:45.000",
    "request_status": "Pending",
    "responsible_agency": "Department of Public Works",
    "final_address": "1517 Erie St",
    "address_councildis": "C",
    "status": "Pending",
    "rowid": "1266754",
    "final_x": "3690111.30499",
    "final_y": "522396.090682",
    "longitude": "-90.04120389261251",
    "latitude": "29.930143779214816",
    "geocoded_column": {
      "latitude": "29.930143779214816",
      "longitude": "-90.04120389261251"
    }
  },
  {
    "service_request": "2026-1266753",
    "request_type": "Trash/Recycling",
    "request_reason": "Request a Large Item Pick Up",
    "date_created": "2026-03-18T18:19:07.000",
    "date_modified": "2026-03-18T18:19:11.000",
    "request_status": "Pending",
    "responsible_agency": "Department of Sanitation",
    "final_address": "819 Pauline St",
    "address_councildis": "C",
    "status": "Assigned to Contractor",
    "contractor": "IV Waste",
    "rowid": "1266753",
    "final_x": "3691003.9558",
    "final_y": "534460.827461",
    "longitude": "-90.03795538079578",
    "latitude": "29.96328994839186",
    "geocoded_column": {
      "latitude": "29.96328994839186",
      "longitude": "-90.03795538079578"
    }
  },
  {
    "service_request": "2026-1266752",
    "request_type": "Streetlights",
    "request_reason": "Streetlight Outage/Malfunction",
    "date_created": "2026-03-18T18:02:27.000",
    "date_modified": "2026-03-18T18:02:28.000",
    "request_status": "Pending",
    "responsible_agency": "Department of Public Works",
    "final_address": "848 Harrison Ave",
    "address_councildis": "A",
    "status": "Pending",
    "rowid": "1266752",
    "final_x": "3669766.08046",
    "final_y": "549034.592147",
    "longitude": "-90.10452882573644",
    "latitude": "30.00400592568403",
    "geocoded_column": {
      "latitude": "30.00400592568403",
      "longitude": "-90.10452882573644"
    }
  },
  {
    "service_request": "2026-1266751",
    "request_type": "Trash/Recycling",
    "request_reason": "Request a Large Item Pick Up",
    "date_created": "2026-03-18T17:26:53.000",
    "date_modified": "2026-03-18T17:26:59.000",
    "request_status": "Pending",
    "responsible_agency": "Department of Sanitation",
    "final_address": "411 S St Patrick St",
    "address_councildis": "A",
    "status": "Assigned to Contractor",
    "contractor": "IV Waste",
    "rowid": "1266751",
    "final_x": "3668263.48135",
    "final_y": "538813.642313",
    "longitude": "-90.10962065833124",
    "latitude": "29.975946030565265",
    "geocoded_column": {
      "latitude": "29.975946030565265",
      "longitude": "-90.10962065833124"
    }
  },
  {
    "service_request": "2026-1266750",
    "request_type": "Parks & Parkways",
    "request_reason": "Request Tree Service (Right of Way/Public Property)",
    "date_created": "2026-03-18T17:18:57.000",
    "date_modified": "2026-03-18T17:18:59.000",
    "request_status": "Pending",
    "responsible_agency": "Department of Parks & Parkway",
    "final_address": "1700 BLK Bayou Rd",
    "address_councildis": "D",
    "status": "Pending",
    "rowid": "1266750",
    "final_x": "3680824.57598",
    "final_y": "536351.687911",
    "longitude": "-90.0700348596272",
    "latitude": "29.968801666695594",
    "geocoded_column": {
      "latitude": "29.968801666695594",
      "longitude": "-90.0700348596272"
    }
  },
  {
    "service_request": "2026-1266749",
    "request_type": "Trash/Recycling",
    "request_reason": "Illegal Dumping",
    "date_created": "2026-03-18T17:13:46.000",
    "date_modified": "2026-03-18T17:13:49.000",
    "request_status": "Pending",
    "responsible_agency": "Department of Sanitation",
    "final_address": "4120 Erato St",
    "address_councildis": "B",
    "status": "Pending",
    "rowid": "1266749",
    "final_x": "3671234.6523",
    "final_y": "531230.559938",
    "longitude": "-90.1004945042858",
    "latitude": "29.95500750656508",
    "geocoded_column": {
      "latitude": "29.95500750656508",
      "longitude": "-90.1004945042858"
    }
  },
  {
    "service_request": "2026-1266748",
    "request_type": "Trash/Recycling",
    "request_reason": "Repair Trash Cart",
    "date_created": "2026-03-18T17:11:36.000",
    "date_modified": "2026-03-18T17:11:37.000",
    "request_status": "Pending",
    "responsible_agency": "Department of Sanitation",
    "final_address": "1622 Pine St",
    "address_councildis": "A",
    "status": "Assigned to Contractor",
    "contractor": "IV Waste",
    "rowid": "1266748",
    "final_x": "3664824.26925",
    "final_y": "528075.965311",
    "longitude": "-90.12084157789087",
    "latitude": "29.94652148249838",
    "geocoded_column": {
      "latitude": "29.94652148249838",
      "longitude": "-90.12084157789087"
    }
  },
  {
    "service_request": "2026-1266747",
    "request_type": "Trash/Recycling",
    "request_reason": "Missed Trash Pick-Up",
    "date_created": "2026-03-18T16:56:12.000",
    "date_modified": "2026-03-18T17:28:45.000",
    "case_close_date": "2026-03-18T12:28:44.000",
    "request_status": "Closed",
    "responsible_agency": "Department of Sanitation",
    "final_address": "1521 Fern St",
    "address_councildis": "A",
    "status": "Invalid Request",
    "contractor": "IV Waste",
    "contractor_action": "Invalid Request",
    "rowid": "1266747",
    "final_x": "3663407.93331",
    "final_y": "528746.942016",
    "longitude": "-90.1252911403824",
    "latitude": "29.948407586793046",
    "geocoded_column": {
      "latitude": "29.948407586793046",
      "longitude": "-90.1252911403824"
    }
  },
  {
    "service_request": "2026-1266746",
    "request_type": "Trash/Recycling",
    "request_reason": "Request a Large Item Pick Up",
    "date_created": "2026-03-18T16:51:19.000",
    "date_modified": "2026-03-18T16:51:20.000",
    "request_status": "Pending",
    "responsible_agency": "Department of Sanitation",
    "final_address": "6936 Camberley Dr",
    "address_councildis": "E",
    "status": "Assigned to Contractor",
    "contractor": "Waste Pro",
    "rowid": "1266746",
    "final_x": "3713428.04383",
    "final_y": "564348.431905",
    "longitude": "-89.96601718371352",
    "latitude": "30.044753203091233",
    "geocoded_column": {
      "latitude": "30.044753203091233",
      "longitude": "-89.96601718371352"
    }
  },
  {
    "service_request": "2026-1266745",
    "request_type": "Abandoned Vehicles",
    "request_reason": "Abandoned/Junk Vehicles",
    "date_created": "2026-03-18T16:44:43.000",
    "date_modified": "2026-03-18T16:49:59.000",
    "request_status": "Pending",
    "responsible_agency": "Department of Public Works",
    "final_address": "4301 Hollygrove St",
    "address_councildis": "A",
    "status": "Pending",
    "rowid": "1266745",
    "final_x": "3667066.65428",
    "final_y": "538636.668425",
    "longitude": "-90.11340654625464",
    "latitude": "29.97549450255423",
    "geocoded_column": {
      "latitude": "29.97549450255423",
      "longitude": "-90.11340654625464"
    }
  },
  {
    "service_request": "2026-1266744",
    "request_type": "Trash/Recycling",
    "request_reason": "Replace Trash Cart",
    "date_created": "2026-03-18T16:41:35.000",
    "date_modified": "2026-03-18T16:41:37.000",
    "request_status": "Pending",
    "responsible_agency": "Department of Sanitation",
    "final_address": "2128 Pace Blvd",
    "address_councildis": "C",
    "status": "Assigned to Contractor",
    "contractor": "Richards Disposal",
    "rowid": "1266744",
    "final_x": "3694544.6993",
    "final_y": "522473.341178",
    "longitude": "-90.02720567157155",
    "latitude": "29.93021798024858",
    "geocoded_column": {
      "latitude": "29.93021798024858",
      "longitude": "-90.02720567157155"
    }
  },
  {
    "service_request": "2026-1266743",
    "request_type": "Trash/Recycling",
    "request_reason": "Request a Large Item Pick Up",
    "date_created": "2026-03-18T16:40:31.000",
    "date_modified": "2026-03-18T16:40:33.000",
    "request_status": "Pending",
    "responsible_agency": "Department of Sanitation",
    "final_address": "3063 Grand-Route St John St",
    "address_councildis": "A",
    "status": "Assigned to Contractor",
    "contractor": "IV Waste",
    "rowid": "1266743",
    "final_x": "3676654.37723",
    "final_y": "540366.011019",
    "longitude": "-90.08306628306927",
    "latitude": "29.97996544192313",
    "geocoded_column": {
      "latitude": "29.97996544192313",
      "longitude": "-90.08306628306927"
    }
  },
  {
    "service_request": "2026-1266742",
    "request_type": "Trash/Recycling",
    "request_reason": "Request a Large Item Pick Up",
    "date_created": "2026-03-18T16:36:32.000",
    "date_modified": "2026-03-18T16:36:34.000",
    "request_status": "Closed",
    "responsible_agency": "Department of Sanitation",
    "final_address": "3063 Grand-Route St John St",
    "address_councildis": "A",
    "status": "Assigned to Contractor",
    "contractor": "IV Waste",
    "contractor_action": "Completed",
    "rowid": "1266742",
    "final_x": "3676654.37723",
    "final_y": "540366.011019",
    "longitude": "-90.08306628306927",
    "latitude": "29.97996544192313",
    "geocoded_column": {
      "latitude": "29.97996544192313",
      "longitude": "-90.08306628306927"
    }
  },
  {
    "service_request": "2026-1266741",
    "request_type": "Trash/Recycling",
    "request_reason": "Repair Trash Cart",
    "date_created": "2026-03-18T16:36:18.000",
    "date_modified": "2026-03-18T16:36:19.000",
    "request_status": "Pending",
    "responsible_agency": "Department of Sanitation",
    "final_address": "4017 Hamilton St",
    "address_councildis": "A",
    "status": "Assigned to Contractor",
    "contractor": "IV Waste",
    "rowid": "1266741",
    "final_x": "3666176.72858",
    "final_y": "538183.876745",
    "longitude": "-90.11623237507303",
    "latitude": "29.97427549876059",
    "geocoded_column": {
      "latitude": "29.97427549876059",
      "longitude": "-90.11623237507303"
    }
  },
  {
    "service_request": "2026-1266740",
    "request_type": "Trash/Recycling",
    "request_reason": "Request a Large Item Pick Up",
    "date_created": "2026-03-18T16:31:01.000",
    "date_modified": "2026-03-18T16:31:03.000",
    "request_status": "Pending",
    "responsible_agency": "Department of Sanitation",
    "final_address": "8549 Fordham Ct",
    "address_councildis": "E",
    "status": "Assigned to Contractor",
    "contractor": "Waste Pro",
    "rowid": "1266740",
    "final_x": "3705127.11742",
    "final_y": "560495.786462",
    "longitude": "-89.9923942657572",
    "latitude": "30.034429696158455",
    "geocoded_column": {
      "latitude": "30.034429696158455",
      "longitude": "-89.9923942657572"
    }
  },
  {
    "service_request": "2026-1266739",
    "request_type": "Streetlights",
    "request_reason": "Streetlight Outage/Malfunction",
    "date_created": "2026-03-18T16:30:56.000",
    "date_modified": "2026-03-18T16:30:58.000",
    "request_status": "Pending",
    "responsible_agency": "Department of Public Works",
    "final_address": "1476 Milton St",
    "address_councildis": "D",
    "status": "Pending",
    "rowid": "1266739",
    "final_x": "3678707.0173",
    "final_y": "546119.15304",
    "longitude": "-90.07638386656737",
    "latitude": "29.995722827384988",
    "geocoded_column": {
      "latitude": "29.995722827384988",
      "longitude": "-90.07638386656737"
    }
  },
  {
    "service_request": "2026-1266738",
    "request_type": "Streetlights",
    "request_reason": "Streetlight Outage/Malfunction",
    "date_created": "2026-03-18T16:26:48.000",
    "date_modified": "2026-03-18T16:26:51.000",
    "request_status": "Pending",
    "responsible_agency": "Department of Public Works",
    "final_address": "1418 St Denis St",
    "address_councildis": "D",
    "status": "Pending",
    "rowid": "1266738",
    "final_x": "3678325.34242",
    "final_y": "545714.331856",
    "longitude": "-90.07760355907736",
    "latitude": "29.994621218582903",
    "geocoded_column": {
      "latitude": "29.994621218582903",
      "longitude": "-90.07760355907736"
    }
  },
  {
    "service_request": "2026-1266736",
    "request_type": "Trash/Recycling",
    "request_reason": "Request a Large Item Pick Up",
    "date_created": "2026-03-18T16:15:48.000",
    "date_modified": "2026-03-18T16:15:49.000",
    "request_status": "Pending",
    "responsible_agency": "Department of Sanitation",
    "final_address": "3129 Constance St",
    "address_councildis": "B",
    "status": "Assigned to Contractor",
    "contractor": "IV Waste",
    "rowid": "1266736",
    "final_x": "3676109.14933",
    "final_y": "519788.985464",
    "longitude": "-90.08549609979676",
    "latitude": "29.923401826085453",
    "geocoded_column": {
      "latitude": "29.923401826085453",
      "longitude": "-90.08549609979676"
    }
  },
  {
    "service_request": "2026-1266735",
    "request_type": "Trash/Recycling",
    "request_reason": "Request a Large Item Pick Up",
    "date_created": "2026-03-18T16:14:32.000",
    "date_modified": "2026-03-18T16:14:34.000",
    "request_status": "Pending",
    "responsible_agency": "Department of Sanitation",
    "final_address": "47 Park Timbers Dr",
    "address_councildis": "C",
    "status": "Assigned to Contractor",
    "contractor": "Richards Disposal",
    "rowid": "1266735",
    "final_x": "3699154.90788",
    "final_y": "517070.962293",
    "longitude": "-90.01284860680293",
    "latitude": "29.915217983002726",
    "geocoded_column": {
      "latitude": "29.915217983002726",
      "longitude": "-90.01284860680293"
    }
  },
  {
    "service_request": "2026-1266734",
    "request_type": "Trash/Recycling",
    "request_reason": "Request a Large Item Pick Up",
    "date_created": "2026-03-18T16:13:58.000",
    "date_modified": "2026-03-18T16:13:59.000",
    "request_status": "Pending",
    "responsible_agency": "Department of Sanitation",
    "final_address": "4615 Mandeville St",
    "address_councildis": "D",
    "status": "Assigned to Contractor",
    "contractor": "IV Waste",
    "rowid": "1266734",
    "final_x": "3684840.4893",
    "final_y": "549690.974548",
    "longitude": "-90.0568831022351",
    "latitude": "30.005357622747407",
    "geocoded_column": {
      "latitude": "30.005357622747407",
      "longitude": "-90.0568831022351"
    }
  },
  {
    "service_request": "2026-1266733",
    "request_type": "Trash/Recycling",
    "request_reason": "Request a Large Item Pick Up",
    "date_created": "2026-03-18T16:12:44.000",
    "date_modified": "2026-03-18T16:12:47.000",
    "request_status": "Pending",
    "responsible_agency": "Department of Sanitation",
    "final_address": "7641 Shaw Ave",
    "address_councildis": "E",
    "status": "Assigned to Contractor",
    "contractor": "Waste Pro",
    "rowid": "1266733",
    "final_x": "3707154.2915",
    "final_y": "564401.823649",
    "longitude": "-89.98584301058997",
    "latitude": "30.045104363439865",
    "geocoded_column": {
      "latitude": "30.045104363439865",
      "longitude": "-89.98584301058997"
    }
  },
  {
    "service_request": "2026-1266732",
    "request_type": "Abandoned Vehicles",
    "request_reason": "Abandoned/Junk Vehicles",
    "date_created": "2026-03-18T16:10:00.000",
    "date_modified": "2026-03-18T16:10:02.000",
    "request_status": "Pending",
    "responsible_agency": "Department of Public Works",
    "final_address": "1422 Independence St",
    "address_councildis": "D",
    "status": "Pending",
    "rowid": "1266732",
    "final_x": "3691231.26672",
    "final_y": "536836.086344",
    "longitude": "-90.0371527120506",
    "latitude": "29.969814007230248",
    "geocoded_column": {
      "latitude": "29.969814007230248",
      "longitude": "-90.0371527120506"
    }
  },
  {
    "service_request": "2026-1266731",
    "request_type": "Trash/Recycling",
    "request_reason": "Order Recycling Cart",
    "date_created": "2026-03-18T16:09:42.000",
    "date_modified": "2026-03-18T16:09:44.000",
    "request_status": "Pending",
    "responsible_agency": "Department of Sanitation",
    "final_address": "47 Park Timbers Dr",
    "address_councildis": "C",
    "status": "Pending",
    "rowid": "1266731",
    "final_x": "3699154.90788",
    "final_y": "517070.962293",
    "longitude": "-90.01284860680293",
    "latitude": "29.915217983002726",
    "geocoded_column": {
      "latitude": "29.915217983002726",
      "longitude": "-90.01284860680293"
    }
  },
  {
    "service_request": "2026-1266730",
    "request_type": "Trash/Recycling",
    "request_reason": "Order Second Trash Cart",
    "date_created": "2026-03-18T16:07:16.000",
    "date_modified": "2026-03-18T16:07:18.000",
    "request_status": "Pending",
    "responsible_agency": "Department of Sanitation",
    "final_address": "12981 N Lake Carmel Dr",
    "address_councildis": "E",
    "status": "Assigned to Contractor",
    "contractor": "Waste Pro",
    "rowid": "1266730",
    "final_x": "3716588.78335",
    "final_y": "568423.582245",
    "longitude": "-89.95587306301587",
    "latitude": "30.05585411099728",
    "geocoded_column": {
      "latitude": "30.05585411099728",
      "longitude": "-89.95587306301587"
    }
  },
  {
    "service_request": "2026-1266729",
    "request_type": "Trash/Recycling",
    "request_reason": "Order Second Trash Cart",
    "date_created": "2026-03-18T16:06:30.000",
    "date_modified": "2026-03-18T16:06:32.000",
    "request_status": "Pending",
    "responsible_agency": "Department of Sanitation",
    "final_address": "7533 Means Ave",
    "address_councildis": "E",
    "status": "Assigned to Contractor",
    "contractor": "Waste Pro",
    "rowid": "1266729",
    "final_x": "3708213.07972",
    "final_y": "564566.862241",
    "longitude": "-89.98249061525058",
    "latitude": "30.045523875053373",
    "geocoded_column": {
      "latitude": "30.045523875053373",
      "longitude": "-89.98249061525058"
    }
  },
  {
    "service_request": "2026-1266728",
    "request_type": "Trash/Recycling",
    "request_reason": "Repair Trash Cart",
    "date_created": "2026-03-18T16:05:04.000",
    "date_modified": "2026-03-18T16:05:07.000",
    "request_status": "Pending",
    "responsible_agency": "Department of Sanitation",
    "final_address": "1922 Adams St",
    "address_councildis": "A",
    "status": "Assigned to Contractor",
    "contractor": "IV Waste",
    "rowid": "1266728",
    "final_x": "3664814.87687",
    "final_y": "529368.983105",
    "longitude": "-90.12082803266622",
    "latitude": "29.95007713748382",
    "geocoded_column": {
      "latitude": "29.95007713748382",
      "longitude": "-90.12082803266622"
    }
  },
  {
    "service_request": "2026-1266727",
    "request_type": "Trash/Recycling",
    "request_reason": "Repair Trash Cart",
    "date_created": "2026-03-18T16:02:41.000",
    "date_modified": "2026-03-18T16:02:42.000",
    "request_status": "Pending",
    "responsible_agency": "Department of Sanitation",
    "final_address": "5820 Lafaye St",
    "address_councildis": "D",
    "status": "Assigned to Contractor",
    "contractor": "IV Waste",
    "rowid": "1266727",
    "final_x": "3687136.31567",
    "final_y": "554707.221464",
    "longitude": "-90.04945253750807",
    "latitude": "30.019079938838715",
    "geocoded_column": {
      "latitude": "30.019079938838715",
      "longitude": "-90.04945253750807"
    }
  },
  {
    "service_request": "2026-1266726",
    "request_type": "Trash/Recycling",
    "request_reason": "Repair Recycling Cart",
    "date_created": "2026-03-18T16:01:47.000",
    "date_modified": "2026-03-18T16:01:48.000",
    "request_status": "Pending",
    "responsible_agency": "Department of Sanitation",
    "final_address": "607 Jefferson Ave, New Orleans, Louisiana, 70115",
    "address_councildis": "B",
    "status": "Pending",
    "rowid": "1266726",
    "final_x": "3666581.0745",
    "final_y": "517641.529014",
    "longitude": "-90.11564480781608",
    "latitude": "29.917778869114517",
    "geocoded_column": {
      "latitude": "29.917778869114517",
      "longitude": "-90.11564480781608"
    }
  },
  {
    "service_request": "2026-1266725",
    "request_type": "Trash/Recycling",
    "request_reason": "Request a Large Item Pick Up",
    "date_created": "2026-03-18T15:59:07.000",
    "date_modified": "2026-03-18T15:59:09.000",
    "request_status": "Pending",
    "responsible_agency": "Department of Sanitation",
    "final_address": "1547 Harrison Ave",
    "address_councildis": "D",
    "status": "Assigned to Contractor",
    "contractor": "IV Waste",
    "rowid": "1266725",
    "final_x": "3679153.36802",
    "final_y": "547745.395794",
    "longitude": "-90.07491746464362",
    "latitude": "30.000180948320345",
    "geocoded_column": {
      "latitude": "30.000180948320345",
      "longitude": "-90.07491746464362"
    }
  },
  {
    "service_request": "2026-1266724",
    "request_type": "Trash/Recycling",
    "request_reason": "Request a Large Item Pick Up",
    "date_created": "2026-03-18T15:56:35.000",
    "date_modified": "2026-03-18T15:56:37.000",
    "request_status": "Pending",
    "responsible_agency": "Department of Sanitation",
    "final_address": "6900 Deanne St",
    "address_councildis": "D",
    "status": "Assigned to Contractor",
    "contractor": "Waste Pro",
    "rowid": "1266724",
    "final_x": "3695686.44778",
    "final_y": "556020.899993",
    "longitude": "-90.02238973547824",
    "latitude": "30.02242586723682",
    "geocoded_column": {
      "latitude": "30.02242586723682",
      "longitude": "-90.02238973547824"
    }
  },
  {
    "service_request": "2026-1266723",
    "request_type": "Abandoned Vehicles",
    "request_reason": "Abandoned/Junk Vehicles",
    "date_created": "2026-03-18T15:54:35.000",
    "date_modified": "2026-03-18T15:54:37.000",
    "request_status": "Pending",
    "responsible_agency": "Department of Public Works",
    "final_address": "5808 Elysian Fields Ave",
    "address_councildis": "D",
    "status": "Pending",
    "rowid": "1266723",
    "final_x": "3683386.53263",
    "final_y": "554383.507416",
    "longitude": "-90.06131189052681",
    "latitude": "30.01830483736155",
    "geocoded_column": {
      "latitude": "30.01830483736155",
      "longitude": "-90.06131189052681"
    }
  },
  {
    "service_request": "2026-1266722",
    "request_type": "Trash/Recycling",
    "request_reason": "Order Recycling Cart",
    "date_created": "2026-03-18T15:54:19.000",
    "date_modified": "2026-03-18T15:54:21.000",
    "request_status": "Pending",
    "responsible_agency": "Department of Sanitation",
    "final_address": "2922 New Orleans St",
    "address_councildis": "D",
    "status": "Pending",
    "rowid": "1266722",
    "final_x": "3681788.80015",
    "final_y": "543303.470926",
    "longitude": "-90.06674710715164",
    "latitude": "29.98788738276442",
    "geocoded_column": {
      "latitude": "29.98788738276442",
      "longitude": "-90.06674710715164"
    }
  },
  {
    "service_request": "2026-1266721",
    "request_type": "Trash/Recycling",
    "request_reason": "Request a Large Item Pick Up",
    "date_created": "2026-03-18T15:52:33.000",
    "date_modified": "2026-03-18T17:23:01.000",
    "request_status": "Pending",
    "responsible_agency": "Department of Sanitation",
    "final_address": "4124 Clara St",
    "address_councildis": "B",
    "status": "Assigned to Contractor",
    "contractor": "IV Waste",
    "rowid": "1266721",
    "final_x": "3671347.4082",
    "final_y": "525141.794877",
    "longitude": "-90.10034534561535",
    "latitude": "29.93826205946082",
    "geocoded_column": {
      "latitude": "29.93826205946082",
      "longitude": "-90.10034534561535"
    }
  },
  {
    "service_request": "2026-1266720",
    "request_type": "Trash/Recycling",
    "request_reason": "Illegal Dumping",
    "date_created": "2026-03-18T15:51:45.000",
    "date_modified": "2026-03-18T15:51:47.000",
    "request_status": "Pending",
    "responsible_agency": "Department of Sanitation",
    "final_address": "818 Hagan St",
    "address_councildis": "A",
    "status": "Pending",
    "rowid": "1266720",
    "final_x": "3675021.88481",
    "final_y": "538881.724105",
    "longitude": "-90.0882733164016",
    "latitude": "29.975933039098337",
    "geocoded_column": {
      "latitude": "29.975933039098337",
      "longitude": "-90.0882733164016"
    }
  },
  {
    "service_request": "2026-1266719",
    "request_type": "Property Maintenance",
    "request_reason": "Property Maintenance",
    "date_created": "2026-03-18T15:50:10.000",
    "date_modified": "2026-03-18T15:50:12.000",
    "request_status": "Pending",
    "responsible_agency": "Department of Code Enforcement",
    "final_address": "4774 Paris Ave",
    "address_councildis": "D",
    "status": "Pending",
    "rowid": "1266719",
    "final_x": "3678782.74171",
    "final_y": "550113.972372",
    "longitude": "-90.07600618864085",
    "latitude": "30.00670487724568",
    "geocoded_column": {
      "latitude": "30.00670487724568",
      "longitude": "-90.07600618864085"
    }
  },
  {
    "service_request": "2026-1266718",
    "request_type": "Mosquito, Termite & Rodent Control",
    "request_reason": "Mosquito Complaint",
    "date_created": "2026-03-18T15:48:51.000",
    "date_modified": "2026-03-18T15:48:52.000",
    "request_status": "Pending",
    "responsible_agency": "Mosquito, Termite & Rodent Control Board",
    "final_address": "820 Hagan St",
    "address_councildis": "A",
    "status": "Pending",
    "rowid": "1266718",
    "final_x": "3675021.88481",
    "final_y": "538881.724105",
    "longitude": "-90.0882733164016",
    "latitude": "29.975933039098337",
    "geocoded_column": {
      "latitude": "29.975933039098337",
      "longitude": "-90.0882733164016"
    }
  },
  {
    "service_request": "2026-1266717",
    "request_type": "Trash/Recycling",
    "request_reason": "Request a Large Item Pick Up",
    "date_created": "2026-03-18T15:46:10.000",
    "date_modified": "2026-03-18T15:46:12.000",
    "request_status": "Pending",
    "responsible_agency": "Department of Sanitation",
    "final_address": "5510 Wilton Dr",
    "address_councildis": "D",
    "status": "Assigned to Contractor",
    "contractor": "IV Waste",
    "rowid": "1266717",
    "final_x": "3681817.74255",
    "final_y": "553149.117015",
    "longitude": "-90.06631180738746",
    "latitude": "30.01495850642007",
    "geocoded_column": {
      "latitude": "30.01495850642007",
      "longitude": "-90.06631180738746"
    }
  },
  {
    "service_request": "2026-1266716",
    "request_type": "Abandoned Vehicles",
    "request_reason": "Abandoned/Junk Vehicles",
    "date_created": "2026-03-18T15:44:47.000",
    "date_modified": "2026-03-18T15:47:22.000",
    "request_status": "Pending",
    "responsible_agency": "Department of Public Works",
    "final_address": "2700 BLK Dante St",
    "address_councildis": "A",
    "status": "Pending",
    "rowid": "1266716",
    "final_x": "3665173.82349",
    "final_y": "532978.823266",
    "longitude": "-90.11957392952574",
    "latitude": "29.959992573888943",
    "geocoded_column": {
      "latitude": "29.959992573888943",
      "longitude": "-90.11957392952574"
    }
  },
  {
    "service_request": "2026-1266715",
    "request_type": "Abandoned Vehicles",
    "request_reason": "Abandoned/Junk Vehicles",
    "date_created": "2026-03-18T15:44:12.000",
    "date_modified": "2026-03-18T15:44:13.000",
    "request_status": "Pending",
    "responsible_agency": "Department of Public Works",
    "final_address": "936 Congress St",
    "address_councildis": "C",
    "status": "Pending",
    "rowid": "1266715",
    "final_x": "3690570.62224",
    "final_y": "535082.254854",
    "longitude": "-90.03930163232629",
    "latitude": "29.965012119211313",
    "geocoded_column": {
      "latitude": "29.965012119211313",
      "longitude": "-90.03930163232629"
    }
  },
  {
    "service_request": "2026-1266714",
    "request_type": "Trash/Recycling",
    "request_reason": "Repair Trash Cart",
    "date_created": "2026-03-18T15:43:48.000",
    "date_modified": "2026-03-18T15:43:49.000",
    "request_status": "Pending",
    "responsible_agency": "Department of Sanitation",
    "final_address": "4513 Viola St",
    "address_councildis": "E",
    "status": "Assigned to Contractor",
    "contractor": "Waste Pro",
    "rowid": "1266714",
    "final_x": "3704161.16247",
    "final_y": "553641.882775",
    "longitude": "-89.99569964043299",
    "latitude": "30.01561516262473",
    "geocoded_column": {
      "latitude": "30.01561516262473",
      "longitude": "-89.99569964043299"
    }
  },
  {
    "service_request": "2026-1266713",
    "request_type": "Trash/Recycling",
    "request_reason": "Replace Trash Cart",
    "date_created": "2026-03-18T15:42:42.000",
    "date_modified": "2026-03-18T15:42:43.000",
    "request_status": "Pending",
    "responsible_agency": "Department of Sanitation",
    "final_address": "2102 N Claiborne Ave Apt 2A",
    "address_councildis": "C",
    "status": "Assigned to Contractor",
    "contractor": "IV Waste",
    "rowid": "1266713",
    "final_x": "3684502.11727",
    "final_y": "537934.178889",
    "longitude": "-90.058365370864",
    "latitude": "29.97304096899811",
    "geocoded_column": {
      "latitude": "29.97304096899811",
      "longitude": "-90.058365370864"
    }
  },
  {
    "service_request": "2026-1266712",
    "request_type": "Roads and Streets",
    "request_reason": "Road Shoulder Damage",
    "date_created": "2026-03-18T15:42:28.000",
    "date_modified": "2026-03-18T15:42:30.000",
    "request_status": "Pending",
    "responsible_agency": "Department of Public Works",
    "final_address": "2440 Benton St",
    "address_councildis": "E",
    "status": "Pending",
    "rowid": "1266712",
    "final_x": "3700778.27914",
    "final_y": "538524.518921",
    "longitude": "-90.00694083662269",
    "latitude": "29.974156179673606",
    "geocoded_column": {
      "latitude": "29.974156179673606",
      "longitude": "-90.00694083662269"
    }
  },
  {
    "service_request": "2026-1266711",
    "request_type": "Roads and Streets",
    "request_reason": "Debris in Driving Lanes",
    "date_created": "2026-03-18T15:39:57.000",
    "date_modified": "2026-03-18T15:39:59.000",
    "request_status": "Pending",
    "responsible_agency": "Department of Public Works",
    "final_address": "2440 Benton St",
    "address_councildis": "E",
    "status": "Pending",
    "rowid": "1266711",
    "final_x": "3700778.27914",
    "final_y": "538524.518921",
    "longitude": "-90.00694083662269",
    "latitude": "29.974156179673606",
    "geocoded_column": {
      "latitude": "29.974156179673606",
      "longitude": "-90.00694083662269"
    }
  },
  {
    "service_request": "2026-1266710",
    "request_type": "Trash/Recycling",
    "request_reason": "Request a Large Item Pick Up",
    "date_created": "2026-03-18T15:39:23.000",
    "date_modified": "2026-03-18T15:39:25.000",
    "request_status": "Pending",
    "responsible_agency": "Department of Sanitation",
    "final_address": "4719 Citrus Dr",
    "address_councildis": "E",
    "status": "Assigned to Contractor",
    "contractor": "Waste Pro",
    "rowid": "1266710",
    "final_x": "3710872.77726",
    "final_y": "555616.127129",
    "longitude": "-89.97442023834095",
    "latitude": "30.020826422472023",
    "geocoded_column": {
      "latitude": "30.020826422472023",
      "longitude": "-89.97442023834095"
    }
  },
  {
    "service_request": "2026-1266709",
    "request_type": "Trash/Recycling",
    "request_reason": "Request a Large Item Pick Up",
    "date_created": "2026-03-18T15:38:54.000",
    "date_modified": "2026-03-18T15:38:56.000",
    "request_status": "Pending",
    "responsible_agency": "Department of Sanitation",
    "final_address": "2760 Orchid St",
    "address_councildis": "A",
    "status": "Assigned to Contractor",
    "contractor": "IV Waste",
    "rowid": "1266709",
    "final_x": "3677356.14907",
    "final_y": "538714.952137",
    "longitude": "-90.08090679360612",
    "latitude": "29.975404524984988",
    "geocoded_column": {
      "latitude": "29.975404524984988",
      "longitude": "-90.08090679360612"
    }
  },
  {
    "service_request": "2026-1266708",
    "request_type": "Streetlights",
    "request_reason": "Streetlight Outage/Malfunction",
    "date_created": "2026-03-18T15:37:20.000",
    "date_modified": "2026-03-18T15:40:28.000",
    "request_status": "Pending",
    "responsible_agency": "Department of Public Works",
    "final_address": "1719 King Dr",
    "address_councildis": "D",
    "status": "Pending",
    "rowid": "1266708",
    "final_x": "3680125.95925",
    "final_y": "550137.536148",
    "longitude": "-90.0717617953316",
    "latitude": "30.006729073580892",
    "geocoded_column": {
      "latitude": "30.006729073580892",
      "longitude": "-90.0717617953316"
    }
  },
  {
    "service_request": "2026-1266707",
    "request_type": "Trash/Recycling",
    "request_reason": "Request a Large Item Pick Up",
    "date_created": "2026-03-18T15:37:19.000",
    "date_modified": "2026-03-18T15:38:18.000",
    "request_status": "Pending",
    "responsible_agency": "Department of Sanitation",
    "final_address": "5132 Westlake Dr",
    "address_councildis": "E",
    "status": "Pending",
    "contractor": "Waste Pro",
    "rowid": "1266707",
    "final_x": "3699403.5793",
    "final_y": "556323.892762",
    "longitude": "-90.0106335175709",
    "latitude": "30.02314152341408",
    "geocoded_column": {
      "latitude": "30.02314152341408",
      "longitude": "-90.0106335175709"
    }
  },
  {
    "service_request": "2026-1266706",
    "request_type": "Trash/Recycling",
    "request_reason": "Request a Large Item Pick Up",
    "date_created": "2026-03-18T15:34:57.000",
    "date_modified": "2026-03-18T15:34:59.000",
    "request_status": "Pending",
    "responsible_agency": "Department of Sanitation",
    "final_address": "7929 Lamb Rd",
    "address_councildis": "E",
    "status": "Assigned to Contractor",
    "contractor": "Waste Pro",
    "rowid": "1266706",
    "final_x": "3696737.83632",
    "final_y": "560274.077149",
    "longitude": "-90.01891345732791",
    "latitude": "30.034087362110494",
    "geocoded_column": {
      "latitude": "30.034087362110494",
      "longitude": "-90.01891345732791"
    }
  },
  {
    "service_request": "2026-1266705",
    "request_type": "Trash/Recycling",
    "request_reason": "Request a Large Item Pick Up",
    "date_created": "2026-03-18T15:33:26.000",
    "date_modified": "2026-03-18T15:33:27.000",
    "request_status": "Pending",
    "responsible_agency": "Department of Sanitation",
    "final_address": "1901 Deslonde St",
    "address_councildis": "E",
    "status": "Assigned to Contractor",
    "contractor": "Waste Pro",
    "rowid": "1266705",
    "final_x": "3696273.36413",
    "final_y": "537416.107336",
    "longitude": "-90.02120840762376",
    "latitude": "29.971251063784766",
    "geocoded_column": {
      "latitude": "29.971251063784766",
      "longitude": "-90.02120840762376"
    }
  },
  {
    "service_request": "2026-1266704",
    "request_type": "Trash/Recycling",
    "request_reason": "Order Trash Cart",
    "date_created": "2026-03-18T15:29:18.000",
    "date_modified": "2026-03-18T15:29:20.000",
    "request_status": "Pending",
    "responsible_agency": "Department of Sanitation",
    "final_address": "1318 Amelia St",
    "address_councildis": "B",
    "status": "Assigned to Contractor",
    "contractor": "IV Waste",
    "rowid": "1266704",
    "final_x": "3673396.97313",
    "final_y": "520004.571896",
    "longitude": "-90.09405007700471",
    "latitude": "29.92407555547014",
    "geocoded_column": {
      "latitude": "29.92407555547014",
      "longitude": "-90.09405007700471"
    }
  },
  {
    "service_request": "2026-1266703",
    "request_type": "Trash/Recycling",
    "request_reason": "Request a Large Item Pick Up",
    "date_created": "2026-03-18T15:28:32.000",
    "date_modified": "2026-03-18T15:28:35.000",
    "request_status": "Pending",
    "responsible_agency": "Department of Sanitation",
    "final_address": "17 Rosedown Ct",
    "address_councildis": "C",
    "status": "Assigned to Contractor",
    "contractor": "Richards Disposal",
    "rowid": "1266703",
    "final_x": "3720593.19628",
    "final_y": "511059.746864",
    "longitude": "-89.94541222784713",
    "latitude": "29.897992543739495",
    "geocoded_column": {
      "latitude": "29.897992543739495",
      "longitude": "-89.94541222784713"
    }
  },
  {
    "service_request": "2026-1266702",
    "request_type": "Roads and Streets",
    "request_reason": "Pothole",
    "date_created": "2026-03-18T15:24:30.000",
    "date_modified": "2026-03-18T15:24:31.000",
    "request_status": "Pending",
    "responsible_agency": "Department of Public Works",
    "final_address": "7012 Boston Dr",
    "address_councildis": "E",
    "status": "Pending",
    "rowid": "1266702",
    "final_x": "3706417.25649",
    "final_y": "560582.48515",
    "longitude": "-89.98831406510975",
    "latitude": "30.034626506331836",
    "geocoded_column": {
      "latitude": "30.034626506331836",
      "longitude": "-89.98831406510975"
    }
  },
  {
    "service_request": "2026-1266701",
    "request_type": "Trash/Recycling",
    "request_reason": "Request a Large Item Pick Up",
    "date_created": "2026-03-18T15:17:08.000",
    "date_modified": "2026-03-18T15:17:11.000",
    "request_status": "Pending",
    "responsible_agency": "Department of Sanitation",
    "final_address": "7321 Shaw Ave",
    "address_councildis": "E",
    "status": "Assigned to Contractor",
    "contractor": "Waste Pro",
    "rowid": "1266701",
    "final_x": "3707759.82955",
    "final_y": "563312.103392",
    "longitude": "-89.9839697956971",
    "latitude": "30.042088473342336",
    "geocoded_column": {
      "latitude": "30.042088473342336",
      "longitude": "-89.9839697956971"
    }
  },
  {
    "service_request": "2026-1266699",
    "request_type": "Roads and Streets",
    "request_reason": "Street Subsidence (Sinking)",
    "date_created": "2026-03-18T15:10:58.000",
    "date_modified": "2026-03-18T15:29:07.000",
    "request_status": "Pending",
    "responsible_agency": "Sewerage & Water Board",
    "final_address": "108 Brunswick Ct",
    "address_councildis": "C",
    "status": "Pending",
    "rowid": "1266699",
    "final_x": "3705894.58974",
    "final_y": "517244.143861",
    "longitude": "-89.99156948062151",
    "latitude": "29.915478887630577",
    "geocoded_column": {
      "latitude": "29.915478887630577",
      "longitude": "-89.99156948062151"
    }
  },
  {
    "service_request": "2026-1266698",
    "request_type": "Trash/Recycling",
    "request_reason": "Request a Large Item Pick Up",
    "date_created": "2026-03-18T15:07:23.000",
    "date_modified": "2026-03-18T15:07:25.000",
    "request_status": "Pending",
    "responsible_agency": "Department of Sanitation",
    "final_address": "5707 W Louis Prima Dr",
    "address_councildis": "E",
    "status": "Assigned to Contractor",
    "contractor": "Waste Pro",
    "rowid": "1266698",
    "final_x": "3715986.22751",
    "final_y": "561710.069215",
    "longitude": "-89.95803230609305",
    "latitude": "30.037414590302394",
    "geocoded_column": {
      "latitude": "30.037414590302394",
      "longitude": "-89.95803230609305"
    }
  },
  {
    "service_request": "2026-1266697",
    "request_type": "Trash/Recycling",
    "request_reason": "Request a Large Item Pick Up",
    "date_created": "2026-03-18T15:06:10.000",
    "date_modified": "2026-03-18T15:06:12.000",
    "request_status": "Pending",
    "responsible_agency": "Department of Sanitation",
    "final_address": "2619 Erato St",
    "address_councildis": "B",
    "status": "Assigned to Contractor",
    "contractor": "IV Waste",
    "rowid": "1266697",
    "final_x": "3676341.06081",
    "final_y": "528093.724095",
    "longitude": "-90.08447832413147",
    "latitude": "29.946230194645313",
    "geocoded_column": {
      "latitude": "29.946230194645313",
      "longitude": "-90.08447832413147"
    }
  },
  {
    "service_request": "2026-1266696",
    "request_type": "Trash/Recycling",
    "request_reason": "Repair Recycling Cart",
    "date_created": "2026-03-18T15:04:13.000",
    "date_modified": "2026-03-18T15:04:16.000",
    "request_status": "Pending",
    "responsible_agency": "Department of Sanitation",
    "final_address": "11200 Ivy Ln",
    "address_councildis": "E",
    "status": "Pending",
    "rowid": "1266696",
    "final_x": "3716224.15807",
    "final_y": "559892.310749",
    "longitude": "-89.9573493817991",
    "latitude": "30.032408631795807",
    "geocoded_column": {
      "latitude": "30.032408631795807",
      "longitude": "-89.9573493817991"
    }
  },
  {
    "service_request": "2026-1266695",
    "request_type": "Abandoned Vehicles",
    "request_reason": "Abandoned/Junk Vehicles",
    "date_created": "2026-03-18T15:00:18.000",
    "date_modified": "2026-03-18T15:00:20.000",
    "request_status": "Pending",
    "responsible_agency": "Department of Public Works",
    "final_address": "2700 Frenchmen St",
    "address_councildis": "D",
    "status": "Pending",
    "rowid": "1266695",
    "final_x": "3684080.84853",
    "final_y": "542197.143565",
    "longitude": "-90.05954615174414",
    "latitude": "29.984775509935577",
    "geocoded_column": {
      "latitude": "29.984775509935577",
      "longitude": "-90.05954615174414"
    }
  },
  {
    "service_request": "2026-1266694",
    "request_type": "Property Maintenance",
    "request_reason": "Property Maintenance",
    "date_created": "2026-03-18T14:57:41.000",
    "date_modified": "2026-03-18T14:57:43.000",
    "request_status": "Pending",
    "responsible_agency": "Department of Code Enforcement",
    "final_address": "9118 Dixon St",
    "address_councildis": "A",
    "status": "Pending",
    "rowid": "1266694",
    "final_x": "3665664.91738",
    "final_y": "537919.925833",
    "longitude": "-90.11785764404529",
    "latitude": "29.97356466007521",
    "geocoded_column": {
      "latitude": "29.97356466007521",
      "longitude": "-90.11785764404529"
    }
  },
  {
    "service_request": "2026-1266693",
    "request_type": "Trash/Recycling",
    "request_reason": "Missed Trash Pick-Up",
    "date_created": "2026-03-18T14:53:31.000",
    "date_modified": "2026-03-18T14:53:33.000",
    "request_status": "Pending",
    "responsible_agency": "Department of Sanitation",
    "final_address": "1701 Forstall St",
    "address_councildis": "E",
    "status": "Assigned to Contractor",
    "contractor": "Waste Pro",
    "rowid": "1266693",
    "final_x": "3696959.44227",
    "final_y": "536448.958279",
    "longitude": "-90.01907672293197",
    "latitude": "29.96857012974863",
    "geocoded_column": {
      "latitude": "29.96857012974863",
      "longitude": "-90.01907672293197"
    }
  },
  {
    "service_request": "2026-1266692",
    "request_type": "Trash/Recycling",
    "request_reason": "Request a Large Item Pick Up",
    "date_created": "2026-03-18T14:53:19.000",
    "date_modified": "2026-03-18T17:22:11.000",
    "request_status": "Pending",
    "responsible_agency": "Department of Sanitation",
    "final_address": "1722 Urquhart St",
    "address_councildis": "C",
    "status": "Assigned to Contractor",
    "contractor": "IV Waste",
    "rowid": "1266692",
    "final_x": "3683296.72764",
    "final_y": "536830.069768",
    "longitude": "-90.06221090427925",
    "latitude": "29.970041875957254",
    "geocoded_column": {
      "latitude": "29.970041875957254",
      "longitude": "-90.06221090427925"
    }
  },
  {
    "service_request": "2026-1266691",
    "request_type": "Abandoned Vehicles",
    "request_reason": "Abandoned/Junk Vehicles",
    "date_created": "2026-03-18T14:48:29.000",
    "date_modified": "2026-03-18T14:48:31.000",
    "request_status": "Pending",
    "responsible_agency": "Department of Public Works",
    "final_address": "317 Whitney Ave",
    "address_councildis": "C",
    "status": "Pending",
    "rowid": "1266691",
    "final_x": "3690183.33379",
    "final_y": "530528.305794",
    "longitude": "-90.04068689834324",
    "latitude": "29.952502363315553",
    "geocoded_column": {
      "latitude": "29.952502363315553",
      "longitude": "-90.04068689834324"
    }
  },
  {
    "service_request": "2026-1266690",
    "request_type": "Trash/Recycling",
    "request_reason": "Request a Large Item Pick Up",
    "date_created": "2026-03-18T14:46:48.000",
    "date_modified": "2026-03-18T14:46:50.000",
    "request_status": "Pending",
    "responsible_agency": "Department of Sanitation",
    "final_address": "7040 Lake Barrington Dr",
    "address_councildis": "E",
    "status": "Assigned to Contractor",
    "contractor": "Waste Pro",
    "rowid": "1266690",
    "final_x": "3712507.37707",
    "final_y": "563837.295905",
    "longitude": "-89.96894612504661",
    "latitude": "30.04337796091714",
    "geocoded_column": {
      "latitude": "30.04337796091714",
      "longitude": "-89.96894612504661"
    }
  },
  {
    "service_request": "2026-1266689",
    "request_type": "Trash/Recycling",
    "request_reason": "Request a Large Item Pick Up",
    "date_created": "2026-03-18T14:46:46.000",
    "date_modified": "2026-03-18T14:46:47.000",
    "request_status": "Pending",
    "responsible_agency": "Department of Sanitation",
    "final_address": "4713 Stemway Dr",
    "address_councildis": "D",
    "status": "Assigned to Contractor",
    "contractor": "Waste Pro",
    "rowid": "1266689",
    "final_x": "3697000.21725",
    "final_y": "554022.09532",
    "longitude": "-90.0183110457092",
    "latitude": "30.016888516910516",
    "geocoded_column": {
      "latitude": "30.016888516910516",
      "longitude": "-90.0183110457092"
    }
  },
  {
    "service_request": "2026-1266688",
    "request_type": "Trash/Recycling",
    "request_reason": "Repair Trash Cart",
    "date_created": "2026-03-18T14:46:28.000",
    "date_modified": "2026-03-18T14:46:30.000",
    "request_status": "Pending",
    "responsible_agency": "Department of Sanitation",
    "final_address": "2706 Cambronne St",
    "address_councildis": "A",
    "status": "Assigned to Contractor",
    "contractor": "IV Waste",
    "rowid": "1266688",
    "final_x": "3664818.60839",
    "final_y": "533168.341892",
    "longitude": "-90.1206892927367",
    "latitude": "29.960524029480986",
    "geocoded_column": {
      "latitude": "29.960524029480986",
      "longitude": "-90.1206892927367"
    }
  },
  {
    "service_request": "2026-1266687",
    "request_type": "Roads and Streets",
    "request_reason": "Sidewalk Damaged or Missing",
    "date_created": "2026-03-18T14:46:07.000",
    "date_modified": "2026-03-18T14:47:30.000",
    "request_status": "Pending",
    "responsible_agency": "Department of Public Works",
    "final_address": "933 Jackson Ave",
    "address_councildis": "B",
    "status": "Pending",
    "rowid": "1266687",
    "final_x": "3679184.64719",
    "final_y": "521727.670074",
    "longitude": "-90.07572074062239",
    "latitude": "29.928640124267744",
    "geocoded_column": {
      "latitude": "29.928640124267744",
      "longitude": "-90.07572074062239"
    }
  },
  {
    "service_request": "2026-1266686",
    "request_type": "Trash/Recycling",
    "request_reason": "Request a Large Item Pick Up",
    "date_created": "2026-03-18T14:45:55.000",
    "date_modified": "2026-03-18T14:45:56.000",
    "request_status": "Pending",
    "responsible_agency": "Department of Sanitation",
    "final_address": "333 Belleville St Apt 1A",
    "address_councildis": "C",
    "status": "Assigned to Contractor",
    "contractor": "Richards Disposal",
    "rowid": "1266686",
    "final_x": "3687826.23734",
    "final_y": "530514.588354",
    "longitude": "-90.04813000310209",
    "latitude": "29.95253755052771",
    "geocoded_column": {
      "latitude": "29.95253755052771",
      "longitude": "-90.04813000310209"
    }
  },
  {
    "service_request": "2026-1266685",
    "request_type": "Traffic Signals",
    "request_reason": "Traffic Signal Malfunctioning or Damaged",
    "date_created": "2026-03-18T14:45:30.000",
    "date_modified": "2026-03-18T14:45:32.000",
    "request_status": "Pending",
    "responsible_agency": "Department of Public Works",
    "final_address": "HOWARD AVE & BARONNE ST",
    "address_councildis": "B",
    "status": "Pending",
    "rowid": "1266685",
    "final_x": "3679408.7",
    "final_y": "527574.18",
    "longitude": "-90.07481074100747",
    "latitude": "29.944709332002393",
    "geocoded_column": {
      "latitude": "29.944709332002393",
      "longitude": "-90.07481074100747"
    }
  },
  {
    "service_request": "2026-1266684",
    "request_type": "Health Related Request",
    "request_reason": "Homeless Encampment Complaint",
    "date_created": "2026-03-18T14:43:48.000",
    "date_modified": "2026-03-18T14:43:49.000",
    "request_status": "Pending",
    "responsible_agency": "Office Of Homeless Services And Strategy",
    "final_address": "CANAL ST & S CLAIBORNE AVE",
    "address_councildis": "B",
    "status": "Pending",
    "rowid": "1266684",
    "final_x": "3678433.3",
    "final_y": "532717.58",
    "longitude": "-90.07771241979708",
    "latitude": "29.958881380035518",
    "geocoded_column": {
      "latitude": "29.958881380035518",
      "longitude": "-90.07771241979708"
    }
  },
  {
    "service_request": "2026-1266683",
    "request_type": "Trash/Recycling",
    "request_reason": "Request a Large Item Pick Up",
    "date_created": "2026-03-18T14:43:07.000",
    "date_modified": "2026-03-18T14:43:08.000",
    "request_status": "Pending",
    "responsible_agency": "Department of Sanitation",
    "final_address": "4509 Crowder Blvd",
    "address_councildis": "E",
    "status": "Assigned to Contractor",
    "contractor": "Waste Pro",
    "rowid": "1266683",
    "final_x": "3706664.48926",
    "final_y": "554309.315032",
    "longitude": "-89.98776557563107",
    "latitude": "30.01736975277187",
    "geocoded_column": {
      "latitude": "30.01736975277187",
      "longitude": "-89.98776557563107"
    }
  },
  {
    "service_request": "2026-1266682",
    "request_type": "Trash/Recycling",
    "request_reason": "Request a Large Item Pick Up",
    "date_created": "2026-03-18T14:41:55.000",
    "date_modified": "2026-03-18T14:43:11.000",
    "request_status": "Pending",
    "responsible_agency": "Department of Sanitation",
    "final_address": "1611 Numa St",
    "address_councildis": "C",
    "status": "Assigned to Contractor",
    "contractor": "Richards Disposal",
    "rowid": "1266682",
    "final_x": "3691675.21846",
    "final_y": "525334.150333",
    "longitude": "-90.03616189109431",
    "latitude": "29.93817385998524",
    "geocoded_column": {
      "latitude": "29.93817385998524",
      "longitude": "-90.03616189109431"
    }
  },
  {
    "service_request": "2026-1266681",
    "request_type": "Trash/Recycling",
    "request_reason": "Repair Trash Cart",
    "date_created": "2026-03-18T14:40:21.000",
    "date_modified": "2026-03-18T14:40:22.000",
    "request_status": "Pending",
    "responsible_agency": "Department of Sanitation",
    "final_address": "1457 State St",
    "address_councildis": "A",
    "status": "Assigned to Contractor",
    "contractor": "IV Waste",
    "rowid": "1266681",
    "final_x": "3665576.56583",
    "final_y": "521601.144313",
    "longitude": "-90.11868301014793",
    "latitude": "29.928695881890004",
    "geocoded_column": {
      "latitude": "29.928695881890004",
      "longitude": "-90.11868301014793"
    }
  },
  {
    "service_request": "2026-1266679",
    "request_type": "Trash/Recycling",
    "request_reason": "Request a Large Item Pick Up",
    "date_created": "2026-03-18T14:34:10.000",
    "date_modified": "2026-03-18T14:34:12.000",
    "request_status": "Pending",
    "responsible_agency": "Department of Sanitation",
    "final_address": "6018 El Dorado St",
    "address_councildis": "E",
    "status": "Assigned to Contractor",
    "contractor": "Waste Pro",
    "rowid": "1266679",
    "final_x": "3699249.61239",
    "final_y": "533125.81946",
    "longitude": "-90.0119653103909",
    "latitude": "29.95936026005376",
    "geocoded_column": {
      "latitude": "29.95936026005376",
      "longitude": "-90.0119653103909"
    }
  },
  {
    "service_request": "2026-1266678",
    "request_type": "Trash/Recycling",
    "request_reason": "Repair Trash Cart",
    "date_created": "2026-03-18T14:33:04.000",
    "date_modified": "2026-03-18T14:33:05.000",
    "request_status": "Pending",
    "responsible_agency": "Department of Sanitation",
    "final_address": "2708 Cambronne St",
    "address_councildis": "A",
    "status": "Assigned to Contractor",
    "contractor": "IV Waste",
    "rowid": "1266678",
    "final_x": "3664832.35674",
    "final_y": "533184.500036",
    "longitude": "-90.1206453380156",
    "latitude": "29.9605680590069",
    "geocoded_column": {
      "latitude": "29.9605680590069",
      "longitude": "-90.1206453380156"
    }
  },
  {
    "service_request": "2026-1266677",
    "request_type": "Trash/Recycling",
    "request_reason": "Request a Large Item Pick Up",
    "date_created": "2026-03-18T14:32:21.000",
    "date_modified": "2026-03-18T16:27:05.000",
    "request_status": "Pending",
    "responsible_agency": "Department of Sanitation",
    "final_address": "4391 Trieste St",
    "address_councildis": "E",
    "status": "Assigned to Contractor",
    "contractor": "Waste Pro",
    "rowid": "1266677",
    "final_x": "3760304.56835",
    "final_y": "573976.814314",
    "longitude": "-89.81746690232194",
    "latitude": "30.0696055014782",
    "geocoded_column": {
      "latitude": "30.0696055014782",
      "longitude": "-89.81746690232194"
    }
  },
  {
    "service_request": "2026-1266676",
    "request_type": "Trash/Recycling",
    "request_reason": "Request a Large Item Pick Up",
    "date_created": "2026-03-18T14:32:11.000",
    "date_modified": "2026-03-18T14:34:21.000",
    "request_status": "Pending",
    "responsible_agency": "Department of Sanitation",
    "final_address": "2600 Somerset Dr",
    "address_councildis": "C",
    "status": "Pending",
    "contractor": "Richards Disposal",
    "rowid": "1266676",
    "final_x": "3702925.9059",
    "final_y": "521481.651897",
    "longitude": "-90.0007841431198",
    "latitude": "29.927225825915475",
    "geocoded_column": {
      "latitude": "29.927225825915475",
      "longitude": "-90.0007841431198"
    }
  },
  {
    "service_request": "2026-1266675",
    "request_type": "Trash/Recycling",
    "request_reason": "Request a Large Item Pick Up",
    "date_created": "2026-03-18T14:32:09.000",
    "date_modified": "2026-03-18T17:21:49.000",
    "request_status": "Pending",
    "responsible_agency": "Department of Sanitation",
    "final_address": "535 Jefferson Ave",
    "address_councildis": "B",
    "status": "Assigned to Contractor",
    "contractor": "IV Waste",
    "rowid": "1266675",
    "final_x": "3666534.81677",
    "final_y": "517425.318774",
    "longitude": "-90.11579807001813",
    "latitude": "29.917185710207555",
    "geocoded_column": {
      "latitude": "29.917185710207555",
      "longitude": "-90.11579807001813"
    }
  },
  {
    "service_request": "2026-1266674",
    "request_type": "Trash/Recycling",
    "request_reason": "Illegal Dumping",
    "date_created": "2026-03-18T14:31:45.000",
    "date_modified": "2026-03-18T14:31:46.000",
    "request_status": "Pending",
    "responsible_agency": "Department of Sanitation",
    "final_address": "BARRACKS ST & N TONTI ST",
    "address_councildis": "D",
    "status": "Pending",
    "rowid": "1266674",
    "final_x": "3679140.1",
    "final_y": "537873.08",
    "longitude": "-90.07530178676136",
    "latitude": "29.97303593060643",
    "geocoded_column": {
      "latitude": "29.97303593060643",
      "longitude": "-90.07530178676136"
    }
  },
  {
    "service_request": "2026-1266673",
    "request_type": "Trash/Recycling",
    "request_reason": "Request a Large Item Pick Up",
    "date_created": "2026-03-18T14:25:13.000",
    "date_modified": "2026-03-18T17:21:26.000",
    "request_status": "Pending",
    "responsible_agency": "Department of Sanitation",
    "final_address": "2836 Octavia St",
    "address_councildis": "A",
    "status": "Pending",
    "contractor": "IV Waste",
    "rowid": "1266673",
    "final_x": "3667970.57748",
    "final_y": "525998.136701",
    "longitude": "-90.1109775148086",
    "latitude": "29.940716205485018",
    "geocoded_column": {
      "latitude": "29.940716205485018",
      "longitude": "-90.1109775148086"
    }
  },
  {
    "service_request": "2026-1266672",
    "request_type": "Trash/Recycling",
    "request_reason": "Return Recycling Cart",
    "date_created": "2026-03-18T14:24:44.000",
    "date_modified": "2026-03-18T14:24:46.000",
    "request_status": "Pending",
    "responsible_agency": "Department of Sanitation",
    "final_address": "745 Toledano St",
    "address_councildis": "B",
    "status": "Pending",
    "rowid": "1266672",
    "final_x": "3675908.99841",
    "final_y": "518700.795383",
    "longitude": "-90.08616528946597",
    "latitude": "29.920415645682976",
    "geocoded_column": {
      "latitude": "29.920415645682976",
      "longitude": "-90.08616528946597"
    }
  },
  {
    "service_request": "2026-1266671",
    "request_type": "Health Related Request",
    "request_reason": "Homeless Encampment Complaint",
    "date_created": "2026-03-18T14:24:01.000",
    "date_modified": "2026-03-18T14:24:02.000",
    "request_status": "Pending",
    "responsible_agency": "Office Of Homeless Services And Strategy",
    "final_address": "4317 Magazine St",
    "address_councildis": "B",
    "status": "Pending",
    "rowid": "1266671",
    "final_x": "3671305.51841",
    "final_y": "518875.527223",
    "longitude": "-90.10069041477877",
    "latitude": "29.921033074561752",
    "geocoded_column": {
      "latitude": "29.921033074561752",
      "longitude": "-90.10069041477877"
    }
  },
  {
    "service_request": "2026-1266670",
    "request_type": "Trash/Recycling",
    "request_reason": "Order Trash Cart",
    "date_created": "2026-03-18T14:21:19.000",
    "date_modified": "2026-03-18T14:21:26.000",
    "request_status": "Pending",
    "responsible_agency": "Department of Sanitation",
    "final_address": "1806 Egania St",
    "address_councildis": "E",
    "status": "Assigned to Contractor",
    "contractor": "Waste Pro",
    "rowid": "1266670",
    "final_x": "3697518.24989",
    "final_y": "536744.299911",
    "longitude": "-90.01730127612548",
    "latitude": "29.969364578011742",
    "geocoded_column": {
      "latitude": "29.969364578011742",
      "longitude": "-90.01730127612548"
    }
  },
  {
    "service_request": "2026-1266669",
    "request_type": "Mosquito, Termite & Rodent Control",
    "request_reason": "Rodent Complaint (Mice & Rats)",
    "date_created": "2026-03-18T14:19:02.000",
    "date_modified": "2026-03-18T14:19:03.000",
    "request_status": "Pending",
    "responsible_agency": "Mosquito, Termite & Rodent Control Board",
    "final_address": "6014 Pasteur Blvd",
    "address_councildis": "D",
    "status": "Pending",
    "rowid": "1266669",
    "final_x": "3682635.88943",
    "final_y": "554904.552152",
    "longitude": "-90.06366539951837",
    "latitude": "30.019760411123457",
    "geocoded_column": {
      "latitude": "30.019760411123457",
      "longitude": "-90.06366539951837"
    }
  },
  {
    "service_request": "2026-1266668",
    "request_type": "Property Maintenance",
    "request_reason": "Property Maintenance",
    "date_created": "2026-03-18T14:18:51.000",
    "date_modified": "2026-03-18T14:19:38.000",
    "request_status": "Pending",
    "responsible_agency": "Department of Code Enforcement",
    "final_address": "2656 Lavender St",
    "address_councildis": "D",
    "status": "Pending",
    "rowid": "1266668",
    "final_x": "3687575.62614",
    "final_y": "546929.203473",
    "longitude": "-90.04834007582777",
    "latitude": "29.99767969155724",
    "geocoded_column": {
      "latitude": "29.99767969155724",
      "longitude": "-90.04834007582777"
    }
  },
  {
    "service_request": "2026-1266667",
    "request_type": "Trash/Recycling",
    "request_reason": "Request a Large Item Pick Up",
    "date_created": "2026-03-18T14:14:26.000",
    "date_modified": "2026-03-18T14:14:28.000",
    "request_status": "Pending",
    "responsible_agency": "Department of Sanitation",
    "final_address": "4413 Skyview Dr",
    "address_councildis": "D",
    "status": "Assigned to Contractor",
    "contractor": "Waste Pro",
    "rowid": "1266667",
    "final_x": "3696898.42493",
    "final_y": "552628.501462",
    "longitude": "-90.01868318390262",
    "latitude": "30.01305987028715",
    "geocoded_column": {
      "latitude": "30.01305987028715",
      "longitude": "-90.01868318390262"
    }
  },
  {
    "service_request": "2026-1266666",
    "request_type": "Trash/Recycling",
    "request_reason": "Request a Large Item Pick Up",
    "date_created": "2026-03-18T14:10:37.000",
    "date_modified": "2026-03-18T14:11:27.000",
    "request_status": "Pending",
    "responsible_agency": "Department of Sanitation",
    "final_address": "4601 Knight Dr",
    "address_councildis": "E",
    "status": "Assigned to Contractor",
    "contractor": "Waste Pro",
    "rowid": "1266666",
    "final_x": "3708291.42539",
    "final_y": "554669.324568",
    "longitude": "-89.98261174830743",
    "latitude": "30.018307006780574",
    "geocoded_column": {
      "latitude": "30.018307006780574",
      "longitude": "-89.98261174830743"
    }
  },
  {
    "service_request": "2026-1266665",
    "request_type": "Trash/Recycling",
    "request_reason": "Replace Trash Cart",
    "date_created": "2026-03-18T14:10:20.000",
    "date_modified": "2026-03-18T14:10:22.000",
    "request_status": "Pending",
    "responsible_agency": "Department of Sanitation",
    "final_address": "6111 Delord St",
    "address_councildis": "A",
    "status": "Assigned to Contractor",
    "contractor": "IV Waste",
    "rowid": "1266665",
    "final_x": "3666815.21575",
    "final_y": "526202.654974",
    "longitude": "-90.11461833668986",
    "latitude": "29.94131240445944",
    "geocoded_column": {
      "latitude": "29.94131240445944",
      "longitude": "-90.11461833668986"
    }
  },
  {
    "service_request": "2026-1266664",
    "request_type": "Trash/Recycling",
    "request_reason": "Request a Large Item Pick Up",
    "date_created": "2026-03-18T14:08:52.000",
    "date_modified": "2026-03-18T14:08:53.000",
    "request_status": "Pending",
    "responsible_agency": "Department of Sanitation",
    "final_address": "711 St Maurice Ave",
    "address_councildis": "E",
    "status": "Assigned to Contractor",
    "contractor": "Waste Pro",
    "rowid": "1266664",
    "final_x": "3699341.19818",
    "final_y": "531840.654851",
    "longitude": "-90.01172291367315",
    "latitude": "29.95582360942255",
    "geocoded_column": {
      "latitude": "29.95582360942255",
      "longitude": "-90.01172291367315"
    }
  },
  {
    "service_request": "2026-1266663",
    "request_type": "Trash/Recycling",
    "request_reason": "Replace Trash Cart",
    "date_created": "2026-03-18T14:08:35.000",
    "date_modified": "2026-03-18T14:08:37.000",
    "request_status": "Pending",
    "responsible_agency": "Department of Sanitation",
    "final_address": "6109 Delord St",
    "address_councildis": "A",
    "status": "Assigned to Contractor",
    "contractor": "IV Waste",
    "rowid": "1266663",
    "final_x": "3666815.21575",
    "final_y": "526202.654974",
    "longitude": "-90.11461833668986",
    "latitude": "29.94131240445944",
    "geocoded_column": {
      "latitude": "29.94131240445944",
      "longitude": "-90.11461833668986"
    }
  },
  {
    "service_request": "2026-1266662",
    "request_type": "Trash/Recycling",
    "request_reason": "Request a Large Item Pick Up",
    "date_created": "2026-03-18T14:07:00.000",
    "date_modified": "2026-03-18T14:07:01.000",
    "request_status": "Pending",
    "responsible_agency": "Department of Sanitation",
    "final_address": "11 Westpark Ct",
    "address_councildis": "C",
    "status": "Assigned to Contractor",
    "contractor": "Richards Disposal",
    "rowid": "1266662",
    "final_x": "3696032.11248",
    "final_y": "521641.153465",
    "longitude": "-90.02254022277573",
    "latitude": "29.92788304440876",
    "geocoded_column": {
      "latitude": "29.92788304440876",
      "longitude": "-90.02254022277573"
    }
  },
  {
    "service_request": "2026-1266661",
    "request_type": "Drainage",
    "request_reason": "Catch Basin Not Draining",
    "date_created": "2026-03-18T14:04:21.000",
    "date_modified": "2026-03-18T14:09:23.000",
    "request_status": "Pending",
    "responsible_agency": "Sewerage & Water Board",
    "final_address": "5710 Marshal Foch St",
    "address_councildis": "A",
    "status": "Pending",
    "rowid": "1266661",
    "final_x": "3669613.17998",
    "final_y": "545419.090768",
    "longitude": "-90.10513429644128",
    "latitude": "29.994069058354373",
    "geocoded_column": {
      "latitude": "29.994069058354373",
      "longitude": "-90.10513429644128"
    }
  },
  {
    "service_request": "2026-1266660",
    "request_type": "Trash/Recycling",
    "request_reason": "Request a Large Item Pick Up",
    "date_created": "2026-03-18T14:02:25.000",
    "date_modified": "2026-03-18T14:02:26.000",
    "request_status": "Pending",
    "responsible_agency": "Department of Sanitation",
    "final_address": "3336 Plymouth Pl",
    "address_councildis": "C",
    "status": "Assigned to Contractor",
    "contractor": "Richards Disposal",
    "rowid": "1266660",
    "final_x": "3702865.27729",
    "final_y": "518848.510391",
    "longitude": "-90.00107217548756",
    "latitude": "29.919987535463196",
    "geocoded_column": {
      "latitude": "29.919987535463196",
      "longitude": "-90.00107217548756"
    }
  },
  {
    "service_request": "2026-1266659",
    "request_type": "Trash/Recycling",
    "request_reason": "Order Recycling Cart",
    "date_created": "2026-03-18T14:00:20.000",
    "date_modified": "2026-03-18T14:00:23.000",
    "request_status": "Pending",
    "responsible_agency": "Department of Sanitation",
    "final_address": "1519 Pauline St",
    "address_councildis": "D",
    "status": "Pending",
    "rowid": "1266659",
    "final_x": "3691661.88144",
    "final_y": "537092.29108",
    "longitude": "-90.03578363347523",
    "latitude": "29.97050507874727",
    "geocoded_column": {
      "latitude": "29.97050507874727",
      "longitude": "-90.03578363347523"
    }
  },
  {
    "service_request": "2026-1266658",
    "request_type": "Trash/Recycling",
    "request_reason": "Request a Large Item Pick Up",
    "date_created": "2026-03-18T13:57:18.000",
    "date_modified": "2026-03-18T13:57:19.000",
    "request_status": "Pending",
    "responsible_agency": "Department of Sanitation",
    "final_address": "4218 Iberville St",
    "address_councildis": "A",
    "status": "Assigned to Contractor",
    "contractor": "IV Waste",
    "rowid": "1266658",
    "final_x": "3670675.08417",
    "final_y": "539159.848138",
    "longitude": "-90.10199235471255",
    "latitude": "29.97682694171457",
    "geocoded_column": {
      "latitude": "29.97682694171457",
      "longitude": "-90.10199235471255"
    }
  },
  {
    "service_request": "2026-1266657",
    "request_type": "Trash/Recycling",
    "request_reason": "Repair Trash Cart",
    "date_created": "2026-03-18T13:55:54.000",
    "date_modified": "2026-03-18T13:55:56.000",
    "request_status": "Pending",
    "responsible_agency": "Department of Sanitation",
    "final_address": "2400 Lake Oaks Prkwy",
    "address_councildis": "D",
    "status": "Assigned to Contractor",
    "contractor": "IV Waste",
    "rowid": "1266657",
    "final_x": "3684599.4973",
    "final_y": "558363.753692",
    "longitude": "-90.05733933328212",
    "latitude": "30.02921196204577",
    "geocoded_column": {
      "latitude": "30.02921196204577",
      "longitude": "-90.05733933328212"
    }
  },
  {
    "service_request": "2026-1266656",
    "request_type": "Trash/Recycling",
    "request_reason": "Order Trash Cart",
    "date_created": "2026-03-18T13:55:48.000",
    "date_modified": "2026-03-18T13:55:49.000",
    "request_status": "Pending",
    "responsible_agency": "Department of Sanitation",
    "final_address": "1834 N Rocheblave St",
    "address_councildis": "D",
    "status": "Assigned to Contractor",
    "contractor": "IV Waste",
    "rowid": "1266656",
    "final_x": "3681056.17339",
    "final_y": "540773.385483",
    "longitude": "-90.06914939929052",
    "latitude": "29.9809527808332",
    "geocoded_column": {
      "latitude": "29.9809527808332",
      "longitude": "-90.06914939929052"
    }
  },
  {
    "service_request": "2026-1266655",
    "request_type": "Trash/Recycling",
    "request_reason": "Request a Large Item Pick Up",
    "date_created": "2026-03-18T13:55:10.000",
    "date_modified": "2026-03-18T13:55:11.000",
    "request_status": "Pending",
    "responsible_agency": "Department of Sanitation",
    "final_address": "7321 Dalewood Rd",
    "address_councildis": "E",
    "status": "Assigned to Contractor",
    "contractor": "Waste Pro",
    "rowid": "1266655",
    "final_x": "3700334.4314",
    "final_y": "559575.555357",
    "longitude": "-90.00757336921183",
    "latitude": "30.03205276510085",
    "geocoded_column": {
      "latitude": "30.03205276510085",
      "longitude": "-90.00757336921183"
    }
  },
  {
    "service_request": "2026-1266654",
    "request_type": "Trash/Recycling",
    "request_reason": "Order Trash Cart",
    "date_created": "2026-03-18T13:54:43.000",
    "date_modified": "2026-03-18T13:54:46.000",
    "request_status": "Pending",
    "responsible_agency": "Department of Sanitation",
    "final_address": "1876 N Rocheblave St",
    "address_councildis": "D",
    "status": "Assigned to Contractor",
    "contractor": "IV Waste",
    "rowid": "1266654",
    "final_x": "3681419.42677",
    "final_y": "540790.715147",
    "longitude": "-90.06800147959544",
    "latitude": "29.98098940656384",
    "geocoded_column": {
      "latitude": "29.98098940656384",
      "longitude": "-90.06800147959544"
    }
  },
  {
    "service_request": "2026-1266653",
    "request_type": "Trash/Recycling",
    "request_reason": "Request a Large Item Pick Up",
    "date_created": "2026-03-18T13:53:04.000",
    "date_modified": "2026-03-18T13:53:07.000",
    "request_status": "Pending",
    "responsible_agency": "Department of Sanitation",
    "final_address": "4538 Shalimar Dr",
    "address_councildis": "D",
    "status": "Assigned to Contractor",
    "contractor": "Waste Pro",
    "rowid": "1266653",
    "final_x": "3697208.0929",
    "final_y": "553206.524055",
    "longitude": "-90.01768383628247",
    "latitude": "30.014639442115257",
    "geocoded_column": {
      "latitude": "30.014639442115257",
      "longitude": "-90.01768383628247"
    }
  },
  {
    "service_request": "2026-1266652",
    "request_type": "Trash/Recycling",
    "request_reason": "Replace Trash Cart",
    "date_created": "2026-03-18T13:51:44.000",
    "date_modified": "2026-03-18T13:51:45.000",
    "request_status": "Pending",
    "responsible_agency": "Department of Sanitation",
    "final_address": "955 Crystal St",
    "address_councildis": "D",
    "status": "Assigned to Contractor",
    "contractor": "IV Waste",
    "rowid": "1266652",
    "final_x": "3671311.24923",
    "final_y": "556899.070362",
    "longitude": "-90.09937979641363",
    "latitude": "30.02558479654048",
    "geocoded_column": {
      "latitude": "30.02558479654048",
      "longitude": "-90.09937979641363"
    }
  },
  {
    "service_request": "2026-1266651",
    "request_type": "Trash/Recycling",
    "request_reason": "Request a Large Item Pick Up",
    "date_created": "2026-03-18T13:49:28.000",
    "date_modified": "2026-03-18T13:49:31.000",
    "request_status": "Pending",
    "responsible_agency": "Department of Sanitation",
    "final_address": "1625 Charlton Dr",
    "address_councildis": "D",
    "status": "Assigned to Contractor",
    "contractor": "IV Waste",
    "rowid": "1266651",
    "final_x": "3680419.4708",
    "final_y": "550883.597653",
    "longitude": "-90.07080854560083",
    "latitude": "30.008771585709134",
    "geocoded_column": {
      "latitude": "30.008771585709134",
      "longitude": "-90.07080854560083"
    }
  },
  {
    "service_request": "2026-1266650",
    "request_type": "Trash/Recycling",
    "request_reason": "Repair Recycling Cart",
    "date_created": "2026-03-18T13:42:36.000",
    "date_modified": "2026-03-18T13:42:38.000",
    "request_status": "Pending",
    "responsible_agency": "Department of Sanitation",
    "final_address": "6018 Chatham Dr",
    "address_councildis": "D",
    "status": "Pending",
    "rowid": "1266650",
    "final_x": "3679508.58767",
    "final_y": "554610.554584",
    "longitude": "-90.0735568677078",
    "latitude": "30.019046935984417",
    "geocoded_column": {
      "latitude": "30.019046935984417",
      "longitude": "-90.0735568677078"
    }
  },
  {
    "service_request": "2026-1266649",
    "request_type": "Trash/Recycling",
    "request_reason": "Replace Trash Cart",
    "date_created": "2026-03-18T13:41:43.000",
    "date_modified": "2026-03-18T13:41:47.000",
    "request_status": "Pending",
    "responsible_agency": "Department of Sanitation",
    "final_address": "5147 Wildair Dr",
    "address_councildis": "D",
    "status": "Assigned to Contractor",
    "contractor": "IV Waste",
    "rowid": "1266649",
    "final_x": "3681670.01557",
    "final_y": "551295.277077",
    "longitude": "-90.06684329353844",
    "latitude": "30.009865609136885",
    "geocoded_column": {
      "latitude": "30.009865609136885",
      "longitude": "-90.06684329353844"
    }
  },
  {
    "service_request": "2026-1266648",
    "request_type": "Trash/Recycling",
    "request_reason": "Request a Large Item Pick Up",
    "date_created": "2026-03-18T13:40:15.000",
    "date_modified": "2026-03-18T13:40:18.000",
    "request_status": "Pending",
    "responsible_agency": "Department of Sanitation",
    "final_address": "2819 St Thomas St",
    "address_councildis": "B",
    "status": "Assigned to Contractor",
    "contractor": "IV Waste",
    "rowid": "1266648",
    "final_x": "3677857.59765",
    "final_y": "519286.967543",
    "longitude": "-90.07999423582415",
    "latitude": "29.9219689674454",
    "geocoded_column": {
      "latitude": "29.9219689674454",
      "longitude": "-90.07999423582415"
    }
  },
  {
    "service_request": "2026-1266647",
    "request_type": "Trash/Recycling",
    "request_reason": "Replace Trash Cart",
    "date_created": "2026-03-18T13:39:30.000",
    "date_modified": "2026-03-18T13:39:32.000",
    "request_status": "Pending",
    "responsible_agency": "Department of Sanitation",
    "final_address": "6018 Chatham Dr",
    "address_councildis": "D",
    "status": "Assigned to Contractor",
    "contractor": "IV Waste",
    "rowid": "1266647",
    "final_x": "3679508.58767",
    "final_y": "554610.554584",
    "longitude": "-90.0735568677078",
    "latitude": "30.019046935984417",
    "geocoded_column": {
      "latitude": "30.019046935984417",
      "longitude": "-90.0735568677078"
    }
  },
  {
    "service_request": "2026-1266646",
    "request_type": "Health Related Request",
    "request_reason": "Noise Ordinance Complaint",
    "date_created": "2026-03-18T13:30:21.000",
    "date_modified": "2026-03-18T13:30:23.000",
    "request_status": "Pending",
    "responsible_agency": "Health Department",
    "final_address": "2552 St Philip St",
    "address_councildis": "D",
    "status": "Pending",
    "rowid": "1266646",
    "final_x": "3677856.91298",
    "final_y": "537442.043656",
    "longitude": "-90.07936924075524",
    "latitude": "29.97188940384193",
    "geocoded_column": {
      "latitude": "29.97188940384193",
      "longitude": "-90.07936924075524"
    }
  },
  {
    "service_request": "2026-1266645",
    "request_type": "Trash/Recycling",
    "request_reason": "Request a Large Item Pick Up",
    "date_created": "2026-03-18T13:30:11.000",
    "date_modified": "2026-03-18T13:30:18.000",
    "request_status": "Pending",
    "responsible_agency": "Department of Sanitation",
    "final_address": "200 Cambridge Ct",
    "address_councildis": "C",
    "status": "Assigned to Contractor",
    "contractor": "Richards Disposal",
    "rowid": "1266645",
    "final_x": "3706095.78468",
    "final_y": "518478.46559",
    "longitude": "-89.99088879500238",
    "latitude": "29.918866365392",
    "geocoded_column": {
      "latitude": "29.918866365392",
      "longitude": "-89.99088879500238"
    }
  },
  {
    "service_request": "2026-1266644",
    "request_type": "Abandoned Vehicles",
    "request_reason": "Abandoned/Junk Vehicles",
    "date_created": "2026-03-18T13:24:26.000",
    "date_modified": "2026-03-18T13:25:57.000",
    "request_status": "Pending",
    "responsible_agency": "Department of Public Works",
    "final_address": "325 Carondelet St",
    "address_councildis": "B",
    "status": "Pending",
    "rowid": "1266644",
    "final_x": "3680420.33288",
    "final_y": "529976.844865",
    "longitude": "-90.07153317878856",
    "latitude": "29.951285263924042",
    "geocoded_column": {
      "latitude": "29.951285263924042",
      "longitude": "-90.07153317878856"
    }
  },
  {
    "service_request": "2026-1266643",
    "request_type": "Utility Poles",
    "request_reason": "Wires Sagging/Hanging Low",
    "date_created": "2026-03-18T13:16:33.000",
    "date_modified": "2026-03-18T13:16:37.000",
    "request_status": "Pending",
    "responsible_agency": "Utility Company Collective",
    "final_address": "3322 Burgundy St",
    "address_councildis": "C",
    "status": "Pending",
    "rowid": "1266643",
    "final_x": "3689815.17801",
    "final_y": "534928.358214",
    "longitude": "-90.04169275125902",
    "latitude": "29.964612394219383",
    "geocoded_column": {
      "latitude": "29.964612394219383",
      "longitude": "-90.04169275125902"
    }
  },
  {
    "service_request": "2026-1266642",
    "request_type": "Trash/Recycling",
    "request_reason": "Repair Recycling Cart",
    "date_created": "2026-03-18T13:11:39.000",
    "date_modified": "2026-03-18T13:11:41.000",
    "request_status": "Pending",
    "responsible_agency": "Department of Sanitation",
    "final_address": "4236 Vincennes Pl",
    "address_councildis": "B",
    "status": "Pending",
    "rowid": "1266642",
    "final_x": "3668789.89908",
    "final_y": "531569.072707",
    "longitude": "-90.1082027122148",
    "latitude": "29.95601040542316",
    "geocoded_column": {
      "latitude": "29.95601040542316",
      "longitude": "-90.1082027122148"
    }
  },
  {
    "service_request": "2026-1266641",
    "request_type": "Trash/Recycling",
    "request_reason": "Request a Large Item Pick Up",
    "date_created": "2026-03-18T12:57:45.000",
    "date_modified": "2026-03-18T12:57:48.000",
    "request_status": "Pending",
    "responsible_agency": "Department of Sanitation",
    "final_address": "1322 Sere St",
    "address_councildis": "D",
    "status": "Assigned to Contractor",
    "contractor": "IV Waste",
    "rowid": "1266641",
    "final_x": "3677575.79829",
    "final_y": "545283.830991",
    "longitude": "-90.07998615388986",
    "latitude": "29.99346005747",
    "geocoded_column": {
      "latitude": "29.99346005747",
      "longitude": "-90.07998615388986"
    }
  },
  {
    "service_request": "2026-1266640",
    "request_type": "Trash/Recycling",
    "request_reason": "Repair Recycling Cart",
    "date_created": "2026-03-18T12:57:43.000",
    "date_modified": "2026-03-18T12:57:46.000",
    "request_status": "Pending",
    "responsible_agency": "Department of Sanitation",
    "final_address": "7620 Benjamin St",
    "address_councildis": "A",
    "status": "Pending",
    "rowid": "1266640",
    "final_x": "3661015.31469",
    "final_y": "524921.205756",
    "longitude": "-90.13297221473809",
    "latitude": "29.937957171277585",
    "geocoded_column": {
      "latitude": "29.937957171277585",
      "longitude": "-90.13297221473809"
    }
  },
  {
    "service_request": "2026-1266639",
    "request_type": "Trash/Recycling",
    "request_reason": "Request a Large Item Pick Up",
    "date_created": "2026-03-18T12:55:31.000",
    "date_modified": "2026-03-18T17:20:58.000",
    "request_status": "Pending",
    "responsible_agency": "Department of Sanitation",
    "final_address": "2025 Soniat St",
    "address_councildis": "B",
    "status": "Assigned to Contractor",
    "contractor": "IV Waste",
    "rowid": "1266639",
    "final_x": "3668547.26362",
    "final_y": "523107.125179",
    "longitude": "-90.1092543180416",
    "latitude": "29.93274992446187",
    "geocoded_column": {
      "latitude": "29.93274992446187",
      "longitude": "-90.1092543180416"
    }
  },
  {
    "service_request": "2026-1266638",
    "request_type": "Abandoned Vehicles",
    "request_reason": "Abandoned/Junk Vehicles",
    "date_created": "2026-03-18T12:55:15.000",
    "date_modified": "2026-03-18T12:56:35.000",
    "request_status": "Pending",
    "responsible_agency": "Department of Public Works",
    "final_address": "3140 N Roman St",
    "address_councildis": "D",
    "status": "Pending",
    "rowid": "1266638",
    "final_x": "3689967.98723",
    "final_y": "538514.591049",
    "longitude": "-90.04108247109367",
    "latitude": "29.974468535940982",
    "geocoded_column": {
      "latitude": "29.974468535940982",
      "longitude": "-90.04108247109367"
    }
  },