[
  {
    "service_request": "2022-892426",
    "request_type": "Property Maintenance",
    "request_reason": "Property Maintenance",
    "date_created": "2022-06-16T23:47:33.000",
    "date_modified": "2022-06-16T23:47:33.000",
    "request_status": "Pending",
    "responsible_agency": "Department of Code Enforcement",
    "final_address": "7072 Boston Dr",
    "address_councildis": "E",
    "status": "Pending",
    "rowid": "892426",
    "final_x": "3706271.03883",
    "final_y": "560866.900702",
    "longitude": "-89.98876558356966",
    "latitude": "30.035413255632495",
    "geocoded_column": {
      "latitude": "30.035413255632495",
      "longitude": "-89.98876558356966"
    }
  },
  {
    "service_request": "2022-892425",
    "request_type": "Property Maintenance",
    "request_reason": "Property Maintenance",
    "date_created": "2022-06-16T23:45:52.000",
    "date_modified": "2022-06-16T23:45:52.000",
    "request_status": "Pending",
    "responsible_agency": "Department of Code Enforcement",
    "final_address": "6900 Boston Dr",
    "address_councildis": "E",
    "status": "Pending",
    "rowid": "892425",
    "final_x": "3706636.51639",
    "final_y": "560143.482781",
    "longitude": "-89.98763747063104",
    "latitude": "30.03341234394533",
    "geocoded_column": {
      "latitude": "30.03341234394533",
      "longitude": "-89.98763747063104"
    }
  },
  {
    "service_request": "2022-892424",
    "request_type": "Traffic Signals/Signs/Striping/Streetlights",
    "request_reason": "Street Light Outage/Malfunction",
    "date_created": "2022-06-16T23:31:40.000",
    "date_modified": "2022-06-16T23:31:41.000",
    "request_status": "Pending",
    "responsible_agency": "Department of Public Works",
    "final_address": "2300 General Pershing St",
    "address_councildis": "B",
    "status": "Pending",
    "contractor": "Royal Engineering",
    "rowid": "892424",
    "final_x": "3670956.05761",
    "final_y": "523419.928827",
    "longitude": "-90.10163931360023",
    "latitude": "29.933539057518978",
    "geocoded_column": {
      "latitude": "29.933539057518978",
      "longitude": "-90.10163931360023"
    }
  },
  {
    "service_request": "2022-892423",
    "request_type": "Traffic Signals/Signs/Striping/Streetlights",
    "request_reason": "Street Light Outage/Malfunction",
    "date_created": "2022-06-16T22:48:40.000",
    "date_modified": "2022-06-16T22:48:41.000",
    "request_status": "Pending",
    "responsible_agency": "Department of Public Works",
    "final_address": "6019 Charlotte Dr",
    "address_councildis": "D",
    "status": "Pending",
    "contractor": "Royal Engineering",
    "rowid": "892423",
    "final_x": "3679970.27023",
    "final_y": "554642.173208",
    "longitude": "-90.07209701216085",
    "latitude": "30.01911991074156",
    "geocoded_column": {
      "latitude": "30.01911991074156",
      "longitude": "-90.07209701216085"
    }
  },
  {
    "service_request": "2022-892422",
    "request_type": "Trash/Recycling",
    "request_reason": "MIssed Recycling Pick-Up",
    "date_created": "2022-06-16T22:21:12.000",
    "date_modified": "2022-06-16T22:21:13.000",
    "request_status": "Pending",
    "responsible_agency": "Department of Sanitation",
    "final_address": "981 Walker St, New Orleans, Louisiana, 70124",
    "address_councildis": "A",
    "status": "Assigned to Contractor",
    "contractor": "Metro Disposal",
    "rowid": "892422",
    "final_x": "3671247.00679",
    "final_y": "553849.761751",
    "longitude": "-90.0996865315543",
    "latitude": "30.017202190666794",
    "geocoded_column": {
      "latitude": "30.017202190666794",
      "longitude": "-90.0996865315543"
    }
  },
  {
    "service_request": "2022-892421",
    "request_type": "Trash/Recycling",
    "request_reason": "MIssed Recycling Pick-Up",
    "date_created": "2022-06-16T22:18:35.000",
    "date_modified": "2022-06-16T22:18:35.000",
    "request_status": "Pending",
    "responsible_agency": "Department of Sanitation",
    "final_address": "2540 Palmyra St",
    "address_councildis": "B",
    "status": "Assigned to Contractor",
    "contractor": "Richards Disposal",
    "rowid": "892421",
    "final_x": "3675347.49729",
    "final_y": "534023.596549",
    "longitude": "-90.08741177263461",
    "latitude": "29.96256510429831",
    "geocoded_column": {
      "latitude": "29.96256510429831",
      "longitude": "-90.08741177263461"
    }
  },
  {
    "service_request": "2022-892420",
    "request_type": "Trash/Recycling",
    "request_reason": "Missed Trash Pick-Up",
    "date_created": "2022-06-16T22:08:56.000",
    "date_modified": "2022-06-16T22:08:56.000",
    "request_status": "Pending",
    "responsible_agency": "Department of Sanitation",
    "final_address": "4624 DHemecourt St",
    "address_councildis": "A",
    "status": "Assigned to Contractor",
    "contractor": "Richards Disposal",
    "rowid": "892420",
    "final_x": "3668088.52148",
    "final_y": "538090.255881",
    "longitude": "-90.11019762148544",
    "latitude": "29.97396209727272",
    "geocoded_column": {
      "latitude": "29.97396209727272",
      "longitude": "-90.11019762148544"
    }
  },
  {
    "service_request": "2022-892419",
    "request_type": "Abandoned Vehicles",
    "request_reason": "Abandoned/Junk Vehicles",
    "date_created": "2022-06-16T21:56:50.000",
    "date_modified": "2022-06-16T21:56:50.000",
    "request_status": "Pending",
    "responsible_agency": "Department of Public Works",
    "final_address": "1218 St Mary St",
    "address_councildis": "B",
    "status": "Pending",
    "rowid": "892419",
    "final_x": "3679346.67362",
    "final_y": "523214.533499",
    "longitude": "-90.07515771841543",
    "latitude": "29.932723620166904",
    "geocoded_column": {
      "latitude": "29.932723620166904",
      "longitude": "-90.07515771841543"
    }
  },
  {
    "service_request": "2022-892418",
    "request_type": "Trash/Recycling",
    "request_reason": "Missed Trash Pick-Up",
    "date_created": "2022-06-16T21:28:29.000",
    "date_modified": "2022-06-16T21:28:29.000",
    "request_status": "Pending",
    "responsible_agency": "Department of Sanitation",
    "final_address": "601 France St",
    "address_councildis": "C",
    "status": "Assigned to Contractor",
    "contractor": "Metro Disposal",
    "rowid": "892418",
    "final_x": "3691982.4536",
    "final_y": "533399.933636",
    "longitude": "-90.03490337104212",
    "latitude": "29.960342409238063",
    "geocoded_column": {
      "latitude": "29.960342409238063",
      "longitude": "-90.03490337104212"
    }
  },
  {
    "service_request": "2022-892417",
    "request_type": "Traffic Signals/Signs/Striping/Streetlights",
    "request_reason": "Street Light Outage/Malfunction",
    "date_created": "2022-06-16T21:14:11.000",
    "date_modified": "2022-06-16T21:14:12.000",
    "request_status": "Pending",
    "responsible_agency": "Department of Public Works",
    "final_address": "LOYOLA AVE & JENA ST",
    "address_councildis": "B",
    "status": "Pending",
    "contractor": "Royal Engineering",
    "rowid": "892417",
    "final_x": "3670240.6",
    "final_y": "522959.18",
    "longitude": "-90.10391358679297",
    "latitude": "29.93229327367502",
    "geocoded_column": {
      "latitude": "29.93229327367502",
      "longitude": "-90.10391358679297"
    }
  },
  {
    "service_request": "2022-892416",
    "request_type": "Trash/Recycling",
    "request_reason": "Order Recycling Cart",
    "date_created": "2022-06-16T21:12:09.000",
    "date_modified": "2022-06-16T21:12:09.000",
    "request_status": "Pending",
    "responsible_agency": "Department of Sanitation",
    "final_address": "6937 Fleur-De-Lis Dr",
    "address_councildis": "A",
    "status": "Pending",
    "rowid": "892416",
    "final_x": "3665586.08103",
    "final_y": "554053.622488",
    "longitude": "-90.11756599457665",
    "latitude": "30.01792910422079",
    "geocoded_column": {
      "latitude": "30.01792910422079",
      "longitude": "-90.11756599457665"
    }
  },
  {
    "service_request": "2022-892415",
    "request_type": "Trash/Recycling",
    "request_reason": "Replace Trash Cart",
    "date_created": "2022-06-16T21:10:32.000",
    "date_modified": "2022-06-16T21:10:32.000",
    "request_status": "Pending",
    "responsible_agency": "Department of Sanitation",
    "final_address": "7101 Walmsley Ave",
    "address_councildis": "B",
    "status": "Assigned to Contractor",
    "contractor": "Richards Disposal",
    "rowid": "892415",
    "final_x": "3667494.98266",
    "final_y": "531150.84269",
    "longitude": "-90.11230570018654",
    "latitude": "29.95489841607767",
    "geocoded_column": {
      "latitude": "29.95489841607767",
      "longitude": "-90.11230570018654"
    }
  },
  {
    "service_request": "2022-892414",
    "request_type": "Abandoned Vehicles",
    "request_reason": "Abandoned/Junk Vehicles",
    "date_created": "2022-06-16T20:35:07.000",
    "date_modified": "2022-06-16T20:35:07.000",
    "request_status": "Pending",
    "responsible_agency": "Department of Public Works",
    "final_address": "625 Washington Ave",
    "address_councildis": "B",
    "status": "Pending",
    "rowid": "892414",
    "final_x": "3677982.12046",
    "final_y": "519508.843703",
    "longitude": "-90.07959350632878",
    "latitude": "29.92257530923804",
    "geocoded_column": {
      "latitude": "29.92257530923804",
      "longitude": "-90.07959350632878"
    }
  },
  {
    "service_request": "2022-892413",
    "request_type": "Trash/Recycling",
    "request_reason": "Missed Trash Pick-Up",
    "date_created": "2022-06-16T20:34:05.000",
    "date_modified": "2022-06-16T20:34:05.000",
    "request_status": "Pending",
    "responsible_agency": "Department of Sanitation",
    "final_address": "620 S Lopez St",
    "address_councildis": "B",
    "status": "Assigned to Contractor",
    "contractor": "Richards Disposal",
    "rowid": "892413",
    "final_x": "3672536.98491",
    "final_y": "534414.609157",
    "longitude": "-90.09627367450074",
    "latitude": "29.963723988239543",
    "geocoded_column": {
      "latitude": "29.963723988239543",
      "longitude": "-90.09627367450074"
    }
  },
  {
    "service_request": "2022-892412",
    "request_type": "Abandoned Vehicles",
    "request_reason": "Abandoned/Junk Vehicles",
    "date_created": "2022-06-16T20:20:44.000",
    "date_modified": "2022-06-16T20:20:44.000",
    "request_status": "Pending",
    "responsible_agency": "Department of Public Works",
    "final_address": "2600 Hyman Pl",
    "address_councildis": "C",
    "status": "Pending",
    "rowid": "892412",
    "final_x": "3701112.89521",
    "final_y": "521593.388409",
    "longitude": "-90.00650323343132",
    "latitude": "29.92759091305914",
    "geocoded_column": {
      "latitude": "29.92759091305914",
      "longitude": "-90.00650323343132"
    }
  },
  {
    "service_request": "2022-892411",
    "request_type": "Traffic Signals/Signs/Striping/Streetlights",
    "request_reason": "Street Light Outage/Malfunction",
    "date_created": "2022-06-16T20:14:33.000",
    "date_modified": "2022-06-16T20:14:34.000",
    "request_status": "Pending",
    "responsible_agency": "Department of Public Works",
    "final_address": "107 Rhodes Ave",
    "address_councildis": "C",
    "status": "Pending",
    "contractor": "Royal Engineering",
    "rowid": "892411",
    "final_x": "3705880.06743",
    "final_y": "519358.171447",
    "longitude": "-89.99153718044184",
    "latitude": "29.921292198681392",
    "geocoded_column": {
      "latitude": "29.921292198681392",
      "longitude": "-89.99153718044184"
    }
  },
  {
    "service_request": "2022-892410",
    "request_type": "Trash/Recycling",
    "request_reason": "Illegal Dumping",
    "date_created": "2022-06-16T19:47:35.000",
    "date_modified": "2022-06-16T19:47:35.000",
    "request_status": "Pending",
    "responsible_agency": "Department of Sanitation",
    "final_address": "3810 Prytania St",
    "address_councildis": "B",
    "status": "Pending",
    "rowid": "892410",
    "final_x": "3672915.57441",
    "final_y": "520473.155384",
    "longitude": "-90.09555370687322",
    "latitude": "29.925378317431434",
    "geocoded_column": {
      "latitude": "29.925378317431434",
      "longitude": "-90.09555370687322"
    }
  },
  {
    "service_request": "2022-892409",
    "request_type": "Trash/Recycling",
    "request_reason": "Request a Large Item Pick Up",
    "date_created": "2022-06-16T19:31:12.000",
    "date_modified": "2022-06-16T19:31:13.000",
    "request_status": "Pending",
    "responsible_agency": "Department of Sanitation",
    "final_address": "5542 Chatham Dr",
    "address_councildis": "D",
    "status": "Assigned to Contractor",
    "contractor": "Metro Disposal",
    "rowid": "892409",
    "final_x": "3679641.27439",
    "final_y": "552916.108375",
    "longitude": "-90.07319650292024",
    "latitude": "30.014383811412316",
    "geocoded_column": {
      "latitude": "30.014383811412316",
      "longitude": "-90.07319650292024"
    }
  },
  {
    "service_request": "2022-892408",
    "request_type": "Trash/Recycling",
    "request_reason": "Order Recycling Cart",
    "date_created": "2022-06-16T19:12:15.000",
    "date_modified": "2022-06-16T19:12:15.000",
    "request_status": "Pending",
    "responsible_agency": "Department of Sanitation",
    "final_address": "1112 Dauphine St, New Orleans, Louisiana, 70116",
    "address_councildis": "C",
    "status": "Pending",
    "rowid": "892408",
    "final_x": "3682985.04309",
    "final_y": "534138.807877",
    "longitude": "-90.06328943971019",
    "latitude": "29.962651336611938",
    "geocoded_column": {
      "latitude": "29.962651336611938",
      "longitude": "-90.06328943971019"
    }
  },
  {
    "service_request": "2022-892407",
    "request_type": "Trash/Recycling",
    "request_reason": "MIssed Recycling Pick-Up",
    "date_created": "2022-06-16T19:11:18.000",
    "date_modified": "2022-06-16T19:11:18.000",
    "request_status": "Pending",
    "responsible_agency": "Department of Sanitation",
    "final_address": "1112 Dauphine St, New Orleans, Louisiana, 70116",
    "address_councildis": "C",
    "status": "Assigned to Contractor",
    "contractor": "Empire Services",
    "rowid": "892407",
    "final_x": "3682985.04309",
    "final_y": "534138.807877",
    "longitude": "-90.06328943971019",
    "latitude": "29.962651336611938",
    "geocoded_column": {
      "latitude": "29.962651336611938",
      "longitude": "-90.06328943971019"
    }
  },
  {
    "service_request": "2022-892406",
    "request_type": "Trash/Recycling",
    "request_reason": "Missed Trash Pick-Up",
    "date_created": "2022-06-16T18:52:20.000",
    "date_modified": "2022-06-16T18:52:20.000",
    "request_status": "Pending",
    "responsible_agency": "Department of Sanitation",
    "final_address": "1719 Toledano St",
    "address_councildis": "B",
    "status": "Assigned to Contractor",
    "contractor": "Richards Disposal",
    "rowid": "892406",
    "final_x": "3674403.64788",
    "final_y": "522246.697082",
    "longitude": "-90.09079560780958",
    "latitude": "29.930210700280217",
    "geocoded_column": {
      "latitude": "29.930210700280217",
      "longitude": "-90.09079560780958"
    }
  },
  {
    "service_request": "2022-892405",
    "request_type": "Roads/Drainage",
    "request_reason": "Pothole",
    "date_created": "2022-06-16T18:40:46.000",
    "date_modified": "2022-06-16T18:40:46.000",
    "request_status": "Pending",
    "responsible_agency": "Department of Public Works",
    "final_address": "446 Pelican Ave",
    "address_councildis": "C",
    "status": "Pending",
    "rowid": "892405",
    "final_x": "3686792.84553",
    "final_y": "530767.036034",
    "longitude": "-90.05138406002935",
    "latitude": "29.95326352543922",
    "geocoded_column": {
      "latitude": "29.95326352543922",
      "longitude": "-90.05138406002935"
    }
  },
  {
    "service_request": "2022-892404",
    "request_type": "Traffic Signals/Signs/Striping/Streetlights",
    "request_reason": "Street Light Outage/Malfunction",
    "date_created": "2022-06-16T18:40:04.000",
    "date_modified": "2022-06-16T18:40:05.000",
    "request_status": "Pending",
    "responsible_agency": "Department of Public Works",
    "final_address": "1420 S Norman C Francis Prkwy",
    "address_councildis": "B",
    "status": "Pending",
    "contractor": "Royal Engineering",
    "rowid": "892404",
    "final_x": "3669796.63962",
    "final_y": "531609.076803",
    "longitude": "-90.10502240866623",
    "latitude": "29.956090767559246",
    "geocoded_column": {
      "latitude": "29.956090767559246",
      "longitude": "-90.10502240866623"
    }
  },
  {
    "service_request": "2022-892403",
    "request_type": "Trash/Recycling",
    "request_reason": "Order Recycling Cart",
    "date_created": "2022-06-16T18:38:55.000",
    "date_modified": "2022-06-16T18:38:55.000",
    "request_status": "Pending",
    "responsible_agency": "Department of Sanitation",
    "final_address": "11401 Morrison Rd",
    "address_councildis": "E",
    "status": "Pending",
    "rowid": "892403",
    "final_x": "3712043.87576",
    "final_y": "565711.587234",
    "longitude": "-89.97034050884764",
    "latitude": "30.04854667239688",
    "geocoded_column": {
      "latitude": "30.04854667239688",
      "longitude": "-89.97034050884764"
    }
  },
  {
    "service_request": "2022-892402",
    "request_type": "Trash/Recycling",
    "request_reason": "Order Trash Cart",
    "date_created": "2022-06-16T18:37:37.000",
    "date_modified": "2022-06-16T18:37:38.000",
    "request_status": "Pending",
    "responsible_agency": "Department of Sanitation",
    "final_address": "11401 Morrison Rd",
    "address_councildis": "E",
    "status": "Assigned to Contractor",
    "contractor": "Metro Disposal",
    "rowid": "892402",
    "final_x": "3712043.87576",
    "final_y": "565711.587234",
    "longitude": "-89.97034050884764",
    "latitude": "30.04854667239688",
    "geocoded_column": {
      "latitude": "30.04854667239688",
      "longitude": "-89.97034050884764"
    }
  },
  {
    "service_request": "2022-892400",
    "request_type": "Roads/Drainage",
    "request_reason": "Street Subsidence (Sinking)",
    "date_created": "2022-06-16T18:29:16.000",
    "date_modified": "2022-06-16T18:29:16.000",
    "request_status": "Pending",
    "responsible_agency": "Department of Public Works",
    "final_address": "2127 S Lopez St",
    "address_councildis": "A",
    "status": "Pending",
    "rowid": "892400",
    "final_x": "3669099.90618",
    "final_y": "529310.002625",
    "longitude": "-90.10730013951202",
    "latitude": "29.949789585731942",
    "geocoded_column": {
      "latitude": "29.949789585731942",
      "longitude": "-90.10730013951202"
    }
  },
  {
    "service_request": "2022-892399",
    "request_type": "Trash/Recycling",
    "request_reason": "Request a Large Item Pick Up",
    "date_created": "2022-06-16T18:28:48.000",
    "date_modified": "2022-06-16T18:28:48.000",
    "request_status": "Pending",
    "responsible_agency": "Department of Sanitation",
    "final_address": "1673 N Roman St",
    "address_councildis": "D",
    "status": "Assigned to Contractor",
    "contractor": "Metro Disposal",
    "rowid": "892399",
    "final_x": "3682117.17333",
    "final_y": "538710.158665",
    "longitude": "-90.06587037439503",
    "latitude": "29.97524739649156",
    "geocoded_column": {
      "latitude": "29.97524739649156",
      "longitude": "-90.06587037439503"
    }
  },
  {
    "service_request": "2022-892398",
    "request_type": "Property Maintenance",
    "request_reason": "Property Maintenance",
    "date_created": "2022-06-16T18:15:10.000",
    "date_modified": "2022-06-16T18:15:11.000",
    "request_status": "Pending",
    "responsible_agency": "Department of Code Enforcement",
    "final_address": "8616 Colapissa St",
    "address_councildis": "A",
    "status": "Pending",
    "rowid": "892398",
    "final_x": "3665053.16218",
    "final_y": "534680.400902",
    "longitude": "-90.11989805133086",
    "latitude": "29.96467486774917",
    "geocoded_column": {
      "latitude": "29.96467486774917",
      "longitude": "-90.11989805133086"
    }
  },
  {
    "service_request": "2022-892397",
    "request_type": "Roads/Drainage",
    "request_reason": "Catch Basin - Clogged",
    "date_created": "2022-06-16T18:13:25.000",
    "date_modified": "2022-06-16T18:13:25.000",
    "request_status": "Pending",
    "responsible_agency": "Department of Public Works",
    "final_address": "7408 Edward St",
    "address_councildis": "E",
    "status": "Pending",
    "rowid": "892397",
    "final_x": "3701208.4602",
    "final_y": "560271.627997",
    "longitude": "-90.00478589743425",
    "latitude": "30.033938859569496",
    "geocoded_column": {
      "latitude": "30.033938859569496",
      "longitude": "-90.00478589743425"
    }
  },
  {
    "service_request": "2022-892396",
    "request_type": "Parks & Parkways",
    "request_reason": "Request Tree Service (Right of Way/Public Property)",
    "date_created": "2022-06-16T18:07:20.000",
    "date_modified": "2022-06-16T18:07:21.000",
    "request_status": "Pending",
    "responsible_agency": "Department of Parks & Parkway",
    "final_address": "3337 Esplanade Ave",
    "address_councildis": "A",
    "status": "Pending",
    "rowid": "892396",
    "final_x": "3675826.41902",
    "final_y": "540862.323339",
    "longitude": "-90.08566425214887",
    "latitude": "29.98135494472708",
    "geocoded_column": {
      "latitude": "29.98135494472708",
      "longitude": "-90.08566425214887"
    }
  },
  {
    "service_request": "2022-892395",
    "request_type": "Roads/Drainage",
    "request_reason": "Street Flooding / Drainage",
    "date_created": "2022-06-16T17:50:57.000",
    "date_modified": "2022-06-16T17:50:57.000",
    "request_status": "Pending",
    "responsible_agency": "Department of Public Works",
    "final_address": "8501 N Interstate 10 Service Rd",
    "address_councildis": "E",
    "status": "Pending",
    "rowid": "892395",
    "final_x": "3704755.23332",
    "final_y": "559450.599453",
    "longitude": "-89.99360808006935",
    "latitude": "30.03156780215238",
    "geocoded_column": {
      "latitude": "30.03156780215238",
      "longitude": "-89.99360808006935"
    }
  },
  {
    "service_request": "2022-892394",
    "request_type": "Roads/Drainage",
    "request_reason": "Accessibility Ramps, Curbs and Sidewalk Repair",
    "date_created": "2022-06-16T17:40:19.000",
    "date_modified": "2022-06-16T17:40:19.000",
    "request_status": "Pending",
    "responsible_agency": "Department of Public Works",
    "final_address": "2815 Octavia St",
    "address_councildis": "A",
    "status": "Pending",
    "rowid": "892394",
    "final_x": "3668020.50477",
    "final_y": "525813.857085",
    "longitude": "-90.11082609253285",
    "latitude": "29.94020803133535",
    "geocoded_column": {
      "latitude": "29.94020803133535",
      "longitude": "-90.11082609253285"
    }
  },
  {
    "service_request": "2022-892393",
    "request_type": "Trash/Recycling",
    "request_reason": "Missed Trash Pick-Up",
    "date_created": "2022-06-16T17:38:21.000",
    "date_modified": "2022-06-16T17:38:22.000",
    "request_status": "Pending",
    "responsible_agency": "Department of Sanitation",
    "final_address": "4318 LaSalle St",
    "address_councildis": "B",
    "status": "Assigned to Contractor",
    "contractor": "Richards Disposal",
    "rowid": "892393",
    "final_x": "3670805.62811",
    "final_y": "523681.173819",
    "longitude": "-90.10210535054156",
    "latitude": "29.93426184246157",
    "geocoded_column": {
      "latitude": "29.93426184246157",
      "longitude": "-90.10210535054156"
    }
  },
  {
    "service_request": "2022-892392",
    "request_type": "Property Maintenance",
    "request_reason": "Property Maintenance",
    "date_created": "2022-06-16T17:37:10.000",
    "date_modified": "2022-06-16T17:37:10.000",
    "request_status": "Pending",
    "responsible_agency": "Department of Code Enforcement",
    "final_address": "2602 Banks St",
    "address_councildis": "B",
    "status": "Pending",
    "rowid": "892392",
    "final_x": "3675005.88091",
    "final_y": "533780.427269",
    "longitude": "-90.0884988943061",
    "latitude": "29.961906679864224",
    "geocoded_column": {
      "latitude": "29.961906679864224",
      "longitude": "-90.0884988943061"
    }
  },
  {
    "service_request": "2022-892391",
    "request_type": "Trash/Recycling",
    "request_reason": "Request a Large Item Pick Up",
    "date_created": "2022-06-16T17:35:59.000",
    "date_modified": "2022-06-16T17:36:00.000",
    "request_status": "Pending",
    "responsible_agency": "Department of Sanitation",
    "final_address": "200 River Oaks Dr",
    "address_councildis": "C",
    "status": "Assigned to Contractor",
    "contractor": "Richards Disposal",
    "rowid": "892391",
    "final_x": "3701645.8346",
    "final_y": "523354.105915",
    "longitude": "-90.00475643945006",
    "latitude": "29.93241529600989",
    "geocoded_column": {
      "latitude": "29.93241529600989",
      "longitude": "-90.00475643945006"
    }
  },
  {
    "service_request": "2022-892390",
    "request_type": "Trash/Recycling",
    "request_reason": "Repair Trash Cart",
    "date_created": "2022-06-16T17:35:28.000",
    "date_modified": "2022-06-16T17:35:28.000",
    "request_status": "Pending",
    "responsible_agency": "Department of Sanitation",
    "final_address": "200 River Oaks Dr",
    "address_councildis": "C",
    "status": "Assigned to Contractor",
    "contractor": "Richards Disposal",
    "rowid": "892390",
    "final_x": "3701645.8346",
    "final_y": "523354.105915",
    "longitude": "-90.00475643945006",
    "latitude": "29.93241529600989",
    "geocoded_column": {
      "latitude": "29.93241529600989",
      "longitude": "-90.00475643945006"
    }
  },
  {
    "service_request": "2022-892389",
    "request_type": "Trash/Recycling",
    "request_reason": "MIssed Recycling Pick-Up",
    "date_created": "2022-06-16T17:32:38.000",
    "date_modified": "2022-06-16T17:32:40.000",
    "request_status": "Pending",
    "responsible_agency": "Department of Sanitation",
    "final_address": "2015 State St",
    "address_councildis": "A",
    "status": "Assigned to Contractor",
    "contractor": "Richards Disposal",
    "rowid": "892389",
    "final_x": "3666393.45767",
    "final_y": "524150.65478",
    "longitude": "-90.11601873945807",
    "latitude": "29.935682388949466",
    "geocoded_column": {
      "latitude": "29.935682388949466",
      "longitude": "-90.11601873945807"
    }
  },
  {
    "service_request": "2022-892388",
    "request_type": "Trash/Recycling",
    "request_reason": "Illegal Dumping",
    "date_created": "2022-06-16T17:31:17.000",
    "date_modified": "2022-06-16T17:31:17.000",
    "request_status": "Pending",
    "responsible_agency": "Department of Sanitation",
    "final_address": "2631 Banks St",
    "address_councildis": "B",
    "status": "Pending",
    "rowid": "892388",
    "final_x": "3674860.93518",
    "final_y": "534050.154821",
    "longitude": "-90.08894736061782",
    "latitude": "29.962652668998683",
    "geocoded_column": {
      "latitude": "29.962652668998683",
      "longitude": "-90.08894736061782"
    }
  },
  {
    "service_request": "2022-892387",
    "request_type": "Trash/Recycling",
    "request_reason": "Missed Trash Pick-Up",
    "date_created": "2022-06-16T17:27:36.000",
    "date_modified": "2022-06-16T17:27:37.000",
    "request_status": "Pending",
    "responsible_agency": "Department of Sanitation",
    "final_address": "1620 Fourth St",
    "address_councildis": "B",
    "status": "Assigned to Contractor",
    "contractor": "Richards Disposal",
    "rowid": "892387",
    "final_x": "3676043.77665",
    "final_y": "522866.967739",
    "longitude": "-90.08559665644712",
    "latitude": "29.931867236838222",
    "geocoded_column": {
      "latitude": "29.931867236838222",
      "longitude": "-90.08559665644712"
    }
  },
  {
    "service_request": "2022-892386",
    "request_type": "Trash/Recycling",
    "request_reason": "Illegal Dumping",
    "date_created": "2022-06-16T17:24:04.000",
    "date_modified": "2022-06-16T17:24:05.000",
    "request_status": "Pending",
    "responsible_agency": "Department of Sanitation",
    "final_address": "THAYER ST & OPELOUSAS AVE",
    "address_councildis": "C",
    "status": "Pending",
    "rowid": "892386",
    "final_x": "3689485.8",
    "final_y": "529024.78",
    "longitude": "-90.04294284933262",
    "latitude": "29.94838980317299",
    "geocoded_column": {
      "latitude": "29.94838980317299",
      "longitude": "-90.04294284933262"
    }
  },
  {
    "service_request": "2022-892385",
    "request_type": "Roads/Drainage",
    "request_reason": "Pothole",
    "date_created": "2022-06-16T17:17:16.000",
    "date_modified": "2022-06-16T17:17:16.000",
    "request_status": "Pending",
    "responsible_agency": "Department of Public Works",
    "final_address": "6007 Burgundy St",
    "address_councildis": "E",
    "status": "Pending",
    "rowid": "892385",
    "final_x": "3698953.75997",
    "final_y": "532716.51706",
    "longitude": "-90.0129144302229",
    "latitude": "29.95824420163915",
    "geocoded_column": {
      "latitude": "29.95824420163915",
      "longitude": "-90.0129144302229"
    }
  },
  {
    "service_request": "2022-892384",
    "request_type": "Roads/Drainage",
    "request_reason": "Street Flooding / Drainage",
    "date_created": "2022-06-16T17:14:54.000",
    "date_modified": "2022-06-16T17:14:54.000",
    "request_status": "Pending",
    "responsible_agency": "Department of Public Works",
    "final_address": "6007 Burgundy St",
    "address_councildis": "E",
    "status": "Pending",
    "rowid": "892384",
    "final_x": "3698953.75997",
    "final_y": "532716.51706",
    "longitude": "-90.0129144302229",
    "latitude": "29.95824420163915",
    "geocoded_column": {
      "latitude": "29.95824420163915",
      "longitude": "-90.0129144302229"
    }
  },
  {
    "service_request": "2022-892380",
    "request_type": "Mosquito, Termite & Rodent Control",
    "request_reason": "Non-Rodent Complaint (Mice, Possums, Snakes)",
    "date_created": "2022-06-16T17:03:37.000",
    "date_modified": "2022-06-16T17:03:38.000",
    "request_status": "Pending",
    "responsible_agency": "Mosquito, Termite & Rodent Control Board",
    "final_address": "3205 Washington Ave",
    "address_councildis": "B",
    "status": "Pending",
    "rowid": "892380",
    "final_x": "3672756.82337",
    "final_y": "527432.987583",
    "longitude": "-90.09581755737587",
    "latitude": "29.94452031427498",
    "geocoded_column": {
      "latitude": "29.94452031427498",
      "longitude": "-90.09581755737587"
    }
  },
  {
    "service_request": "2022-892377",
    "request_type": "Parks & Parkways",
    "request_reason": "Request Tree Service (Right of Way/Public Property)",
    "date_created": "2022-06-16T17:01:26.000",
    "date_modified": "2022-06-16T17:04:08.000",
    "request_status": "Pending",
    "responsible_agency": "Department of Parks & Parkway",
    "final_address": "3205 Washington Ave",
    "address_councildis": "B",
    "status": "Pending",
    "rowid": "892377",
    "final_x": "3672756.82337",
    "final_y": "527432.987583",
    "longitude": "-90.09581755737587",
    "latitude": "29.94452031427498",
    "geocoded_column": {
      "latitude": "29.94452031427498",
      "longitude": "-90.09581755737587"
    }
  },
  {
    "service_request": "2022-892376",
    "request_type": "Trash/Recycling",
    "request_reason": "Order Trash Cart",
    "date_created": "2022-06-16T16:55:57.000",
    "date_modified": "2022-06-16T16:55:58.000",
    "request_status": "Pending",
    "responsible_agency": "Department of Sanitation",
    "final_address": "1424 Spain St",
    "address_councildis": "C",
    "status": "Assigned to Contractor",
    "contractor": "Metro Disposal",
    "rowid": "892376",
    "final_x": "3685994.05692",
    "final_y": "537705.354504",
    "longitude": "-90.05366161483137",
    "latitude": "29.972366051400968",
    "geocoded_column": {
      "latitude": "29.972366051400968",
      "longitude": "-90.05366161483137"
    }
  },
  {
    "service_request": "2022-892375",
    "request_type": "Abandoned Vehicles",
    "request_reason": "Abandoned/Junk Vehicles",
    "date_created": "2022-06-16T16:54:40.000",
    "date_modified": "2022-06-16T16:57:06.000",
    "request_status": "Pending",
    "responsible_agency": "Department of Public Works",
    "final_address": "246 Pacific Ave",
    "address_councildis": "C",
    "status": "Pending",
    "rowid": "892375",
    "final_x": "3688585.78531",
    "final_y": "530772.140994",
    "longitude": "-90.04572256358668",
    "latitude": "29.953222284682123",
    "geocoded_column": {
      "latitude": "29.953222284682123",
      "longitude": "-90.04572256358668"
    }
  },
  {
    "service_request": "2022-892374",
    "request_type": "Traffic Signals/Signs/Striping/Streetlights",
    "request_reason": "Disabled Parking Sign ",
    "date_created": "2022-06-16T16:53:31.000",
    "date_modified": "2022-06-16T16:53:32.000",
    "request_status": "Pending",
    "responsible_agency": "Department of Public Works",
    "final_address": "4425 Duplessis St",
    "address_councildis": "D",
    "status": "Pending",
    "rowid": "892374",
    "final_x": "3678341.62843",
    "final_y": "548777.890771",
    "longitude": "-90.07744604521804",
    "latitude": "30.00304443080129",
    "geocoded_column": {
      "latitude": "30.00304443080129",
      "longitude": "-90.07744604521804"
    }
  },
  {
    "service_request": "2022-892373",
    "request_type": "Trash/Recycling",
    "request_reason": "Missed Trash Pick-Up",
    "date_created": "2022-06-16T16:52:45.000",
    "date_modified": "2022-06-16T16:52:45.000",
    "request_status": "Pending",
    "responsible_agency": "Department of Sanitation",
    "final_address": "1926 Washington Ave",
    "address_councildis": "B",
    "status": "Assigned to Contractor",
    "contractor": "Richards Disposal",
    "rowid": "892373",
    "final_x": "3675163.64309",
    "final_y": "523605.399675",
    "longitude": "-90.0883498182861",
    "latitude": "29.933924007944164",
    "geocoded_column": {
      "latitude": "29.933924007944164",
      "longitude": "-90.0883498182861"
    }
  },
  {
    "service_request": "2022-892372",
    "request_type": "Traffic Signals/Signs/Striping/Streetlights",
    "request_reason": "Street Light Outage/Malfunction",
    "date_created": "2022-06-16T16:51:27.000",
    "date_modified": "2022-06-16T16:51:27.000",
    "case_close_date": "2022-01-25T18:00:00.000",
    "request_status": "Pending",
    "responsible_agency": "Department of Public Works",
    "final_address": "PRYTANIA ST & CALHOUN ST",
    "address_councildis": "A",
    "status": "Pending",
    "contractor": "Royal Engineering",
    "rowid": "892372",
    "final_x": "3664111.6",
    "final_y": "521296.98",
    "longitude": "-90.12331776312186",
    "latitude": "29.927902145298088",
    "geocoded_column": {
      "latitude": "29.927902145298088",
      "longitude": "-90.12331776312186"
    }
  },
  {
    "service_request": "2022-892371",
    "request_type": "Traffic Signals/Signs/Striping/Streetlights",
    "request_reason": "Street Light Outage/Malfunction",
    "date_created": "2022-06-16T16:50:49.000",
    "date_modified": "2022-06-16T16:50:50.000",
    "case_close_date": "2022-01-25T18:00:00.000",
    "request_status": "Pending",
    "responsible_agency": "Department of Public Works",
    "final_address": "1229 Calhoun St",
    "address_councildis": "A",
    "status": "Pending",
    "contractor": "Royal Engineering",
    "rowid": "892371",
    "final_x": "3664125.65684",
    "final_y": "521171.328057",
    "longitude": "-90.12327757759233",
    "latitude": "29.92755623380563",
    "geocoded_column": {
      "latitude": "29.92755623380563",
      "longitude": "-90.12327757759233"
    }
  },
  {
    "service_request": "2022-892369",
    "request_type": "Parks & Parkways",
    "request_reason": "Request Tree Service (Right of Way/Public Property)",
    "date_created": "2022-06-16T16:47:21.000",
    "date_modified": "2022-06-16T16:47:21.000",
    "request_status": "Pending",
    "responsible_agency": "Department of Parks & Parkway",
    "final_address": "920 Eleonore St",
    "address_councildis": "A",
    "status": "Pending",
    "rowid": "892369",
    "final_x": "3665301.86912",
    "final_y": "519590.627832",
    "longitude": "-90.11961740167798",
    "latitude": "29.923175598580002",
    "geocoded_column": {
      "latitude": "29.923175598580002",
      "longitude": "-90.11961740167798"
    }
  },
  {
    "service_request": "2022-892368",
    "request_type": "Trash/Recycling",
    "request_reason": "Missed Trash Pick-Up",
    "date_created": "2022-06-16T16:40:56.000",
    "date_modified": "2022-06-16T16:40:57.000",
    "request_status": "Pending",
    "responsible_agency": "Department of Sanitation",
    "final_address": "1724 Clio St",
    "address_councildis": "B",
    "status": "Assigned to Contractor",
    "contractor": "Richards Disposal",
    "rowid": "892368",
    "final_x": "3679138.50799",
    "final_y": "526693.81171",
    "longitude": "-90.0756943257652",
    "latitude": "29.942296769216746",
    "geocoded_column": {
      "latitude": "29.942296769216746",
      "longitude": "-90.0756943257652"
    }
  },
  {
    "service_request": "2022-892367",
    "request_type": "Trash/Recycling",
    "request_reason": "MIssed Recycling Pick-Up",
    "date_created": "2022-06-16T16:34:47.000",
    "date_modified": "2022-06-16T16:34:47.000",
    "request_status": "Pending",
    "responsible_agency": "Department of Sanitation",
    "final_address": "5826 Clara St",
    "address_councildis": "A",
    "status": "Assigned to Contractor",
    "contractor": "Richards Disposal",
    "rowid": "892367",
    "final_x": "3666914.57978",
    "final_y": "525225.735933",
    "longitude": "-90.11433743670578",
    "latitude": "29.938623284611396",
    "geocoded_column": {
      "latitude": "29.938623284611396",
      "longitude": "-90.11433743670578"
    }
  },
  {
    "service_request": "2022-892366",
    "request_type": "Trash/Recycling",
    "request_reason": "Request a Large Item Pick Up",
    "date_created": "2022-06-16T16:34:18.000",
    "date_modified": "2022-06-16T16:34:19.000",
    "request_status": "Pending",
    "responsible_agency": "Department of Sanitation",
    "final_address": "3920 S Pin Oak Ave",
    "address_councildis": "C",
    "status": "Assigned to Contractor",
    "contractor": "Richards Disposal",
    "rowid": "892366",
    "final_x": "3704935.83217",
    "final_y": "513637.39877",
    "longitude": "-89.99472864771663",
    "latitude": "29.905592410816674",
    "geocoded_column": {
      "latitude": "29.905592410816674",
      "longitude": "-89.99472864771663"
    }
  },
  {
    "service_request": "2022-892365",
    "request_type": "Trash/Recycling",
    "request_reason": "Repair Trash Cart",
    "date_created": "2022-06-16T16:32:37.000",
    "date_modified": "2022-06-16T16:32:38.000",
    "request_status": "Pending",
    "responsible_agency": "Department of Sanitation",
    "final_address": "3516 Upperline St",
    "address_councildis": "B",
    "status": "Assigned to Contractor",
    "contractor": "Richards Disposal",
    "rowid": "892365",
    "final_x": "3669250.82663",
    "final_y": "527830.052287",
    "longitude": "-90.10687362953922",
    "latitude": "29.945715763733972",
    "geocoded_column": {
      "latitude": "29.945715763733972",
      "longitude": "-90.10687362953922"
    }
  },
  {
    "service_request": "2022-892364",
    "request_type": "Trash/Recycling",
    "request_reason": "Damaged Caused By Contractor",
    "date_created": "2022-06-16T16:28:37.000",
    "date_modified": "2022-06-16T16:28:38.000",
    "request_status": "Pending",
    "responsible_agency": "Department of Sanitation",
    "final_address": "6233 Wadsworth Dr",
    "address_councildis": "D",
    "status": "Assigned to Contractor",
    "contractor": "Metro Disposal",
    "rowid": "892364",
    "final_x": "3681663.86696",
    "final_y": "556046.246681",
    "longitude": "-90.06669679517188",
    "latitude": "30.022929232462754",
    "geocoded_column": {
      "latitude": "30.022929232462754",
      "longitude": "-90.06669679517188"
    }
  },
  {
    "service_request": "2022-892363",
    "request_type": "Trash/Recycling",
    "request_reason": "Order Recycling Cart",
    "date_created": "2022-06-16T16:21:27.000",
    "date_modified": "2022-06-16T16:21:27.000",
    "request_status": "Pending",
    "responsible_agency": "Department of Sanitation",
    "final_address": "5715 Clara St",
    "address_councildis": "A",
    "status": "Pending",
    "rowid": "892363",
    "final_x": "3667294.3433",
    "final_y": "525229.704957",
    "longitude": "-90.11313834527596",
    "latitude": "29.93862308375835",
    "geocoded_column": {
      "latitude": "29.93862308375835",
      "longitude": "-90.11313834527596"
    }
  },
  {
    "service_request": "2022-892362",
    "request_type": "Traffic Signals/Signs/Striping/Streetlights",
    "request_reason": "Street Light Outage/Malfunction",
    "date_created": "2022-06-16T16:20:16.000",
    "date_modified": "2022-06-16T16:20:17.000",
    "request_status": "Pending",
    "responsible_agency": "Department of Public Works",
    "final_address": "6758 Louis Xiv St",
    "address_councildis": "A",
    "status": "Pending",
    "contractor": "Royal Engineering",
    "rowid": "892362",
    "final_x": "3668455.69966",
    "final_y": "552517.967318",
    "longitude": "-90.10855093438978",
    "latitude": "30.013622562856565",
    "geocoded_column": {
      "latitude": "30.013622562856565",
      "longitude": "-90.10855093438978"
    }
  },
  {
    "service_request": "2022-892361",
    "request_type": "Trash/Recycling",
    "request_reason": "Order Trash Cart",
    "date_created": "2022-06-16T16:19:26.000",
    "date_modified": "2022-06-16T16:19:27.000",
    "request_status": "Pending",
    "responsible_agency": "Department of Sanitation",
    "final_address": "4726 Camelot Dr",
    "address_councildis": "E",
    "status": "Assigned to Contractor",
    "contractor": "Metro Disposal",
    "rowid": "892361",
    "final_x": "3708314.83665",
    "final_y": "555459.893081",
    "longitude": "-89.98250833054689",
    "latitude": "30.020480004206544",
    "geocoded_column": {
      "latitude": "30.020480004206544",
      "longitude": "-89.98250833054689"
    }
  },
  {
    "service_request": "2022-892360",
    "request_type": "Traffic Signals/Signs/Striping/Streetlights",
    "request_reason": "Street Light Outage/Malfunction",
    "date_created": "2022-06-16T16:13:33.000",
    "date_modified": "2022-06-16T16:13:34.000",
    "request_status": "Pending",
    "responsible_agency": "Department of Public Works",
    "final_address": "4008 Odin St",
    "address_councildis": "D",
    "status": "Pending",
    "contractor": "Royal Engineering",
    "rowid": "892360",
    "final_x": "3688821.50863",
    "final_y": "553847.178903",
    "longitude": "-90.04415850168158",
    "latitude": "30.01666311418171",
    "geocoded_column": {
      "latitude": "30.01666311418171",
      "longitude": "-90.04415850168158"
    }
  },
  {
    "service_request": "2022-892359",
    "request_type": "Trash/Recycling",
    "request_reason": "Missed Trash Pick-Up",
    "date_created": "2022-06-16T16:09:03.000",
    "date_modified": "2022-06-16T16:09:04.000",
    "request_status": "Pending",
    "responsible_agency": "Department of Sanitation",
    "final_address": "1800 BLK First St",
    "address_councildis": "B",
    "status": "Assigned to Contractor",
    "contractor": "Richards Disposal",
    "rowid": "892359",
    "final_x": "3676447.10081",
    "final_y": "523972.782223",
    "longitude": "-90.08428535067644",
    "latitude": "29.934895783034587",
    "geocoded_column": {
      "latitude": "29.934895783034587",
      "longitude": "-90.08428535067644"
    }
  },
  {
    "service_request": "2022-892358",
    "request_type": "Trash/Recycling",
    "request_reason": "Missed Trash Pick-Up",
    "date_created": "2022-06-16T16:05:49.000",
    "date_modified": "2022-06-16T16:05:49.000",
    "request_status": "Pending",
    "responsible_agency": "Department of Sanitation",
    "final_address": "928 9th St, New Orleans, Louisiana, 70115",
    "status": "Assigned to Contractor",
    "rowid": "892358",
    "longitude": "0.0",
    "latitude": "0.0",
    "geocoded_column": {
      "latitude": "0.0",
      "longitude": "0.0"
    }
  },
  {
    "service_request": "2022-892357",
    "request_type": "Property Maintenance",
    "request_reason": "Property Maintenance",
    "date_created": "2022-06-16T16:01:29.000",
    "date_modified": "2022-06-16T16:01:30.000",
    "request_status": "Pending",
    "responsible_agency": "Department of Code Enforcement",
    "final_address": "3611 Bennett St",
    "address_councildis": "C",
    "status": "Pending",
    "rowid": "892357",
    "final_x": "3710266.59947",
    "final_y": "516919.487029",
    "longitude": "-89.97778203915418",
    "latitude": "29.91444469970385",
    "geocoded_column": {
      "latitude": "29.91444469970385",
      "longitude": "-89.97778203915418"
    }
  },
  {
    "service_request": "2022-892356",
    "request_type": "Trash/Recycling",
    "request_reason": "Replace Trash Cart",
    "date_created": "2022-06-16T15:56:15.000",
    "date_modified": "2022-06-16T15:56:16.000",
    "request_status": "Pending",
    "responsible_agency": "Department of Sanitation",
    "final_address": "1903 Fourth St Apt C",
    "address_councildis": "B",
    "status": "Assigned to Contractor",
    "contractor": "Richards Disposal",
    "rowid": "892356",
    "final_x": "3675614.68622",
    "final_y": "523684.777531",
    "longitude": "-90.08692316688636",
    "latitude": "29.9341287881539",
    "geocoded_column": {
      "latitude": "29.9341287881539",
      "longitude": "-90.08692316688636"
    }
  },
  {
    "service_request": "2022-892355",
    "request_type": "Traffic Signals/Signs/Striping/Streetlights",
    "request_reason": "Street Light Outage/Malfunction",
    "date_created": "2022-06-16T15:55:31.000",
    "date_modified": "2022-06-16T15:55:32.000",
    "request_status": "Pending",
    "responsible_agency": "Department of Public Works",
    "final_address": "TREME ST & ESPLANADE AVE",
    "address_councildis": "C",
    "status": "Pending",
    "contractor": "Royal Engineering",
    "rowid": "892355",
    "final_x": "3682281.8",
    "final_y": "535739.28",
    "longitude": "-90.06545426166295",
    "latitude": "29.967073499461097",
    "geocoded_column": {
      "latitude": "29.967073499461097",
      "longitude": "-90.06545426166295"
    }
  },
  {
    "service_request": "2022-892354",
    "request_type": "Trash/Recycling",
    "request_reason": "Replace Trash Cart",
    "date_created": "2022-06-16T15:54:58.000",
    "date_modified": "2022-06-16T15:54:59.000",
    "request_status": "Pending",
    "responsible_agency": "Department of Sanitation",
    "final_address": "1901 Fourth St",
    "address_councildis": "B",
    "status": "Assigned to Contractor",
    "contractor": "Richards Disposal",
    "rowid": "892354",
    "final_x": "3675591.54785",
    "final_y": "523659.428411",
    "longitude": "-90.08699708441615",
    "latitude": "29.934059778392328",
    "geocoded_column": {
      "latitude": "29.934059778392328",
      "longitude": "-90.08699708441615"
    }
  },
  {
    "service_request": "2022-892353",
    "request_type": "Trash/Recycling",
    "request_reason": "Repair Trash Cart",
    "date_created": "2022-06-16T15:52:22.000",
    "date_modified": "2022-06-16T15:52:23.000",
    "request_status": "Pending",
    "responsible_agency": "Department of Sanitation",
    "final_address": "4509 Constance St",
    "address_councildis": "B",
    "status": "Assigned to Contractor",
    "contractor": "Richards Disposal",
    "rowid": "892353",
    "final_x": "3670592.39911",
    "final_y": "518410.335862",
    "longitude": "-90.10295718453551",
    "latitude": "29.919775020508926",
    "geocoded_column": {
      "latitude": "29.919775020508926",
      "longitude": "-90.10295718453551"
    }
  },
  {
    "service_request": "2022-892352",
    "request_type": "Traffic Signals/Signs/Striping/Streetlights",
    "request_reason": "Traffic Signal Malfunctioning/Damaged",
    "date_created": "2022-06-16T15:51:20.000",
    "date_modified": "2022-06-16T15:51:21.000",
    "request_status": "Pending",
    "responsible_agency": "Department of Public Works",
    "final_address": "PRYTANIA ST & DELACHAISE ST",
    "address_councildis": "B",
    "status": "Pending",
    "rowid": "892352",
    "final_x": "3674057.4",
    "final_y": "520888.98",
    "longitude": "-90.09193509406776",
    "latitude": "29.92648773620191",
    "geocoded_column": {
      "latitude": "29.92648773620191",
      "longitude": "-90.09193509406776"
    }
  },
  {
    "service_request": "2022-892351",
    "request_type": "Trash/Recycling",
    "request_reason": "Illegal Dumping",
    "date_created": "2022-06-16T15:47:58.000",
    "date_modified": "2022-06-16T15:47:58.000",
    "request_status": "Pending",
    "responsible_agency": "Department of Code Enforcement",
    "final_address": "8827 Plum St",
    "address_councildis": "A",
    "status": "Pending",
    "rowid": "892351",
    "final_x": "3660211.39117",
    "final_y": "530491.026882",
    "longitude": "-90.13532643392307",
    "latitude": "29.953295540681772",
    "geocoded_column": {
      "latitude": "29.953295540681772",
      "longitude": "-90.13532643392307"
    }
  },
  {
    "service_request": "2022-892350",
    "request_type": "Abandoned Vehicles",
    "request_reason": "Abandoned/Junk Vehicles",
    "date_created": "2022-06-16T15:42:36.000",
    "date_modified": "2022-06-16T15:46:12.000",
    "request_status": "Pending",
    "responsible_agency": "Department of Public Works",
    "final_address": "6071 St Anthony Ave",
    "address_councildis": "D",
    "status": "Pending",
    "rowid": "892350",
    "final_x": "3682068.64405",
    "final_y": "555236.189017",
    "longitude": "-90.06544611403771",
    "latitude": "30.020689561602033",
    "geocoded_column": {
      "latitude": "30.020689561602033",
      "longitude": "-90.06544611403771"
    }
  },
  {
    "service_request": "2022-892349",
    "request_type": "Roads/Drainage",
    "request_reason": "Catch Basin - Clogged",
    "date_created": "2022-06-16T15:38:51.000",
    "date_modified": "2022-06-16T15:38:51.000",
    "request_status": "Pending",
    "responsible_agency": "Department of Public Works",
    "final_address": "1102 Napoleon Ave",
    "address_councildis": "B",
    "status": "Pending",
    "rowid": "892349",
    "final_x": "3670849.32795",
    "final_y": "519551.032375",
    "longitude": "-90.10210749471138",
    "latitude": "29.922903985104078",
    "geocoded_column": {
      "latitude": "29.922903985104078",
      "longitude": "-90.10210749471138"
    }
  },
  {
    "service_request": "2022-892348",
    "request_type": "Trash/Recycling",
    "request_reason": "Missed Trash Pick-Up",
    "date_created": "2022-06-16T15:36:46.000",
    "date_modified": "2022-06-16T15:36:47.000",
    "request_status": "Pending",
    "responsible_agency": "Department of Sanitation",
    "final_address": "2011 Camp St",
    "address_councildis": "B",
    "status": "Assigned to Contractor",
    "contractor": "Richards Disposal",
    "rowid": "892348",
    "final_x": "3679182.50933",
    "final_y": "522834.092603",
    "longitude": "-90.07568915396513",
    "latitude": "29.931682488155037",
    "geocoded_column": {
      "latitude": "29.931682488155037",
      "longitude": "-90.07568915396513"
    }
  },
  {
    "service_request": "2022-892347",
    "request_type": "Abandoned Vehicles",
    "request_reason": "Abandoned/Junk Vehicles",
    "date_created": "2022-06-16T15:35:30.000",
    "date_modified": "2022-06-16T15:36:36.000",
    "request_status": "Pending",
    "responsible_agency": "Department of Public Works",
    "final_address": "GENERAL OGDEN ST & PLUM ST",
    "address_councildis": "A",
    "status": "Pending",
    "rowid": "892347",
    "final_x": "3660112.9",
    "final_y": "530535.88",
    "longitude": "-90.13563594810138",
    "latitude": "29.95342170347353",
    "geocoded_column": {
      "latitude": "29.95342170347353",
      "longitude": "-90.13563594810138"
    }
  },
  {
    "service_request": "2022-892346",
    "request_type": "Trash/Recycling",
    "request_reason": "Request a Large Item Pick Up",
    "date_created": "2022-06-16T15:34:19.000",
    "date_modified": "2022-06-16T15:34:20.000",
    "request_status": "Pending",
    "responsible_agency": "Department of Sanitation",
    "final_address": "3723 Nashville Ave",
    "address_councildis": "A",
    "status": "Assigned to Contractor",
    "contractor": "Richards Disposal",
    "rowid": "892346",
    "final_x": "3668487.14113",
    "final_y": "529266.674433",
    "longitude": "-90.10923638795259",
    "latitude": "29.94968846130865",
    "geocoded_column": {
      "latitude": "29.94968846130865",
      "longitude": "-90.10923638795259"
    }
  },
  {
    "service_request": "2022-892345",
    "request_type": "Abandoned Vehicles",
    "request_reason": "Abandoned/Junk Vehicles",
    "date_created": "2022-06-16T15:34:14.000",
    "date_modified": "2022-06-16T15:34:14.000",
    "request_status": "Pending",
    "responsible_agency": "Department of Public Works",
    "final_address": "1211 Fourth St",
    "address_councildis": "B",
    "status": "Pending",
    "rowid": "892345",
    "final_x": "3677102.32104",
    "final_y": "521421.402745",
    "longitude": "-90.0823047677454",
    "latitude": "29.927860666872963",
    "geocoded_column": {
      "latitude": "29.927860666872963",
      "longitude": "-90.0823047677454"
    }
  },
  {
    "service_request": "2022-892344",
    "request_type": "Safety & Permits",
    "request_reason": "Short term Rental (Enforcement)",
    "date_created": "2022-06-16T15:32:07.000",
    "date_modified": "2022-06-16T15:32:07.000",
    "request_status": "Pending",
    "responsible_agency": "Safety and Permits",
    "final_address": "239 Decatur St",
    "address_councildis": "C",
    "status": "Pending",
    "rowid": "892344",
    "final_x": "3682195.63317",
    "final_y": "530830.069826",
    "longitude": "-90.06589786183099",
    "latitude": "29.95357746948798",
    "geocoded_column": {
      "latitude": "29.95357746948798",
      "longitude": "-90.06589786183099"
    }
  },
  {
    "service_request": "2022-892343",
    "request_type": "Trash/Recycling",
    "request_reason": "Missed Trash Pick-Up",
    "date_created": "2022-06-16T15:23:40.000",
    "date_modified": "2022-06-16T15:23:41.000",
    "request_status": "Pending",
    "responsible_agency": "Department of Sanitation",
    "final_address": "3009 Magazine St, New Orleans, Louisiana, 70115",
    "address_councildis": "B",
    "status": "Assigned to Contractor",
    "contractor": "Richards Disposal",
    "rowid": "892343",
    "final_x": "3676269.06728",
    "final_y": "520358.864504",
    "longitude": "-90.08497169993015",
    "latitude": "29.924964019679496",
    "geocoded_column": {
      "latitude": "29.924964019679496",
      "longitude": "-90.08497169993015"
    }
  },
  {
    "service_request": "2022-892342",
    "request_type": "Property Maintenance",
    "request_reason": "Property Maintenance",
    "date_created": "2022-06-16T15:12:45.000",
    "date_modified": "2022-06-16T15:12:45.000",
    "request_status": "Pending",
    "responsible_agency": "Department of Code Enforcement",
    "final_address": "1918 Onzaga St",
    "address_councildis": "D",
    "status": "Pending",
    "rowid": "892342",
    "final_x": "3681369.943",
    "final_y": "538761.029193",
    "longitude": "-90.06822855038578",
    "latitude": "29.975409978730752",
    "geocoded_column": {
      "latitude": "29.975409978730752",
      "longitude": "-90.06822855038578"
    }
  },
  {
    "service_request": "2022-892341",
    "request_type": "Property Maintenance",
    "request_reason": "Property Maintenance",
    "date_created": "2022-06-16T15:12:45.000",
    "date_modified": "2022-06-16T15:12:45.000",
    "request_status": "Pending",
    "responsible_agency": "Department of Code Enforcement",
    "final_address": "1918 Onzaga St",
    "address_councildis": "D",
    "status": "Pending",
    "rowid": "892341",
    "final_x": "3681369.943",
    "final_y": "538761.029193",
    "longitude": "-90.06822855038578",
    "latitude": "29.975409978730752",
    "geocoded_column": {
      "latitude": "29.975409978730752",
      "longitude": "-90.06822855038578"
    }
  },
  {
    "service_request": "2022-892340",
    "request_type": "Trash/Recycling",
    "request_reason": "Request a Large Item Pick Up",
    "date_created": "2022-06-16T15:11:10.000",
    "date_modified": "2022-06-16T15:11:11.000",
    "request_status": "Pending",
    "responsible_agency": "Department of Sanitation",
    "final_address": "4321 Dumaine St, New Orleans, Louisiana, 70119",
    "address_councildis": "A",
    "status": "Assigned to Contractor",
    "contractor": "Richards Disposal",
    "rowid": "892340",
    "final_x": "3672007.42523",
    "final_y": "541467.253708",
    "longitude": "-90.0977058072879",
    "latitude": "29.983132084840722",
    "geocoded_column": {
      "latitude": "29.983132084840722",
      "longitude": "-90.0977058072879"
    }
  },
  {
    "service_request": "2022-892339",
    "request_type": "Trash/Recycling",
    "request_reason": "Missed Trash Pick-Up",
    "date_created": "2022-06-16T15:02:59.000",
    "date_modified": "2022-06-16T15:03:01.000",
    "request_status": "Pending",
    "responsible_agency": "Department of Sanitation",
    "final_address": "7 Cypress Grove Ct",
    "address_councildis": "C",
    "status": "Assigned to Contractor",
    "contractor": "Richards Disposal",
    "rowid": "892339",
    "final_x": "3704775.66308",
    "final_y": "512220.755441",
    "longitude": "-89.99528635701827",
    "latitude": "29.901702267897317",
    "geocoded_column": {
      "latitude": "29.901702267897317",
      "longitude": "-89.99528635701827"
    }
  },
  {
    "service_request": "2022-892338",
    "request_type": "Trash/Recycling",
    "request_reason": "Repair Trash Cart",
    "date_created": "2022-06-16T14:59:12.000",
    "date_modified": "2022-06-16T14:59:13.000",
    "request_status": "Pending",
    "responsible_agency": "Department of Sanitation",
    "final_address": "6432 Argonne Blvd",
    "address_councildis": "A",
    "status": "Assigned to Contractor",
    "contractor": "Metro Disposal",
    "rowid": "892338",
    "final_x": "3670349.95271",
    "final_y": "550182.321172",
    "longitude": "-90.1026453221904",
    "latitude": "30.007144548909917",
    "geocoded_column": {
      "latitude": "30.007144548909917",
      "longitude": "-90.1026453221904"
    }
  },
  {
    "service_request": "2022-892337",
    "request_type": "Property Maintenance",
    "request_reason": "Property Maintenance",
    "date_created": "2022-06-16T14:57:42.000",
    "date_modified": "2022-06-16T14:57:43.000",
    "request_status": "Pending",
    "responsible_agency": "Department of Code Enforcement",
    "final_address": "4642 Perelli Dr",
    "address_councildis": "E",
    "status": "Pending",
    "rowid": "892337",
    "final_x": "3711692.18021",
    "final_y": "555407.116313",
    "longitude": "-89.97183903751684",
    "latitude": "30.020224979066633",
    "geocoded_column": {
      "latitude": "30.020224979066633",
      "longitude": "-89.97183903751684"
    }
  },
  {
    "service_request": "2022-892336",
    "request_type": "Roads/Drainage",
    "request_reason": "Accessibility Ramps, Curbs and Sidewalk Repair",
    "date_created": "2022-06-16T14:51:00.000",
    "date_modified": "2022-06-16T16:46:27.000",
    "request_status": "Pending",
    "responsible_agency": "Department of Public Works",
    "final_address": "New Orleans,LA",
    "address_councildis": "D",
    "rowid": "892336",
    "final_x": "3679165.83573",
    "final_y": "543021.065421",
    "longitude": "-90.07504196921981",
    "latitude": "29.987190328086964",
    "geocoded_column": {
      "latitude": "29.987190328086964",
      "longitude": "-90.07504196921981"
    }
  },
  {
    "service_request": "2022-892335",
    "request_type": "Trash/Recycling",
    "request_reason": "Repair Recycling Cart",
    "date_created": "2022-06-16T14:49:53.000",
    "date_modified": "2022-06-16T14:49:53.000",
    "case_close_date": "2022-06-15T19:00:00.000",
    "request_status": "Pending",
    "responsible_agency": "Department of Sanitation",
    "final_address": "5030 Willow St",
    "address_councildis": "B",
    "status": "Pending",
    "rowid": "892335",
    "final_x": "3668636.03399",
    "final_y": "525288.116989",
    "longitude": "-90.1089005013999",
    "latitude": "29.938744343783743",
    "geocoded_column": {
      "latitude": "29.938744343783743",
      "longitude": "-90.1089005013999"
    }
  },
  {
    "service_request": "2022-892334",
    "request_type": "Trash/Recycling",
    "request_reason": "Request a Large Item Pick Up",
    "date_created": "2022-06-16T14:49:39.000",
    "date_modified": "2022-06-16T14:49:40.000",
    "request_status": "Pending",
    "responsible_agency": "Department of Sanitation",
    "final_address": "126 N Solomon St",
    "address_councildis": "A",
    "status": "Assigned to Contractor",
    "contractor": "Richards Disposal",
    "rowid": "892334",
    "final_x": "3670776.78951",
    "final_y": "538931.177226",
    "longitude": "-90.10167889943484",
    "latitude": "29.976195168490353",
    "geocoded_column": {
      "latitude": "29.976195168490353",
      "longitude": "-90.10167889943484"
    }
  },
  {
    "service_request": "2022-892333",
    "request_type": "Roads/Drainage",
    "request_reason": "Damaged Sidewalk",
    "date_created": "2022-06-16T14:47:31.000",
    "date_modified": "2022-06-16T14:47:32.000",
    "request_status": "Pending",
    "responsible_agency": "Department of Public Works",
    "final_address": "3530 Kent Dr",
    "address_councildis": "C",
    "status": "Pending",
    "rowid": "892333",
    "final_x": "3708818.02052",
    "final_y": "517746.587574",
    "longitude": "-89.982323426124",
    "latitude": "29.91676597981674",
    "geocoded_column": {
      "latitude": "29.91676597981674",
      "longitude": "-89.982323426124"
    }
  },
  {
    "service_request": "2022-892332",
    "request_type": "Roads/Drainage",
    "request_reason": "Road Shoulder Repair",
    "date_created": "2022-06-16T14:45:58.000",
    "date_modified": "2022-06-16T14:45:58.000",
    "request_status": "Pending",
    "responsible_agency": "Department of Public Works",
    "final_address": "3530 Kent Dr",
    "address_councildis": "C",
    "status": "Pending",
    "rowid": "892332",
    "final_x": "3708818.02052",
    "final_y": "517746.587574",
    "longitude": "-89.982323426124",
    "latitude": "29.91676597981674",
    "geocoded_column": {
      "latitude": "29.91676597981674",
      "longitude": "-89.982323426124"
    }
  },
  {
    "service_request": "2022-892331",
    "request_type": "Roads/Drainage",
    "request_reason": "Road Shoulder Repair",
    "date_created": "2022-06-16T14:45:13.000",
    "date_modified": "2022-06-16T14:45:14.000",
    "request_status": "Pending",
    "responsible_agency": "Department of Public Works",
    "final_address": "3530 Kent Dr",
    "address_councildis": "C",
    "status": "Pending",
    "rowid": "892331",
    "final_x": "3708818.02052",
    "final_y": "517746.587574",
    "longitude": "-89.982323426124",
    "latitude": "29.91676597981674",
    "geocoded_column": {
      "latitude": "29.91676597981674",
      "longitude": "-89.982323426124"
    }
  },
  {
    "service_request": "2022-892330",
    "request_type": "Property Maintenance",
    "request_reason": "Property Maintenance",
    "date_created": "2022-06-16T14:44:15.000",
    "date_modified": "2022-06-16T14:44:15.000",
    "request_status": "Pending",
    "responsible_agency": "Department of Code Enforcement",
    "final_address": "7524 Oak St",
    "address_councildis": "A",
    "status": "Pending",
    "rowid": "892330",
    "final_x": "3663343.86483",
    "final_y": "527075.703998",
    "longitude": "-90.12554905279262",
    "latitude": "29.94381407531962",
    "geocoded_column": {
      "latitude": "29.94381407531962",
      "longitude": "-90.12554905279262"
    }
  },
  {
    "service_request": "2022-892328",
    "request_type": "Trash/Recycling",
    "request_reason": "Replace Trash Cart",
    "date_created": "2022-06-16T14:31:40.000",
    "date_modified": "2022-06-16T14:31:40.000",
    "request_status": "Pending",
    "responsible_agency": "Department of Sanitation",
    "final_address": "4910 Spain St",
    "address_councildis": "D",
    "status": "Assigned to Contractor",
    "contractor": "Metro Disposal",
    "rowid": "892328",
    "final_x": "3684905.93583",
    "final_y": "550887.065493",
    "longitude": "-90.05663424020285",
    "latitude": "30.008644434072355",
    "geocoded_column": {
      "latitude": "30.008644434072355",
      "longitude": "-90.05663424020285"
    }
  },
  {
    "service_request": "2022-892327",
    "request_type": "Trash/Recycling",
    "request_reason": "Illegal Dumping",
    "date_created": "2022-06-16T14:27:49.000",
    "date_modified": "2022-06-16T14:27:49.000",
    "request_status": "Pending",
    "responsible_agency": "Department of Sanitation",
    "final_address": "8929 Palm St",
    "address_councildis": "A",
    "status": "Pending",
    "rowid": "892327",
    "final_x": "3665468.51565",
    "final_y": "536794.811464",
    "longitude": "-90.11851559741906",
    "latitude": "29.970476696636005",
    "geocoded_column": {
      "latitude": "29.970476696636005",
      "longitude": "-90.11851559741906"
    }
  },
  {
    "service_request": "2022-892326",
    "request_type": "Trash/Recycling",
    "request_reason": "Request a Large Item Pick Up",
    "date_created": "2022-06-16T14:27:18.000",
    "date_modified": "2022-06-16T14:27:19.000",
    "request_status": "Pending",
    "responsible_agency": "Department of Sanitation",
    "final_address": "1603 France St",
    "address_councildis": "D",
    "status": "Assigned to Contractor",
    "contractor": "Metro Disposal",
    "rowid": "892326",
    "final_x": "3692892.33987",
    "final_y": "537063.931272",
    "longitude": "-90.03189873801516",
    "latitude": "29.970388729086643",
    "geocoded_column": {
      "latitude": "29.970388729086643",
      "longitude": "-90.03189873801516"
    }
  },
  {
    "service_request": "2022-892325",
    "request_type": "Roads/Drainage",
    "request_reason": "Street Flooding / Drainage",
    "date_created": "2022-06-16T14:23:50.000",
    "date_modified": "2022-06-16T14:23:50.000",
    "request_status": "Pending",
    "responsible_agency": "Department of Public Works",
    "final_address": "2614 Magnolia St",
    "address_councildis": "B",
    "status": "Pending",
    "rowid": "892325",
    "final_x": "3674179.60468",
    "final_y": "526062.194686",
    "longitude": "-90.09137232414128",
    "latitude": "29.940708755145405",
    "geocoded_column": {
      "latitude": "29.940708755145405",
      "longitude": "-90.09137232414128"
    }
  },
  {
    "service_request": "2022-892324",
    "request_type": "Trash/Recycling",
    "request_reason": "Repair Trash Cart",
    "date_created": "2022-06-16T14:20:22.000",
    "date_modified": "2022-06-16T14:20:23.000",
    "request_status": "Pending",
    "responsible_agency": "Department of Sanitation",
    "final_address": "11230 Lake Forest Blvd",
    "address_councildis": "E",
    "status": "Assigned to Contractor",
    "contractor": "Metro Disposal",
    "rowid": "892324",
    "final_x": "3716133.68543",
    "final_y": "561500.474783",
    "longitude": "-89.95757426272733",
    "latitude": "30.03683342288048",
    "geocoded_column": {
      "latitude": "30.03683342288048",
      "longitude": "-89.95757426272733"
    }
  },
  {
    "service_request": "2022-892323",
    "request_type": "Safety & Permits",
    "request_reason": "Licenses & Permits",
    "date_created": "2022-06-16T14:15:28.000",
    "date_modified": "2022-06-16T14:15:28.000",
    "request_status": "Pending",
    "responsible_agency": "Safety and Permits",
    "final_address": "1727 Audubon St",
    "address_councildis": "A",
    "status": "Pending",
    "rowid": "892323",
    "final_x": "3665556.77184",
    "final_y": "527965.128255",
    "longitude": "-90.11853250721391",
    "latitude": "29.946195383026556",
    "geocoded_column": {
      "latitude": "29.946195383026556",
      "longitude": "-90.11853250721391"
    }
  },
  {
    "service_request": "2022-892322",
    "request_type": "Trash/Recycling",
    "request_reason": "Request a Large Item Pick Up",
    "date_created": "2022-06-16T14:15:08.000",
    "date_modified": "2022-06-16T14:15:09.000",
    "request_status": "Pending",
    "responsible_agency": "Department of Sanitation",
    "final_address": "7818 Hampson St Apt A",
    "address_councildis": "A",
    "status": "Assigned to Contractor",
    "contractor": "Richards Disposal",
    "rowid": "892322",
    "final_x": "3661481.55021",
    "final_y": "526416.539902",
    "longitude": "-90.13145074382527",
    "latitude": "29.94205542809923",
    "geocoded_column": {
      "latitude": "29.94205542809923",
      "longitude": "-90.13145074382527"
    }
  },
  {
    "service_request": "2022-892321",
    "request_type": "Traffic Signals/Signs/Striping/Streetlights",
    "request_reason": "Street Light Outage/Malfunction",
    "date_created": "2022-06-16T14:14:29.000",
    "date_modified": "2022-06-16T14:14:30.000",
    "request_status": "Pending",
    "responsible_agency": "Department of Public Works",
    "final_address": "1400 Washington Ave",
    "address_councildis": "B",
    "status": "Pending",
    "contractor": "Royal Engineering",
    "rowid": "892321",
    "final_x": "3676129.13493",
    "final_y": "521745.065082",
    "longitude": "-90.08536576324735",
    "latitude": "29.928779813350516",
    "geocoded_column": {
      "latitude": "29.928779813350516",
      "longitude": "-90.08536576324735"
    }
  },
  {
    "service_request": "2022-892320",
    "request_type": "Traffic Signals/Signs/Striping/Streetlights",
    "request_reason": "Street Light Outage/Malfunction",
    "date_created": "2022-06-16T14:12:19.000",
    "date_modified": "2022-06-16T14:12:19.000",
    "request_status": "Pending",
    "responsible_agency": "Department of Public Works",
    "final_address": "1602 Washington Ave",
    "address_councildis": "B",
    "status": "Pending",
    "contractor": "Royal Engineering",
    "rowid": "892320",
    "final_x": "3675820.33672",
    "final_y": "522613.372026",
    "longitude": "-90.08631074567923",
    "latitude": "29.931176619483697",
    "geocoded_column": {
      "latitude": "29.931176619483697",
      "longitude": "-90.08631074567923"
    }
  },
  {
    "service_request": "2022-892319",
    "request_type": "Traffic Signals/Signs/Striping/Streetlights",
    "request_reason": "Additional signage",
    "date_created": "2022-06-16T14:10:15.000",
    "date_modified": "2022-06-16T14:10:15.000",
    "request_status": "Pending",
    "responsible_agency": "Department of Public Works",
    "final_address": "MONTICELLO AVE & PRITCHARD PL",
    "address_councildis": "A",
    "status": "Pending",
    "rowid": "892319",
    "final_x": "3662609.3",
    "final_y": "536032.98",
    "longitude": "-90.12757068855134",
    "latitude": "29.968464952479756",
    "geocoded_column": {
      "latitude": "29.968464952479756",
      "longitude": "-90.12757068855134"
    }
  },
  {
    "service_request": "2022-892318",
    "request_type": "Trash/Recycling",
    "request_reason": "Request a Large Item Pick Up",
    "date_created": "2022-06-16T14:09:35.000",
    "date_modified": "2022-06-16T14:09:36.000",
    "request_status": "Pending",
    "responsible_agency": "Department of Sanitation",
    "final_address": "5119 Coliseum St",
    "address_councildis": "B",
    "status": "Assigned to Contractor",
    "contractor": "Richards Disposal",
    "rowid": "892318",
    "final_x": "3668209.2585",
    "final_y": "519691.775544",
    "longitude": "-90.11043644755027",
    "latitude": "29.923368723214477",
    "geocoded_column": {
      "latitude": "29.923368723214477",
      "longitude": "-90.11043644755027"
    }
  },
  {
    "service_request": "2022-892317",
    "request_type": "Traffic Signals/Signs/Striping/Streetlights",
    "request_reason": "Street Light Outage/Malfunction",
    "date_created": "2022-06-16T14:09:03.000",
    "date_modified": "2022-06-16T14:09:04.000",
    "request_status": "Pending",
    "responsible_agency": "Department of Public Works",
    "final_address": "1301 Fourth St",
    "address_councildis": "B",
    "status": "Pending",
    "contractor": "Royal Engineering",
    "rowid": "892317",
    "final_x": "3676881.9131",
    "final_y": "521738.156922",
    "longitude": "-90.08298963332838",
    "latitude": "29.928738252885616",
    "geocoded_column": {
      "latitude": "29.928738252885616",
      "longitude": "-90.08298963332838"
    }
  },
  {
    "service_request": "2022-892316",
    "request_type": "Traffic Signals/Signs/Striping/Streetlights",
    "request_reason": "Street Light Outage/Malfunction",
    "date_created": "2022-06-16T14:07:44.000",
    "date_modified": "2022-06-16T14:07:45.000",
    "request_status": "Pending",
    "responsible_agency": "Department of Public Works",
    "final_address": "7001 Argonne Blvd",
    "address_councildis": "A",
    "status": "Pending",
    "contractor": "Royal Engineering",
    "rowid": "892316",
    "final_x": "3670831.58932",
    "final_y": "553889.032535",
    "longitude": "-90.10099775075899",
    "latitude": "30.0173224626137",
    "geocoded_column": {
      "latitude": "30.0173224626137",
      "longitude": "-90.10099775075899"
    }
  },
  {
    "service_request": "2022-892315",
    "request_type": "Trash/Recycling",
    "request_reason": "Missed Trash Pick-Up",
    "date_created": "2022-06-16T14:06:58.000",
    "date_modified": "2022-06-16T14:06:58.000",
    "request_status": "Pending",
    "responsible_agency": "Department of Sanitation",
    "final_address": "939 Seventh St",
    "address_councildis": "B",
    "status": "Assigned to Contractor",
    "contractor": "Richards Disposal",
    "rowid": "892315",
    "final_x": "3676639.38568",
    "final_y": "520053.925048",
    "longitude": "-90.08381322144345",
    "latitude": "29.924114436043542",
    "geocoded_column": {
      "latitude": "29.924114436043542",
      "longitude": "-90.08381322144345"
    }
  },
  {
    "service_request": "2022-892314",
    "request_type": "Traffic Signals/Signs/Striping/Streetlights",
    "request_reason": "Street Light Outage/Malfunction",
    "date_created": "2022-06-16T14:04:54.000",
    "date_modified": "2022-06-16T14:04:55.000",
    "request_status": "Pending",
    "responsible_agency": "Department of Public Works",
    "final_address": "1401 Fourth St",
    "address_councildis": "B",
    "status": "Pending",
    "contractor": "Royal Engineering",
    "rowid": "892314",
    "final_x": "3676753.03425",
    "final_y": "522070.57241",
    "longitude": "-90.08338503044564",
    "latitude": "29.929656153643013",
    "geocoded_column": {
      "latitude": "29.929656153643013",
      "longitude": "-90.08338503044564"
    }
  },
  {
    "service_request": "2022-892313",
    "request_type": "Trash/Recycling",
    "request_reason": "Request a Large Item Pick Up",
    "date_created": "2022-06-16T14:04:31.000",
    "date_modified": "2022-06-16T14:04:31.000",
    "request_status": "Pending",
    "responsible_agency": "Department of Sanitation",
    "final_address": "9800 E Rockton Cir",
    "address_councildis": "E",
    "status": "Assigned to Contractor",
    "contractor": "Metro Disposal",
    "rowid": "892313",
    "final_x": "3708247.24696",
    "final_y": "562988.954848",
    "longitude": "-89.98244142473779",
    "latitude": "30.04118415198417",
    "geocoded_column": {
      "latitude": "30.04118415198417",
      "longitude": "-89.98244142473779"
    }
  },
  {
    "service_request": "2022-892312",
    "request_type": "Property Maintenance",
    "request_reason": "Property Maintenance",
    "date_created": "2022-06-16T14:04:16.000",
    "date_modified": "2022-06-16T14:04:16.000",
    "request_status": "Pending",
    "responsible_agency": "Department of Code Enforcement",
    "final_address": "2619 Vienna St",
    "address_councildis": "D",
    "status": "Pending",
    "rowid": "892312",
    "final_x": "3686616.25417",
    "final_y": "555253.537305",
    "longitude": "-90.05107643095891",
    "latitude": "30.02059811761947",
    "geocoded_column": {
      "latitude": "30.02059811761947",
      "longitude": "-90.05107643095891"
    }
  },
  {
    "service_request": "2022-892311",
    "request_type": "Traffic Signals/Signs/Striping/Streetlights",
    "request_reason": "Street Light Outage/Malfunction",
    "date_created": "2022-06-16T14:00:00.000",
    "date_modified": "2022-06-16T14:00:01.000",
    "request_status": "Pending",
    "responsible_agency": "Department of Public Works",
    "final_address": "1538 Fourth St",
    "address_councildis": "B",
    "status": "Pending",
    "contractor": "Royal Engineering",
    "rowid": "892311",
    "final_x": "3676234.72405",
    "final_y": "522472.433978",
    "longitude": "-90.08500742450362",
    "latitude": "29.93077667877585",
    "geocoded_column": {
      "latitude": "29.93077667877585",
      "longitude": "-90.08500742450362"
    }
  },
  {
    "service_request": "2022-892310",
    "request_type": "Trash/Recycling",
    "request_reason": "Dead Animal Pick Up",
    "date_created": "2022-06-16T13:58:54.000",
    "date_modified": "2022-06-16T13:58:55.000",
    "request_status": "Pending",
    "responsible_agency": "Department of Sanitation",
    "final_address": "3909 Piedmont Dr",
    "address_councildis": "D",
    "status": "Assigned to Contractor",
    "contractor": "Metro Disposal",
    "rowid": "892310",
    "final_x": "3685512.1407",
    "final_y": "547033.726737",
    "longitude": "-90.05485487857679",
    "latitude": "29.998030560494815",
    "geocoded_column": {
      "latitude": "29.998030560494815",
      "longitude": "-90.05485487857679"
    }
  },
  {
    "service_request": "2022-892308",
    "request_type": "Trash/Recycling",
    "request_reason": "Illegal Dumping",
    "date_created": "2022-06-16T13:57:12.000",
    "date_modified": "2022-06-16T13:57:13.000",
    "request_status": "Pending",
    "responsible_agency": "Department of Code Enforcement",
    "final_address": "PORT ST & N DERBIGNY ST",
    "address_councildis": "D",
    "status": "Pending",
    "rowid": "892308",
    "final_x": "3687993.7",
    "final_y": "538635.68",
    "longitude": "-90.0473134357634",
    "latitude": "29.974862562691897",
    "geocoded_column": {
      "latitude": "29.974862562691897",
      "longitude": "-90.0473134357634"
    }
  },
  {
    "service_request": "2022-892307",
    "request_type": "Traffic Signals/Signs/Striping/Streetlights",
    "request_reason": "Street Light Outage/Malfunction",
    "date_created": "2022-06-16T13:54:55.000",
    "date_modified": "2022-06-16T13:54:56.000",
    "request_status": "Pending",
    "responsible_agency": "Department of Public Works",
    "final_address": "1100 Third St",
    "address_councildis": "B",
    "status": "Pending",
    "contractor": "Royal Engineering",
    "rowid": "892307",
    "final_x": "3677497.28302",
    "final_y": "521187.285241",
    "longitude": "-90.08106604163717",
    "latitude": "29.92720505687332",
    "geocoded_column": {
      "latitude": "29.92720505687332",
      "longitude": "-90.08106604163717"
    }
  },
  {
    "service_request": "2022-892306",
    "request_type": "Trash/Recycling",
    "request_reason": "Request a Large Item Pick Up",
    "date_created": "2022-06-16T13:54:10.000",
    "date_modified": "2022-06-16T13:54:11.000",
    "request_status": "Pending",
    "responsible_agency": "Department of Sanitation",
    "final_address": "124 S Telemachus St",
    "address_councildis": "B",
    "status": "Assigned to Contractor",
    "contractor": "Richards Disposal",
    "rowid": "892306",
    "final_x": "3672246.68206",
    "final_y": "537151.440904",
    "longitude": "-90.09709717916904",
    "latitude": "29.971257970348507",
    "geocoded_column": {
      "latitude": "29.971257970348507",
      "longitude": "-90.09709717916904"
    }
  },
  {
    "service_request": "2022-892305",
    "request_type": "Traffic Signals/Signs/Striping/Streetlights",
    "request_reason": "Street Light Outage/Malfunction",
    "date_created": "2022-06-16T13:51:59.000",
    "date_modified": "2022-06-16T13:52:01.000",
    "request_status": "Pending",
    "responsible_agency": "Department of Public Works",
    "final_address": "1500 Third St",
    "address_councildis": "B",
    "status": "Pending",
    "contractor": "Royal Engineering",
    "rowid": "892305",
    "final_x": "3676616.46747",
    "final_y": "522502.10137",
    "longitude": "-90.083801292499",
    "latitude": "29.930846813385227",
    "geocoded_column": {
      "latitude": "29.930846813385227",
      "longitude": "-90.083801292499"
    }
  },
  {
    "service_request": "2022-892304",
    "request_type": "Abandoned Vehicles",
    "request_reason": "Abandoned/Junk Vehicles",
    "date_created": "2022-06-16T13:49:42.000",
    "date_modified": "2022-06-16T13:49:42.000",
    "request_status": "Pending",
    "responsible_agency": "Department of Public Works",
    "final_address": "1805 Port St",
    "address_councildis": "D",
    "status": "Pending",
    "rowid": "892304",
    "final_x": "3688139.42255",
    "final_y": "539079.26881",
    "longitude": "-90.04683747899993",
    "latitude": "29.976077777691856",
    "geocoded_column": {
      "latitude": "29.976077777691856",
      "longitude": "-90.04683747899993"
    }
  },
  {
    "service_request": "2022-892303",
    "request_type": "Roads/Drainage",
    "request_reason": "Damaged Sidewalk",
    "date_created": "2022-06-16T13:48:29.000",
    "date_modified": "2022-06-16T13:48:29.000",
    "request_status": "Pending",
    "responsible_agency": "Department of Public Works",
    "final_address": "3122 Hamilton St",
    "address_councildis": "A",
    "status": "Pending",
    "rowid": "892303",
    "final_x": "3664036.48359",
    "final_y": "535942.806919",
    "longitude": "-90.12306655849386",
    "latitude": "29.96817563412154",
    "geocoded_column": {
      "latitude": "29.96817563412154",
      "longitude": "-90.12306655849386"
    }
  },
  {
    "service_request": "2022-892302",
    "request_type": "Trash/Recycling",
    "request_reason": "Request a Large Item Pick Up",
    "date_created": "2022-06-16T13:46:16.000",
    "date_modified": "2022-06-16T13:47:08.000",
    "request_status": "Pending",
    "responsible_agency": "Department of Sanitation",
    "final_address": "2912 St Andrew St",
    "address_councildis": "B",
    "status": "Assigned to Contractor",
    "contractor": "Richards Disposal",
    "rowid": "892302",
    "final_x": "3675149.04949",
    "final_y": "527716.635071",
    "longitude": "-90.08825485896732",
    "latitude": "29.945228993521727",
    "geocoded_column": {
      "latitude": "29.945228993521727",
      "longitude": "-90.08825485896732"
    }
  },
  {
    "service_request": "2022-892301",
    "request_type": "Trash/Recycling",
    "request_reason": "Request a Large Item Pick Up",
    "date_created": "2022-06-16T13:45:37.000",
    "date_modified": "2022-06-16T13:45:37.000",
    "request_status": "Pending",
    "responsible_agency": "Department of Sanitation",
    "final_address": "2910 St Andrew St",
    "address_councildis": "B",
    "status": "Assigned to Contractor",
    "contractor": "Richards Disposal",
    "rowid": "892301",
    "final_x": "3675158.32693",
    "final_y": "527705.037375",
    "longitude": "-90.08822596502901",
    "latitude": "29.945196826488655",
    "geocoded_column": {
      "latitude": "29.945196826488655",
      "longitude": "-90.08822596502901"
    }
  },
  {
    "service_request": "2022-892300",
    "request_type": "Property Maintenance",
    "request_reason": "Property Maintenance",
    "date_created": "2022-06-16T13:44:41.000",
    "date_modified": "2022-06-16T13:44:41.000",
    "request_status": "Pending",
    "responsible_agency": "Department of Code Enforcement",
    "final_address": "37 Joyce Ave, New Orleans, Louisiana, 70121",
    "status": "Pending",
    "rowid": "892300",
    "longitude": "0.0",
    "latitude": "0.0",
    "geocoded_column": {
      "latitude": "0.0",
      "longitude": "0.0"
    }
  },
  {
    "service_request": "2022-892299",
    "request_type": "Trash/Recycling",
    "request_reason": "Missed Trash Pick-Up",
    "date_created": "2022-06-16T13:39:44.000",
    "date_modified": "2022-06-16T13:39:44.000",
    "request_status": "Pending",
    "responsible_agency": "Department of Sanitation",
    "final_address": "2525 Banks St",
    "address_councildis": "B",
    "status": "Assigned to Contractor",
    "contractor": "Richards Disposal",
    "rowid": "892299",
    "final_x": "3675251.34433",
    "final_y": "533740.646021",
    "longitude": "-90.08772512410714",
    "latitude": "29.96178996000614",
    "geocoded_column": {
      "latitude": "29.96178996000614",
      "longitude": "-90.08772512410714"
    }
  },
  {
    "service_request": "2022-892298",
    "request_type": "Abandoned Vehicles",
    "request_reason": "Abandoned/Junk Vehicles",
    "date_created": "2022-06-16T13:37:29.000",
    "date_modified": "2022-06-16T16:58:55.000",
    "request_status": "Pending",
    "responsible_agency": "Department of Public Works",
    "final_address": "New Orleans,LA",
    "address_councildis": "D",
    "rowid": "892298",
    "final_x": "3695493.3",
    "final_y": "555894.18",
    "longitude": "-90.02300461168633",
    "latitude": "30.022083509888393",
    "geocoded_column": {
      "latitude": "30.022083509888393",
      "longitude": "-90.02300461168633"
    }
  },
  {
    "service_request": "2022-892297",
    "request_type": "Traffic Signals/Signs/Striping/Streetlights",
    "request_reason": "Street Name Sign Damaged or Missing",
    "date_created": "2022-06-16T13:26:17.000",
    "date_modified": "2022-06-16T13:26:34.000",
    "request_status": "Pending",
    "responsible_agency": "Department of Public Works",
    "final_address": "DANBURY DR & ETON ST & RHODES AVE",
    "address_councildis": "C",
    "status": "Pending",
    "rowid": "892297",
    "final_x": "3703881.9",
    "final_y": "519968.88",
    "longitude": "-89.99782199508005",
    "latitude": "29.92303562369676",
    "geocoded_column": {
      "latitude": "29.92303562369676",
      "longitude": "-89.99782199508005"
    }
  },
  {
    "service_request": "2022-892296",
    "request_type": "Traffic Signals/Signs/Striping/Streetlights",
    "request_reason": "Street Light Outage/Malfunction",
    "date_created": "2022-06-16T13:23:49.000",
    "date_modified": "2022-06-16T13:23:49.000",
    "request_status": "Pending",
    "responsible_agency": "Department of Public Works",
    "final_address": "5415 Rhodes Ave",
    "address_councildis": "C",
    "status": "Pending",
    "contractor": "Royal Engineering",
    "rowid": "892296",
    "final_x": "3704055.79985",
    "final_y": "519864.155512",
    "longitude": "-89.99727691928692",
    "latitude": "29.922742093311456",
    "geocoded_column": {
      "latitude": "29.922742093311456",
      "longitude": "-89.99727691928692"
    }
  },
  {
    "service_request": "2022-892295",
    "request_type": "Traffic Signals/Signs/Striping/Streetlights",
    "request_reason": "Street Light Outage/Malfunction",
    "date_created": "2022-06-16T13:20:06.000",
    "date_modified": "2022-06-16T13:20:07.000",
    "request_status": "Pending",
    "responsible_agency": "Department of Public Works",
    "final_address": "5415 Rhodes Ave",
    "address_councildis": "C",
    "status": "Pending",
    "contractor": "Royal Engineering",
    "rowid": "892295",
    "final_x": "3704055.79985",
    "final_y": "519864.155512",
    "longitude": "-89.99727691928692",
    "latitude": "29.922742093311456",
    "geocoded_column": {
      "latitude": "29.922742093311456",
      "longitude": "-89.99727691928692"
    }
  },
  {
    "service_request": "2022-892294",
    "request_type": "Traffic Signals/Signs/Striping/Streetlights",
    "request_reason": "Street Light Outage/Malfunction",
    "date_created": "2022-06-16T13:18:16.000",
    "date_modified": "2022-06-16T13:18:16.000",
    "request_status": "Pending",
    "responsible_agency": "Department of Public Works",
    "final_address": "1101 Philip St",
    "address_councildis": "B",
    "status": "Pending",
    "contractor": "Royal Engineering",
    "rowid": "892294",
    "final_x": "3678547.80706",
    "final_y": "521896.275386",
    "longitude": "-90.0777252794287",
    "latitude": "29.929122937576615",
    "geocoded_column": {
      "latitude": "29.929122937576615",
      "longitude": "-90.0777252794287"
    }
  },
  {
    "service_request": "2022-892293",
    "request_type": "Trash/Recycling",
    "request_reason": "Missed Trash Pick-Up",
    "date_created": "2022-06-16T13:17:36.000",
    "date_modified": "2022-06-16T13:17:37.000",
    "request_status": "Pending",
    "responsible_agency": "Department of Sanitation",
    "final_address": "1915 Philip St",
    "address_councildis": "B",
    "status": "Assigned to Contractor",
    "contractor": "Richards Disposal",
    "rowid": "892293",
    "final_x": "3676400.06331",
    "final_y": "524518.256188",
    "longitude": "-90.08441507795172",
    "latitude": "29.93639706763835",
    "geocoded_column": {
      "latitude": "29.93639706763835",
      "longitude": "-90.08441507795172"
    }
  },
  {
    "service_request": "2022-892292",
    "request_type": "Trash/Recycling",
    "request_reason": "Repair Recycling Cart",
    "date_created": "2022-06-16T13:16:34.000",
    "date_modified": "2022-06-16T13:16:34.000",
    "request_status": "Pending",
    "responsible_agency": "Department of Sanitation",
    "final_address": "5319 Annunciation St",
    "address_councildis": "B",
    "status": "Pending",
    "rowid": "892292",
    "final_x": "3667182.73997",
    "final_y": "517618.702262",
    "longitude": "-90.11374644276476",
    "latitude": "29.91769850776001",
    "geocoded_column": {
      "latitude": "29.91769850776001",
      "longitude": "-90.11374644276476"
    }
  },
  {
    "service_request": "2022-892291",
    "request_type": "Trash/Recycling",
    "request_reason": "MIssed Recycling Pick-Up",
    "date_created": "2022-06-16T13:16:10.000",
    "date_modified": "2022-06-16T13:16:10.000",
    "request_status": "Pending",
    "responsible_agency": "Department of Sanitation",
    "final_address": "2134 Magazine St",
    "address_councildis": "B",
    "status": "Assigned to Contractor",
    "contractor": "Richards Disposal",
    "rowid": "892291",
    "final_x": "3678967.57442",
    "final_y": "522102.98137",
    "longitude": "-90.07639299736117",
    "latitude": "29.929678656778812",
    "geocoded_column": {
      "latitude": "29.929678656778812",
      "longitude": "-90.07639299736117"
    }
  },
  {
    "service_request": "2022-892290",
    "request_type": "Abandoned Vehicles",
    "request_reason": "Abandoned/Junk Vehicles",
    "date_created": "2022-06-16T13:12:39.000",
    "date_modified": "2022-06-16T13:12:39.000",
    "request_status": "Pending",
    "responsible_agency": "Department of Public Works",
    "final_address": "7740 Windward Ct",
    "address_councildis": "E",
    "status": "Pending",
    "rowid": "892290",
    "final_x": "3715359.65272",
    "final_y": "569918.62071",
    "longitude": "-89.95970142784209",
    "latitude": "30.060005420861092",
    "geocoded_column": {
      "latitude": "30.060005420861092",
      "longitude": "-89.95970142784209"
    }
  },
  {
    "service_request": "2022-892289",
    "request_type": "Trash/Recycling",
    "request_reason": "Missed Trash Pick-Up",
    "date_created": "2022-06-16T13:11:06.000",
    "date_modified": "2022-06-16T13:11:07.000",
    "request_status": "Pending",
    "responsible_agency": "Department of Sanitation",
    "final_address": "5781 Tullis Dr",
    "address_councildis": "C",
    "status": "Assigned to Contractor",
    "contractor": "Richards Disposal",
    "rowid": "892289",
    "final_x": "3705527.04638",
    "final_y": "512801.376113",
    "longitude": "-89.99289362088477",
    "latitude": "29.903274629326372",
    "geocoded_column": {
      "latitude": "29.903274629326372",
      "longitude": "-89.99289362088477"
    }
  },
  {
    "service_request": "2022-892288",
    "request_type": "Traffic Signals/Signs/Striping/Streetlights",
    "request_reason": "Street Light Outage/Malfunction",
    "date_created": "2022-06-16T13:09:13.000",
    "date_modified": "2022-06-16T13:09:14.000",
    "request_status": "Pending",
    "responsible_agency": "Department of Public Works",
    "final_address": "1400 Jackson Ave",
    "address_councildis": "B",
    "status": "Pending",
    "contractor": "Royal Engineering",
    "rowid": "892288",
    "final_x": "3678052.99752",
    "final_y": "522875.906363",
    "longitude": "-90.07925345120495",
    "latitude": "29.931831502276587",
    "geocoded_column": {
      "latitude": "29.931831502276587",
      "longitude": "-90.07925345120495"
    }
  },
  {
    "service_request": "2022-892287",
    "request_type": "Roads/Drainage",
    "request_reason": "Pothole",
    "date_created": "2022-06-16T13:08:27.000",
    "date_modified": "2022-06-16T13:08:28.000",
    "request_status": "Pending",
    "responsible_agency": "Department of Public Works",
    "final_address": "4900 BLK Piety Dr",
    "address_councildis": "D",
    "status": "Pending",
    "rowid": "892287",
    "final_x": "3691328.98607",
    "final_y": "552179.764523",
    "longitude": "-90.03629559924971",
    "latitude": "30.01200053450968",
    "geocoded_column": {
      "latitude": "30.01200053450968",
      "longitude": "-90.03629559924971"
    }
  },
  {
    "service_request": "2022-892285",
    "request_type": "Traffic Signals/Signs/Striping/Streetlights",
    "request_reason": "Street Light Outage/Malfunction",
    "date_created": "2022-06-16T13:02:00.000",
    "date_modified": "2022-06-16T13:02:00.000",
    "request_status": "Pending",
    "responsible_agency": "Department of Public Works",
    "final_address": "1128 Josephine St",
    "address_councildis": "B",
    "status": "Pending",
    "contractor": "Royal Engineering",
    "rowid": "892285",
    "final_x": "3678975.962",
    "final_y": "522501.518202",
    "longitude": "-90.07635271785165",
    "latitude": "29.930774249526056",
    "geocoded_column": {
      "latitude": "29.930774249526056",
      "longitude": "-90.07635271785165"
    }
  },
  {
    "service_request": "2022-892284",
    "request_type": "Mayor's Request",
    "request_reason": "Requests to the Mayor",
    "date_created": "2022-06-16T13:00:01.000",
    "date_modified": "2022-06-16T13:00:01.000",
    "request_status": "Pending",
    "responsible_agency": "Executive Office of the Mayor",
    "final_address": "3234 Jackson Ave",
    "address_councildis": "B",
    "status": "Pending",
    "rowid": "892284",
    "final_x": "3673723.64718",
    "final_y": "528705.350528",
    "longitude": "-90.09272151178472",
    "latitude": "29.947990146798244",
    "geocoded_column": {
      "latitude": "29.947990146798244",
      "longitude": "-90.09272151178472"
    }
  },
  {
    "service_request": "2022-892283",
    "request_type": "Trash/Recycling",
    "request_reason": "Request a Large Item Pick Up",
    "date_created": "2022-06-16T12:59:55.000",
    "date_modified": "2022-06-16T12:59:56.000",
    "request_status": "Pending",
    "responsible_agency": "Department of Sanitation",
    "final_address": "4016 Prytania St",
    "address_councildis": "B",
    "status": "Assigned to Contractor",
    "contractor": "Richards Disposal",
    "rowid": "892283",
    "final_x": "3672246.63355",
    "final_y": "520407.261048",
    "longitude": "-90.0976675914999",
    "latitude": "29.925216981727118",
    "geocoded_column": {
      "latitude": "29.925216981727118",
      "longitude": "-90.0976675914999"
    }
  },
  {
    "service_request": "2022-892282",
    "request_type": "Traffic Signals/Signs/Striping/Streetlights",
    "request_reason": "Striping/Road Surface Markings",
    "date_created": "2022-06-16T12:53:22.000",
    "date_modified": "2022-06-16T12:53:22.000",
    "request_status": "Pending",
    "responsible_agency": "Department of Public Works",
    "final_address": "519 Seguin St",
    "address_councildis": "C",
    "status": "Pending",
    "rowid": "892282",
    "final_x": "3686489.03958",
    "final_y": "529812.041217",
    "longitude": "-90.05237705661858",
    "latitude": "29.950646958662315",
    "geocoded_column": {
      "latitude": "29.950646958662315",
      "longitude": "-90.05237705661858"
    }
  },
  {
    "service_request": "2022-892281",
    "request_type": "Property Maintenance",
    "request_reason": "Property Maintenance",
    "date_created": "2022-06-16T12:49:22.000",
    "date_modified": "2022-06-16T12:49:23.000",
    "request_status": "Pending",
    "responsible_agency": "Department of Code Enforcement",
    "final_address": "4708 Dodt Ave",
    "address_councildis": "E",
    "status": "Pending",
    "rowid": "892281",
    "final_x": "3705377.81169",
    "final_y": "555114.908505",
    "longitude": "-89.99180112683825",
    "latitude": "30.01962630713361",
    "geocoded_column": {
      "latitude": "30.01962630713361",
      "longitude": "-89.99180112683825"
    }
  },
  {
    "service_request": "2022-892280",
    "request_type": "Abandoned Vehicles",
    "request_reason": "Abandoned/Junk Vehicles",
    "date_created": "2022-06-16T12:43:53.000",
    "date_modified": "2022-06-16T12:45:22.000",
    "request_status": "Pending",
    "responsible_agency": "Department of Public Works",
    "final_address": "2235 St Anthony St",
    "address_councildis": "D",
    "status": "Pending",
    "rowid": "892280",
    "final_x": "3683242.80264",
    "final_y": "540539.633739",
    "longitude": "-90.06225124811274",
    "latitude": "29.980243529821873",
    "geocoded_column": {
      "latitude": "29.980243529821873",
      "longitude": "-90.06225124811274"
    }
  },
  {
    "service_request": "2022-892279",
    "request_type": "Roads/Drainage",
    "request_reason": "Street Flooding / Drainage",
    "date_created": "2022-06-16T12:43:25.000",
    "date_modified": "2022-06-16T12:43:25.000",
    "request_status": "Pending",
    "responsible_agency": "Department of Public Works",
    "final_address": "234 Bellaire Dr",
    "address_councildis": "A",
    "status": "Pending",
    "rowid": "892279",
    "final_x": "3663805.47725",
    "final_y": "541008.206923",
    "longitude": "-90.12362720557532",
    "latitude": "29.982110507932525",
    "geocoded_column": {
      "latitude": "29.982110507932525",
      "longitude": "-90.12362720557532"
    }
  },