[
  {
    "service_request": "2024-1091286",
    "request_type": "Trash/Recycling",
    "request_reason": "Request a Large Item Pick Up",
    "date_created": "2024-05-07T23:35:20.000",
    "date_modified": "2024-05-07T23:35:20.000",
    "request_status": "Pending",
    "responsible_agency": "Department of Sanitation",
    "final_address": "8426 Forshey St",
    "address_councildis": "A",
    "status": "Assigned to Contractor",
    "contractor": "IV Waste",
    "rowid": "1091286",
    "final_x": "3666027.45236",
    "final_y": "534764.268038",
    "longitude": "-90.11681848689318",
    "latitude": "29.964877068671996",
    "geocoded_column": {
      "latitude": "29.964877068671996",
      "longitude": "-90.11681848689318"
    }
  },
  {
    "service_request": "2024-1091285",
    "request_type": "Traffic Signals/Signs/Striping/Streetlights",
    "request_reason": "Street Light Outage/Malfunction",
    "date_created": "2024-05-07T22:47:38.000",
    "date_modified": "2024-05-07T22:47:39.000",
    "request_status": "Pending",
    "responsible_agency": "Department of Public Works",
    "final_address": "601 Seguin St",
    "address_councildis": "C",
    "status": "Assigned to Contractor",
    "contractor": "Legacy Professional Services",
    "rowid": "1091285",
    "final_x": "3686638.85916",
    "final_y": "529608.322177",
    "longitude": "-90.0519111979024",
    "latitude": "29.95008219471011",
    "geocoded_column": {
      "latitude": "29.95008219471011",
      "longitude": "-90.0519111979024"
    }
  },
  {
    "service_request": "2024-1091284",
    "request_type": "Trash/Recycling",
    "request_reason": "Replace Trash Cart",
    "date_created": "2024-05-07T22:08:11.000",
    "date_modified": "2024-05-07T22:08:12.000",
    "request_status": "Pending",
    "responsible_agency": "Department of Sanitation",
    "final_address": "139 N Alexander St",
    "address_councildis": "A",
    "status": "Assigned to Contractor",
    "contractor": "IV Waste",
    "rowid": "1091284",
    "final_x": "3670170.6946",
    "final_y": "539552.969482",
    "longitude": "-90.10357205479302",
    "latitude": "29.977922786629385",
    "geocoded_column": {
      "latitude": "29.977922786629385",
      "longitude": "-90.10357205479302"
    }
  },
  {
    "service_request": "2024-1091283",
    "request_type": "Trash/Recycling",
    "request_reason": "Replace Trash Cart",
    "date_created": "2024-05-07T22:06:42.000",
    "date_modified": "2024-05-07T22:06:43.000",
    "request_status": "Pending",
    "responsible_agency": "Department of Sanitation",
    "final_address": "139 N Alexander St",
    "address_councildis": "A",
    "status": "Assigned to Contractor",
    "contractor": "IV Waste",
    "rowid": "1091283",
    "final_x": "3670170.6946",
    "final_y": "539552.969482",
    "longitude": "-90.10357205479302",
    "latitude": "29.977922786629385",
    "geocoded_column": {
      "latitude": "29.977922786629385",
      "longitude": "-90.10357205479302"
    }
  },
  {
    "service_request": "2024-1091281",
    "request_type": "Trash/Recycling",
    "request_reason": "Repair Trash Cart",
    "date_created": "2024-05-07T20:34:21.000",
    "date_modified": "2024-05-07T20:34:22.000",
    "request_status": "Pending",
    "responsible_agency": "Department of Sanitation",
    "final_address": "1544 State St",
    "address_councildis": "A",
    "status": "Assigned to Contractor",
    "contractor": "IV Waste",
    "rowid": "1091281",
    "final_x": "3665606.7177",
    "final_y": "522201.550458",
    "longitude": "-90.11856773287175",
    "latitude": "29.93034592993008",
    "geocoded_column": {
      "latitude": "29.93034592993008",
      "longitude": "-90.11856773287175"
    }
  },
  {
    "service_request": "2024-1091280",
    "request_type": "Trash/Recycling",
    "request_reason": "Order Recycling Cart",
    "date_created": "2024-05-07T20:28:13.000",
    "date_modified": "2024-05-07T20:28:13.000",
    "request_status": "Pending",
    "responsible_agency": "Department of Sanitation",
    "final_address": "2004 Cambronne St",
    "address_councildis": "A",
    "status": "Pending",
    "rowid": "1091280",
    "final_x": "3663072.69901",
    "final_y": "531249.401346",
    "longitude": "-90.12626638432603",
    "latitude": "29.955298256548136",
    "geocoded_column": {
      "latitude": "29.955298256548136",
      "longitude": "-90.12626638432603"
    }
  },
  {
    "service_request": "2024-1091279",
    "request_type": "Trash/Recycling",
    "request_reason": "Order Trash Cart",
    "date_created": "2024-05-07T20:27:27.000",
    "date_modified": "2024-05-07T20:27:27.000",
    "request_status": "Pending",
    "responsible_agency": "Department of Sanitation",
    "final_address": "2004 Cambronne St",
    "address_councildis": "A",
    "status": "Assigned to Contractor",
    "contractor": "IV Waste",
    "rowid": "1091279",
    "final_x": "3663072.69901",
    "final_y": "531249.401346",
    "longitude": "-90.12626638432603",
    "latitude": "29.955298256548136",
    "geocoded_column": {
      "latitude": "29.955298256548136",
      "longitude": "-90.12626638432603"
    }
  },
  {
    "service_request": "2024-1091278",
    "request_type": "Trash/Recycling",
    "request_reason": "Request a Large Item Pick Up",
    "date_created": "2024-05-07T20:08:24.000",
    "date_modified": "2024-05-07T20:08:25.000",
    "request_status": "Pending",
    "responsible_agency": "Department of Sanitation",
    "final_address": "5603 St Charles Ave",
    "address_councildis": "A",
    "status": "Assigned to Contractor",
    "contractor": "IV Waste",
    "rowid": "1091278",
    "final_x": "3666759.73684",
    "final_y": "522089.92697",
    "longitude": "-90.11493156437204",
    "latitude": "29.930005339048314",
    "geocoded_column": {
      "latitude": "29.930005339048314",
      "longitude": "-90.11493156437204"
    }
  },
  {
    "service_request": "2024-1091277",
    "request_type": "Roads/Drainage",
    "request_reason": "Pothole",
    "date_created": "2024-05-07T19:47:33.000",
    "date_modified": "2024-05-07T19:47:33.000",
    "request_status": "Pending",
    "responsible_agency": "Department of Public Works",
    "final_address": "URQUHART ST & BARTHOLOMEW ST",
    "address_councildis": "D",
    "status": "Pending",
    "rowid": "1091277",
    "final_x": "3691983.5",
    "final_y": "536034.08",
    "longitude": "-90.03480580183556",
    "latitude": "29.967585353898205",
    "geocoded_column": {
      "latitude": "29.967585353898205",
      "longitude": "-90.03480580183556"
    }
  },
  {
    "service_request": "2024-1091276",
    "request_type": "Trash/Recycling",
    "request_reason": "Request a Large Item Pick Up",
    "date_created": "2024-05-07T19:46:14.000",
    "date_modified": "2024-05-07T19:46:15.000",
    "request_status": "Pending",
    "responsible_agency": "Department of Sanitation",
    "final_address": "5779 E Louis Prima Dr",
    "address_councildis": "E",
    "status": "Assigned to Contractor",
    "contractor": "Waste Pro",
    "rowid": "1091276",
    "final_x": "3715974.67903",
    "final_y": "562631.569952",
    "longitude": "-89.95803384841089",
    "latitude": "30.03994872615379",
    "geocoded_column": {
      "latitude": "30.03994872615379",
      "longitude": "-89.95803384841089"
    }
  },
  {
    "service_request": "2024-1091275",
    "request_type": "Utility Poles",
    "request_reason": "Utility Pole Leaning",
    "date_created": "2024-05-07T19:39:44.000",
    "date_modified": "2024-05-07T19:39:50.000",
    "request_status": "Pending",
    "responsible_agency": "Utility Company Collective",
    "final_address": "HARRISON AVE & MARCONI DR",
    "address_councildis": "A",
    "status": "Pending",
    "rowid": "1091275",
    "final_x": "3671555.5",
    "final_y": "549053.28",
    "longitude": "-90.09887508622282",
    "latitude": "30.00400442416237",
    "geocoded_column": {
      "latitude": "30.00400442416237",
      "longitude": "-90.09887508622282"
    }
  },
  {
    "service_request": "2024-1091274",
    "request_type": "Roads/Drainage",
    "request_reason": "Pothole",
    "date_created": "2024-05-07T19:33:06.000",
    "date_modified": "2024-05-07T19:33:06.000",
    "request_status": "Pending",
    "responsible_agency": "Department of Public Works",
    "final_address": "5770 Norland Ave",
    "address_councildis": "C",
    "status": "Pending",
    "rowid": "1091274",
    "final_x": "3705030.51415",
    "final_y": "520505.6302",
    "longitude": "-89.99417649219778",
    "latitude": "29.92447463919669",
    "geocoded_column": {
      "latitude": "29.92447463919669",
      "longitude": "-89.99417649219778"
    }
  },
  {
    "service_request": "2024-1091273",
    "request_type": "Abandoned Vehicles",
    "request_reason": "Abandoned/Junk Vehicles",
    "date_created": "2024-05-07T19:18:52.000",
    "date_modified": "2024-05-07T19:18:52.000",
    "request_status": "Pending",
    "responsible_agency": "Department of Public Works",
    "final_address": "4934 Constance St",
    "address_councildis": "B",
    "status": "Pending",
    "rowid": "1091273",
    "final_x": "3668674.89076",
    "final_y": "518167.021686",
    "longitude": "-90.10901804420777",
    "latitude": "29.919162459166493",
    "geocoded_column": {
      "latitude": "29.919162459166493",
      "longitude": "-90.10901804420777"
    }
  },
  {
    "service_request": "2024-1091272",
    "request_type": "Trash/Recycling",
    "request_reason": "Replace Trash Cart",
    "date_created": "2024-05-07T18:38:21.000",
    "date_modified": "2024-05-07T18:38:22.000",
    "request_status": "Pending",
    "responsible_agency": "Department of Sanitation",
    "final_address": "1832 Constantinople St",
    "address_councildis": "B",
    "status": "Assigned to Contractor",
    "contractor": "IV Waste",
    "rowid": "1091272",
    "final_x": "3672172.58113",
    "final_y": "522012.457914",
    "longitude": "-90.09784671664242",
    "latitude": "29.929632953543415",
    "geocoded_column": {
      "latitude": "29.929632953543415",
      "longitude": "-90.09784671664242"
    }
  },
  {
    "service_request": "2024-1091271",
    "request_type": "Trash/Recycling",
    "request_reason": "Request a Large Item Pick Up",
    "date_created": "2024-05-07T18:35:41.000",
    "date_modified": "2024-05-07T18:35:41.000",
    "request_status": "Pending",
    "responsible_agency": "Department of Sanitation",
    "final_address": "1305 S White St",
    "address_councildis": "B",
    "status": "Assigned to Contractor",
    "contractor": "IV Waste",
    "rowid": "1091271",
    "final_x": "3671588.12372",
    "final_y": "530868.594626",
    "longitude": "-90.09939068005113",
    "latitude": "29.954001759635677",
    "geocoded_column": {
      "latitude": "29.954001759635677",
      "longitude": "-90.09939068005113"
    }
  },
  {
    "service_request": "2024-1091270",
    "request_type": "Trash/Recycling",
    "request_reason": "Replace Trash Cart",
    "date_created": "2024-05-07T18:24:15.000",
    "date_modified": "2024-05-07T18:24:15.000",
    "request_status": "Pending",
    "responsible_agency": "Department of Sanitation",
    "final_address": "7813 Jeannette St",
    "address_councildis": "A",
    "status": "Assigned to Contractor",
    "contractor": "IV Waste",
    "rowid": "1091270",
    "final_x": "3663445.84871",
    "final_y": "528498.508736",
    "longitude": "-90.12517969580665",
    "latitude": "29.947723375945074",
    "geocoded_column": {
      "latitude": "29.947723375945074",
      "longitude": "-90.12517969580665"
    }
  },
  {
    "service_request": "2024-1091269",
    "request_type": "Trash/Recycling",
    "request_reason": "Order Recycling Cart",
    "date_created": "2024-05-07T18:22:05.000",
    "date_modified": "2024-05-07T18:22:05.000",
    "request_status": "Pending",
    "responsible_agency": "Department of Sanitation",
    "final_address": "17 stilt st New Orleans 70124",
    "address_councildis": "D",
    "status": "Pending",
    "rowid": "1091269",
    "final_x": "3672898.35931",
    "final_y": "557242.359131",
    "longitude": "-90.09435301338503",
    "latitude": "30.026481625636077",
    "geocoded_column": {
      "latitude": "30.026481625636077",
      "longitude": "-90.09435301338503"
    }
  },
  {
    "service_request": "2024-1091268",
    "request_type": "Roads/Drainage",
    "request_reason": "Street Flooding / Drainage",
    "date_created": "2024-05-07T18:20:19.000",
    "date_modified": "2024-05-07T18:20:19.000",
    "request_status": "Pending",
    "responsible_agency": "Department of Public Works",
    "final_address": "1350 Lowerline St",
    "address_councildis": "A",
    "status": "Pending",
    "rowid": "1091268",
    "final_x": "3664024.05428",
    "final_y": "527390.547263",
    "longitude": "-90.12339100458543",
    "latitude": "29.94466006180707",
    "geocoded_column": {
      "latitude": "29.94466006180707",
      "longitude": "-90.12339100458543"
    }
  },
  {
    "service_request": "2024-1091267",
    "request_type": "Trash/Recycling",
    "request_reason": "Request a Large Item Pick Up",
    "date_created": "2024-05-07T18:17:02.000",
    "date_modified": "2024-05-07T18:17:02.000",
    "request_status": "Pending",
    "responsible_agency": "Department of Sanitation",
    "final_address": "5342 Camp St",
    "address_councildis": "B",
    "status": "Assigned to Contractor",
    "contractor": "IV Waste",
    "rowid": "1091267",
    "final_x": "3667159.04762",
    "final_y": "519040.332727",
    "longitude": "-90.11377346661614",
    "latitude": "29.921608238362314",
    "geocoded_column": {
      "latitude": "29.921608238362314",
      "longitude": "-90.11377346661614"
    }
  },
  {
    "service_request": "2024-1091266",
    "request_type": "Trash/Recycling",
    "request_reason": "Order Trash Cart",
    "date_created": "2024-05-07T18:15:55.000",
    "date_modified": "2024-05-07T18:15:55.000",
    "request_status": "Pending",
    "responsible_agency": "Department of Sanitation",
    "final_address": "8506 Apple St",
    "address_councildis": "A",
    "status": "Assigned to Contractor",
    "contractor": "IV Waste",
    "rowid": "1091266",
    "final_x": "3664217.64916",
    "final_y": "533087.4329",
    "longitude": "-90.12258970931022",
    "latitude": "29.960319030263904",
    "geocoded_column": {
      "latitude": "29.960319030263904",
      "longitude": "-90.12258970931022"
    }
  },
  {
    "service_request": "2024-1091265",
    "request_type": "Abandoned Vehicles",
    "request_reason": "Abandoned/Junk Vehicles",
    "date_created": "2024-05-07T18:09:16.000",
    "date_modified": "2024-05-07T18:09:16.000",
    "request_status": "Pending",
    "responsible_agency": "Department of Public Works",
    "final_address": "1321 Bartholomew St",
    "address_councildis": "D",
    "status": "Pending",
    "rowid": "1091265",
    "final_x": "3692070.79504",
    "final_y": "536205.545479",
    "longitude": "-90.03452398542987",
    "latitude": "29.96805410301657",
    "geocoded_column": {
      "latitude": "29.96805410301657",
      "longitude": "-90.03452398542987"
    }
  },
  {
    "service_request": "2024-1091264",
    "request_type": "Roads/Drainage",
    "request_reason": "Debris in Roadway",
    "date_created": "2024-05-07T18:06:03.000",
    "date_modified": "2024-05-07T18:06:03.000",
    "request_status": "Pending",
    "responsible_agency": "Department of Public Works",
    "final_address": "813 Lesseps St",
    "address_councildis": "C",
    "status": "Pending",
    "rowid": "1091264",
    "final_x": "3692472.49942",
    "final_y": "534047.825605",
    "longitude": "-90.03333270237044",
    "latitude": "29.962108606939303",
    "geocoded_column": {
      "latitude": "29.962108606939303",
      "longitude": "-90.03333270237044"
    }
  },
  {
    "service_request": "2024-1091263",
    "request_type": "Trash/Recycling",
    "request_reason": "Illegal Dumping",
    "date_created": "2024-05-07T17:54:30.000",
    "date_modified": "2024-05-07T17:54:30.000",
    "request_status": "Pending",
    "responsible_agency": "Department of Sanitation",
    "final_address": "1810 Deslonde St",
    "address_councildis": "E",
    "status": "Pending",
    "rowid": "1091263",
    "final_x": "3696100.66262",
    "final_y": "537142.63636",
    "longitude": "-90.02176370579599",
    "latitude": "29.970504553062888",
    "geocoded_column": {
      "latitude": "29.970504553062888",
      "longitude": "-90.02176370579599"
    }
  },
  {
    "service_request": "2024-1091262",
    "request_type": "Trash/Recycling",
    "request_reason": "Request a Large Item Pick Up",
    "date_created": "2024-05-07T17:53:12.000",
    "date_modified": "2024-05-07T22:05:43.000",
    "request_status": "Pending",
    "responsible_agency": "Department of Sanitation",
    "final_address": "1810 Deslonde St",
    "address_councildis": "E",
    "status": "Assigned to Contractor",
    "contractor": "Waste Pro",
    "rowid": "1091262",
    "final_x": "3696100.66262",
    "final_y": "537142.63636",
    "longitude": "-90.02176370579599",
    "latitude": "29.970504553062888",
    "geocoded_column": {
      "latitude": "29.970504553062888",
      "longitude": "-90.02176370579599"
    }
  },
  {
    "service_request": "2024-1091261",
    "request_type": "Trash/Recycling",
    "request_reason": "Order Recycling Cart",
    "date_created": "2024-05-07T17:40:44.000",
    "date_modified": "2024-05-07T17:40:44.000",
    "request_status": "Pending",
    "responsible_agency": "Department of Sanitation",
    "final_address": "2474 Royal St",
    "address_councildis": "C",
    "status": "Pending",
    "rowid": "1091261",
    "final_x": "3686514.46684",
    "final_y": "534946.351878",
    "longitude": "-90.05211550215586",
    "latitude": "29.964763764325657",
    "geocoded_column": {
      "latitude": "29.964763764325657",
      "longitude": "-90.05211550215586"
    }
  },
  {
    "service_request": "2024-1091260",
    "request_type": "Trash/Recycling",
    "request_reason": "Return Trash Cart",
    "date_created": "2024-05-07T17:11:32.000",
    "date_modified": "2024-05-07T17:11:32.000",
    "request_status": "Pending",
    "responsible_agency": "Department of Sanitation",
    "final_address": "CADIZ ST & LAUREL ST",
    "address_councildis": "B",
    "status": "Assigned to Contractor",
    "contractor": "IV Waste",
    "rowid": "1091260",
    "final_x": "3670382.3",
    "final_y": "517978.58",
    "longitude": "-90.1036349920616",
    "latitude": "29.91859403014864",
    "geocoded_column": {
      "latitude": "29.91859403014864",
      "longitude": "-90.1036349920616"
    }
  },
  {
    "service_request": "2024-1091259",
    "request_type": "Property Maintenance",
    "request_reason": "Property Maintenance",
    "date_created": "2024-05-07T17:06:39.000",
    "date_modified": "2024-05-07T17:06:39.000",
    "request_status": "Pending",
    "responsible_agency": "Department of Code Enforcement",
    "final_address": "6018 Cameron Blvd",
    "address_councildis": "D",
    "status": "Pending",
    "rowid": "1091259",
    "final_x": "3682276.97365",
    "final_y": "554923.247128",
    "longitude": "-90.06479880159162",
    "latitude": "30.019822745954837",
    "geocoded_column": {
      "latitude": "30.019822745954837",
      "longitude": "-90.06479880159162"
    }
  },
  {
    "service_request": "2024-1091258",
    "request_type": "Property Maintenance",
    "request_reason": "Property Maintenance",
    "date_created": "2024-05-07T17:05:52.000",
    "date_modified": "2024-05-07T17:05:52.000",
    "request_status": "Pending",
    "responsible_agency": "Department of Code Enforcement",
    "final_address": "6018 Cameron Blvd",
    "address_councildis": "D",
    "status": "Pending",
    "rowid": "1091258",
    "final_x": "3682276.97365",
    "final_y": "554923.247128",
    "longitude": "-90.06479880159162",
    "latitude": "30.019822745954837",
    "geocoded_column": {
      "latitude": "30.019822745954837",
      "longitude": "-90.06479880159162"
    }
  },
  {
    "service_request": "2024-1091257",
    "request_type": "Property Maintenance",
    "request_reason": "Property Maintenance",
    "date_created": "2024-05-07T17:05:30.000",
    "date_modified": "2024-05-07T17:05:30.000",
    "request_status": "Pending",
    "responsible_agency": "Department of Code Enforcement",
    "final_address": "6018 Cameron Blvd",
    "address_councildis": "D",
    "status": "Pending",
    "rowid": "1091257",
    "final_x": "3682276.97365",
    "final_y": "554923.247128",
    "longitude": "-90.06479880159162",
    "latitude": "30.019822745954837",
    "geocoded_column": {
      "latitude": "30.019822745954837",
      "longitude": "-90.06479880159162"
    }
  },
  {
    "service_request": "2024-1091256",
    "request_type": "Traffic Signals/Signs/Striping/Streetlights",
    "request_reason": "Traffic Signal Malfunctioning/Damaged",
    "date_created": "2024-05-07T16:55:41.000",
    "date_modified": "2024-05-07T16:55:42.000",
    "request_status": "Pending",
    "responsible_agency": "Department of Public Works",
    "final_address": "EARHART BLVD & MONROE ST",
    "address_councildis": "A",
    "status": "Pending",
    "rowid": "1091256",
    "final_x": "3664735.3",
    "final_y": "534571.88",
    "longitude": "-90.12090546844938",
    "latitude": "29.964385722859692",
    "geocoded_column": {
      "latitude": "29.964385722859692",
      "longitude": "-90.12090546844938"
    }
  },
  {
    "service_request": "2024-1091254",
    "request_type": "Trash/Recycling",
    "request_reason": "Replace Trash Cart",
    "date_created": "2024-05-07T16:53:04.000",
    "date_modified": "2024-05-07T16:53:04.000",
    "request_status": "Pending",
    "responsible_agency": "Department of Sanitation",
    "final_address": "1450 Riviera Ave",
    "address_councildis": "D",
    "status": "Assigned to Contractor",
    "contractor": "IV Waste",
    "rowid": "1091254",
    "final_x": "3677902.67714",
    "final_y": "550782.665301",
    "longitude": "-90.07876341305794",
    "latitude": "30.00857006765453",
    "geocoded_column": {
      "latitude": "30.00857006765453",
      "longitude": "-90.07876341305794"
    }
  },
  {
    "service_request": "2024-1091253",
    "request_type": "Roads/Drainage",
    "request_reason": "Street Flooding / Drainage",
    "date_created": "2024-05-07T16:50:38.000",
    "date_modified": "2024-05-07T16:50:38.000",
    "request_status": "Pending",
    "responsible_agency": "Department of Public Works",
    "final_address": "2608 St Peter St",
    "address_councildis": "D",
    "status": "Pending",
    "rowid": "1091253",
    "final_x": "3676985.74946",
    "final_y": "536556.798087",
    "longitude": "-90.08215104297007",
    "latitude": "29.969481466210212",
    "geocoded_column": {
      "latitude": "29.969481466210212",
      "longitude": "-90.08215104297007"
    }
  },
  {
    "service_request": "2024-1091252",
    "request_type": "Trash/Recycling",
    "request_reason": "Request a Large Item Pick Up",
    "date_created": "2024-05-07T16:50:21.000",
    "date_modified": "2024-05-07T16:50:21.000",
    "request_status": "Pending",
    "responsible_agency": "Department of Sanitation",
    "final_address": "3950 Mimosa Dr",
    "address_councildis": "C",
    "status": "Assigned to Contractor",
    "contractor": "Richards Disposal",
    "rowid": "1091252",
    "final_x": "3704678.89898",
    "final_y": "512789.425969",
    "longitude": "-89.99557078331841",
    "latitude": "29.903269025223782",
    "geocoded_column": {
      "latitude": "29.903269025223782",
      "longitude": "-89.99557078331841"
    }
  },
  {
    "service_request": "2024-1091251",
    "request_type": "Trash/Recycling",
    "request_reason": "Request a Large Item Pick Up",
    "date_created": "2024-05-07T16:48:21.000",
    "date_modified": "2024-05-07T16:48:21.000",
    "request_status": "Pending",
    "responsible_agency": "Department of Sanitation",
    "final_address": "4218 S Miro St",
    "address_councildis": "B",
    "status": "Assigned to Contractor",
    "contractor": "IV Waste",
    "rowid": "1091251",
    "final_x": "3670783.0482",
    "final_y": "527842.615615",
    "longitude": "-90.10203546122091",
    "latitude": "29.945705124561524",
    "geocoded_column": {
      "latitude": "29.945705124561524",
      "longitude": "-90.10203546122091"
    }
  },
  {
    "service_request": "2024-1091250",
    "request_type": "Abandoned Vehicles",
    "request_reason": "Abandoned/Junk Vehicles",
    "date_created": "2024-05-07T16:46:25.000",
    "date_modified": "2024-05-07T16:46:25.000",
    "request_status": "Pending",
    "responsible_agency": "Department of Public Works",
    "final_address": "4019 Franklin Ave",
    "address_councildis": "D",
    "status": "Pending",
    "rowid": "1091250",
    "final_x": "3687092.93519",
    "final_y": "547676.252114",
    "longitude": "-90.0498384467815",
    "latitude": "29.99974868078166",
    "geocoded_column": {
      "latitude": "29.99974868078166",
      "longitude": "-90.0498384467815"
    }
  },
  {
    "service_request": "2024-1091249",
    "request_type": "Roads/Drainage",
    "request_reason": "Pothole",
    "date_created": "2024-05-07T16:46:06.000",
    "date_modified": "2024-05-07T16:46:07.000",
    "request_status": "Pending",
    "responsible_agency": "Department of Public Works",
    "final_address": "2500 BLK Charbonnet St",
    "address_councildis": "E",
    "status": "Pending",
    "rowid": "1091249",
    "final_x": "3700089.9656",
    "final_y": "539048.305877",
    "longitude": "-90.0090955574338",
    "latitude": "29.975618294370317",
    "geocoded_column": {
      "latitude": "29.975618294370317",
      "longitude": "-90.0090955574338"
    }
  },
  {
    "service_request": "2024-1091248",
    "request_type": "Roads/Drainage",
    "request_reason": "Street Subsidence (Sinking)",
    "date_created": "2024-05-07T16:43:48.000",
    "date_modified": "2024-05-07T16:43:48.000",
    "request_status": "Pending",
    "responsible_agency": "Department of Public Works",
    "final_address": "3475 Vincennes Pl",
    "address_councildis": "A",
    "status": "Pending",
    "rowid": "1091248",
    "final_x": "3668123.52826",
    "final_y": "528962.394368",
    "longitude": "-90.11039473741171",
    "latitude": "29.948862466209864",
    "geocoded_column": {
      "latitude": "29.948862466209864",
      "longitude": "-90.11039473741171"
    }
  },
  {
    "service_request": "2024-1091247",
    "request_type": "Traffic Signals/Signs/Striping/Streetlights",
    "request_reason": "Street Light Outage/Malfunction",
    "date_created": "2024-05-07T16:41:37.000",
    "date_modified": "2024-05-07T16:41:38.000",
    "request_status": "Pending",
    "responsible_agency": "Department of Public Works",
    "final_address": "2428 Charbonnet St",
    "address_councildis": "E",
    "status": "Assigned to Contractor",
    "contractor": "Legacy Professional Services",
    "rowid": "1091247",
    "final_x": "3699964.85764",
    "final_y": "538762.285065",
    "longitude": "-90.00950111696494",
    "latitude": "29.9748358158737",
    "geocoded_column": {
      "latitude": "29.9748358158737",
      "longitude": "-90.00950111696494"
    }
  },
  {
    "service_request": "2024-1091245",
    "request_type": "Trash/Recycling",
    "request_reason": "Order Trash Cart",
    "date_created": "2024-05-07T16:40:10.000",
    "date_modified": "2024-05-07T16:40:10.000",
    "request_status": "Pending",
    "responsible_agency": "Department of Sanitation",
    "final_address": "5762 Pasteur Blvd",
    "address_councildis": "D",
    "status": "Assigned to Contractor",
    "contractor": "IV Waste",
    "rowid": "1091245",
    "final_x": "3682664.0054",
    "final_y": "554565.561688",
    "longitude": "-90.06358843151075",
    "latitude": "30.018827454831058",
    "geocoded_column": {
      "latitude": "30.018827454831058",
      "longitude": "-90.06358843151075"
    }
  },
  {
    "service_request": "2024-1091244",
    "request_type": "Trash/Recycling",
    "request_reason": "Repair Recycling Cart",
    "date_created": "2024-05-07T16:34:51.000",
    "date_modified": "2024-05-07T16:36:17.000",
    "request_status": "Pending",
    "responsible_agency": "Department of Sanitation",
    "final_address": "5935 Franklin Ave",
    "address_councildis": "D",
    "contractor": "IV Waste",
    "rowid": "1091244",
    "final_x": "3686500.71241",
    "final_y": "555140.186841",
    "longitude": "-90.05144551435318",
    "latitude": "30.020290000479136",
    "geocoded_column": {
      "latitude": "30.020290000479136",
      "longitude": "-90.05144551435318"
    }
  },
  {
    "service_request": "2024-1091243",
    "request_type": "Trash/Recycling",
    "request_reason": "Replace Trash Cart",
    "date_created": "2024-05-07T16:31:54.000",
    "date_modified": "2024-05-07T16:31:55.000",
    "request_status": "Pending",
    "responsible_agency": "Department of Sanitation",
    "final_address": "5439 Seminary Pl",
    "address_councildis": "D",
    "status": "Assigned to Contractor",
    "contractor": "IV Waste",
    "rowid": "1091243",
    "final_x": "3688756.22665",
    "final_y": "553357.873367",
    "longitude": "-90.04438215534216",
    "latitude": "30.015319724366943",
    "geocoded_column": {
      "latitude": "30.015319724366943",
      "longitude": "-90.04438215534216"
    }
  },
  {
    "service_request": "2024-1091242",
    "request_type": "Trash/Recycling",
    "request_reason": "Request a Large Item Pick Up",
    "date_created": "2024-05-07T16:28:07.000",
    "date_modified": "2024-05-07T16:28:07.000",
    "request_status": "Pending",
    "responsible_agency": "Department of Sanitation",
    "final_address": "1734 St Roch Ave",
    "address_councildis": "D",
    "status": "Assigned to Contractor",
    "contractor": "IV Waste",
    "rowid": "1091242",
    "final_x": "3686221.29308",
    "final_y": "538933.654474",
    "longitude": "-90.05290061671782",
    "latitude": "29.975736466089884",
    "geocoded_column": {
      "latitude": "29.975736466089884",
      "longitude": "-90.05290061671782"
    }
  },
  {
    "service_request": "2024-1091241",
    "request_type": "Abandoned Vehicles",
    "request_reason": "Abandoned/Junk Vehicles",
    "date_created": "2024-05-07T16:24:57.000",
    "date_modified": "2024-05-07T16:24:57.000",
    "request_status": "Pending",
    "responsible_agency": "Department of Public Works",
    "final_address": "539 Esplanade Ave",
    "address_councildis": "C",
    "status": "Pending",
    "rowid": "1091241",
    "final_x": "3684455.7373",
    "final_y": "534183.876677",
    "longitude": "-90.05864360815784",
    "latitude": "29.96273035587244",
    "geocoded_column": {
      "latitude": "29.96273035587244",
      "longitude": "-90.05864360815784"
    }
  },
  {
    "service_request": "2024-1091240",
    "request_type": "Traffic Signals/Signs/Striping/Streetlights",
    "request_reason": "Street Light Outage/Malfunction",
    "date_created": "2024-05-07T16:23:56.000",
    "date_modified": "2024-05-07T16:23:57.000",
    "request_status": "Pending",
    "responsible_agency": "Department of Public Works",
    "final_address": "2700 BLK N dOrgenois St",
    "address_councildis": "D",
    "status": "Assigned to Contractor",
    "contractor": "Legacy Professional Services",
    "rowid": "1091240",
    "final_x": "3687704.60192",
    "final_y": "541710.515448",
    "longitude": "-90.04811755502872",
    "latitude": "29.983326191428986",
    "geocoded_column": {
      "latitude": "29.983326191428986",
      "longitude": "-90.04811755502872"
    }
  },
  {
    "service_request": "2024-1091238",
    "request_type": "Property Maintenance",
    "request_reason": "Property Maintenance",
    "date_created": "2024-05-07T16:18:33.000",
    "date_modified": "2024-05-07T16:18:33.000",
    "request_status": "Pending",
    "responsible_agency": "Department of Code Enforcement",
    "final_address": "1810 Deslonde St.",
    "address_councildis": "E",
    "status": "Pending",
    "rowid": "1091238",
    "final_x": "3696100.66262",
    "final_y": "537142.63636",
    "longitude": "-90.02176370579599",
    "latitude": "29.970504553062888",
    "geocoded_column": {
      "latitude": "29.970504553062888",
      "longitude": "-90.02176370579599"
    }
  },
  {
    "service_request": "2024-1091237",
    "request_type": "Trash/Recycling",
    "request_reason": "Order Recycling Cart",
    "date_created": "2024-05-07T16:18:16.000",
    "date_modified": "2024-05-07T16:18:16.000",
    "request_status": "Pending",
    "responsible_agency": "Department of Sanitation",
    "final_address": "90 Tern St",
    "address_councildis": "D",
    "status": "Pending",
    "rowid": "1091237",
    "final_x": "3674645.96078",
    "final_y": "556800.683482",
    "longitude": "-90.08884593959031",
    "latitude": "30.02521510324756",
    "geocoded_column": {
      "latitude": "30.02521510324756",
      "longitude": "-90.08884593959031"
    }
  },
  {
    "service_request": "2024-1091236",
    "request_type": "Trash/Recycling",
    "request_reason": "Repair Trash Cart",
    "date_created": "2024-05-07T16:17:27.000",
    "date_modified": "2024-05-07T16:17:28.000",
    "request_status": "Pending",
    "responsible_agency": "Department of Sanitation",
    "final_address": "90 Tern St",
    "address_councildis": "D",
    "status": "Assigned to Contractor",
    "contractor": "IV Waste",
    "rowid": "1091236",
    "final_x": "3674645.96078",
    "final_y": "556800.683482",
    "longitude": "-90.08884593959031",
    "latitude": "30.02521510324756",
    "geocoded_column": {
      "latitude": "30.02521510324756",
      "longitude": "-90.08884593959031"
    }
  },
  {
    "service_request": "2024-1091235",
    "request_type": "Trash/Recycling",
    "request_reason": "Request a Large Item Pick Up",
    "date_created": "2024-05-07T16:14:34.000",
    "date_modified": "2024-05-07T16:14:35.000",
    "request_status": "Pending",
    "responsible_agency": "Department of Sanitation",
    "final_address": "7732 Haney Dr",
    "address_councildis": "E",
    "status": "Assigned to Contractor",
    "contractor": "Waste Pro",
    "rowid": "1091235",
    "final_x": "3712300.85413",
    "final_y": "567645.458852",
    "longitude": "-89.9694555628272",
    "latitude": "30.053855625860127",
    "geocoded_column": {
      "latitude": "30.053855625860127",
      "longitude": "-89.9694555628272"
    }
  },
  {
    "service_request": "2024-1091234",
    "request_type": "Trash/Recycling",
    "request_reason": "Order Trash Cart",
    "date_created": "2024-05-07T16:14:22.000",
    "date_modified": "2024-05-07T16:14:23.000",
    "request_status": "Pending",
    "responsible_agency": "Department of Sanitation",
    "final_address": "7812 Hickman St",
    "address_councildis": "E",
    "status": "Assigned to Contractor",
    "contractor": "Waste Pro",
    "rowid": "1091234",
    "final_x": "3705788.56913",
    "final_y": "563807.772513",
    "longitude": "-89.99018131766108",
    "latitude": "30.043515048904457",
    "geocoded_column": {
      "latitude": "30.043515048904457",
      "longitude": "-89.99018131766108"
    }
  },
  {
    "service_request": "2024-1091233",
    "request_type": "Mosquito, Termite & Rodent Control",
    "request_reason": "Rodent Complaint (Rats)",
    "date_created": "2024-05-07T16:09:48.000",
    "date_modified": "2024-05-07T16:09:48.000",
    "request_status": "Pending",
    "responsible_agency": "Mosquito, Termite & Rodent Control Board",
    "final_address": "1243 Frenchmen St",
    "address_councildis": "C",
    "status": "Pending",
    "rowid": "1091233",
    "final_x": "3684598.2982",
    "final_y": "536966.679944",
    "longitude": "-90.05809561926793",
    "latitude": "29.970377740572523",
    "geocoded_column": {
      "latitude": "29.970377740572523",
      "longitude": "-90.05809561926793"
    }
  },
  {
    "service_request": "2024-1091232",
    "request_type": "Mosquito, Termite & Rodent Control",
    "request_reason": "Rodent Complaint (Rats)",
    "date_created": "2024-05-07T16:08:39.000",
    "date_modified": "2024-05-07T16:08:40.000",
    "request_status": "Pending",
    "responsible_agency": "Mosquito, Termite & Rodent Control Board",
    "final_address": "1300 Elysian Fields Ave",
    "address_councildis": "C",
    "status": "Pending",
    "rowid": "1091232",
    "final_x": "3684855.47484",
    "final_y": "537062.585032",
    "longitude": "-90.05728005535073",
    "latitude": "29.97063357367015",
    "geocoded_column": {
      "latitude": "29.97063357367015",
      "longitude": "-90.05728005535073"
    }
  },
  {
    "service_request": "2024-1091231",
    "request_type": "Roads/Drainage",
    "request_reason": "Ditch Issue",
    "date_created": "2024-05-07T16:07:57.000",
    "date_modified": "2024-05-07T16:07:57.000",
    "request_status": "Pending",
    "responsible_agency": "Department of Public Works",
    "final_address": "2300 BLK Urquhart St",
    "address_councildis": "C",
    "status": "Pending",
    "rowid": "1091231",
    "final_x": "3685896.42017",
    "final_y": "537115.83074",
    "longitude": "-90.05399075540666",
    "latitude": "29.97074806469588",
    "geocoded_column": {
      "latitude": "29.97074806469588",
      "longitude": "-90.05399075540666"
    }
  },
  {
    "service_request": "2024-1091230",
    "request_type": "Traffic Signals/Signs/Striping/Streetlights",
    "request_reason": "Street Light Outage/Malfunction",
    "date_created": "2024-05-07T16:06:44.000",
    "date_modified": "2024-05-07T16:06:44.000",
    "request_status": "Pending",
    "responsible_agency": "Department of Public Works",
    "final_address": "3831 Lennox Blvd",
    "address_councildis": "C",
    "status": "Assigned to Contractor",
    "contractor": "Legacy Professional Services",
    "rowid": "1091230",
    "final_x": "3700465.48061",
    "final_y": "517125.426165",
    "longitude": "-90.00870999961347",
    "latitude": "29.915326146081327",
    "geocoded_column": {
      "latitude": "29.915326146081327",
      "longitude": "-90.00870999961347"
    }
  },
  {
    "service_request": "2024-1091229",
    "request_type": "Traffic Signals/Signs/Striping/Streetlights",
    "request_reason": "Street Light Outage/Malfunction",
    "date_created": "2024-05-07T15:59:53.000",
    "date_modified": "2024-05-07T15:59:54.000",
    "request_status": "Pending",
    "responsible_agency": "Department of Public Works",
    "final_address": "4509 Coliseum St",
    "address_councildis": "B",
    "status": "Assigned to Contractor",
    "contractor": "Legacy Professional Services",
    "rowid": "1091229",
    "final_x": "3670457.48987",
    "final_y": "519827.090232",
    "longitude": "-90.10333502346514",
    "latitude": "29.923674627746493",
    "geocoded_column": {
      "latitude": "29.923674627746493",
      "longitude": "-90.10333502346514"
    }
  },
  {
    "service_request": "2024-1091228",
    "request_type": "Trash/Recycling",
    "request_reason": "Order Recycling Cart",
    "date_created": "2024-05-07T15:53:43.000",
    "date_modified": "2024-05-07T15:53:43.000",
    "request_status": "Pending",
    "responsible_agency": "Department of Sanitation",
    "final_address": "7101 Salem Dr",
    "address_councildis": "E",
    "status": "Pending",
    "rowid": "1091228",
    "final_x": "3706552.36004",
    "final_y": "561121.36899",
    "longitude": "-89.98786712556716",
    "latitude": "30.036103863285895",
    "geocoded_column": {
      "latitude": "30.036103863285895",
      "longitude": "-89.98786712556716"
    }
  },
  {
    "service_request": "2024-1091227",
    "request_type": "Abandoned Vehicles",
    "request_reason": "Abandoned/Junk Vehicles",
    "date_created": "2024-05-07T15:53:36.000",
    "date_modified": "2024-05-07T15:57:42.000",
    "request_status": "Pending",
    "responsible_agency": "Department of Public Works",
    "final_address": "1701 Erie St",
    "address_councildis": "C",
    "status": "Pending",
    "rowid": "1091227",
    "final_x": "3690289.5544",
    "final_y": "522231.79769",
    "longitude": "-90.04064704115461",
    "latitude": "29.92968650063549",
    "geocoded_column": {
      "latitude": "29.92968650063549",
      "longitude": "-90.04064704115461"
    }
  },
  {
    "service_request": "2024-1091226",
    "request_type": "Property Maintenance",
    "request_reason": "Property Maintenance",
    "date_created": "2024-05-07T15:50:36.000",
    "date_modified": "2024-05-07T15:50:37.000",
    "request_status": "Pending",
    "responsible_agency": "Department of Code Enforcement",
    "final_address": "7052 Lake Willow Dr",
    "address_councildis": "E",
    "status": "Pending",
    "rowid": "1091226",
    "final_x": "3702216.9297",
    "final_y": "559125.680924",
    "longitude": "-90.00164111866084",
    "latitude": "30.030755761537264",
    "geocoded_column": {
      "latitude": "30.030755761537264",
      "longitude": "-90.00164111866084"
    }
  },
  {
    "service_request": "2024-1091225",
    "request_type": "Roads/Drainage",
    "request_reason": "Pothole",
    "date_created": "2024-05-07T15:47:32.000",
    "date_modified": "2024-05-07T15:47:32.000",
    "request_status": "Pending",
    "responsible_agency": "Department of Public Works",
    "final_address": "1000 Gravier St, New Orleans, Louisiana, 70112",
    "address_councildis": "B",
    "status": "Pending",
    "rowid": "1091225",
    "final_x": "3679720.55983",
    "final_y": "530536.715778",
    "longitude": "-90.07372328333187",
    "latitude": "29.952845890754002",
    "geocoded_column": {
      "latitude": "29.952845890754002",
      "longitude": "-90.07372328333187"
    }
  },
  {
    "service_request": "2024-1091224",
    "request_type": "Traffic Signals/Signs/Striping/Streetlights",
    "request_reason": "Traffic Sign Missing/Damaged",
    "date_created": "2024-05-07T15:47:11.000",
    "date_modified": "2024-05-07T15:47:11.000",
    "request_status": "Pending",
    "responsible_agency": "Department of Public Works",
    "final_address": "N TONTI ST & FRANKLIN AVE",
    "address_councildis": "D",
    "status": "Pending",
    "rowid": "1091224",
    "final_x": "3687530.1",
    "final_y": "540948.98",
    "longitude": "-90.04869568839494",
    "latitude": "29.981237619760886",
    "geocoded_column": {
      "latitude": "29.981237619760886",
      "longitude": "-90.04869568839494"
    }
  },
  {
    "service_request": "2024-1091223",
    "request_type": "Trash/Recycling",
    "request_reason": "Request a Large Item Pick Up",
    "date_created": "2024-05-07T15:44:17.000",
    "date_modified": "2024-05-07T17:10:30.000",
    "case_close_date": "2024-05-07T12:10:30.000",
    "request_status": "Closed",
    "responsible_agency": "Department of Sanitation",
    "final_address": "4318 Palmyra St",
    "address_councildis": "A",
    "status": "Invalid Request",
    "contractor": "IV Waste",
    "contractor_action": "Invalid Request",
    "rowid": "1091223",
    "final_x": "3669637.90202",
    "final_y": "538378.434825",
    "longitude": "-90.105294561961",
    "latitude": "29.97470892485077",
    "geocoded_column": {
      "latitude": "29.97470892485077",
      "longitude": "-90.105294561961"
    }
  },
  {
    "service_request": "2024-1091222",
    "request_type": "Trash/Recycling",
    "request_reason": "Request a Large Item Pick Up",
    "date_created": "2024-05-07T15:43:41.000",
    "date_modified": "2024-05-07T15:43:43.000",
    "request_status": "Pending",
    "responsible_agency": "Department of Sanitation",
    "final_address": "5150 Lakeview Ct",
    "address_councildis": "E",
    "status": "Assigned to Contractor",
    "contractor": "Waste Pro",
    "rowid": "1091222",
    "final_x": "3698812.01853",
    "final_y": "556389.597146",
    "longitude": "-90.01250031594577",
    "latitude": "30.02334094844567",
    "geocoded_column": {
      "latitude": "30.02334094844567",
      "longitude": "-90.01250031594577"
    }
  },
  {
    "service_request": "2024-1091221",
    "request_type": "Abandoned Vehicles",
    "request_reason": "Abandoned/Junk Vehicles",
    "date_created": "2024-05-07T15:41:05.000",
    "date_modified": "2024-05-07T15:41:05.000",
    "request_status": "Closed",
    "responsible_agency": "Department of Public Works",
    "final_address": "10101 Springwood St",
    "address_councildis": "E",
    "status": "Inspected",
    "rowid": "1091221",
    "final_x": "3712915.28798",
    "final_y": "555711.239769",
    "longitude": "-89.96796298771048",
    "latitude": "30.021021181854316",
    "geocoded_column": {
      "latitude": "30.021021181854316",
      "longitude": "-89.96796298771048"
    }
  },
  {
    "service_request": "2024-1091220",
    "request_type": "Trash/Recycling",
    "request_reason": "Order Trash Cart",
    "date_created": "2024-05-07T15:38:03.000",
    "date_modified": "2024-05-07T15:38:03.000",
    "request_status": "Pending",
    "responsible_agency": "Department of Sanitation",
    "final_address": "4034 St Ferdinand St",
    "address_councildis": "D",
    "status": "Assigned to Contractor",
    "contractor": "IV Waste",
    "rowid": "1091220",
    "final_x": "3689803.46819",
    "final_y": "548146.94837",
    "longitude": "-90.0412590233236",
    "latitude": "30.000959162063566",
    "geocoded_column": {
      "latitude": "30.000959162063566",
      "longitude": "-90.0412590233236"
    }
  },
  {
    "service_request": "2024-1091219",
    "request_type": "Property Maintenance",
    "request_reason": "Property Maintenance",
    "date_created": "2024-05-07T15:38:00.000",
    "date_modified": "2024-05-07T15:38:00.000",
    "request_status": "Pending",
    "responsible_agency": "Department of Code Enforcement",
    "final_address": "2323 Odin St",
    "address_councildis": "D",
    "status": "Pending",
    "rowid": "1091219",
    "final_x": "3684625.69397",
    "final_y": "553151.612631",
    "longitude": "-90.05743994855227",
    "latitude": "30.014879695700976",
    "geocoded_column": {
      "latitude": "30.014879695700976",
      "longitude": "-90.05743994855227"
    }
  },
  {
    "service_request": "2024-1091217",
    "request_type": "Traffic Signals/Signs/Striping/Streetlights",
    "request_reason": "Street Light Outage/Malfunction",
    "date_created": "2024-05-07T15:34:56.000",
    "date_modified": "2024-05-07T15:34:57.000",
    "request_status": "Pending",
    "responsible_agency": "Department of Public Works",
    "final_address": "2464 Cumberland Ct",
    "address_councildis": "C",
    "status": "Assigned to Contractor",
    "contractor": "Legacy Professional Services",
    "rowid": "1091217",
    "final_x": "3704979.81867",
    "final_y": "521994.64089",
    "longitude": "-89.9942815907704",
    "latitude": "29.92857052864562",
    "geocoded_column": {
      "latitude": "29.92857052864562",
      "longitude": "-89.9942815907704"
    }
  },
  {
    "service_request": "2024-1091216",
    "request_type": "Trash/Recycling",
    "request_reason": "Repair Trash Cart",
    "date_created": "2024-05-07T15:32:09.000",
    "date_modified": "2024-05-07T15:32:10.000",
    "request_status": "Pending",
    "responsible_agency": "Department of Sanitation",
    "final_address": "7037 Walmsley Ave",
    "address_councildis": "B",
    "status": "Assigned to Contractor",
    "contractor": "IV Waste",
    "rowid": "1091216",
    "final_x": "3667684.06036",
    "final_y": "531082.994242",
    "longitude": "-90.11171094650865",
    "latitude": "29.954706313557086",
    "geocoded_column": {
      "latitude": "29.954706313557086",
      "longitude": "-90.11171094650865"
    }
  },
  {
    "service_request": "2024-1091215",
    "request_type": "Trash/Recycling",
    "request_reason": "Order Recycling Cart",
    "date_created": "2024-05-07T15:28:50.000",
    "date_modified": "2024-05-07T15:29:43.000",
    "request_status": "Pending",
    "responsible_agency": "Department of Sanitation",
    "final_address": "6015 Pitt St",
    "address_councildis": "A",
    "status": "Pending",
    "rowid": "1091215",
    "final_x": "3665148.24852",
    "final_y": "521286.537401",
    "longitude": "-90.12004564061415",
    "latitude": "29.927843289803864",
    "geocoded_column": {
      "latitude": "29.927843289803864",
      "longitude": "-90.12004564061415"
    }
  },
  {
    "service_request": "2024-1091214",
    "request_type": "Trash/Recycling",
    "request_reason": "Request a Large Item Pick Up",
    "date_created": "2024-05-07T15:20:01.000",
    "date_modified": "2024-05-07T15:20:02.000",
    "request_status": "Pending",
    "responsible_agency": "Department of Sanitation",
    "final_address": "8930 Lake Forest Blvd",
    "address_councildis": "E",
    "status": "Assigned to Contractor",
    "contractor": "Waste Pro",
    "rowid": "1091214",
    "final_x": "3707347.51736",
    "final_y": "558289.881628",
    "longitude": "-89.98545955476317",
    "latitude": "30.028292689837787",
    "geocoded_column": {
      "latitude": "30.028292689837787",
      "longitude": "-89.98545955476317"
    }
  },
  {
    "service_request": "2024-1091213",
    "request_type": "Trash/Recycling",
    "request_reason": "Replace Trash Cart",
    "date_created": "2024-05-07T15:19:01.000",
    "date_modified": "2024-05-07T15:25:36.000",
    "request_status": "Pending",
    "responsible_agency": "Department of Sanitation",
    "final_address": "10941 Kinneil Rd",
    "address_councildis": "E",
    "status": "Assigned to Contractor",
    "contractor": "Waste Pro",
    "rowid": "1091213",
    "final_x": "3711434.95467",
    "final_y": "564383.954081",
    "longitude": "-89.97231487803055",
    "latitude": "30.044916118985302",
    "geocoded_column": {
      "latitude": "30.044916118985302",
      "longitude": "-89.97231487803055"
    }
  },
  {
    "service_request": "2024-1091212",
    "request_type": "Trash/Recycling",
    "request_reason": "Request a Large Item Pick Up",
    "date_created": "2024-05-07T15:16:10.000",
    "date_modified": "2024-05-07T15:16:10.000",
    "request_status": "Pending",
    "responsible_agency": "Department of Sanitation",
    "final_address": "10138 Hammond St",
    "address_councildis": "E",
    "status": "Assigned to Contractor",
    "contractor": "Waste Pro",
    "rowid": "1091212",
    "final_x": "3713115.06776",
    "final_y": "556352.927258",
    "longitude": "-89.96730757583401",
    "latitude": "30.022779022531825",
    "geocoded_column": {
      "latitude": "30.022779022531825",
      "longitude": "-89.96730757583401"
    }
  },
  {
    "service_request": "2024-1091211",
    "request_type": "Traffic Signals/Signs/Striping/Streetlights",
    "request_reason": "Disabled Parking Sign ",
    "date_created": "2024-05-07T15:15:42.000",
    "date_modified": "2024-05-07T15:15:42.000",
    "request_status": "Pending",
    "responsible_agency": "Department of Public Works",
    "final_address": "4424 Banks St",
    "address_councildis": "A",
    "status": "Pending",
    "rowid": "1091211",
    "final_x": "3669039.91233",
    "final_y": "538298.485449",
    "longitude": "-90.10718586937826",
    "latitude": "29.974506699610046",
    "geocoded_column": {
      "latitude": "29.974506699610046",
      "longitude": "-90.10718586937826"
    }
  },
  {
    "service_request": "2024-1091210",
    "request_type": "Trash/Recycling",
    "request_reason": "Replace Trash Cart",
    "date_created": "2024-05-07T15:15:01.000",
    "date_modified": "2024-05-07T15:15:02.000",
    "request_status": "Pending",
    "responsible_agency": "Department of Sanitation",
    "final_address": "5301 Timber Crest Dr",
    "address_councildis": "C",
    "status": "Assigned to Contractor",
    "contractor": "Richards Disposal",
    "rowid": "1091210",
    "final_x": "3703686.00074",
    "final_y": "511130.359408",
    "longitude": "-89.99876531844853",
    "latitude": "29.89873899078032",
    "geocoded_column": {
      "latitude": "29.89873899078032",
      "longitude": "-89.99876531844853"
    }
  },
  {
    "service_request": "2024-1091209",
    "request_type": "Roads/Drainage",
    "request_reason": "Debris in Roadway",
    "date_created": "2024-05-07T15:13:41.000",
    "date_modified": "2024-05-07T15:13:41.000",
    "request_status": "Pending",
    "responsible_agency": "Department of Public Works",
    "final_address": "PHILIP ST & PRYTANIA ST",
    "address_councildis": "B",
    "status": "Pending",
    "rowid": "1091209",
    "final_x": "3677625.7",
    "final_y": "523045.68",
    "longitude": "-90.08059652411043",
    "latitude": "29.93231117647866",
    "geocoded_column": {
      "latitude": "29.93231117647866",
      "longitude": "-90.08059652411043"
    }
  },
  {
    "service_request": "2024-1091208",
    "request_type": "Abandoned Vehicles",
    "request_reason": "Abandoned/Junk Vehicles",
    "date_created": "2024-05-07T15:07:56.000",
    "date_modified": "2024-05-07T15:07:56.000",
    "request_status": "Pending",
    "responsible_agency": "Department of Public Works",
    "final_address": "5600 Clements Dr",
    "address_councildis": "E",
    "status": "Inspected",
    "rowid": "1091208",
    "final_x": "3702391.56484",
    "final_y": "556259.00329",
    "longitude": "-90.00119458734751",
    "latitude": "30.022867924256165",
    "geocoded_column": {
      "latitude": "30.022867924256165",
      "longitude": "-90.00119458734751"
    }
  },
  {
    "service_request": "2024-1091207",
    "request_type": "Roads/Drainage",
    "request_reason": "Street Subsidence (Sinking)",
    "date_created": "2024-05-07T15:07:37.000",
    "date_modified": "2024-05-07T15:07:37.000",
    "request_status": "Pending",
    "responsible_agency": "Department of Public Works",
    "final_address": "228 Decatur St",
    "address_councildis": "C",
    "status": "Pending",
    "rowid": "1091207",
    "final_x": "3682245.24181",
    "final_y": "530726.512066",
    "longitude": "-90.06574483611844",
    "latitude": "29.953291211828674",
    "geocoded_column": {
      "latitude": "29.953291211828674",
      "longitude": "-90.06574483611844"
    }
  },
  {
    "service_request": "2024-1091206",
    "request_type": "Roads/Drainage",
    "request_reason": "Damaged Sidewalk",
    "date_created": "2024-05-07T15:06:51.000",
    "date_modified": "2024-05-07T15:06:51.000",
    "request_status": "Pending",
    "responsible_agency": "Department of Public Works",
    "final_address": "614 Pacific Ave",
    "address_councildis": "C",
    "status": "Pending",
    "rowid": "1091206",
    "final_x": "3688519.74332",
    "final_y": "529311.325377",
    "longitude": "-90.04598291779914",
    "latitude": "29.949207583785558",
    "geocoded_column": {
      "latitude": "29.949207583785558",
      "longitude": "-90.04598291779914"
    }
  },
  {
    "service_request": "2024-1091205",
    "request_type": "Abandoned Vehicles",
    "request_reason": "Abandoned/Junk Vehicles",
    "date_created": "2024-05-07T15:06:46.000",
    "date_modified": "2024-05-07T15:06:46.000",
    "request_status": "Pending",
    "responsible_agency": "Department of Public Works",
    "final_address": "14500 BLK Morrison Rd",
    "address_councildis": "E",
    "status": "Pending",
    "rowid": "1091205",
    "final_x": "3720741.3554",
    "final_y": "572568.103667",
    "longitude": "-89.94258871091535",
    "latitude": "30.06711189505254",
    "geocoded_column": {
      "latitude": "30.06711189505254",
      "longitude": "-89.94258871091535"
    }
  },
  {
    "service_request": "2024-1091204",
    "request_type": "Trash/Recycling",
    "request_reason": "Request a Large Item Pick Up",
    "date_created": "2024-05-07T15:03:16.000",
    "date_modified": "2024-05-07T15:03:17.000",
    "request_status": "Pending",
    "responsible_agency": "Department of Sanitation",
    "final_address": "400 Park Blvd",
    "address_councildis": "C",
    "status": "Assigned to Contractor",
    "contractor": "Richards Disposal",
    "rowid": "1091204",
    "final_x": "3686756.6973",
    "final_y": "525872.186045",
    "longitude": "-90.05167107896489",
    "latitude": "29.939805464748478",
    "geocoded_column": {
      "latitude": "29.939805464748478",
      "longitude": "-90.05167107896489"
    }
  },
  {
    "service_request": "2024-1091203",
    "request_type": "Trash/Recycling",
    "request_reason": "Order Trash Cart",
    "date_created": "2024-05-07T15:03:00.000",
    "date_modified": "2024-05-07T15:03:01.000",
    "request_status": "Pending",
    "responsible_agency": "Department of Sanitation",
    "final_address": "10920 Roger Dr Apt C",
    "address_councildis": "E",
    "status": "Assigned to Contractor",
    "contractor": "Waste Pro",
    "rowid": "1091203",
    "final_x": "3712064.80683",
    "final_y": "563265.561248",
    "longitude": "-89.97036631285744",
    "latitude": "30.041820403148687",
    "geocoded_column": {
      "latitude": "30.041820403148687",
      "longitude": "-89.97036631285744"
    }
  },
  {
    "service_request": "2024-1091202",
    "request_type": "Trash/Recycling",
    "request_reason": "Request a Large Item Pick Up",
    "date_created": "2024-05-07T15:01:55.000",
    "date_modified": "2024-05-07T15:01:56.000",
    "request_status": "Pending",
    "responsible_agency": "Department of Sanitation",
    "final_address": "10920 Roger Dr Apt C",
    "address_councildis": "E",
    "status": "Assigned to Contractor",
    "contractor": "Waste Pro",
    "rowid": "1091202",
    "final_x": "3712064.80683",
    "final_y": "563265.561248",
    "longitude": "-89.97036631285744",
    "latitude": "30.041820403148687",
    "geocoded_column": {
      "latitude": "30.041820403148687",
      "longitude": "-89.97036631285744"
    }
  },
  {
    "service_request": "2024-1091201",
    "request_type": "Trash/Recycling",
    "request_reason": "Request a Large Item Pick Up",
    "date_created": "2024-05-07T15:01:18.000",
    "date_modified": "2024-05-07T15:01:19.000",
    "request_status": "Pending",
    "responsible_agency": "Department of Sanitation",
    "final_address": "4540 Bancroft Dr",
    "address_councildis": "D",
    "status": "Assigned to Contractor",
    "contractor": "IV Waste",
    "rowid": "1091201",
    "final_x": "3676129.36456",
    "final_y": "548965.453907",
    "longitude": "-90.0844284559474",
    "latitude": "30.00362664899014",
    "geocoded_column": {
      "latitude": "30.00362664899014",
      "longitude": "-90.0844284559474"
    }
  },
  {
    "service_request": "2024-1091200",
    "request_type": "Trash/Recycling",
    "request_reason": "Request a Large Item Pick Up",
    "date_created": "2024-05-07T14:58:29.000",
    "date_modified": "2024-05-07T14:58:30.000",
    "request_status": "Pending",
    "responsible_agency": "Department of Sanitation",
    "final_address": "3026 Robert St",
    "address_councildis": "B",
    "status": "Assigned to Contractor",
    "contractor": "IV Waste",
    "rowid": "1091200",
    "final_x": "3668824.71425",
    "final_y": "526483.243326",
    "longitude": "-90.10826447481786",
    "latitude": "29.942025009960354",
    "geocoded_column": {
      "latitude": "29.942025009960354",
      "longitude": "-90.10826447481786"
    }
  },
  {
    "service_request": "2024-1091199",
    "request_type": "Property Maintenance",
    "request_reason": "Property Maintenance",
    "date_created": "2024-05-07T14:54:05.000",
    "date_modified": "2024-05-07T14:54:05.000",
    "request_status": "Pending",
    "responsible_agency": "Department of Code Enforcement",
    "final_address": "2026 Andry St",
    "address_councildis": "E",
    "status": "Pending",
    "rowid": "1091199",
    "final_x": "3698118.23722",
    "final_y": "537569.186568",
    "longitude": "-90.01537651641313",
    "latitude": "29.971613758500727",
    "geocoded_column": {
      "latitude": "29.971613758500727",
      "longitude": "-90.01537651641313"
    }
  },
  {
    "service_request": "2024-1091198",
    "request_type": "Mosquito, Termite & Rodent Control",
    "request_reason": "Rodent Complaint (Rats)",
    "date_created": "2024-05-07T14:53:57.000",
    "date_modified": "2024-05-07T14:53:58.000",
    "request_status": "Pending",
    "responsible_agency": "Mosquito, Termite & Rodent Control Board",
    "final_address": "2312 Magnolia St",
    "address_councildis": "B",
    "status": "Pending",
    "rowid": "1091198",
    "final_x": "3674889.39374",
    "final_y": "526529.27955",
    "longitude": "-90.08911538224777",
    "latitude": "29.941971912060072",
    "geocoded_column": {
      "latitude": "29.941971912060072",
      "longitude": "-90.08911538224777"
    }
  },
  {
    "service_request": "2024-1091197",
    "request_type": "Roads/Drainage",
    "request_reason": "Catch Basin - Clogged",
    "date_created": "2024-05-07T14:53:28.000",
    "date_modified": "2024-05-07T14:53:29.000",
    "request_status": "Pending",
    "responsible_agency": "Department of Public Works",
    "final_address": "N DORGENOIS ST & DUBREUIL ST",
    "address_councildis": "E",
    "status": "Pending",
    "rowid": "1091197",
    "final_x": "3702740.3",
    "final_y": "537812.08",
    "longitude": "-90.00077053502285",
    "latitude": "29.972134636773607",
    "geocoded_column": {
      "latitude": "29.972134636773607",
      "longitude": "-90.00077053502285"
    }
  },
  {
    "service_request": "2024-1091196",
    "request_type": "Trash/Recycling",
    "request_reason": "Missed Trash Pick-Up",
    "date_created": "2024-05-07T14:51:36.000",
    "date_modified": "2024-05-07T15:00:07.000",
    "case_close_date": "2024-05-07T10:00:07.000",
    "request_status": "Closed",
    "responsible_agency": "Department of Sanitation",
    "final_address": "2228 Calhoun St, New Orleans, Louisiana, 70118",
    "address_councildis": "A",
    "status": "Invalid Request",
    "contractor": "IV Waste",
    "contractor_action": "Invalid",
    "rowid": "1091196",
    "final_x": "3665845.29069",
    "final_y": "525360.751101",
    "longitude": "-90.11770878708177",
    "latitude": "29.939025768907346",
    "geocoded_column": {
      "latitude": "29.939025768907346",
      "longitude": "-90.11770878708177"
    }
  },
  {
    "service_request": "2024-1091195",
    "request_type": "Property Maintenance",
    "request_reason": "Property Maintenance",
    "date_created": "2024-05-07T14:51:29.000",
    "date_modified": "2024-05-07T14:51:29.000",
    "request_status": "Pending",
    "responsible_agency": "Department of Code Enforcement",
    "final_address": "2026 Andry St",
    "address_councildis": "E",
    "status": "Pending",
    "rowid": "1091195",
    "final_x": "3698118.23722",
    "final_y": "537569.186568",
    "longitude": "-90.01537651641313",
    "latitude": "29.971613758500727",
    "geocoded_column": {
      "latitude": "29.971613758500727",
      "longitude": "-90.01537651641313"
    }
  },
  {
    "service_request": "2024-1091194",
    "request_type": "Trash/Recycling",
    "request_reason": "Replace Trash Cart",
    "date_created": "2024-05-07T14:51:01.000",
    "date_modified": "2024-05-07T14:51:02.000",
    "request_status": "Pending",
    "responsible_agency": "Department of Sanitation",
    "final_address": "5651 Marshal Foch St",
    "address_councildis": "A",
    "status": "Assigned to Contractor",
    "contractor": "IV Waste",
    "rowid": "1091194",
    "final_x": "3669703.25498",
    "final_y": "545030.876815",
    "longitude": "-90.10486290872099",
    "latitude": "29.992998948662798",
    "geocoded_column": {
      "latitude": "29.992998948662798",
      "longitude": "-90.10486290872099"
    }
  },
  {
    "service_request": "2024-1091193",
    "request_type": "Trash/Recycling",
    "request_reason": "Request a Large Item Pick Up",
    "date_created": "2024-05-07T14:50:40.000",
    "date_modified": "2024-05-07T14:50:41.000",
    "request_status": "Pending",
    "responsible_agency": "Department of Sanitation",
    "final_address": "N DORGENOIS ST & DUBREUIL ST",
    "address_councildis": "E",
    "status": "Assigned to Contractor",
    "contractor": "Waste Pro",
    "rowid": "1091193",
    "final_x": "3702740.3",
    "final_y": "537812.08",
    "longitude": "-90.00077053502285",
    "latitude": "29.972134636773607",
    "geocoded_column": {
      "latitude": "29.972134636773607",
      "longitude": "-90.00077053502285"
    }
  },
  {
    "service_request": "2024-1091192",
    "request_type": "Property Maintenance",
    "request_reason": "Property Maintenance",
    "date_created": "2024-05-07T14:48:12.000",
    "date_modified": "2024-05-07T14:48:12.000",
    "request_status": "Pending",
    "responsible_agency": "Department of Code Enforcement",
    "final_address": "2526 Cleveland Ave",
    "address_councildis": "B",
    "status": "Pending",
    "rowid": "1091192",
    "final_x": "3675647.29531",
    "final_y": "534252.885765",
    "longitude": "-90.08645717127062",
    "latitude": "29.963186605515524",
    "geocoded_column": {
      "latitude": "29.963186605515524",
      "longitude": "-90.08645717127062"
    }
  },
  {
    "service_request": "2024-1091191",
    "request_type": "Trash/Recycling",
    "request_reason": "Request a Large Item Pick Up",
    "date_created": "2024-05-07T14:47:58.000",
    "date_modified": "2024-05-07T14:48:20.000",
    "request_status": "Pending",
    "responsible_agency": "Department of Sanitation",
    "final_address": "621 Andry St",
    "address_councildis": "E",
    "status": "Assigned to Contractor",
    "contractor": "Waste Pro",
    "rowid": "1091191",
    "final_x": "3696757.1473",
    "final_y": "532330.447427",
    "longitude": "-90.01986466989426",
    "latitude": "29.957252065252444",
    "geocoded_column": {
      "latitude": "29.957252065252444",
      "longitude": "-90.01986466989426"
    }
  },
  {
    "service_request": "2024-1091190",
    "request_type": "Trash/Recycling",
    "request_reason": "Missed Trash Pick-Up",
    "date_created": "2024-05-07T14:47:03.000",
    "date_modified": "2024-05-07T16:39:17.000",
    "case_close_date": "2024-05-07T11:39:17.000",
    "request_status": "Closed",
    "responsible_agency": "Department of Sanitation",
    "final_address": "335 City Park Ave",
    "address_councildis": "A",
    "status": "Assigned to Contractor",
    "contractor": "IV Waste",
    "contractor_action": "Completed",
    "rowid": "1091190",
    "final_x": "3668820.09972",
    "final_y": "541478.739916",
    "longitude": "-90.10777266463592",
    "latitude": "29.983257790875044",
    "geocoded_column": {
      "latitude": "29.983257790875044",
      "longitude": "-90.10777266463592"
    }
  },
  {
    "service_request": "2024-1091189",
    "request_type": "Trash/Recycling",
    "request_reason": "Illegal Dumping",
    "date_created": "2024-05-07T14:44:11.000",
    "date_modified": "2024-05-07T14:44:12.000",
    "request_status": "Pending",
    "responsible_agency": "Department of Sanitation",
    "final_address": "7001 Prentiss Ave",
    "address_councildis": "E",
    "status": "Pending",
    "rowid": "1091189",
    "final_x": "3701230.83421",
    "final_y": "555044.829913",
    "longitude": "-90.00490668600474",
    "latitude": "30.019566466322132",
    "geocoded_column": {
      "latitude": "30.019566466322132",
      "longitude": "-90.00490668600474"
    }
  },
  {
    "service_request": "2024-1091188",
    "request_type": "Traffic Signals/Signs/Striping/Streetlights",
    "request_reason": "Traffic Sign Missing/Damaged",
    "date_created": "2024-05-07T14:42:08.000",
    "date_modified": "2024-05-07T14:42:08.000",
    "request_status": "Pending",
    "responsible_agency": "Department of Public Works",
    "final_address": "DIAGONAL DR & ZACHARY TAYLOR DR",
    "address_councildis": "A",
    "status": "Pending",
    "rowid": "1091188",
    "final_x": "3671983.6",
    "final_y": "545674.98",
    "longitude": "-90.0976377360795",
    "latitude": "29.994702589043747",
    "geocoded_column": {
      "latitude": "29.994702589043747",
      "longitude": "-90.0976377360795"
    }
  },
  {
    "service_request": "2024-1091187",
    "request_type": "Trash/Recycling",
    "request_reason": "Request a Large Item Pick Up",
    "date_created": "2024-05-07T14:39:43.000",
    "date_modified": "2024-05-07T14:39:44.000",
    "request_status": "Pending",
    "responsible_agency": "Department of Sanitation",
    "final_address": "6030 St Claude Ave",
    "address_councildis": "E",
    "status": "Assigned to Contractor",
    "contractor": "Waste Pro",
    "rowid": "1091187",
    "final_x": "3699342.21719",
    "final_y": "533315.732484",
    "longitude": "-90.01166597106739",
    "latitude": "29.95987951657419",
    "geocoded_column": {
      "latitude": "29.95987951657419",
      "longitude": "-90.01166597106739"
    }
  },
  {
    "service_request": "2024-1091186",
    "request_type": "Trash/Recycling",
    "request_reason": "Order Recycling Cart",
    "date_created": "2024-05-07T14:38:41.000",
    "date_modified": "2024-05-07T14:38:41.000",
    "request_status": "Pending",
    "responsible_agency": "Department of Sanitation",
    "final_address": "510 Henry Clay Ave",
    "address_councildis": "A",
    "status": "Pending",
    "rowid": "1091186",
    "final_x": "3663383.95411",
    "final_y": "518709.644983",
    "longitude": "-90.12570086332438",
    "latitude": "29.92080889164161",
    "geocoded_column": {
      "latitude": "29.92080889164161",
      "longitude": "-90.12570086332438"
    }
  },
  {
    "service_request": "2024-1091185",
    "request_type": "Trash/Recycling",
    "request_reason": "Order Recycling Cart",
    "date_created": "2024-05-07T14:37:00.000",
    "date_modified": "2024-05-07T14:37:00.000",
    "request_status": "Pending",
    "responsible_agency": "Department of Sanitation",
    "final_address": "510 Henry Clay Ave",
    "address_councildis": "A",
    "status": "Pending",
    "rowid": "1091185",
    "final_x": "3663383.95411",
    "final_y": "518709.644983",
    "longitude": "-90.12570086332438",
    "latitude": "29.92080889164161",
    "geocoded_column": {
      "latitude": "29.92080889164161",
      "longitude": "-90.12570086332438"
    }
  },
  {
    "service_request": "2024-1091184",
    "request_type": "Roads/Drainage",
    "request_reason": "Catch Basin - Clogged",
    "date_created": "2024-05-07T14:34:23.000",
    "date_modified": "2024-05-07T15:23:30.000",
    "case_close_date": "2024-05-07T10:23:30.000",
    "request_status": "Closed",
    "responsible_agency": "Department of Public Works",
    "final_address": "2740 Canal St",
    "address_councildis": "B",
    "status": "Resolved",
    "rowid": "1091184",
    "final_x": "3674954.79342",
    "final_y": "535282.34727",
    "longitude": "-90.08860869949568",
    "latitude": "29.966037979823046",
    "geocoded_column": {
      "latitude": "29.966037979823046",
      "longitude": "-90.08860869949568"
    }
  },
  {
    "service_request": "2024-1091183",
    "request_type": "Trash/Recycling",
    "request_reason": "Replace Trash Cart",
    "date_created": "2024-05-07T14:33:54.000",
    "date_modified": "2024-05-07T14:33:55.000",
    "request_status": "Pending",
    "responsible_agency": "Department of Sanitation",
    "final_address": "3801 Octavia St",
    "address_councildis": "A",
    "status": "Assigned to Contractor",
    "contractor": "IV Waste",
    "rowid": "1091183",
    "final_x": "3668815.86087",
    "final_y": "529363.450433",
    "longitude": "-90.10819519943391",
    "latitude": "29.9499449036107",
    "geocoded_column": {
      "latitude": "29.9499449036107",
      "longitude": "-90.10819519943391"
    }
  },
  {
    "service_request": "2024-1091182",
    "request_type": "Trash/Recycling",
    "request_reason": "Order Trash Cart",
    "date_created": "2024-05-07T14:25:38.000",
    "date_modified": "2024-05-07T14:25:39.000",
    "request_status": "Pending",
    "responsible_agency": "Department of Sanitation",
    "final_address": "9224 Edinburgh St",
    "address_councildis": "A",
    "status": "Assigned to Contractor",
    "contractor": "IV Waste",
    "rowid": "1091182",
    "final_x": "3664420.5778",
    "final_y": "537128.85364",
    "longitude": "-90.12181396499791",
    "latitude": "29.971425709725324",
    "geocoded_column": {
      "latitude": "29.971425709725324",
      "longitude": "-90.12181396499791"
    }
  },
  {
    "service_request": "2024-1091181",
    "request_type": "Trash/Recycling",
    "request_reason": "Order Trash Cart",
    "date_created": "2024-05-07T14:24:51.000",
    "date_modified": "2024-05-07T14:24:52.000",
    "request_status": "Pending",
    "responsible_agency": "Department of Sanitation",
    "final_address": "9222 Edinburgh St",
    "address_councildis": "A",
    "status": "Assigned to Contractor",
    "contractor": "IV Waste",
    "rowid": "1091181",
    "final_x": "3664434.37261",
    "final_y": "537125.4786",
    "longitude": "-90.12177051151238",
    "latitude": "29.971416028424002",
    "geocoded_column": {
      "latitude": "29.971416028424002",
      "longitude": "-90.12177051151238"
    }
  },
  {
    "service_request": "2024-1091180",
    "request_type": "Trash/Recycling",
    "request_reason": "Request a Large Item Pick Up",
    "date_created": "2024-05-07T14:24:31.000",
    "date_modified": "2024-05-07T14:24:32.000",
    "request_status": "Pending",
    "responsible_agency": "Department of Sanitation",
    "final_address": "2182 N Broad St",
    "address_councildis": "D",
    "status": "Assigned to Contractor",
    "contractor": "IV Waste",
    "rowid": "1091180",
    "final_x": "3681300.29967",
    "final_y": "542890.623501",
    "longitude": "-90.06830451252442",
    "latitude": "29.98676703592109",
    "geocoded_column": {
      "latitude": "29.98676703592109",
      "longitude": "-90.06830451252442"
    }
  },
  {
    "service_request": "2024-1091179",
    "request_type": "Trash/Recycling",
    "request_reason": "Order Trash Cart",
    "date_created": "2024-05-07T14:24:02.000",
    "date_modified": "2024-05-07T14:24:02.000",
    "request_status": "Pending",
    "responsible_agency": "Department of Sanitation",
    "final_address": "9218 Edinburgh St",
    "address_councildis": "A",
    "status": "Assigned to Contractor",
    "contractor": "IV Waste",
    "rowid": "1091179",
    "final_x": "3664465.97684",
    "final_y": "537124.962312",
    "longitude": "-90.12167071761664",
    "latitude": "29.971413689912087",
    "geocoded_column": {
      "latitude": "29.971413689912087",
      "longitude": "-90.12167071761664"
    }
  },
  {
    "service_request": "2024-1091178",
    "request_type": "Trash/Recycling",
    "request_reason": "Order Trash Cart",
    "date_created": "2024-05-07T14:23:14.000",
    "date_modified": "2024-05-07T14:23:15.000",
    "request_status": "Pending",
    "responsible_agency": "Department of Sanitation",
    "final_address": "9216 Edinburgh St",
    "address_councildis": "A",
    "status": "Assigned to Contractor",
    "contractor": "IV Waste",
    "rowid": "1091178",
    "final_x": "3664477.93472",
    "final_y": "537122.098632",
    "longitude": "-90.12163304838613",
    "latitude": "29.971405468046598",
    "geocoded_column": {
      "latitude": "29.971405468046598",
      "longitude": "-90.12163304838613"
    }
  },
  {
    "service_request": "2024-1091177",
    "request_type": "Roads/Drainage",
    "request_reason": "Street Flooding / Drainage",
    "date_created": "2024-05-07T14:23:07.000",
    "date_modified": "2024-05-07T14:23:07.000",
    "request_status": "Pending",
    "responsible_agency": "Department of Public Works",
    "final_address": "3301 Nashville Ave",
    "address_councildis": "A",
    "status": "Pending",
    "rowid": "1091177",
    "final_x": "3668037.34663",
    "final_y": "527826.234303",
    "longitude": "-90.1107051283234",
    "latitude": "29.945740924038976",
    "geocoded_column": {
      "latitude": "29.945740924038976",
      "longitude": "-90.1107051283234"
    }
  },
  {
    "service_request": "2024-1091176",
    "request_type": "Roads/Drainage",
    "request_reason": "Leaking Hydrant",
    "date_created": "2024-05-07T14:22:04.000",
    "date_modified": "2024-05-07T14:22:05.000",
    "request_status": "Pending",
    "responsible_agency": "Department of Public Works",
    "final_address": "S CLAIBORNE AVE & HAMILTON ST",
    "address_councildis": "A",
    "status": "Pending",
    "rowid": "1091176",
    "final_x": "3662273.0",
    "final_y": "533953.98",
    "longitude": "-90.12870177087791",
    "latitude": "29.962758109343714",
    "geocoded_column": {
      "latitude": "29.962758109343714",
      "longitude": "-90.12870177087791"
    }
  },
  {
    "service_request": "2024-1091175",
    "request_type": "Traffic Signals/Signs/Striping/Streetlights",
    "request_reason": "Street Light Outage/Malfunction",
    "date_created": "2024-05-07T14:21:44.000",
    "date_modified": "2024-05-07T14:21:45.000",
    "request_status": "Pending",
    "responsible_agency": "Department of Public Works",
    "final_address": "4859 Evangeline Dr",
    "address_councildis": "E",
    "status": "Assigned to Contractor",
    "contractor": "Legacy Professional Services",
    "rowid": "1091175",
    "final_x": "3709084.48363",
    "final_y": "556536.015002",
    "longitude": "-89.98003634358123",
    "latitude": "30.02341394874305",
    "geocoded_column": {
      "latitude": "30.02341394874305",
      "longitude": "-89.98003634358123"
    }
  },
  {
    "service_request": "2024-1091174",
    "request_type": "Traffic Signals/Signs/Striping/Streetlights",
    "request_reason": "Street Light Outage/Malfunction",
    "date_created": "2024-05-07T14:20:42.000",
    "date_modified": "2024-05-07T14:20:43.000",
    "request_status": "Pending",
    "responsible_agency": "Department of Public Works",
    "final_address": "8425 Belfast St",
    "address_councildis": "A",
    "status": "Assigned to Contractor",
    "contractor": "Legacy Professional Services",
    "rowid": "1091174",
    "final_x": "3664655.93319",
    "final_y": "533271.494596",
    "longitude": "-90.12119954472634",
    "latitude": "29.96081239845911",
    "geocoded_column": {
      "latitude": "29.96081239845911",
      "longitude": "-90.12119954472634"
    }
  },
  {
    "service_request": "2024-1091173",
    "request_type": "Trash/Recycling",
    "request_reason": "Missed Trash Pick-Up",
    "date_created": "2024-05-07T14:19:56.000",
    "date_modified": "2024-05-07T16:11:34.000",
    "request_status": "Pending",
    "responsible_agency": "Department of Sanitation",
    "final_address": "7021 Ridgefield Dr",
    "address_councildis": "E",
    "status": "Assigned to Contractor",
    "contractor": "Waste Pro",
    "rowid": "1091173",
    "final_x": "3719496.90335",
    "final_y": "569565.477926",
    "longitude": "-89.94663746144306",
    "latitude": "30.05889740313564",
    "geocoded_column": {
      "latitude": "30.05889740313564",
      "longitude": "-89.94663746144306"
    }
  },
  {
    "service_request": "2024-1091172",
    "request_type": "Trash/Recycling",
    "request_reason": "Request a Large Item Pick Up",
    "date_created": "2024-05-07T14:19:15.000",
    "date_modified": "2024-05-07T17:07:57.000",
    "case_close_date": "2024-05-07T12:07:57.000",
    "request_status": "Closed",
    "responsible_agency": "Department of Sanitation",
    "final_address": "2709 Hamilton St",
    "address_councildis": "A",
    "status": "Assigned to Contractor",
    "contractor": "IV Waste",
    "contractor_action": "Completed",
    "rowid": "1091172",
    "final_x": "3663074.27258",
    "final_y": "534786.719174",
    "longitude": "-90.12614373955995",
    "latitude": "29.96502468247739",
    "geocoded_column": {
      "latitude": "29.96502468247739",
      "longitude": "-90.12614373955995"
    }
  },
  {
    "service_request": "2024-1091171",
    "request_type": "Trash/Recycling",
    "request_reason": "Order Recycling Cart",
    "date_created": "2024-05-07T14:17:02.000",
    "date_modified": "2024-05-07T14:17:03.000",
    "request_status": "Pending",
    "responsible_agency": "Department of Sanitation",
    "final_address": "2716 Magnolia St",
    "address_councildis": "B",
    "status": "Pending",
    "rowid": "1091171",
    "final_x": "3673898.65115",
    "final_y": "525880.103165",
    "longitude": "-90.09226557092431",
    "latitude": "29.940216433380165",
    "geocoded_column": {
      "latitude": "29.940216433380165",
      "longitude": "-90.09226557092431"
    }
  },
  {
    "service_request": "2024-1091170",
    "request_type": "Roads/Drainage",
    "request_reason": "Pothole",
    "date_created": "2024-05-07T14:13:33.000",
    "date_modified": "2024-05-07T14:13:58.000",
    "case_close_date": "2024-05-07T09:13:58.000",
    "request_status": "Closed",
    "responsible_agency": "Department of Public Works",
    "final_address": "3100 BLK Music St",
    "address_councildis": "D",
    "status": "Resolved",
    "rowid": "1091170",
    "final_x": "3686211.97859",
    "final_y": "544365.849376",
    "longitude": "-90.05273829413123",
    "latitude": "29.990673365270833",
    "geocoded_column": {
      "latitude": "29.990673365270833",
      "longitude": "-90.05273829413123"
    }
  },
  {
    "service_request": "2024-1091169",
    "request_type": "Property Maintenance",
    "request_reason": "Property Maintenance",
    "date_created": "2024-05-07T14:12:14.000",
    "date_modified": "2024-05-07T14:12:14.000",
    "request_status": "Pending",
    "responsible_agency": "Department of Code Enforcement",
    "final_address": "4754 Perrault Walk",
    "address_councildis": "E",
    "status": "Pending",
    "rowid": "1091169",
    "final_x": "3709871.66168",
    "final_y": "555806.512025",
    "longitude": "-89.97757632349095",
    "latitude": "30.02138251423288",
    "geocoded_column": {
      "latitude": "30.02138251423288",
      "longitude": "-89.97757632349095"
    }
  },
  {
    "service_request": "2024-1091168",
    "request_type": "Roads/Drainage",
    "request_reason": "Pothole",
    "date_created": "2024-05-07T14:12:08.000",
    "date_modified": "2024-05-07T14:12:29.000",
    "case_close_date": "2024-05-07T09:12:28.000",
    "request_status": "Closed",
    "responsible_agency": "Department of Public Works",
    "final_address": "2800 BLK Marigny St",
    "address_councildis": "D",
    "status": "Resolved",
    "rowid": "1091168",
    "final_x": "3684872.27622",
    "final_y": "543150.36493",
    "longitude": "-90.05701284237702",
    "latitude": "29.987372316068875",
    "geocoded_column": {
      "latitude": "29.987372316068875",
      "longitude": "-90.05701284237702"
    }
  },
  {
    "service_request": "2024-1091167",
    "request_type": "Roads/Drainage",
    "request_reason": "Pothole",
    "date_created": "2024-05-07T14:10:42.000",
    "date_modified": "2024-05-07T14:11:01.000",
    "case_close_date": "2024-05-07T09:11:01.000",
    "request_status": "Closed",
    "responsible_agency": "Department of Public Works",
    "final_address": "5622 Press Dr",
    "address_councildis": "D",
    "status": "Resolved",
    "rowid": "1091167",
    "final_x": "3689272.92463",
    "final_y": "554157.411672",
    "longitude": "-90.04272118222791",
    "latitude": "30.017502166561105",
    "geocoded_column": {
      "latitude": "30.017502166561105",
      "longitude": "-90.04272118222791"
    }
  },
  {
    "service_request": "2024-1091166",
    "request_type": "Roads/Drainage",
    "request_reason": "Pothole",
    "date_created": "2024-05-07T14:09:08.000",
    "date_modified": "2024-05-07T14:09:26.000",
    "case_close_date": "2024-05-07T09:09:26.000",
    "request_status": "Closed",
    "responsible_agency": "Department of Public Works",
    "final_address": "700 Thayer St",
    "address_councildis": "C",
    "status": "Resolved",
    "rowid": "1091166",
    "final_x": "3689539.78025",
    "final_y": "528981.578624",
    "longitude": "-90.04277394814041",
    "latitude": "29.948269342584243",
    "geocoded_column": {
      "latitude": "29.948269342584243",
      "longitude": "-90.04277394814041"
    }
  },
  {
    "service_request": "2024-1091165",
    "request_type": "Trash/Recycling",
    "request_reason": "Repair Trash Cart",
    "date_created": "2024-05-07T14:07:56.000",
    "date_modified": "2024-05-07T14:07:56.000",
    "request_status": "Pending",
    "responsible_agency": "Department of Sanitation",
    "final_address": "4611 Cerise Ave",
    "address_councildis": "E",
    "status": "Assigned to Contractor",
    "contractor": "Waste Pro",
    "rowid": "1091165",
    "final_x": "3708764.71556",
    "final_y": "554833.697624",
    "longitude": "-89.98111021204939",
    "latitude": "30.018743619698007",
    "geocoded_column": {
      "latitude": "30.018743619698007",
      "longitude": "-89.98111021204939"
    }
  },
  {
    "service_request": "2024-1091164",
    "request_type": "Roads/Drainage",
    "request_reason": "Pothole",
    "date_created": "2024-05-07T14:07:50.000",
    "date_modified": "2024-05-07T14:08:07.000",
    "case_close_date": "2024-05-07T09:08:07.000",
    "request_status": "Closed",
    "responsible_agency": "Department of Public Works",
    "final_address": "900 BLK Thayer St",
    "address_councildis": "C",
    "status": "Resolved",
    "rowid": "1091164",
    "final_x": "3689443.37403",
    "final_y": "528079.956751",
    "longitude": "-90.04311039626863",
    "latitude": "29.94579317660493",
    "geocoded_column": {
      "latitude": "29.94579317660493",
      "longitude": "-90.04311039626863"
    }
  },
  {
    "service_request": "2024-1091163",
    "request_type": "Property Maintenance",
    "request_reason": "Property Maintenance",
    "date_created": "2024-05-07T14:07:47.000",
    "date_modified": "2024-05-07T14:07:47.000",
    "request_status": "Pending",
    "responsible_agency": "Department of Code Enforcement",
    "final_address": "4758 Perrault Walk",
    "address_councildis": "E",
    "status": "Pending",
    "rowid": "1091163",
    "final_x": "3709867.10699",
    "final_y": "555834.296857",
    "longitude": "-89.9775896761789",
    "latitude": "30.021459059842464",
    "geocoded_column": {
      "latitude": "30.021459059842464",
      "longitude": "-89.9775896761789"
    }
  },
  {
    "service_request": "2024-1091162",
    "request_type": "Roads/Drainage",
    "request_reason": "Pothole",
    "date_created": "2024-05-07T14:05:00.000",
    "date_modified": "2024-05-07T14:05:53.000",
    "case_close_date": "2024-05-07T09:05:53.000",
    "request_status": "Closed",
    "responsible_agency": "Department of Public Works",
    "final_address": "800 BLK Thayer St",
    "address_councildis": "C",
    "status": "Resolved",
    "rowid": "1091162",
    "final_x": "3689461.15188",
    "final_y": "528465.079997",
    "longitude": "-90.04304057332203",
    "latitude": "29.946851583254492",
    "geocoded_column": {
      "latitude": "29.946851583254492",
      "longitude": "-90.04304057332203"
    }
  },
  {
    "service_request": "2024-1091161",
    "request_type": "Roads/Drainage",
    "request_reason": "Pothole",
    "date_created": "2024-05-07T14:02:32.000",
    "date_modified": "2024-05-07T14:02:52.000",
    "case_close_date": "2024-05-07T09:02:52.000",
    "request_status": "Closed",
    "responsible_agency": "Department of Public Works",
    "final_address": "953 Harrison Ave",
    "address_councildis": "A",
    "status": "Resolved",
    "rowid": "1091161",
    "final_x": "3670561.36065",
    "final_y": "549248.061203",
    "longitude": "-90.10200914249857",
    "latitude": "30.00456941626881",
    "geocoded_column": {
      "latitude": "30.00456941626881",
      "longitude": "-90.10200914249857"
    }
  },
  {
    "service_request": "2024-1091160",
    "request_type": "Roads/Drainage",
    "request_reason": "Street Flooding / Drainage",
    "date_created": "2024-05-07T14:00:17.000",
    "date_modified": "2024-05-07T14:00:17.000",
    "request_status": "Pending",
    "responsible_agency": "Department of Public Works",
    "final_address": "8015 Trapier Ave",
    "address_councildis": "E",
    "status": "Pending",
    "rowid": "1091160",
    "final_x": "3706172.26091",
    "final_y": "564440.376161",
    "longitude": "-89.98894524065851",
    "latitude": "30.04524208495352",
    "geocoded_column": {
      "latitude": "30.04524208495352",
      "longitude": "-89.98894524065851"
    }
  },
  {
    "service_request": "2024-1091159",
    "request_type": "Trash/Recycling",
    "request_reason": "Replace Trash Cart",
    "date_created": "2024-05-07T13:59:41.000",
    "date_modified": "2024-05-07T13:59:41.000",
    "request_status": "Pending",
    "responsible_agency": "Department of Sanitation",
    "final_address": "5727 Brighton Pl",
    "address_councildis": "C",
    "status": "Assigned to Contractor",
    "contractor": "Richards Disposal",
    "rowid": "1091159",
    "final_x": "3704691.81732",
    "final_y": "520225.594232",
    "longitude": "-89.9952559567758",
    "latitude": "29.9237155174798",
    "geocoded_column": {
      "latitude": "29.9237155174798",
      "longitude": "-89.9952559567758"
    }
  },
  {
    "service_request": "2024-1091158",
    "request_type": "Roads/Drainage",
    "request_reason": "Pothole",
    "date_created": "2024-05-07T13:59:23.000",
    "date_modified": "2024-05-07T13:59:53.000",
    "case_close_date": "2024-05-07T08:59:53.000",
    "request_status": "Closed",
    "responsible_agency": "Department of Public Works",
    "final_address": "7300 BLK Shubrick Ave",
    "address_councildis": "E",
    "status": "Resolved",
    "rowid": "1091158",
    "final_x": "3707163.71392",
    "final_y": "563022.982009",
    "longitude": "-89.9858644775611",
    "latitude": "30.041312793218925",
    "geocoded_column": {
      "latitude": "30.041312793218925",
      "longitude": "-89.9858644775611"
    }
  },
  {
    "service_request": "2024-1091157",
    "request_type": "Traffic Signals/Signs/Striping/Streetlights",
    "request_reason": "Street Light Outage/Malfunction",
    "date_created": "2024-05-07T13:59:02.000",
    "date_modified": "2024-05-07T13:59:03.000",
    "request_status": "Pending",
    "responsible_agency": "Department of Public Works",
    "final_address": "1300 Michael St",
    "address_councildis": "C",
    "status": "Assigned to Contractor",
    "contractor": "Legacy Professional Services",
    "rowid": "1091157",
    "final_x": "3697252.71799",
    "final_y": "526487.562942",
    "longitude": "-90.01851152635267",
    "latitude": "29.941170549457247",
    "geocoded_column": {
      "latitude": "29.941170549457247",
      "longitude": "-90.01851152635267"
    }
  },
  {
    "service_request": "2024-1091156",
    "request_type": "Trash/Recycling",
    "request_reason": "Request a Large Item Pick Up",
    "date_created": "2024-05-07T13:56:18.000",
    "date_modified": "2024-05-07T13:56:19.000",
    "request_status": "Pending",
    "responsible_agency": "Department of Sanitation",
    "final_address": "632 N Rampart St",
    "address_councildis": "C",
    "status": "Assigned to Contractor",
    "contractor": "Empire Services",
    "rowid": "1091156",
    "final_x": "3681348.47816",
    "final_y": "533223.760516",
    "longitude": "-90.0684893866696",
    "latitude": "29.960185044878504",
    "geocoded_column": {
      "latitude": "29.960185044878504",
      "longitude": "-90.0684893866696"
    }
  },
  {
    "service_request": "2024-1091155",
    "request_type": "Trash/Recycling",
    "request_reason": "Request a Large Item Pick Up",
    "date_created": "2024-05-07T13:54:29.000",
    "date_modified": "2024-05-07T13:54:29.000",
    "request_status": "Pending",
    "responsible_agency": "Department of Sanitation",
    "final_address": "3533 Mandeville St",
    "address_councildis": "D",
    "status": "Assigned to Contractor",
    "contractor": "IV Waste",
    "rowid": "1091155",
    "final_x": "3685115.43503",
    "final_y": "545842.229776",
    "longitude": "-90.05615001773857",
    "latitude": "29.994766535705946",
    "geocoded_column": {
      "latitude": "29.994766535705946",
      "longitude": "-90.05615001773857"
    }
  },
  {
    "service_request": "2024-1091154",
    "request_type": "Abandoned Vehicles",
    "request_reason": "Abandoned/Junk Vehicles",
    "date_created": "2024-05-07T13:52:43.000",
    "date_modified": "2024-05-07T13:54:31.000",
    "request_status": "Pending",
    "responsible_agency": "Department of Public Works",
    "final_address": "2728 Marais St",
    "address_councildis": "C",
    "status": "Pending",
    "rowid": "1091154",
    "final_x": "3687722.82089",
    "final_y": "536652.688967",
    "longitude": "-90.0482391772091",
    "latitude": "29.969418389695942",
    "geocoded_column": {
      "latitude": "29.969418389695942",
      "longitude": "-90.0482391772091"
    }
  },
  {
    "service_request": "2024-1091153",
    "request_type": "Roads/Drainage",
    "request_reason": "Pothole",
    "date_created": "2024-05-07T13:51:56.000",
    "date_modified": "2024-05-07T13:51:56.000",
    "request_status": "Pending",
    "responsible_agency": "Department of Public Works",
    "final_address": "7800 Birch St",
    "address_councildis": "A",
    "status": "Pending",
    "rowid": "1091153",
    "final_x": "3663681.13235",
    "final_y": "528644.62432",
    "longitude": "-90.12443194188229",
    "latitude": "29.948118323359775",
    "geocoded_column": {
      "latitude": "29.948118323359775",
      "longitude": "-90.12443194188229"
    }
  },
  {
    "service_request": "2024-1091152",
    "request_type": "Property Maintenance",
    "request_reason": "Property Maintenance",
    "date_created": "2024-05-07T13:50:30.000",
    "date_modified": "2024-05-07T13:50:31.000",
    "request_status": "Pending",
    "responsible_agency": "Department of Code Enforcement",
    "final_address": "8416 Belfast St",
    "address_councildis": "A",
    "status": "Pending",
    "rowid": "1091152",
    "final_x": "3664658.12852",
    "final_y": "533161.222916",
    "longitude": "-90.12119629591173",
    "latitude": "29.960509123571352",
    "geocoded_column": {
      "latitude": "29.960509123571352",
      "longitude": "-90.12119629591173"
    }
  },
  {
    "service_request": "2024-1091151",
    "request_type": "Trash/Recycling",
    "request_reason": "Illegal Dumping",
    "date_created": "2024-05-07T13:48:20.000",
    "date_modified": "2024-05-07T13:51:54.000",
    "request_status": "Pending",
    "responsible_agency": "Department of Sanitation",
    "final_address": "5300 BLK Tullis Dr",
    "address_councildis": "C",
    "status": "Pending",
    "rowid": "1091151",
    "final_x": "3703807.05035",
    "final_y": "511915.797807",
    "longitude": "-89.99835442890897",
    "latitude": "29.900894803485077",
    "geocoded_column": {
      "latitude": "29.900894803485077",
      "longitude": "-89.99835442890897"
    }
  },
  {
    "service_request": "2024-1091150",
    "request_type": "Property Maintenance",
    "request_reason": "Property Maintenance",
    "date_created": "2024-05-07T13:48:05.000",
    "date_modified": "2024-05-07T13:48:06.000",
    "request_status": "Pending",
    "responsible_agency": "Department of Code Enforcement",
    "final_address": "8428 Belfast St",
    "address_councildis": "A",
    "status": "Pending",
    "rowid": "1091150",
    "final_x": "3664600.79226",
    "final_y": "533213.896708",
    "longitude": "-90.12137559374297",
    "latitude": "29.96065562691211",
    "geocoded_column": {
      "latitude": "29.96065562691211",
      "longitude": "-90.12137559374297"
    }
  },
  {
    "service_request": "2024-1091149",
    "request_type": "Abandoned Vehicles",
    "request_reason": "Abandoned/Junk Vehicles",
    "date_created": "2024-05-07T13:46:04.000",
    "date_modified": "2024-05-07T13:46:04.000",
    "request_status": "Closed",
    "responsible_agency": "Department of Public Works",
    "final_address": "1400 BLK N Claiborne Ave",
    "address_councildis": "D",
    "status": "Inspected",
    "rowid": "1091149",
    "final_x": "3681343.68879",
    "final_y": "536780.146044",
    "longitude": "-90.06838053325063",
    "latitude": "29.969964031804533",
    "geocoded_column": {
      "latitude": "29.969964031804533",
      "longitude": "-90.06838053325063"
    }
  },
  {
    "service_request": "2024-1091148",
    "request_type": "Trash/Recycling",
    "request_reason": "Order Recycling Cart",
    "date_created": "2024-05-07T13:45:39.000",
    "date_modified": "2024-05-07T13:45:40.000",
    "request_status": "Pending",
    "responsible_agency": "Department of Sanitation",
    "final_address": "3948 Magazine St",
    "address_councildis": "B",
    "status": "Pending",
    "rowid": "1091148",
    "final_x": "3672678.27937",
    "final_y": "518904.640759",
    "longitude": "-90.09635622582401",
    "latitude": "29.92107245016216",
    "geocoded_column": {
      "latitude": "29.92107245016216",
      "longitude": "-90.09635622582401"
    }
  },
  {
    "service_request": "2024-1091147",
    "request_type": "Trash/Recycling",
    "request_reason": "Illegal Dumping",
    "date_created": "2024-05-07T13:43:58.000",
    "date_modified": "2024-05-07T13:43:59.000",
    "request_status": "Pending",
    "responsible_agency": "Department of Sanitation",
    "final_address": "3531 Broadway St",
    "address_councildis": "B",
    "status": "Pending",
    "rowid": "1091147",
    "final_x": "3668915.21358",
    "final_y": "533466.497412",
    "longitude": "-90.10774292668513",
    "latitude": "29.96122401260809",
    "geocoded_column": {
      "latitude": "29.96122401260809",
      "longitude": "-90.10774292668513"
    }
  },
  {
    "service_request": "2024-1091146",
    "request_type": "Trash/Recycling",
    "request_reason": "Illegal Dumping",
    "date_created": "2024-05-07T13:42:40.000",
    "date_modified": "2024-05-07T13:42:40.000",
    "request_status": "Pending",
    "responsible_agency": "Department of Sanitation",
    "final_address": "2214 Felicity St",
    "address_councildis": "B",
    "status": "Pending",
    "rowid": "1091146",
    "final_x": "3676550.85736",
    "final_y": "526447.065982",
    "longitude": "-90.08387261546754",
    "latitude": "29.941696140225094",
    "geocoded_column": {
      "latitude": "29.941696140225094",
      "longitude": "-90.08387261546754"
    }
  },
  {
    "service_request": "2024-1091145",
    "request_type": "Abandoned Vehicles",
    "request_reason": "Abandoned/Junk Vehicles",
    "date_created": "2024-05-07T13:40:25.000",
    "date_modified": "2024-05-07T13:40:26.000",
    "request_status": "Pending",
    "responsible_agency": "Department of Public Works",
    "final_address": "2720 S Carrollton Ave",
    "address_councildis": "A",
    "status": "Pending",
    "rowid": "1091145",
    "final_x": "3665710.68135",
    "final_y": "532507.302404",
    "longitude": "-90.11789443654493",
    "latitude": "29.95868039828293",
    "geocoded_column": {
      "latitude": "29.95868039828293",
      "longitude": "-90.11789443654493"
    }
  },
  {
    "service_request": "2024-1091144",
    "request_type": "Trash/Recycling",
    "request_reason": "Repair Trash Cart",
    "date_created": "2024-05-07T13:39:24.000",
    "date_modified": "2024-05-07T13:39:25.000",
    "request_status": "Pending",
    "responsible_agency": "Department of Sanitation",
    "final_address": "3448 Bennett St",
    "address_councildis": "C",
    "status": "Assigned to Contractor",
    "contractor": "Richards Disposal",
    "rowid": "1091144",
    "final_x": "3710457.66654",
    "final_y": "517874.713526",
    "longitude": "-89.97714328718017",
    "latitude": "29.917065021997576",
    "geocoded_column": {
      "latitude": "29.917065021997576",
      "longitude": "-89.97714328718017"
    }
  },