[
  {
    "service_request": "2022-913885",
    "request_type": "Traffic Signals/Signs/Striping/Streetlights",
    "request_reason": "Street Light Outage/Malfunction",
    "date_created": "2022-08-27T01:57:14.000",
    "date_modified": "2022-08-27T01:57:15.000",
    "request_status": "Pending",
    "responsible_agency": "Department of Public Works",
    "final_address": "11266 Asphodel Dr",
    "address_councildis": "E",
    "status": "Pending",
    "contractor": "Legacy Professional Services",
    "rowid": "913885",
    "final_x": "3717824.41695",
    "final_y": "559716.868189",
    "longitude": "-89.95229918718786",
    "latitude": "30.031873299617057",
    "geocoded_column": {
      "latitude": "30.031873299617057",
      "longitude": "-89.95229918718786"
    }
  },
  {
    "service_request": "2022-913884",
    "request_type": "Health Related Questions",
    "request_reason": "Noise Ordinance Complaint",
    "date_created": "2022-08-27T00:52:31.000",
    "date_modified": "2022-08-27T00:52:31.000",
    "request_status": "Pending",
    "responsible_agency": "Health Department",
    "final_address": "1500 N Claiborne Ave",
    "address_councildis": "C",
    "status": "Pending",
    "rowid": "913884",
    "final_x": "3681846.67516",
    "final_y": "537148.826504",
    "longitude": "-90.0667791844965",
    "latitude": "29.970962498120493",
    "geocoded_column": {
      "latitude": "29.970962498120493",
      "longitude": "-90.0667791844965"
    }
  },
  {
    "service_request": "2022-913881",
    "request_type": "Trash/Recycling",
    "request_reason": "MIssed Recycling Pick-Up",
    "date_created": "2022-08-26T22:42:30.000",
    "date_modified": "2022-08-26T22:42:30.000",
    "request_status": "Pending",
    "responsible_agency": "Department of Sanitation",
    "final_address": "8506 Apricot St",
    "address_councildis": "A",
    "status": "Assigned to Contractor",
    "contractor": "Richards Disposal",
    "rowid": "913881",
    "final_x": "3664686.92685",
    "final_y": "533611.932741",
    "longitude": "-90.12109029887758",
    "latitude": "29.961747590287853",
    "geocoded_column": {
      "latitude": "29.961747590287853",
      "longitude": "-90.12109029887758"
    }
  },
  {
    "service_request": "2022-913880",
    "request_type": "Health Related Questions",
    "request_reason": "Noise Ordinance Complaint",
    "date_created": "2022-08-26T22:04:36.000",
    "date_modified": "2022-08-26T22:04:36.000",
    "request_status": "Pending",
    "responsible_agency": "Health Department",
    "final_address": "3111 Grand Route St John St",
    "address_councildis": "A",
    "status": "Pending",
    "rowid": "913880",
    "final_x": "3676507.66805",
    "final_y": "540406.357323",
    "longitude": "-90.0835282619005",
    "latitude": "29.980080781175236",
    "geocoded_column": {
      "latitude": "29.980080781175236",
      "longitude": "-90.0835282619005"
    }
  },
  {
    "service_request": "2022-913879",
    "request_type": "Trash/Recycling",
    "request_reason": "MIssed Recycling Pick-Up",
    "date_created": "2022-08-26T21:30:06.000",
    "date_modified": "2022-08-26T21:30:07.000",
    "request_status": "Pending",
    "responsible_agency": "Department of Sanitation",
    "final_address": "7911 Jeannette St",
    "address_councildis": "A",
    "status": "Assigned to Contractor",
    "contractor": "Richards Disposal",
    "rowid": "913879",
    "final_x": "3663202.66061",
    "final_y": "528727.407936",
    "longitude": "-90.12593992459634",
    "latitude": "29.9483598234777",
    "geocoded_column": {
      "latitude": "29.9483598234777",
      "longitude": "-90.12593992459634"
    }
  },
  {
    "service_request": "2022-913878",
    "request_type": "Trash/Recycling",
    "request_reason": "Start Trash Service",
    "date_created": "2022-08-26T21:19:40.000",
    "date_modified": "2022-08-26T21:19:41.000",
    "request_status": "Pending",
    "responsible_agency": "Department of Sanitation",
    "final_address": "3127 N Miro St",
    "address_councildis": "D",
    "status": "Assigned to Contractor",
    "contractor": "Metro Disposal",
    "rowid": "913878",
    "final_x": "3690255.78275",
    "final_y": "540130.635659",
    "longitude": "-90.04011594371933",
    "latitude": "29.978903157595003",
    "geocoded_column": {
      "latitude": "29.978903157595003",
      "longitude": "-90.04011594371933"
    }
  },
  {
    "service_request": "2022-913877",
    "request_type": "Trash/Recycling",
    "request_reason": "MIssed Recycling Pick-Up",
    "date_created": "2022-08-26T20:51:32.000",
    "date_modified": "2022-08-26T20:51:33.000",
    "request_status": "Pending",
    "responsible_agency": "Department of Sanitation",
    "final_address": "3501 Encampment St",
    "address_councildis": "D",
    "status": "Assigned to Contractor",
    "contractor": "Metro Disposal",
    "rowid": "913877",
    "final_x": "3676737.99861",
    "final_y": "545314.730127",
    "longitude": "-90.08263156696134",
    "latitude": "29.993570190579966",
    "geocoded_column": {
      "latitude": "29.993570190579966",
      "longitude": "-90.08263156696134"
    }
  },
  {
    "service_request": "2022-913875",
    "request_type": "Trash/Recycling",
    "request_reason": "Missed Trash Pick-Up",
    "date_created": "2022-08-26T20:16:44.000",
    "date_modified": "2022-08-26T20:16:45.000",
    "request_status": "Pending",
    "responsible_agency": "Department of Sanitation",
    "final_address": "5714 Cucullu St",
    "address_councildis": "A",
    "status": "Assigned to Contractor",
    "contractor": "Richards Disposal",
    "rowid": "913875",
    "final_x": "3667528.27898",
    "final_y": "525726.115965",
    "longitude": "-90.11238308338397",
    "latitude": "29.939981202488177",
    "geocoded_column": {
      "latitude": "29.939981202488177",
      "longitude": "-90.11238308338397"
    }
  },
  {
    "service_request": "2022-913874",
    "request_type": "Property Maintenance",
    "request_reason": "Property Maintenance",
    "date_created": "2022-08-26T19:52:59.000",
    "date_modified": "2022-08-26T19:52:59.000",
    "request_status": "Pending",
    "responsible_agency": "Department of Code Enforcement",
    "final_address": "2319 General Meyer Ave",
    "address_councildis": "C",
    "status": "Pending",
    "rowid": "913874",
    "final_x": "3692601.71062",
    "final_y": "527642.271935",
    "longitude": "-90.03315419771619",
    "latitude": "29.944491529870046",
    "geocoded_column": {
      "latitude": "29.944491529870046",
      "longitude": "-90.03315419771619"
    }
  },
  {
    "service_request": "2022-913872",
    "request_type": "Trash/Recycling",
    "request_reason": "Missed Trash Pick-Up",
    "date_created": "2022-08-26T19:28:11.000",
    "date_modified": "2022-08-26T19:28:12.000",
    "request_status": "Pending",
    "responsible_agency": "Department of Sanitation",
    "final_address": "7707 Nelson St",
    "address_councildis": "A",
    "status": "Assigned to Contractor",
    "contractor": "Richards Disposal",
    "rowid": "913872",
    "final_x": "3666177.25684",
    "final_y": "530928.541634",
    "longitude": "-90.11647404954556",
    "latitude": "29.954325705482738",
    "geocoded_column": {
      "latitude": "29.954325705482738",
      "longitude": "-90.11647404954556"
    }
  },
  {
    "service_request": "2022-913871",
    "request_type": "Parks & Parkways",
    "request_reason": "Request Tree Service (Right of Way/Public Property)",
    "date_created": "2022-08-26T18:50:16.000",
    "date_modified": "2022-08-26T18:59:01.000",
    "request_status": "Pending",
    "responsible_agency": "Department of Parks & Parkway",
    "final_address": "2500 S Carrollton Ave",
    "address_councildis": "A",
    "status": "Pending",
    "rowid": "913871",
    "final_x": "3665137.08698",
    "final_y": "531875.935363",
    "longitude": "-90.1197268224461",
    "latitude": "29.956961062550416",
    "geocoded_column": {
      "latitude": "29.956961062550416",
      "longitude": "-90.1197268224461"
    }
  },
  {
    "service_request": "2022-913870",
    "request_type": "Property Maintenance",
    "request_reason": "Property Maintenance",
    "date_created": "2022-08-26T18:46:59.000",
    "date_modified": "2022-08-26T18:46:59.000",
    "request_status": "Pending",
    "responsible_agency": "Department of Code Enforcement",
    "final_address": "1512 Ursulines Ave",
    "address_councildis": "C",
    "status": "Pending",
    "rowid": "913870",
    "final_x": "3681102.2676",
    "final_y": "535400.469958",
    "longitude": "-90.06919103457003",
    "latitude": "29.966177722779605",
    "geocoded_column": {
      "latitude": "29.966177722779605",
      "longitude": "-90.06919103457003"
    }
  },
  {
    "service_request": "2022-913869",
    "request_type": "Property Maintenance",
    "request_reason": "Property Maintenance",
    "date_created": "2022-08-26T18:46:33.000",
    "date_modified": "2022-08-26T18:46:34.000",
    "request_status": "Pending",
    "responsible_agency": "Department of Code Enforcement",
    "final_address": "LAMARQUE ST & PACE BLVD",
    "address_councildis": "C",
    "status": "Pending",
    "rowid": "913869",
    "final_x": "3694448.8",
    "final_y": "526504.98",
    "longitude": "-90.02736335062147",
    "latitude": "29.941306610824387",
    "geocoded_column": {
      "latitude": "29.941306610824387",
      "longitude": "-90.02736335062147"
    }
  },
  {
    "service_request": "2022-913868",
    "request_type": "Roads/Drainage",
    "request_reason": "Man hole cover issue",
    "date_created": "2022-08-26T18:34:17.000",
    "date_modified": "2022-08-26T18:34:17.000",
    "request_status": "Pending",
    "responsible_agency": "Department of Public Works",
    "final_address": "1734 Henriette Delille St",
    "address_councildis": "C",
    "status": "Pending",
    "rowid": "913868",
    "final_x": "3683227.45205",
    "final_y": "536129.753735",
    "longitude": "-90.06245421340103",
    "latitude": "29.968118361972866",
    "geocoded_column": {
      "latitude": "29.968118361972866",
      "longitude": "-90.06245421340103"
    }
  },
  {
    "service_request": "2022-913867",
    "request_type": "Roads/Drainage",
    "request_reason": "Street Subsidence (Sinking)",
    "date_created": "2022-08-26T18:28:52.000",
    "date_modified": "2022-08-26T18:28:52.000",
    "request_status": "Pending",
    "responsible_agency": "Department of Public Works",
    "final_address": "2306 Joliet St",
    "address_councildis": "A",
    "status": "Pending",
    "rowid": "913867",
    "final_x": "3663526.60883",
    "final_y": "532270.354051",
    "longitude": "-90.12479909486812",
    "latitude": "29.95809238912202",
    "geocoded_column": {
      "latitude": "29.95809238912202",
      "longitude": "-90.12479909486812"
    }
  },
  {
    "service_request": "2022-913866",
    "request_type": "Trash/Recycling",
    "request_reason": "Repair Trash Cart",
    "date_created": "2022-08-26T18:25:11.000",
    "date_modified": "2022-08-26T18:25:12.000",
    "request_status": "Pending",
    "responsible_agency": "Department of Sanitation",
    "final_address": "2306 Joliet St",
    "address_councildis": "A",
    "status": "Assigned to Contractor",
    "contractor": "Richards Disposal",
    "rowid": "913866",
    "final_x": "3663526.60883",
    "final_y": "532270.354051",
    "longitude": "-90.12479909486812",
    "latitude": "29.95809238912202",
    "geocoded_column": {
      "latitude": "29.95809238912202",
      "longitude": "-90.12479909486812"
    }
  },
  {
    "service_request": "2022-913865",
    "request_type": "Trash/Recycling",
    "request_reason": "Illegal Dumping",
    "date_created": "2022-08-26T18:16:02.000",
    "date_modified": "2022-08-26T18:16:03.000",
    "request_status": "Pending",
    "responsible_agency": "Department of Sanitation",
    "final_address": "2638 Dublin St",
    "address_councildis": "A",
    "status": "Pending",
    "rowid": "913865",
    "final_x": "3665283.20762",
    "final_y": "532597.319044",
    "longitude": "-90.11924128150717",
    "latitude": "29.958940375720072",
    "geocoded_column": {
      "latitude": "29.958940375720072",
      "longitude": "-90.11924128150717"
    }
  },
  {
    "service_request": "2022-913864",
    "request_type": "Property Maintenance",
    "request_reason": "Property Maintenance",
    "date_created": "2022-08-26T18:07:33.000",
    "date_modified": "2022-08-26T18:07:33.000",
    "request_status": "Pending",
    "responsible_agency": "Department of Code Enforcement",
    "final_address": "400 Austerlitz St",
    "address_councildis": "B",
    "status": "Pending",
    "rowid": "913864",
    "final_x": "3672988.79553",
    "final_y": "517439.679478",
    "longitude": "-90.0954260216559",
    "latitude": "29.917035052477043",
    "geocoded_column": {
      "latitude": "29.917035052477043",
      "longitude": "-90.0954260216559"
    }
  },
  {
    "service_request": "2022-913863",
    "request_type": "Property Maintenance",
    "request_reason": "Property Maintenance",
    "date_created": "2022-08-26T17:54:37.000",
    "date_modified": "2022-08-26T17:54:37.000",
    "request_status": "Pending",
    "responsible_agency": "Department of Code Enforcement",
    "final_address": "1436 Gordon St",
    "address_councildis": "E",
    "status": "Pending",
    "rowid": "913863",
    "final_x": "3699666.31018",
    "final_y": "534798.131526",
    "longitude": "-90.01058852584174",
    "latitude": "29.96394530170646",
    "geocoded_column": {
      "latitude": "29.96394530170646",
      "longitude": "-90.01058852584174"
    }
  },
  {
    "service_request": "2022-913862",
    "request_type": "Trash/Recycling",
    "request_reason": "MIssed Recycling Pick-Up",
    "date_created": "2022-08-26T17:54:02.000",
    "date_modified": "2022-08-26T17:54:02.000",
    "request_status": "Pending",
    "responsible_agency": "Department of Sanitation",
    "final_address": "7522 Jeannette St",
    "address_councildis": "A",
    "status": "Assigned to Contractor",
    "contractor": "Richards Disposal",
    "rowid": "913862",
    "final_x": "3664069.328",
    "final_y": "527748.667711",
    "longitude": "-90.12323612034218",
    "latitude": "29.945643463521094",
    "geocoded_column": {
      "latitude": "29.945643463521094",
      "longitude": "-90.12323612034218"
    }
  },
  {
    "service_request": "2022-913861",
    "request_type": "Trash/Recycling",
    "request_reason": "Illegal Dumping",
    "date_created": "2022-08-26T17:44:36.000",
    "date_modified": "2022-08-26T17:44:36.000",
    "request_status": "Pending",
    "responsible_agency": "Department of Sanitation",
    "final_address": "808 Delery St",
    "address_councildis": "E",
    "status": "Pending",
    "rowid": "913861",
    "final_x": "3699998.89732",
    "final_y": "531934.571011",
    "longitude": "-90.00964271737993",
    "latitude": "29.95606097052958",
    "geocoded_column": {
      "latitude": "29.95606097052958",
      "longitude": "-90.00964271737993"
    }
  },
  {
    "service_request": "2022-913860",
    "request_type": "Trash/Recycling",
    "request_reason": "Replace Trash Cart",
    "date_created": "2022-08-26T17:38:20.000",
    "date_modified": "2022-08-26T17:38:21.000",
    "request_status": "Pending",
    "responsible_agency": "Department of Sanitation",
    "final_address": "4019 Camp St",
    "address_councildis": "B",
    "status": "Assigned to Contractor",
    "contractor": "Richards Disposal",
    "rowid": "913860",
    "final_x": "3672317.34177",
    "final_y": "519328.154231",
    "longitude": "-90.09748112756186",
    "latitude": "29.922247686165274",
    "geocoded_column": {
      "latitude": "29.922247686165274",
      "longitude": "-90.09748112756186"
    }
  },
  {
    "service_request": "2022-913859",
    "request_type": "Trash/Recycling",
    "request_reason": "Replace Trash Cart",
    "date_created": "2022-08-26T17:18:13.000",
    "date_modified": "2022-08-26T17:18:13.000",
    "request_status": "Pending",
    "responsible_agency": "Department of Sanitation",
    "final_address": "345 Joseph St",
    "address_councildis": "A",
    "status": "Assigned to Contractor",
    "contractor": "Richards Disposal",
    "rowid": "913859",
    "final_x": "3665852.31988",
    "final_y": "517503.27295",
    "longitude": "-90.11794972109118",
    "latitude": "29.91741998290495",
    "geocoded_column": {
      "latitude": "29.91741998290495",
      "longitude": "-90.11794972109118"
    }
  },
  {
    "service_request": "2022-913858",
    "request_type": "Roads/Drainage",
    "request_reason": "Leaking Hydrant",
    "date_created": "2022-08-26T17:17:32.000",
    "date_modified": "2022-08-26T17:17:33.000",
    "request_status": "Pending",
    "responsible_agency": "Department of Public Works",
    "final_address": "4600 BLK Rhodes Dr",
    "address_councildis": "E",
    "status": "Pending",
    "rowid": "913858",
    "final_x": "3702581.78476",
    "final_y": "553751.109477",
    "longitude": "-90.00068570263919",
    "latitude": "30.015966095766824",
    "geocoded_column": {
      "latitude": "30.015966095766824",
      "longitude": "-90.00068570263919"
    }
  },
  {
    "service_request": "2022-913857",
    "request_type": "Property Maintenance",
    "request_reason": "Property Maintenance",
    "date_created": "2022-08-26T17:17:00.000",
    "date_modified": "2022-08-26T17:17:01.000",
    "request_status": "Pending",
    "responsible_agency": "Department of Code Enforcement",
    "final_address": "4600 BLK Rhodes Dr",
    "address_councildis": "E",
    "status": "Pending",
    "rowid": "913857",
    "final_x": "3702581.78476",
    "final_y": "553751.109477",
    "longitude": "-90.00068570263919",
    "latitude": "30.015966095766824",
    "geocoded_column": {
      "latitude": "30.015966095766824",
      "longitude": "-90.00068570263919"
    }
  },
  {
    "service_request": "2022-913856",
    "request_type": "Roads/Drainage",
    "request_reason": "Leaking Hydrant",
    "date_created": "2022-08-26T17:08:48.000",
    "date_modified": "2022-08-26T17:08:49.000",
    "request_status": "Pending",
    "responsible_agency": "Department of Public Works",
    "final_address": "722 Lang St",
    "address_councildis": "C",
    "status": "Pending",
    "rowid": "913856",
    "final_x": "3702063.72177",
    "final_y": "519817.589432",
    "longitude": "-90.00356678183007",
    "latitude": "29.922677770920192",
    "geocoded_column": {
      "latitude": "29.922677770920192",
      "longitude": "-90.00356678183007"
    }
  },
  {
    "service_request": "2022-913855",
    "request_type": "Abandoned Vehicles",
    "request_reason": "Abandoned/Junk Vehicles",
    "date_created": "2022-08-26T17:07:05.000",
    "date_modified": "2022-08-26T17:07:05.000",
    "request_status": "Pending",
    "responsible_agency": "Department of Public Works",
    "final_address": "3111 Pine St",
    "address_councildis": "B",
    "status": "Pending",
    "rowid": "913855",
    "final_x": "3667820.39623",
    "final_y": "532367.450691",
    "longitude": "-90.11123719148628",
    "latitude": "29.95823414981192",
    "geocoded_column": {
      "latitude": "29.95823414981192",
      "longitude": "-90.11123719148628"
    }
  },
  {
    "service_request": "2022-913854",
    "request_type": "Abandoned Vehicles",
    "request_reason": "Abandoned/Junk Vehicles",
    "date_created": "2022-08-26T17:05:42.000",
    "date_modified": "2022-08-26T17:05:42.000",
    "request_status": "Pending",
    "responsible_agency": "Department of Public Works",
    "final_address": "3101 Pine St",
    "address_councildis": "B",
    "status": "Pending",
    "rowid": "913854",
    "final_x": "3667783.01729",
    "final_y": "532315.956419",
    "longitude": "-90.11135695845354",
    "latitude": "29.958093653638972",
    "geocoded_column": {
      "latitude": "29.958093653638972",
      "longitude": "-90.11135695845354"
    }
  },
  {
    "service_request": "2022-913853",
    "request_type": "Trash/Recycling",
    "request_reason": "Request a Large Item Pick Up",
    "date_created": "2022-08-26T17:00:25.000",
    "date_modified": "2022-08-26T17:00:25.000",
    "request_status": "Pending",
    "responsible_agency": "Department of Sanitation",
    "final_address": "1224 S Salcedo St",
    "address_councildis": "B",
    "status": "Assigned to Contractor",
    "contractor": "Richards Disposal",
    "rowid": "913853",
    "final_x": "3671003.30324",
    "final_y": "531579.830083",
    "longitude": "-90.10121316044301",
    "latitude": "29.955974726343378",
    "geocoded_column": {
      "latitude": "29.955974726343378",
      "longitude": "-90.10121316044301"
    }
  },
  {
    "service_request": "2022-913852",
    "request_type": "Mosquito, Termite & Rodent Control",
    "request_reason": "Rodent Complaint (Rats)",
    "date_created": "2022-08-26T16:58:03.000",
    "date_modified": "2022-08-26T16:58:04.000",
    "request_status": "Pending",
    "responsible_agency": "Mosquito, Termite & Rodent Control Board",
    "final_address": "4315 Cleveland Ave",
    "address_councildis": "A",
    "status": "Pending",
    "rowid": "913852",
    "final_x": "3669938.80692",
    "final_y": "538749.292873",
    "longitude": "-90.10433166435438",
    "latitude": "29.975719788584538",
    "geocoded_column": {
      "latitude": "29.975719788584538",
      "longitude": "-90.10433166435438"
    }
  },
  {
    "service_request": "2022-913851",
    "request_type": "Trash/Recycling",
    "request_reason": "MIssed Recycling Pick-Up",
    "date_created": "2022-08-26T16:56:01.000",
    "date_modified": "2022-08-26T16:56:01.000",
    "request_status": "Pending",
    "responsible_agency": "Department of Sanitation",
    "final_address": "1529 Nashville Ave, New Orleans, Louisiana, 70115",
    "address_councildis": "A",
    "status": "Assigned to Contractor",
    "contractor": "Richards Disposal",
    "rowid": "913851",
    "final_x": "3666228.28692",
    "final_y": "521867.901114",
    "longitude": "-90.11661671233426",
    "latitude": "29.92941036615711",
    "geocoded_column": {
      "latitude": "29.92941036615711",
      "longitude": "-90.11661671233426"
    }
  },
  {
    "service_request": "2022-913850",
    "request_type": "Property Maintenance",
    "request_reason": "Property Maintenance",
    "date_created": "2022-08-26T16:55:01.000",
    "date_modified": "2022-08-26T16:55:01.000",
    "request_status": "Pending",
    "responsible_agency": "Department of Code Enforcement",
    "final_address": "4493 Baccich St",
    "address_councildis": "D",
    "status": "Pending",
    "rowid": "913850",
    "final_x": "3687848.10243",
    "final_y": "549644.04162",
    "longitude": "-90.04738308468907",
    "latitude": "30.005136106387056",
    "geocoded_column": {
      "latitude": "30.005136106387056",
      "longitude": "-90.04738308468907"
    }
  },
  {
    "service_request": "2022-913849",
    "request_type": "Abandoned Vehicles",
    "request_reason": "Abandoned/Junk Vehicles",
    "date_created": "2022-08-26T16:54:52.000",
    "date_modified": "2022-08-26T16:54:52.000",
    "request_status": "Pending",
    "responsible_agency": "Department of Public Works",
    "final_address": "3100 Audubon St",
    "address_councildis": "B",
    "status": "Pending",
    "rowid": "913849",
    "final_x": "3668118.56673",
    "final_y": "531997.339011",
    "longitude": "-90.11030812184775",
    "latitude": "29.95720771674986",
    "geocoded_column": {
      "latitude": "29.95720771674986",
      "longitude": "-90.11030812184775"
    }
  },
  {
    "service_request": "2022-913848",
    "request_type": "Property Maintenance",
    "request_reason": "Property Maintenance",
    "date_created": "2022-08-26T16:54:45.000",
    "date_modified": "2022-08-26T16:54:46.000",
    "request_status": "Pending",
    "responsible_agency": "Department of Code Enforcement",
    "final_address": "4489 Baccich St",
    "address_councildis": "D",
    "status": "Pending",
    "rowid": "913848",
    "final_x": "3687851.80035",
    "final_y": "549594.264787",
    "longitude": "-90.04737316706372",
    "latitude": "30.0049991241257",
    "geocoded_column": {
      "latitude": "30.0049991241257",
      "longitude": "-90.04737316706372"
    }
  },
  {
    "service_request": "2022-913847",
    "request_type": "Property Maintenance",
    "request_reason": "Property Maintenance",
    "date_created": "2022-08-26T16:49:16.000",
    "date_modified": "2022-08-26T16:49:16.000",
    "request_status": "Pending",
    "responsible_agency": "Department of Code Enforcement",
    "final_address": "730 Girod St",
    "address_councildis": "B",
    "status": "Pending",
    "rowid": "913847",
    "final_x": "3680256.9076",
    "final_y": "528581.583104",
    "longitude": "-90.07209768725346",
    "latitude": "29.947453709881728",
    "geocoded_column": {
      "latitude": "29.947453709881728",
      "longitude": "-90.07209768725346"
    }
  },
  {
    "service_request": "2022-913846",
    "request_type": "Abandoned Vehicles",
    "request_reason": "Abandoned/Junk Vehicles",
    "date_created": "2022-08-26T16:42:30.000",
    "date_modified": "2022-08-26T16:42:30.000",
    "request_status": "Pending",
    "responsible_agency": "Department of Public Works",
    "final_address": "2733 Danneel St",
    "address_councildis": "B",
    "status": "Pending",
    "rowid": "913846",
    "final_x": "3675152.1019",
    "final_y": "523787.036027",
    "longitude": "-90.088380023197",
    "latitude": "29.934423793526783",
    "geocoded_column": {
      "latitude": "29.934423793526783",
      "longitude": "-90.088380023197"
    }
  },
  {
    "service_request": "2022-913845",
    "request_type": "Trash/Recycling",
    "request_reason": "MIssed Recycling Pick-Up",
    "date_created": "2022-08-26T16:39:56.000",
    "date_modified": "2022-08-26T16:39:56.000",
    "request_status": "Pending",
    "responsible_agency": "Department of Sanitation",
    "final_address": "7534 Jeannette St",
    "address_councildis": "A",
    "status": "Assigned to Contractor",
    "contractor": "Richards Disposal",
    "rowid": "913845",
    "final_x": "3664060.81421",
    "final_y": "527827.509823",
    "longitude": "-90.12326037244091",
    "latitude": "29.94586050123814",
    "geocoded_column": {
      "latitude": "29.94586050123814",
      "longitude": "-90.12326037244091"
    }
  },
  {
    "service_request": "2022-913844",
    "request_type": "Roads/Drainage",
    "request_reason": "Pothole",
    "date_created": "2022-08-26T16:36:15.000",
    "date_modified": "2022-08-26T16:36:15.000",
    "request_status": "Pending",
    "responsible_agency": "Department of Public Works",
    "final_address": "1518 Joliet St",
    "address_councildis": "A",
    "status": "Pending",
    "rowid": "913844",
    "final_x": "3661701.48371",
    "final_y": "530262.939649",
    "longitude": "-90.13062889705525",
    "latitude": "29.95262545214351",
    "geocoded_column": {
      "latitude": "29.95262545214351",
      "longitude": "-90.13062889705525"
    }
  },
  {
    "service_request": "2022-913843",
    "request_type": "Roads/Drainage",
    "request_reason": "Street Subsidence (Sinking)",
    "date_created": "2022-08-26T16:31:46.000",
    "date_modified": "2022-08-26T16:31:46.000",
    "request_status": "Pending",
    "responsible_agency": "Department of Public Works",
    "final_address": "17288 Chef Menteur Hwy",
    "address_councildis": "E",
    "status": "Pending",
    "rowid": "913843",
    "final_x": "3742684.78062",
    "final_y": "568642.749733",
    "longitude": "-89.87338123051123",
    "latitude": "30.05556832025886",
    "geocoded_column": {
      "latitude": "30.05556832025886",
      "longitude": "-89.87338123051123"
    }
  },
  {
    "service_request": "2022-913842",
    "request_type": "Property Maintenance",
    "request_reason": "Property Maintenance",
    "date_created": "2022-08-26T16:31:38.000",
    "date_modified": "2022-08-26T16:39:23.000",
    "case_close_date": "2022-08-26T11:39:23.000",
    "request_status": "Closed",
    "responsible_agency": "Department of Code Enforcement",
    "final_address": "1517 Leonidas St",
    "address_councildis": "A",
    "status": "Referred to Code Enforcement",
    "rowid": "913842",
    "final_x": "3661470.87686",
    "final_y": "530415.464002",
    "longitude": "-90.13135200132024",
    "latitude": "29.95305149863007",
    "geocoded_column": {
      "latitude": "29.95305149863007",
      "longitude": "-90.13135200132024"
    }
  },
  {
    "service_request": "2022-913841",
    "request_type": "Trash/Recycling",
    "request_reason": "Request a Large Item Pick Up",
    "date_created": "2022-08-26T16:25:36.000",
    "date_modified": "2022-08-26T16:25:36.000",
    "request_status": "Pending",
    "responsible_agency": "Department of Sanitation",
    "final_address": "2267 Carondelet St",
    "address_councildis": "B",
    "status": "Assigned to Contractor",
    "contractor": "Richards Disposal",
    "rowid": "913841",
    "final_x": "3676938.48533",
    "final_y": "523722.579131",
    "longitude": "-90.08274267544935",
    "latitude": "29.93419306885663",
    "geocoded_column": {
      "latitude": "29.93419306885663",
      "longitude": "-90.08274267544935"
    }
  },
  {
    "service_request": "2022-913840",
    "request_type": "Roads/Drainage",
    "request_reason": "Pothole",
    "date_created": "2022-08-26T16:25:32.000",
    "date_modified": "2022-08-26T16:25:33.000",
    "request_status": "Pending",
    "responsible_agency": "Department of Public Works",
    "final_address": "6155 S Laverne St",
    "address_councildis": "D",
    "status": "Pending",
    "rowid": "913840",
    "final_x": "3696873.31626",
    "final_y": "555490.922329",
    "longitude": "-90.01865875096503",
    "latitude": "30.02093123955977",
    "geocoded_column": {
      "latitude": "30.02093123955977",
      "longitude": "-90.01865875096503"
    }
  },
  {
    "service_request": "2022-913839",
    "request_type": "Trash/Recycling",
    "request_reason": "Repair Trash Cart",
    "date_created": "2022-08-26T16:24:42.000",
    "date_modified": "2022-08-26T16:24:42.000",
    "request_status": "Pending",
    "responsible_agency": "Department of Sanitation",
    "final_address": "6155 S Laverne St",
    "address_councildis": "D",
    "status": "Assigned to Contractor",
    "contractor": "Metro Disposal",
    "rowid": "913839",
    "final_x": "3696873.31626",
    "final_y": "555490.922329",
    "longitude": "-90.01865875096503",
    "latitude": "30.02093123955977",
    "geocoded_column": {
      "latitude": "30.02093123955977",
      "longitude": "-90.01865875096503"
    }
  },
  {
    "service_request": "2022-913838",
    "request_type": "Trash/Recycling",
    "request_reason": "Missed Trash Pick-Up",
    "date_created": "2022-08-26T16:23:02.000",
    "date_modified": "2022-08-26T16:23:02.000",
    "request_status": "Pending",
    "responsible_agency": "Department of Sanitation",
    "final_address": "3917 Toulouse St",
    "address_councildis": "A",
    "status": "Assigned to Contractor",
    "contractor": "Richards Disposal",
    "rowid": "913838",
    "final_x": "3672753.21985",
    "final_y": "539386.788234",
    "longitude": "-90.09542119150929",
    "latitude": "29.977389380699545",
    "geocoded_column": {
      "latitude": "29.977389380699545",
      "longitude": "-90.09542119150929"
    }
  },
  {
    "service_request": "2022-913837",
    "request_type": "Trash/Recycling",
    "request_reason": "Request a Large Item Pick Up",
    "date_created": "2022-08-26T16:20:29.000",
    "date_modified": "2022-08-26T16:20:29.000",
    "request_status": "Pending",
    "responsible_agency": "Department of Sanitation",
    "final_address": "5721 Abbey Dr",
    "address_councildis": "C",
    "status": "Assigned to Contractor",
    "contractor": "Richards Disposal",
    "rowid": "913837",
    "final_x": "3704783.30948",
    "final_y": "521039.323769",
    "longitude": "-89.99493714882166",
    "latitude": "29.92595005261294",
    "geocoded_column": {
      "latitude": "29.92595005261294",
      "longitude": "-89.99493714882166"
    }
  },
  {
    "service_request": "2022-913836",
    "request_type": "Abandoned Vehicles",
    "request_reason": "Abandoned/Junk Vehicles",
    "date_created": "2022-08-26T16:20:20.000",
    "date_modified": "2022-08-26T16:20:20.000",
    "request_status": "Pending",
    "responsible_agency": "Department of Public Works",
    "final_address": "2131 St Anthony St",
    "address_councildis": "D",
    "status": "Pending",
    "rowid": "913836",
    "final_x": "3683242.85116",
    "final_y": "540144.324107",
    "longitude": "-90.06226494494688",
    "latitude": "29.979156565238473",
    "geocoded_column": {
      "latitude": "29.979156565238473",
      "longitude": "-90.06226494494688"
    }
  },
  {
    "service_request": "2022-913835",
    "request_type": "Property Maintenance",
    "request_reason": "Property Maintenance",
    "date_created": "2022-08-26T16:19:28.000",
    "date_modified": "2022-08-26T16:27:50.000",
    "case_close_date": "2022-08-26T11:27:50.000",
    "request_status": "Closed",
    "responsible_agency": "Department of Code Enforcement",
    "final_address": "2002 St Andrew St",
    "address_councildis": "B",
    "status": "Referred to Code Enforcement",
    "rowid": "913835",
    "final_x": "3677175.29915",
    "final_y": "525435.747901",
    "longitude": "-90.08193599532034",
    "latitude": "29.938896611416606",
    "geocoded_column": {
      "latitude": "29.938896611416606",
      "longitude": "-90.08193599532034"
    }
  },
  {
    "service_request": "2022-913834",
    "request_type": "Property Maintenance",
    "request_reason": "Property Maintenance",
    "date_created": "2022-08-26T16:17:48.000",
    "date_modified": "2022-08-26T16:20:56.000",
    "case_close_date": "2022-08-26T11:20:56.000",
    "request_status": "Closed",
    "responsible_agency": "Department of Code Enforcement",
    "final_address": "6123 Baccich St",
    "address_councildis": "D",
    "status": "Referred to Code Enforcement",
    "rowid": "913834",
    "final_x": "3687484.18396",
    "final_y": "555847.616985",
    "longitude": "-90.0483129879734",
    "latitude": "30.022204881556583",
    "geocoded_column": {
      "latitude": "30.022204881556583",
      "longitude": "-90.0483129879734"
    }
  },
  {
    "service_request": "2022-913833",
    "request_type": "Roads/Drainage",
    "request_reason": "Culvert Issue",
    "date_created": "2022-08-26T16:12:56.000",
    "date_modified": "2022-08-26T16:12:57.000",
    "request_status": "Pending",
    "responsible_agency": "Department of Public Works",
    "final_address": "1459 N Villere St",
    "address_councildis": "C",
    "status": "Pending",
    "rowid": "913833",
    "final_x": "3682126.22402",
    "final_y": "536613.110151",
    "longitude": "-90.06591504755097",
    "latitude": "29.96948096377762",
    "geocoded_column": {
      "latitude": "29.96948096377762",
      "longitude": "-90.06591504755097"
    }
  },
  {
    "service_request": "2022-913832",
    "request_type": "Trash/Recycling",
    "request_reason": "Repair Recycling Cart",
    "date_created": "2022-08-26T16:02:57.000",
    "date_modified": "2022-08-26T16:02:59.000",
    "request_status": "Pending",
    "responsible_agency": "Department of Sanitation",
    "final_address": "6301 Bertha Dr",
    "address_councildis": "D",
    "status": "Pending",
    "rowid": "913832",
    "final_x": "3678498.4523",
    "final_y": "556262.941402",
    "longitude": "-90.07669128633881",
    "latitude": "30.02362089703048",
    "geocoded_column": {
      "latitude": "30.02362089703048",
      "longitude": "-90.07669128633881"
    }
  },
  {
    "service_request": "2022-913831",
    "request_type": "Trash/Recycling",
    "request_reason": "Replace Trash Cart",
    "date_created": "2022-08-26T16:00:39.000",
    "date_modified": "2022-08-26T16:00:39.000",
    "request_status": "Pending",
    "responsible_agency": "Department of Sanitation",
    "final_address": "4932 Constance St",
    "address_councildis": "B",
    "status": "Assigned to Contractor",
    "contractor": "Richards Disposal",
    "rowid": "913831",
    "final_x": "3668706.70618",
    "final_y": "518170.80735",
    "longitude": "-90.10891749112739",
    "latitude": "29.919171933775374",
    "geocoded_column": {
      "latitude": "29.919171933775374",
      "longitude": "-90.10891749112739"
    }
  },
  {
    "service_request": "2022-913830",
    "request_type": "Trash/Recycling",
    "request_reason": "Repair Recycling Cart",
    "date_created": "2022-08-26T15:59:55.000",
    "date_modified": "2022-08-26T15:59:55.000",
    "request_status": "Pending",
    "responsible_agency": "Department of Sanitation",
    "final_address": "7903 Panola St",
    "address_councildis": "A",
    "status": "Pending",
    "rowid": "913830",
    "final_x": "3664657.23405",
    "final_y": "530246.068801",
    "longitude": "-90.12129649340834",
    "latitude": "29.9524934251563",
    "geocoded_column": {
      "latitude": "29.9524934251563",
      "longitude": "-90.12129649340834"
    }
  },
  {
    "service_request": "2022-913829",
    "request_type": "Trash/Recycling",
    "request_reason": "Repair Trash Cart",
    "date_created": "2022-08-26T15:58:03.000",
    "date_modified": "2022-08-26T15:58:03.000",
    "request_status": "Pending",
    "responsible_agency": "Department of Sanitation",
    "final_address": "66 N Wren St",
    "address_councildis": "D",
    "status": "Assigned to Contractor",
    "contractor": "Metro Disposal",
    "rowid": "913829",
    "final_x": "3672796.78638",
    "final_y": "556218.935194",
    "longitude": "-90.09470893075546",
    "latitude": "30.023670598341962",
    "geocoded_column": {
      "latitude": "30.023670598341962",
      "longitude": "-90.09470893075546"
    }
  },
  {
    "service_request": "2022-913828",
    "request_type": "Trash/Recycling",
    "request_reason": "Repair Recycling Cart",
    "date_created": "2022-08-26T15:57:40.000",
    "date_modified": "2022-08-26T15:57:40.000",
    "request_status": "Pending",
    "responsible_agency": "Department of Sanitation",
    "final_address": "66 N Wren St",
    "address_councildis": "D",
    "status": "Pending",
    "rowid": "913828",
    "final_x": "3672796.78638",
    "final_y": "556218.935194",
    "longitude": "-90.09470893075546",
    "latitude": "30.023670598341962",
    "geocoded_column": {
      "latitude": "30.023670598341962",
      "longitude": "-90.09470893075546"
    }
  },
  {
    "service_request": "2022-913827",
    "request_type": "Traffic Signals/Signs/Striping/Streetlights",
    "request_reason": "Street Light Outage/Malfunction",
    "date_created": "2022-08-26T15:57:34.000",
    "date_modified": "2022-08-26T15:57:34.000",
    "request_status": "Pending",
    "responsible_agency": "Department of Public Works",
    "final_address": "5628 Rosemary Pl",
    "address_councildis": "A",
    "status": "Pending",
    "contractor": "Legacy Professional Services",
    "rowid": "913827",
    "final_x": "3667094.5737",
    "final_y": "545014.583119",
    "longitude": "-90.11310385944218",
    "latitude": "29.993030790914602",
    "geocoded_column": {
      "latitude": "29.993030790914602",
      "longitude": "-90.11310385944218"
    }
  },
  {
    "service_request": "2022-913826",
    "request_type": "Traffic Signals/Signs/Striping/Streetlights",
    "request_reason": "Street Light Outage/Malfunction",
    "date_created": "2022-08-26T15:57:20.000",
    "date_modified": "2022-08-26T15:57:21.000",
    "request_status": "Pending",
    "responsible_agency": "Department of Public Works",
    "final_address": "5628 Rosemary Pl",
    "address_councildis": "A",
    "status": "Pending",
    "contractor": "Legacy Professional Services",
    "rowid": "913826",
    "final_x": "3667094.5737",
    "final_y": "545014.583119",
    "longitude": "-90.11310385944218",
    "latitude": "29.993030790914602",
    "geocoded_column": {
      "latitude": "29.993030790914602",
      "longitude": "-90.11310385944218"
    }
  },
  {
    "service_request": "2022-913825",
    "request_type": "Trash/Recycling",
    "request_reason": "Illegal Dumping",
    "date_created": "2022-08-26T15:54:32.000",
    "date_modified": "2022-08-26T15:54:33.000",
    "case_close_date": "2022-08-25T19:00:00.000",
    "request_status": "Pending",
    "responsible_agency": "Department of Sanitation",
    "final_address": "FRANCE RD OVERPASS & ALVAR ST",
    "address_councildis": "D",
    "status": "Pending",
    "rowid": "913825",
    "final_x": "3693271.1",
    "final_y": "547913.32",
    "longitude": "-90.03031294059731",
    "latitude": "30.00020879825138",
    "geocoded_column": {
      "latitude": "30.00020879825138",
      "longitude": "-90.03031294059731"
    }
  },
  {
    "service_request": "2022-913824",
    "request_type": "Trash/Recycling",
    "request_reason": "Replace Trash Cart",
    "date_created": "2022-08-26T15:43:13.000",
    "date_modified": "2022-08-26T15:43:14.000",
    "request_status": "Pending",
    "responsible_agency": "Department of Sanitation",
    "final_address": "1806 Audubon St",
    "address_councildis": "A",
    "status": "Assigned to Contractor",
    "contractor": "Richards Disposal",
    "rowid": "913824",
    "final_x": "3665617.16928",
    "final_y": "528184.363904",
    "longitude": "-90.11833447102542",
    "latitude": "29.946796449510195",
    "geocoded_column": {
      "latitude": "29.946796449510195",
      "longitude": "-90.11833447102542"
    }
  },
  {
    "service_request": "2022-913823",
    "request_type": "Roads/Drainage",
    "request_reason": "Pothole",
    "date_created": "2022-08-26T15:41:15.000",
    "date_modified": "2022-08-26T15:41:15.000",
    "request_status": "Pending",
    "responsible_agency": "Department of Public Works",
    "final_address": "13357 Curran Rd",
    "address_councildis": "E",
    "status": "Pending",
    "rowid": "913823",
    "final_x": "3716604.05317",
    "final_y": "570637.535335",
    "longitude": "-89.95574066611944",
    "latitude": "30.0619410608225",
    "geocoded_column": {
      "latitude": "30.0619410608225",
      "longitude": "-89.95574066611944"
    }
  },
  {
    "service_request": "2022-913822",
    "request_type": "Traffic Signals/Signs/Striping/Streetlights",
    "request_reason": "Traffic Signal Malfunctioning/Damaged",
    "date_created": "2022-08-26T15:40:21.000",
    "date_modified": "2022-08-26T15:40:21.000",
    "request_status": "Pending",
    "responsible_agency": "Department of Public Works",
    "final_address": "ESPLANADE AVE & N CLAIBORNE AVE",
    "address_councildis": "D",
    "status": "Pending",
    "rowid": "913822",
    "final_x": "3681231.3",
    "final_y": "536639.18",
    "longitude": "-90.06874038104324",
    "latitude": "29.969579834804723",
    "geocoded_column": {
      "latitude": "29.969579834804723",
      "longitude": "-90.06874038104324"
    }
  },
  {
    "service_request": "2022-913821",
    "request_type": "Property Maintenance",
    "request_reason": "Property Maintenance",
    "date_created": "2022-08-26T15:39:57.000",
    "date_modified": "2022-08-26T16:02:27.000",
    "case_close_date": "2022-08-26T11:02:27.000",
    "request_status": "Closed",
    "responsible_agency": "Department of Code Enforcement",
    "final_address": "LAMARQUE ST & PACE BLVD",
    "address_councildis": "C",
    "status": "Referred to Code Enforcement",
    "rowid": "913821",
    "final_x": "3694448.8",
    "final_y": "526504.98",
    "longitude": "-90.02736335062147",
    "latitude": "29.941306610824387",
    "geocoded_column": {
      "latitude": "29.941306610824387",
      "longitude": "-90.02736335062147"
    }
  },
  {
    "service_request": "2022-913820",
    "request_type": "Traffic Signals/Signs/Striping/Streetlights",
    "request_reason": "Request for Traffic Calming due to Speeding",
    "date_created": "2022-08-26T15:35:03.000",
    "date_modified": "2022-08-26T15:35:04.000",
    "request_status": "Pending",
    "responsible_agency": "Department of Public Works",
    "final_address": "5552 Read Blvd",
    "address_councildis": "E",
    "status": "Pending",
    "rowid": "913820",
    "final_x": "3711612.33822",
    "final_y": "558560.875996",
    "longitude": "-89.97197291933162",
    "latitude": "30.028899184723294",
    "geocoded_column": {
      "latitude": "30.028899184723294",
      "longitude": "-89.97197291933162"
    }
  },
  {
    "service_request": "2022-913819",
    "request_type": "Roads/Drainage",
    "request_reason": "Street Flooding / Drainage",
    "date_created": "2022-08-26T15:32:53.000",
    "date_modified": "2022-08-26T15:32:53.000",
    "request_status": "Pending",
    "responsible_agency": "Department of Public Works",
    "final_address": "1637 Independence St",
    "address_councildis": "D",
    "status": "Pending",
    "rowid": "913819",
    "final_x": "3691529.81865",
    "final_y": "537685.220168",
    "longitude": "-90.03617950323198",
    "latitude": "29.972139535376716",
    "geocoded_column": {
      "latitude": "29.972139535376716",
      "longitude": "-90.03617950323198"
    }
  },
  {
    "service_request": "2022-913818",
    "request_type": "Roads/Drainage",
    "request_reason": "Street Subsidence (Sinking)",
    "date_created": "2022-08-26T15:31:18.000",
    "date_modified": "2022-08-26T15:31:18.000",
    "request_status": "Pending",
    "responsible_agency": "Department of Public Works",
    "final_address": "4700 Toulouse St",
    "address_councildis": "A",
    "status": "Pending",
    "rowid": "913818",
    "final_x": "3670120.19559",
    "final_y": "541238.315916",
    "longitude": "-90.10367442585077",
    "latitude": "29.982558407412522",
    "geocoded_column": {
      "latitude": "29.982558407412522",
      "longitude": "-90.10367442585077"
    }
  },
  {
    "service_request": "2022-913817",
    "request_type": "Property Maintenance",
    "request_reason": "Property Maintenance",
    "date_created": "2022-08-26T15:24:56.000",
    "date_modified": "2022-08-26T16:15:38.000",
    "case_close_date": "2022-08-26T11:15:38.000",
    "request_status": "Closed",
    "responsible_agency": "Department of Code Enforcement",
    "final_address": "5570 Red Maple Dr",
    "address_councildis": "E",
    "status": "Referred to Code Enforcement",
    "rowid": "913817",
    "final_x": "3723350.5431",
    "final_y": "563929.053857",
    "longitude": "-89.93467407672138",
    "latitude": "30.043270788388522",
    "geocoded_column": {
      "latitude": "30.043270788388522",
      "longitude": "-89.93467407672138"
    }
  },
  {
    "service_request": "2022-913816",
    "request_type": "Trash/Recycling",
    "request_reason": "Order Recycling Cart",
    "date_created": "2022-08-26T15:24:46.000",
    "date_modified": "2022-08-26T15:24:46.000",
    "request_status": "Pending",
    "responsible_agency": "Department of Sanitation",
    "final_address": "1631 Sixth St",
    "address_councildis": "B",
    "status": "Pending",
    "rowid": "913816",
    "final_x": "3675383.72424",
    "final_y": "522475.95353",
    "longitude": "-90.08769379233294",
    "latitude": "29.930811821581226",
    "geocoded_column": {
      "latitude": "29.930811821581226",
      "longitude": "-90.08769379233294"
    }
  },
  {
    "service_request": "2022-913815",
    "request_type": "Trash/Recycling",
    "request_reason": "Dead Animal Pick Up",
    "date_created": "2022-08-26T15:21:55.000",
    "date_modified": "2022-08-26T15:21:55.000",
    "request_status": "Pending",
    "responsible_agency": "Department of Sanitation",
    "final_address": "9400 Hayne Blvd",
    "address_councildis": "E",
    "status": "Assigned to Contractor",
    "contractor": "Metro Disposal",
    "rowid": "913815",
    "final_x": "3705709.5802",
    "final_y": "564715.030818",
    "longitude": "-89.99039734914645",
    "latitude": "30.046012194212324",
    "geocoded_column": {
      "latitude": "30.046012194212324",
      "longitude": "-89.99039734914645"
    }
  },
  {
    "service_request": "2022-913814",
    "request_type": "Trash/Recycling",
    "request_reason": "Repair Trash Cart",
    "date_created": "2022-08-26T15:19:41.000",
    "date_modified": "2022-08-26T15:19:42.000",
    "request_status": "Pending",
    "responsible_agency": "Department of Sanitation",
    "final_address": "1900 Touro St",
    "address_councildis": "D",
    "status": "Assigned to Contractor",
    "contractor": "Metro Disposal",
    "rowid": "913814",
    "final_x": "3683961.43004",
    "final_y": "539226.395594",
    "longitude": "-90.06002761361336",
    "latitude": "29.976610645673386",
    "geocoded_column": {
      "latitude": "29.976610645673386",
      "longitude": "-90.06002761361336"
    }
  },
  {
    "service_request": "2022-913813",
    "request_type": "Property Maintenance",
    "request_reason": "Property Maintenance",
    "date_created": "2022-08-26T15:19:05.000",
    "date_modified": "2022-08-26T16:18:26.000",
    "case_close_date": "2022-08-26T11:18:26.000",
    "request_status": "Closed",
    "responsible_agency": "Department of Code Enforcement",
    "final_address": "1802 General Ogden St",
    "address_councildis": "A",
    "status": "Referred to Code Enforcement",
    "rowid": "913813",
    "final_x": "3661284.39917",
    "final_y": "531893.951811",
    "longitude": "-90.13189186983556",
    "latitude": "29.957122240810826",
    "geocoded_column": {
      "latitude": "29.957122240810826",
      "longitude": "-90.13189186983556"
    }
  },
  {
    "service_request": "2022-913812",
    "request_type": "Property Maintenance",
    "request_reason": "Property Maintenance",
    "date_created": "2022-08-26T15:18:46.000",
    "date_modified": "2022-08-26T16:29:49.000",
    "case_close_date": "2022-08-26T11:29:49.000",
    "request_status": "Closed",
    "responsible_agency": "Department of Code Enforcement",
    "final_address": "1738 General Ogden St",
    "address_councildis": "A",
    "status": "Referred to Code Enforcement",
    "rowid": "913812",
    "final_x": "3661226.17914",
    "final_y": "531831.449475",
    "longitude": "-90.13207778078252",
    "latitude": "29.95695205799253",
    "geocoded_column": {
      "latitude": "29.95695205799253",
      "longitude": "-90.13207778078252"
    }
  },
  {
    "service_request": "2022-913811",
    "request_type": "Safety & Permits",
    "request_reason": "Short term Rental (Enforcement)",
    "date_created": "2022-08-26T15:16:55.000",
    "date_modified": "2022-08-26T15:16:55.000",
    "request_status": "Pending",
    "responsible_agency": "Safety and Permits",
    "final_address": "2031 St Maurice Ave",
    "address_councildis": "E",
    "status": "Pending",
    "rowid": "913811",
    "final_x": "3701308.03754",
    "final_y": "536560.116231",
    "longitude": "-90.00533965170402",
    "latitude": "29.968737911557415",
    "geocoded_column": {
      "latitude": "29.968737911557415",
      "longitude": "-90.00533965170402"
    }
  },
  {
    "service_request": "2022-913810",
    "request_type": "Traffic Signals/Signs/Striping/Streetlights",
    "request_reason": "Street Light Outage/Malfunction",
    "date_created": "2022-08-26T15:16:46.000",
    "date_modified": "2022-08-26T15:16:47.000",
    "request_status": "Pending",
    "responsible_agency": "Department of Public Works",
    "final_address": "1015 Iberville St",
    "address_councildis": "C",
    "status": "Pending",
    "contractor": "Legacy Professional Services",
    "rowid": "913810",
    "final_x": "3680495.71368",
    "final_y": "531774.172675",
    "longitude": "-90.0712326546751",
    "latitude": "29.956225025971253",
    "geocoded_column": {
      "latitude": "29.956225025971253",
      "longitude": "-90.0712326546751"
    }
  },
  {
    "service_request": "2022-913809",
    "request_type": "Trash/Recycling",
    "request_reason": "Replace Trash Cart",
    "date_created": "2022-08-26T15:14:16.000",
    "date_modified": "2022-08-26T15:14:17.000",
    "request_status": "Pending",
    "responsible_agency": "Department of Sanitation",
    "final_address": "2031 Jefferson Ave",
    "address_councildis": "B",
    "status": "Assigned to Contractor",
    "contractor": "Richards Disposal",
    "rowid": "913809",
    "final_x": "3667802.26503",
    "final_y": "523185.264571",
    "longitude": "-90.11160359707894",
    "latitude": "29.9329866455741",
    "geocoded_column": {
      "latitude": "29.9329866455741",
      "longitude": "-90.11160359707894"
    }
  },
  {
    "service_request": "2022-913808",
    "request_type": "Roads/Drainage",
    "request_reason": "Road Shoulder Repair",
    "date_created": "2022-08-26T15:10:12.000",
    "date_modified": "2022-08-26T15:10:58.000",
    "request_status": "Pending",
    "responsible_agency": "Department of Public Works",
    "final_address": "TCHOUPITOULAS ST & JOSEPH ST",
    "address_councildis": "A",
    "status": "Pending",
    "rowid": "913808",
    "final_x": "3665731.8",
    "final_y": "517147.38",
    "longitude": "-90.11834204734008",
    "latitude": "29.9164449028211",
    "geocoded_column": {
      "latitude": "29.9164449028211",
      "longitude": "-90.11834204734008"
    }
  },
  {
    "service_request": "2022-913806",
    "request_type": "Roads/Drainage",
    "request_reason": "Catch Basin - Clogged",
    "date_created": "2022-08-26T15:04:45.000",
    "date_modified": "2022-08-26T15:04:45.000",
    "request_status": "Pending",
    "responsible_agency": "Department of Public Works",
    "final_address": "1734 Prytania St",
    "address_councildis": "B",
    "status": "Pending",
    "rowid": "913806",
    "final_x": "3679181.46152",
    "final_y": "524434.726268",
    "longitude": "-90.07563699888438",
    "latitude": "29.936083735648523",
    "geocoded_column": {
      "latitude": "29.936083735648523",
      "longitude": "-90.07563699888438"
    }
  },
  {
    "service_request": "2022-913805",
    "request_type": "Parks & Parkways",
    "request_reason": "Request Tree Service (Right of Way/Public Property)",
    "date_created": "2022-08-26T15:03:58.000",
    "date_modified": "2022-08-26T15:03:58.000",
    "request_status": "Pending",
    "responsible_agency": "Department of Parks & Parkway",
    "final_address": "2027 Valence St",
    "address_councildis": "B",
    "status": "Pending",
    "rowid": "913805",
    "final_x": "3669627.94734",
    "final_y": "522407.92889",
    "longitude": "-90.10586632134363",
    "latitude": "29.930795570225477",
    "geocoded_column": {
      "latitude": "29.930795570225477",
      "longitude": "-90.10586632134363"
    }
  },
  {
    "service_request": "2022-913804",
    "request_type": "Traffic Signals/Signs/Striping/Streetlights",
    "request_reason": "Street Light Outage/Malfunction",
    "date_created": "2022-08-26T14:59:16.000",
    "date_modified": "2022-08-26T14:59:16.000",
    "request_status": "Pending",
    "responsible_agency": "Department of Public Works",
    "final_address": "2300 New York St",
    "address_councildis": "D",
    "status": "Pending",
    "contractor": "Legacy Professional Services",
    "rowid": "913804",
    "final_x": "3684209.83765",
    "final_y": "556555.468314",
    "longitude": "-90.05863421312304",
    "latitude": "30.024251773216537",
    "geocoded_column": {
      "latitude": "30.024251773216537",
      "longitude": "-90.05863421312304"
    }
  },
  {
    "service_request": "2022-913803",
    "request_type": "Trash/Recycling",
    "request_reason": "Request a Large Item Pick Up",
    "date_created": "2022-08-26T14:58:28.000",
    "date_modified": "2022-08-26T15:09:21.000",
    "request_status": "Pending",
    "responsible_agency": "Department of Sanitation",
    "final_address": "New Orleans,LA",
    "address_councildis": "B",
    "status": "Assigned to Contractor",
    "contractor": "Richards Disposal",
    "rowid": "913803",
    "final_x": "3681138.40559",
    "final_y": "523083.017979",
    "longitude": "-90.06950594742291",
    "latitude": "29.932307777596723",
    "geocoded_column": {
      "latitude": "29.932307777596723",
      "longitude": "-90.06950594742291"
    }
  },
  {
    "service_request": "2022-913802",
    "request_type": "Abandoned Vehicles",
    "request_reason": "Abandoned/Junk Vehicles",
    "date_created": "2022-08-26T14:53:50.000",
    "date_modified": "2022-08-26T14:53:50.000",
    "request_status": "Pending",
    "responsible_agency": "Department of Public Works",
    "final_address": "1739 Joliet St",
    "address_councildis": "A",
    "status": "Pending",
    "rowid": "913802",
    "final_x": "3662318.40794",
    "final_y": "530823.917442",
    "longitude": "-90.12866229615634",
    "latitude": "29.954150140476823",
    "geocoded_column": {
      "latitude": "29.954150140476823",
      "longitude": "-90.12866229615634"
    }
  },
  {
    "service_request": "2022-913801",
    "request_type": "Abandoned Vehicles",
    "request_reason": "Abandoned/Junk Vehicles",
    "date_created": "2022-08-26T14:52:28.000",
    "date_modified": "2022-08-26T14:52:28.000",
    "request_status": "Pending",
    "responsible_agency": "Department of Public Works",
    "final_address": "1739 Joliet St",
    "address_councildis": "A",
    "status": "Pending",
    "rowid": "913801",
    "final_x": "3662318.40794",
    "final_y": "530823.917442",
    "longitude": "-90.12866229615634",
    "latitude": "29.954150140476823",
    "geocoded_column": {
      "latitude": "29.954150140476823",
      "longitude": "-90.12866229615634"
    }
  },
  {
    "service_request": "2022-913800",
    "request_type": "Traffic Signals/Signs/Striping/Streetlights",
    "request_reason": "Street Light Outage/Malfunction",
    "date_created": "2022-08-26T14:51:05.000",
    "date_modified": "2022-08-26T14:51:06.000",
    "request_status": "Pending",
    "responsible_agency": "Department of Public Works",
    "final_address": "939 Iberville St",
    "address_councildis": "C",
    "status": "Pending",
    "contractor": "Legacy Professional Services",
    "rowid": "913800",
    "final_x": "3680681.67336",
    "final_y": "531674.097859",
    "longitude": "-90.07064893920044",
    "latitude": "29.955944220735546",
    "geocoded_column": {
      "latitude": "29.955944220735546",
      "longitude": "-90.07064893920044"
    }
  },
  {
    "service_request": "2022-913799",
    "request_type": "Traffic Signals/Signs/Striping/Streetlights",
    "request_reason": "Street Light Outage/Malfunction",
    "date_created": "2022-08-26T14:50:52.000",
    "date_modified": "2022-08-26T14:50:53.000",
    "request_status": "Pending",
    "responsible_agency": "Department of Public Works",
    "final_address": "1738 Prytania St",
    "address_councildis": "B",
    "status": "Pending",
    "contractor": "Legacy Professional Services",
    "rowid": "913799",
    "final_x": "3679164.56847",
    "final_y": "524407.243132",
    "longitude": "-90.07569128298755",
    "latitude": "29.936008675926224",
    "geocoded_column": {
      "latitude": "29.936008675926224",
      "longitude": "-90.07569128298755"
    }
  },
  {
    "service_request": "2022-913798",
    "request_type": "Abandoned Vehicles",
    "request_reason": "Abandoned/Junk Vehicles",
    "date_created": "2022-08-26T14:50:32.000",
    "date_modified": "2022-08-26T14:51:49.000",
    "request_status": "Pending",
    "responsible_agency": "Department of Public Works",
    "final_address": "807 Taft Pl",
    "address_councildis": "A",
    "status": "Pending",
    "rowid": "913798",
    "final_x": "3673742.80091",
    "final_y": "539532.054282",
    "longitude": "-90.09229079088175",
    "latitude": "29.977759379156797",
    "geocoded_column": {
      "latitude": "29.977759379156797",
      "longitude": "-90.09229079088175"
    }
  },
  {
    "service_request": "2022-913797",
    "request_type": "Trash/Recycling",
    "request_reason": "Request a Large Item Pick Up",
    "date_created": "2022-08-26T14:50:20.000",
    "date_modified": "2022-08-26T14:50:21.000",
    "request_status": "Pending",
    "responsible_agency": "Department of Sanitation",
    "final_address": "8606 Marks St",
    "address_councildis": "A",
    "status": "Assigned to Contractor",
    "contractor": "Richards Disposal",
    "rowid": "913797",
    "final_x": "3667487.03732",
    "final_y": "537206.794696",
    "longitude": "-90.11212698693564",
    "latitude": "29.971550515067626",
    "geocoded_column": {
      "latitude": "29.971550515067626",
      "longitude": "-90.11212698693564"
    }
  },
  {
    "service_request": "2022-913796",
    "request_type": "Traffic Signals/Signs/Striping/Streetlights",
    "request_reason": "Street Light Outage/Malfunction",
    "date_created": "2022-08-26T14:47:06.000",
    "date_modified": "2022-08-26T14:47:06.000",
    "request_status": "Pending",
    "responsible_agency": "Department of Public Works",
    "final_address": "200 Dauphine St",
    "address_councildis": "C",
    "status": "Pending",
    "contractor": "Legacy Professional Services",
    "rowid": "913796",
    "final_x": "3681036.30971",
    "final_y": "531600.413635",
    "longitude": "-90.06953168711884",
    "latitude": "29.955730863656704",
    "geocoded_column": {
      "latitude": "29.955730863656704",
      "longitude": "-90.06953168711884"
    }
  },
  {
    "service_request": "2022-913795",
    "request_type": "Trash/Recycling",
    "request_reason": "Missed Trash Pick-Up",
    "date_created": "2022-08-26T14:46:15.000",
    "date_modified": "2022-08-26T14:47:18.000",
    "request_status": "Pending",
    "responsible_agency": "Department of Sanitation",
    "final_address": "New Orleans,LA",
    "address_councildis": "A",
    "status": "Assigned to Contractor",
    "contractor": "Richards Disposal",
    "rowid": "913795",
    "final_x": "3666984.94815",
    "final_y": "520599.623287",
    "longitude": "-90.11427066001387",
    "latitude": "29.925900889582802",
    "geocoded_column": {
      "latitude": "29.925900889582802",
      "longitude": "-90.11427066001387"
    }
  },
  {
    "service_request": "2022-913794",
    "request_type": "Safety & Permits",
    "request_reason": "Licenses & Permits",
    "date_created": "2022-08-26T14:43:38.000",
    "date_modified": "2022-08-26T14:43:39.000",
    "request_status": "Pending",
    "responsible_agency": "Safety and Permits",
    "final_address": "2100 Octavia St",
    "address_councildis": "A",
    "status": "Pending",
    "rowid": "913794",
    "final_x": "3667390.05204",
    "final_y": "523427.558331",
    "longitude": "-90.11289678131466",
    "latitude": "29.933664954839923",
    "geocoded_column": {
      "latitude": "29.933664954839923",
      "longitude": "-90.11289678131466"
    }
  },
  {
    "service_request": "2022-913793",
    "request_type": "Traffic Signals/Signs/Striping/Streetlights",
    "request_reason": "Street Light Outage/Malfunction",
    "date_created": "2022-08-26T14:40:05.000",
    "date_modified": "2022-08-26T14:40:08.000",
    "request_status": "Pending",
    "responsible_agency": "Department of Public Works",
    "final_address": "810 Iberville St",
    "address_councildis": "C",
    "status": "Pending",
    "contractor": "Legacy Professional Services",
    "rowid": "913793",
    "final_x": "3681086.66594",
    "final_y": "531248.58253",
    "longitude": "-90.06938493470138",
    "latitude": "29.954761919996155",
    "geocoded_column": {
      "latitude": "29.954761919996155",
      "longitude": "-90.06938493470138"
    }
  },
  {
    "service_request": "2022-913792",
    "request_type": "Trash/Recycling",
    "request_reason": "Missed Trash Pick-Up",
    "date_created": "2022-08-26T14:38:13.000",
    "date_modified": "2022-08-26T14:38:14.000",
    "request_status": "Pending",
    "responsible_agency": "Department of Sanitation",
    "final_address": "2714 Coliseum St",
    "address_councildis": "B",
    "status": "Assigned to Contractor",
    "contractor": "Richards Disposal",
    "rowid": "913792",
    "final_x": "3676653.73237",
    "final_y": "521751.276922",
    "longitude": "-90.08370950164189",
    "latitude": "29.92878117309633",
    "geocoded_column": {
      "latitude": "29.92878117309633",
      "longitude": "-90.08370950164189"
    }
  },
  {
    "service_request": "2022-913791",
    "request_type": "Trash/Recycling",
    "request_reason": "Order Trash Cart",
    "date_created": "2022-08-26T14:37:26.000",
    "date_modified": "2022-08-26T14:37:26.000",
    "request_status": "Pending",
    "responsible_agency": "Department of Sanitation",
    "final_address": "1913 N Robertson St",
    "address_councildis": "C",
    "status": "Assigned to Contractor",
    "contractor": "Metro Disposal",
    "rowid": "913791",
    "final_x": "3683888.19189",
    "final_y": "537722.809736",
    "longitude": "-90.0603116806403",
    "latitude": "29.97247854623437",
    "geocoded_column": {
      "latitude": "29.97247854623437",
      "longitude": "-90.0603116806403"
    }
  },
  {
    "service_request": "2022-913789",
    "request_type": "Trash/Recycling",
    "request_reason": "MIssed Recycling Pick-Up",
    "date_created": "2022-08-26T14:35:49.000",
    "date_modified": "2022-08-26T14:35:50.000",
    "request_status": "Pending",
    "responsible_agency": "Department of Sanitation",
    "final_address": "3800 Delachaise St",
    "address_councildis": "B",
    "status": "Assigned to Contractor",
    "contractor": "Richards Disposal",
    "rowid": "913789",
    "final_x": "3671055.93639",
    "final_y": "528633.7968",
    "longitude": "-90.10114699838164",
    "latitude": "29.947872548025288",
    "geocoded_column": {
      "latitude": "29.947872548025288",
      "longitude": "-90.10114699838164"
    }
  },
  {
    "service_request": "2022-913788",
    "request_type": "Trash/Recycling",
    "request_reason": "Request a Large Item Pick Up",
    "date_created": "2022-08-26T14:35:02.000",
    "date_modified": "2022-08-26T14:35:03.000",
    "request_status": "Pending",
    "responsible_agency": "Department of Sanitation",
    "final_address": "1800 Mardi Gras Blvd",
    "address_councildis": "C",
    "status": "Assigned to Contractor",
    "contractor": "Richards Disposal",
    "rowid": "913788",
    "final_x": "3690720.46934",
    "final_y": "525357.596797",
    "longitude": "-90.03917527513138",
    "latitude": "29.938268014813808",
    "geocoded_column": {
      "latitude": "29.938268014813808",
      "longitude": "-90.03917527513138"
    }
  },
  {
    "service_request": "2022-913787",
    "request_type": "Trash/Recycling",
    "request_reason": "Request a Large Item Pick Up",
    "date_created": "2022-08-26T14:32:29.000",
    "date_modified": "2022-08-26T14:32:30.000",
    "request_status": "Pending",
    "responsible_agency": "Department of Sanitation",
    "final_address": "2858 Magazine St",
    "address_councildis": "B",
    "status": "Assigned to Contractor",
    "contractor": "Richards Disposal",
    "rowid": "913787",
    "final_x": "3676678.48053",
    "final_y": "520519.29612",
    "longitude": "-90.08367379156977",
    "latitude": "29.925392883548568",
    "geocoded_column": {
      "latitude": "29.925392883548568",
      "longitude": "-90.08367379156977"
    }
  },
  {
    "service_request": "2022-913786",
    "request_type": "Trash/Recycling",
    "request_reason": "Request a Large Item Pick Up",
    "date_created": "2022-08-26T14:30:14.000",
    "date_modified": "2022-08-26T14:30:15.000",
    "request_status": "Pending",
    "responsible_agency": "Department of Sanitation",
    "final_address": "1133 Kerlerec St",
    "address_councildis": "C",
    "status": "Assigned to Contractor",
    "contractor": "Metro Disposal",
    "rowid": "913786",
    "final_x": "3682926.53308",
    "final_y": "535776.890183",
    "longitude": "-90.06341687650826",
    "latitude": "29.967157282666644",
    "geocoded_column": {
      "latitude": "29.967157282666644",
      "longitude": "-90.06341687650826"
    }
  },
  {
    "service_request": "2022-913785",
    "request_type": "Roads/Drainage",
    "request_reason": "Pothole",
    "date_created": "2022-08-26T14:30:07.000",
    "date_modified": "2022-08-26T14:30:07.000",
    "request_status": "Pending",
    "responsible_agency": "Department of Public Works",
    "final_address": "1425 N Broad St",
    "address_councildis": "A",
    "status": "Pending",
    "rowid": "913785",
    "final_x": "3678233.58939",
    "final_y": "539286.022026",
    "longitude": "-90.07811584182396",
    "latitude": "29.976948370454366",
    "geocoded_column": {
      "latitude": "29.976948370454366",
      "longitude": "-90.07811584182396"
    }
  },
  {
    "service_request": "2022-913784",
    "request_type": "Trash/Recycling",
    "request_reason": "Request a Large Item Pick Up",
    "date_created": "2022-08-26T14:26:40.000",
    "date_modified": "2022-08-26T14:26:41.000",
    "request_status": "Pending",
    "responsible_agency": "Department of Sanitation",
    "final_address": "2972 Donner Dr",
    "address_councildis": "C",
    "status": "Assigned to Contractor",
    "contractor": "Richards Disposal",
    "rowid": "913784",
    "final_x": "3693184.39856",
    "final_y": "518817.669751",
    "longitude": "-90.031631006536",
    "latitude": "29.920208684594375",
    "geocoded_column": {
      "latitude": "29.920208684594375",
      "longitude": "-90.031631006536"
    }
  },
  {
    "service_request": "2022-913783",
    "request_type": "Traffic Signals/Signs/Striping/Streetlights",
    "request_reason": "Street Light Outage/Malfunction",
    "date_created": "2022-08-26T14:26:24.000",
    "date_modified": "2022-08-26T14:26:25.000",
    "request_status": "Pending",
    "responsible_agency": "Department of Public Works",
    "final_address": "609 Iberville St",
    "address_councildis": "C",
    "status": "Pending",
    "contractor": "Legacy Professional Services",
    "rowid": "913783",
    "final_x": "3681662.0532",
    "final_y": "530888.595842",
    "longitude": "-90.06758064019495",
    "latitude": "29.95375461401836",
    "geocoded_column": {
      "latitude": "29.95375461401836",
      "longitude": "-90.06758064019495"
    }
  },
  {
    "service_request": "2022-913782",
    "request_type": "Trash/Recycling",
    "request_reason": "Replace Trash Cart",
    "date_created": "2022-08-26T14:25:45.000",
    "date_modified": "2022-08-26T14:25:45.000",
    "request_status": "Pending",
    "responsible_agency": "Department of Sanitation",
    "final_address": "171 English Turn Dr",
    "address_councildis": "C",
    "status": "Assigned to Contractor",
    "contractor": "Richards Disposal",
    "rowid": "913782",
    "final_x": "3719641.93874",
    "final_y": "512266.253617",
    "longitude": "-89.9483681673837",
    "latitude": "29.901341660379504",
    "geocoded_column": {
      "latitude": "29.901341660379504",
      "longitude": "-89.9483681673837"
    }
  },
  {
    "service_request": "2022-913781",
    "request_type": "Trash/Recycling",
    "request_reason": "Return Recycling Cart",
    "date_created": "2022-08-26T14:25:26.000",
    "date_modified": "2022-08-26T14:25:26.000",
    "request_status": "Pending",
    "responsible_agency": "Department of Sanitation",
    "final_address": "933 Pleasant St",
    "address_councildis": "B",
    "status": "Pending",
    "rowid": "913781",
    "final_x": "3675793.66312",
    "final_y": "519473.507895",
    "longitude": "-90.08650280854377",
    "latitude": "29.922543807724495",
    "geocoded_column": {
      "latitude": "29.922543807724495",
      "longitude": "-90.08650280854377"
    }
  },
  {
    "service_request": "2022-913780",
    "request_type": "Trash/Recycling",
    "request_reason": "Missed Trash Pick-Up",
    "date_created": "2022-08-26T14:22:25.000",
    "date_modified": "2022-08-26T14:22:25.000",
    "request_status": "Pending",
    "responsible_agency": "Department of Sanitation",
    "final_address": "1805 Farragut St",
    "address_councildis": "C",
    "status": "Assigned to Contractor",
    "contractor": "Richards Disposal",
    "rowid": "913780",
    "final_x": "3692230.58281",
    "final_y": "524621.505724",
    "longitude": "-90.03443406596732",
    "latitude": "29.93619703139417",
    "geocoded_column": {
      "latitude": "29.93619703139417",
      "longitude": "-90.03443406596732"
    }
  },
  {
    "service_request": "2022-913779",
    "request_type": "Traffic Signals/Signs/Striping/Streetlights",
    "request_reason": "Street Light Outage/Malfunction",
    "date_created": "2022-08-26T14:21:36.000",
    "date_modified": "2022-08-26T14:21:37.000",
    "request_status": "Pending",
    "responsible_agency": "Department of Public Works",
    "final_address": "612 Iberville St",
    "address_councildis": "C",
    "status": "Pending",
    "contractor": "Legacy Professional Services",
    "rowid": "913779",
    "final_x": "3681605.28616",
    "final_y": "530858.318082",
    "longitude": "-90.06776094275325",
    "latitude": "29.953673084555582",
    "geocoded_column": {
      "latitude": "29.953673084555582",
      "longitude": "-90.06776094275325"
    }
  },
  {
    "service_request": "2022-913778",
    "request_type": "Trash/Recycling",
    "request_reason": "Request a Large Item Pick Up",
    "date_created": "2022-08-26T14:20:21.000",
    "date_modified": "2022-08-26T14:20:22.000",
    "request_status": "Pending",
    "responsible_agency": "Department of Sanitation",
    "final_address": "1224 Frenchmen St",
    "address_councildis": "C",
    "status": "Assigned to Contractor",
    "contractor": "Metro Disposal",
    "rowid": "913778",
    "final_x": "3684507.0982",
    "final_y": "536846.640456",
    "longitude": "-90.05838785663101",
    "latitude": "29.97005046423323",
    "geocoded_column": {
      "latitude": "29.97005046423323",
      "longitude": "-90.05838785663101"
    }
  },
  {
    "service_request": "2022-913777",
    "request_type": "Parks & Parkways",
    "request_reason": "Request Tree Service (Right of Way/Public Property)",
    "date_created": "2022-08-26T14:19:03.000",
    "date_modified": "2022-08-26T14:19:04.000",
    "request_status": "Pending",
    "responsible_agency": "Department of Parks & Parkway",
    "final_address": "1436 Toledano St",
    "address_councildis": "B",
    "status": "Pending",
    "rowid": "913777",
    "final_x": "3674808.71105",
    "final_y": "521014.225401",
    "longitude": "-90.08955911900198",
    "latitude": "29.926809717799667",
    "geocoded_column": {
      "latitude": "29.926809717799667",
      "longitude": "-90.08955911900198"
    }
  },
  {
    "service_request": "2022-913776",
    "request_type": "Trash/Recycling",
    "request_reason": "Repair Trash Cart",
    "date_created": "2022-08-26T14:13:21.000",
    "date_modified": "2022-08-26T14:13:22.000",
    "request_status": "Pending",
    "responsible_agency": "Department of Sanitation",
    "final_address": "6019 Chestnut St",
    "address_councildis": "A",
    "status": "Assigned to Contractor",
    "contractor": "Richards Disposal",
    "rowid": "913776",
    "final_x": "3664762.62535",
    "final_y": "519948.884408",
    "longitude": "-90.12130763332809",
    "latitude": "29.92417638659354",
    "geocoded_column": {
      "latitude": "29.92417638659354",
      "longitude": "-90.12130763332809"
    }
  },
  {
    "service_request": "2022-913775",
    "request_type": "Traffic Signals/Signs/Striping/Streetlights",
    "request_reason": "Street Light Outage/Malfunction",
    "date_created": "2022-08-26T14:06:37.000",
    "date_modified": "2022-08-26T14:06:38.000",
    "request_status": "Pending",
    "responsible_agency": "Department of Public Works",
    "final_address": "511 Iberville St",
    "address_councildis": "C",
    "status": "Pending",
    "contractor": "Legacy Professional Services",
    "rowid": "913775",
    "final_x": "3681961.81352",
    "final_y": "530664.144962",
    "longitude": "-90.06664195706146",
    "latitude": "29.953128341746286",
    "geocoded_column": {
      "latitude": "29.953128341746286",
      "longitude": "-90.06664195706146"
    }
  },
  {
    "service_request": "2022-913774",
    "request_type": "Trash/Recycling",
    "request_reason": "Request a Large Item Pick Up",
    "date_created": "2022-08-26T14:05:56.000",
    "date_modified": "2022-08-26T14:05:56.000",
    "request_status": "Pending",
    "responsible_agency": "Department of Sanitation",
    "final_address": "9326 Colapissa St",
    "address_councildis": "A",
    "status": "Assigned to Contractor",
    "contractor": "Richards Disposal",
    "rowid": "913774",
    "final_x": "3663252.83194",
    "final_y": "536343.203911",
    "longitude": "-90.12552804584254",
    "latitude": "29.969299330048532",
    "geocoded_column": {
      "latitude": "29.969299330048532",
      "longitude": "-90.12552804584254"
    }
  },
  {
    "service_request": "2022-913773",
    "request_type": "Roads/Drainage",
    "request_reason": "Pothole",
    "date_created": "2022-08-26T14:04:16.000",
    "date_modified": "2022-08-26T14:04:16.000",
    "request_status": "Pending",
    "responsible_agency": "Department of Public Works",
    "final_address": "MORRISON RD & DOWNMAN RD",
    "address_councildis": "D",
    "status": "Pending",
    "rowid": "913773",
    "final_x": "3694996.8",
    "final_y": "557410.08",
    "longitude": "-90.02451870780844",
    "latitude": "30.026267262866675",
    "geocoded_column": {
      "latitude": "30.026267262866675",
      "longitude": "-90.02451870780844"
    }
  },
  {
    "service_request": "2022-913770",
    "request_type": "Property Maintenance",
    "request_reason": "Property Maintenance",
    "date_created": "2022-08-26T13:58:59.000",
    "date_modified": "2022-08-26T14:41:38.000",
    "case_close_date": "2022-08-26T09:41:38.000",
    "request_status": "Closed",
    "responsible_agency": "Department of Code Enforcement",
    "final_address": "316 S Diamond St",
    "address_councildis": "B",
    "status": "Referred to Code Enforcement",
    "rowid": "913770",
    "final_x": "3682108.30191",
    "final_y": "526738.41139",
    "longitude": "-90.06631647732081",
    "latitude": "29.9423294424195",
    "geocoded_column": {
      "latitude": "29.9423294424195",
      "longitude": "-90.06631647732081"
    }
  },
  {
    "service_request": "2022-913769",
    "request_type": "Trash/Recycling",
    "request_reason": "Illegal Dumping",
    "date_created": "2022-08-26T13:58:59.000",
    "date_modified": "2022-08-26T13:59:00.000",
    "request_status": "Pending",
    "responsible_agency": "Department of Sanitation",
    "final_address": "3RD ST & CARONDELET ST",
    "address_councildis": "B",
    "status": "Pending",
    "rowid": "913769",
    "final_x": "3676233.6",
    "final_y": "523200.88",
    "longitude": "-90.08498591973598",
    "latitude": "29.93277970164221",
    "geocoded_column": {
      "latitude": "29.93277970164221",
      "longitude": "-90.08498591973598"
    }
  },
  {
    "service_request": "2022-913768",
    "request_type": "Abandoned Vehicles",
    "request_reason": "Abandoned/Junk Vehicles",
    "date_created": "2022-08-26T13:55:51.000",
    "date_modified": "2022-08-26T13:56:53.000",
    "request_status": "Pending",
    "responsible_agency": "Department of Public Works",
    "final_address": "1500 Owens Blvd",
    "address_councildis": "D",
    "status": "Pending",
    "rowid": "913768",
    "final_x": "3678814.77954",
    "final_y": "548944.963475",
    "longitude": "-90.0759455001337",
    "latitude": "30.003489553304238",
    "geocoded_column": {
      "latitude": "30.003489553304238",
      "longitude": "-90.0759455001337"
    }
  },
  {
    "service_request": "2022-913767",
    "request_type": "Traffic Signals/Signs/Striping/Streetlights",
    "request_reason": "Street Light Outage/Malfunction",
    "date_created": "2022-08-26T13:52:45.000",
    "date_modified": "2022-08-26T13:52:46.000",
    "request_status": "Pending",
    "responsible_agency": "Department of Public Works",
    "final_address": "101 Iberville St",
    "address_councildis": "C",
    "status": "Pending",
    "contractor": "Legacy Professional Services",
    "rowid": "913767",
    "final_x": "3682839.75842",
    "final_y": "530035.641089",
    "longitude": "-90.06389177815426",
    "latitude": "29.951373453324184",
    "geocoded_column": {
      "latitude": "29.951373453324184",
      "longitude": "-90.06389177815426"
    }
  },
  {
    "service_request": "2022-913766",
    "request_type": "Trash/Recycling",
    "request_reason": "Missed Trash Pick-Up",
    "date_created": "2022-08-26T13:51:00.000",
    "date_modified": "2022-08-26T13:51:01.000",
    "request_status": "Pending",
    "responsible_agency": "Department of Sanitation",
    "final_address": "7417 Dogwood Dr",
    "address_councildis": "E",
    "status": "Assigned to Contractor",
    "contractor": "Metro Disposal",
    "rowid": "913766",
    "final_x": "3701574.11645",
    "final_y": "560491.900702",
    "longitude": "-90.00362230856314",
    "latitude": "30.03453286139486",
    "geocoded_column": {
      "latitude": "30.03453286139486",
      "longitude": "-90.00362230856314"
    }
  },
  {
    "service_request": "2022-913765",
    "request_type": "Traffic Signals/Signs/Striping/Streetlights",
    "request_reason": "Street Light Outage/Malfunction",
    "date_created": "2022-08-26T13:47:55.000",
    "date_modified": "2022-08-26T13:47:56.000",
    "request_status": "Pending",
    "responsible_agency": "Department of Public Works",
    "final_address": "101 Iberville St",
    "address_councildis": "C",
    "status": "Pending",
    "contractor": "Legacy Professional Services",
    "rowid": "913765",
    "final_x": "3682839.75842",
    "final_y": "530035.641089",
    "longitude": "-90.06389177815426",
    "latitude": "29.951373453324184",
    "geocoded_column": {
      "latitude": "29.951373453324184",
      "longitude": "-90.06389177815426"
    }
  },
  {
    "service_request": "2022-913764",
    "request_type": "Roads/Drainage",
    "request_reason": "Catch Basin - Clogged",
    "date_created": "2022-08-26T13:45:13.000",
    "date_modified": "2022-08-26T13:45:13.000",
    "request_status": "Pending",
    "responsible_agency": "Department of Public Works",
    "final_address": "1006 N Rocheblave St",
    "address_councildis": "D",
    "status": "Pending",
    "rowid": "913764",
    "final_x": "3678282.94626",
    "final_y": "537273.369416",
    "longitude": "-90.07802959556277",
    "latitude": "29.9714127807581",
    "geocoded_column": {
      "latitude": "29.9714127807581",
      "longitude": "-90.07802959556277"
    }
  },
  {
    "service_request": "2022-913763",
    "request_type": "Trash/Recycling",
    "request_reason": "Missed Trash Pick-Up",
    "date_created": "2022-08-26T13:44:59.000",
    "date_modified": "2022-08-26T13:45:00.000",
    "request_status": "Pending",
    "responsible_agency": "Department of Sanitation",
    "final_address": "364 Walnut St",
    "address_councildis": "A",
    "status": "Assigned to Contractor",
    "contractor": "Richards Disposal",
    "rowid": "913763",
    "final_x": "3662062.81216",
    "final_y": "522422.988794",
    "longitude": "-90.1297480050048",
    "latitude": "29.931057647652636",
    "geocoded_column": {
      "latitude": "29.931057647652636",
      "longitude": "-90.1297480050048"
    }
  },
  {
    "service_request": "2022-913761",
    "request_type": "Abandoned Vehicles",
    "request_reason": "Abandoned/Junk Vehicles",
    "date_created": "2022-08-26T13:41:50.000",
    "date_modified": "2022-08-26T13:41:50.000",
    "request_status": "Pending",
    "responsible_agency": "Department of Public Works",
    "final_address": "1120 Philip St",
    "address_councildis": "B",
    "status": "Pending",
    "rowid": "913761",
    "final_x": "3678425.83061",
    "final_y": "521942.120506",
    "longitude": "-90.07810875006922",
    "latitude": "29.929252671364562",
    "geocoded_column": {
      "latitude": "29.929252671364562",
      "longitude": "-90.07810875006922"
    }
  },
  {
    "service_request": "2022-913759",
    "request_type": "Traffic Signals/Signs/Striping/Streetlights",
    "request_reason": "Street Light Outage/Malfunction",
    "date_created": "2022-08-26T13:38:54.000",
    "date_modified": "2022-08-26T13:38:55.000",
    "request_status": "Pending",
    "responsible_agency": "Department of Public Works",
    "final_address": "100 Iberville St",
    "address_councildis": "C",
    "status": "Pending",
    "contractor": "Legacy Professional Services",
    "rowid": "913759",
    "final_x": "3682746.02844",
    "final_y": "529908.779201",
    "longitude": "-90.06419216785",
    "latitude": "29.951027481006758",
    "geocoded_column": {
      "latitude": "29.951027481006758",
      "longitude": "-90.06419216785"
    }
  },
  {
    "service_request": "2022-913758",
    "request_type": "Traffic Signals/Signs/Striping/Streetlights",
    "request_reason": "Traffic Sign Missing/Damaged",
    "date_created": "2022-08-26T13:37:26.000",
    "date_modified": "2022-08-26T13:37:26.000",
    "request_status": "Pending",
    "responsible_agency": "Department of Public Works",
    "final_address": "4901 Lafon Dr",
    "address_councildis": "E",
    "status": "Pending",
    "rowid": "913758",
    "final_x": "3701159.0225",
    "final_y": "555024.419417",
    "longitude": "-90.00513433318856",
    "latitude": "30.01951263426028",
    "geocoded_column": {
      "latitude": "30.01951263426028",
      "longitude": "-90.00513433318856"
    }
  },
  {
    "service_request": "2022-913757",
    "request_type": "Roads/Drainage",
    "request_reason": "Man hole cover issue",
    "date_created": "2022-08-26T13:35:28.000",
    "date_modified": "2022-08-26T13:35:29.000",
    "request_status": "Pending",
    "responsible_agency": "Department of Public Works",
    "final_address": "WILKINSON ST & DECATUR ST",
    "address_councildis": "C",
    "status": "Pending",
    "rowid": "913757",
    "final_x": "3683044.3",
    "final_y": "531832.48",
    "longitude": "-90.06318304650163",
    "latitude": "29.956307917397485",
    "geocoded_column": {
      "latitude": "29.956307917397485",
      "longitude": "-90.06318304650163"
    }
  },
  {
    "service_request": "2022-913756",
    "request_type": "Roads/Drainage",
    "request_reason": "Pothole",
    "date_created": "2022-08-26T13:34:30.000",
    "date_modified": "2022-08-26T13:34:30.000",
    "request_status": "Pending",
    "responsible_agency": "Department of Public Works",
    "final_address": "7221 Zimple St",
    "address_councildis": "A",
    "status": "Pending",
    "rowid": "913756",
    "final_x": "3663823.00346",
    "final_y": "526340.353982",
    "longitude": "-90.12406077799143",
    "latitude": "29.941778202296103",
    "geocoded_column": {
      "latitude": "29.941778202296103",
      "longitude": "-90.12406077799143"
    }
  },
  {
    "service_request": "2022-913755",
    "request_type": "Roads/Drainage",
    "request_reason": "Alley Way",
    "date_created": "2022-08-26T13:30:22.000",
    "date_modified": "2022-08-26T13:30:22.000",
    "request_status": "Pending",
    "responsible_agency": "Department of Public Works",
    "final_address": "5800 BLK Louis XIV St",
    "address_councildis": "A",
    "status": "Pending",
    "rowid": "913755",
    "final_x": "3667958.12468",
    "final_y": "546029.603923",
    "longitude": "-90.11034181964182",
    "latitude": "29.995796435059788",
    "geocoded_column": {
      "latitude": "29.995796435059788",
      "longitude": "-90.11034181964182"
    }
  },
  {
    "service_request": "2022-913754",
    "request_type": "Traffic Signals/Signs/Striping/Streetlights",
    "request_reason": "Street Light Outage/Malfunction",
    "date_created": "2022-08-26T13:28:21.000",
    "date_modified": "2022-08-26T13:28:22.000",
    "request_status": "Pending",
    "responsible_agency": "Department of Public Works",
    "final_address": "101 Iberville St",
    "address_councildis": "C",
    "status": "Pending",
    "contractor": "Legacy Professional Services",
    "rowid": "913754",
    "final_x": "3682839.75842",
    "final_y": "530035.641089",
    "longitude": "-90.06389177815426",
    "latitude": "29.951373453324184",
    "geocoded_column": {
      "latitude": "29.951373453324184",
      "longitude": "-90.06389177815426"
    }
  },
  {
    "service_request": "2022-913753",
    "request_type": "Trash/Recycling",
    "request_reason": "Missed Trash Pick-Up",
    "date_created": "2022-08-26T13:24:19.000",
    "date_modified": "2022-08-26T13:24:19.000",
    "request_status": "Pending",
    "responsible_agency": "Department of Sanitation",
    "final_address": "2922 Third St",
    "address_councildis": "B",
    "status": "Assigned to Contractor",
    "contractor": "Richards Disposal",
    "rowid": "913753",
    "final_x": "3673772.63739",
    "final_y": "526842.638142",
    "longitude": "-90.09263051214735",
    "latitude": "29.942866841742514",
    "geocoded_column": {
      "latitude": "29.942866841742514",
      "longitude": "-90.09263051214735"
    }
  },
  {
    "service_request": "2022-913752",
    "request_type": "Trash/Recycling",
    "request_reason": "Missed Trash Pick-Up",
    "date_created": "2022-08-26T13:19:55.000",
    "date_modified": "2022-08-26T13:19:55.000",
    "request_status": "Pending",
    "responsible_agency": "Department of Sanitation",
    "final_address": "2922 Third St",
    "address_councildis": "B",
    "status": "Assigned to Contractor",
    "contractor": "Richards Disposal",
    "rowid": "913752",
    "final_x": "3673772.63739",
    "final_y": "526842.638142",
    "longitude": "-90.09263051214735",
    "latitude": "29.942866841742514",
    "geocoded_column": {
      "latitude": "29.942866841742514",
      "longitude": "-90.09263051214735"
    }
  },
  {
    "service_request": "2022-913751",
    "request_type": "Abandoned Vehicles",
    "request_reason": "Abandoned/Junk Vehicles",
    "date_created": "2022-08-26T13:19:21.000",
    "date_modified": "2022-08-26T13:19:21.000",
    "request_status": "Pending",
    "responsible_agency": "Department of Public Works",
    "final_address": "400 BLK Thayer St",
    "address_councildis": "C",
    "status": "Pending",
    "rowid": "913751",
    "final_x": "3689531.18324",
    "final_y": "530048.637197",
    "longitude": "-90.04276314544005",
    "latitude": "29.95120365318",
    "geocoded_column": {
      "latitude": "29.95120365318",
      "longitude": "-90.04276314544005"
    }
  },
  {
    "service_request": "2022-913750",
    "request_type": "Roads/Drainage",
    "request_reason": "Pothole",
    "date_created": "2022-08-26T13:18:45.000",
    "date_modified": "2022-08-26T13:21:08.000",
    "request_status": "Pending",
    "responsible_agency": "Department of Public Works",
    "final_address": "Birch St & Monroe St, New Orleans, Louisiana, 70118",
    "address_councildis": "A",
    "rowid": "913750",
    "final_x": "3661332.4",
    "final_y": "530844.98",
    "longitude": "-90.1317750312396",
    "latitude": "29.954236522838865",
    "geocoded_column": {
      "latitude": "29.954236522838865",
      "longitude": "-90.1317750312396"
    }
  },
  {
    "service_request": "2022-913749",
    "request_type": "Traffic Signals/Signs/Striping/Streetlights",
    "request_reason": "Street Light Outage/Malfunction",
    "date_created": "2022-08-26T13:18:10.000",
    "date_modified": "2022-08-26T13:18:11.000",
    "request_status": "Pending",
    "responsible_agency": "Department of Public Works",
    "final_address": "5818 Painters St",
    "address_councildis": "D",
    "status": "Pending",
    "contractor": "Legacy Professional Services",
    "rowid": "913749",
    "final_x": "3686061.32604",
    "final_y": "554576.427864",
    "longitude": "-90.05285374289336",
    "latitude": "30.018753380083176",
    "geocoded_column": {
      "latitude": "30.018753380083176",
      "longitude": "-90.05285374289336"
    }
  },
  {
    "service_request": "2022-913748",
    "request_type": "Abandoned Vehicles",
    "request_reason": "Abandoned/Junk Vehicles",
    "date_created": "2022-08-26T13:16:45.000",
    "date_modified": "2022-08-26T13:16:45.000",
    "request_status": "Pending",
    "responsible_agency": "Department of Public Works",
    "final_address": "11229 Winrock Dr",
    "address_councildis": "E",
    "status": "Pending",
    "rowid": "913748",
    "final_x": "3716201.39852",
    "final_y": "561405.381918",
    "longitude": "-89.95736388594614",
    "latitude": "30.036569720239555",
    "geocoded_column": {
      "latitude": "30.036569720239555",
      "longitude": "-89.95736388594614"
    }
  },
  {
    "service_request": "2022-913746",
    "request_type": "Roads/Drainage",
    "request_reason": "Debris in Roadway",
    "date_created": "2022-08-26T13:16:34.000",
    "date_modified": "2022-08-26T13:16:35.000",
    "request_status": "Pending",
    "responsible_agency": "Department of Public Works",
    "final_address": "7532 Sandy Cove Dr",
    "address_councildis": "E",
    "status": "Pending",
    "rowid": "913746",
    "final_x": "3715878.48415",
    "final_y": "568870.266085",
    "longitude": "-89.95810121847497",
    "latitude": "30.05710576666089",
    "geocoded_column": {
      "latitude": "30.05710576666089",
      "longitude": "-89.95810121847497"
    }
  },
  {
    "service_request": "2022-913745",
    "request_type": "Trash/Recycling",
    "request_reason": "Replace Trash Cart",
    "date_created": "2022-08-26T13:10:04.000",
    "date_modified": "2022-08-26T13:10:04.000",
    "request_status": "Pending",
    "responsible_agency": "Department of Sanitation",
    "final_address": "1111 8th St, New Orleans, Louisiana, 70115",
    "status": "Assigned to Contractor",
    "rowid": "913745",
    "longitude": "0.0",
    "latitude": "0.0",
    "geocoded_column": {
      "latitude": "0.0",
      "longitude": "0.0"
    }
  },
  {
    "service_request": "2022-913744",
    "request_type": "Trash/Recycling",
    "request_reason": "Request a Large Item Pick Up",
    "date_created": "2022-08-26T13:07:04.000",
    "date_modified": "2022-08-26T13:07:06.000",
    "request_status": "Pending",
    "responsible_agency": "Department of Sanitation",
    "final_address": "3730 Bruxelles St",
    "address_councildis": "D",
    "status": "Assigned to Contractor",
    "contractor": "Metro Disposal",
    "rowid": "913744",
    "final_x": "3679989.25544",
    "final_y": "546130.879184",
    "longitude": "-90.07233298083234",
    "latitude": "29.995716332019196",
    "geocoded_column": {
      "latitude": "29.995716332019196",
      "longitude": "-90.07233298083234"
    }
  },
  {
    "service_request": "2022-913743",
    "request_type": "Abandoned Vehicles",
    "request_reason": "Abandoned/Junk Vehicles",
    "date_created": "2022-08-26T13:05:03.000",
    "date_modified": "2022-08-26T13:05:03.000",
    "request_status": "Pending",
    "responsible_agency": "Department of Public Works",
    "final_address": "7120 Ridgefield Dr",
    "address_councildis": "E",
    "status": "Pending",
    "rowid": "913743",
    "final_x": "3719086.24882",
    "final_y": "569886.954086",
    "longitude": "-89.94792320295151",
    "latitude": "30.059794987145004",
    "geocoded_column": {
      "latitude": "30.059794987145004",
      "longitude": "-89.94792320295151"
    }
  },
  {
    "service_request": "2022-913742",
    "request_type": "Trash/Recycling",
    "request_reason": "Order Trash Cart",
    "date_created": "2022-08-26T13:01:46.000",
    "date_modified": "2022-08-26T13:01:47.000",
    "request_status": "Pending",
    "responsible_agency": "Department of Sanitation",
    "final_address": "106 26Th St",
    "address_councildis": "A",
    "status": "Assigned to Contractor",
    "contractor": "Metro Disposal",
    "rowid": "913742",
    "final_x": "3666017.21575",
    "final_y": "549799.12802",
    "longitude": "-90.11634654131235",
    "latitude": "30.006218145773648",
    "geocoded_column": {
      "latitude": "30.006218145773648",
      "longitude": "-90.11634654131235"
    }
  },
  {
    "service_request": "2022-913741",
    "request_type": "Trash/Recycling",
    "request_reason": "Request a Large Item Pick Up",
    "date_created": "2022-08-26T12:59:45.000",
    "date_modified": "2022-08-26T12:59:46.000",
    "request_status": "Pending",
    "responsible_agency": "Department of Sanitation",
    "final_address": "7300 Strathmore Dr",
    "address_councildis": "E",
    "status": "Assigned to Contractor",
    "contractor": "Metro Disposal",
    "rowid": "913741",
    "final_x": "3714742.61003",
    "final_y": "566364.042019",
    "longitude": "-89.96178633735718",
    "latitude": "30.05025211322423",
    "geocoded_column": {
      "latitude": "30.05025211322423",
      "longitude": "-89.96178633735718"
    }
  },
  {
    "service_request": "2022-913740",
    "request_type": "Trash/Recycling",
    "request_reason": "Replace Trash Cart",
    "date_created": "2022-08-26T12:58:05.000",
    "date_modified": "2022-08-26T12:58:05.000",
    "request_status": "Pending",
    "responsible_agency": "Department of Sanitation",
    "final_address": "5624 Catina St",
    "address_councildis": "A",
    "status": "Assigned to Contractor",
    "contractor": "Metro Disposal",
    "rowid": "913740",
    "final_x": "3666578.68033",
    "final_y": "544903.824783",
    "longitude": "-90.11473720481835",
    "latitude": "29.99274133944329",
    "geocoded_column": {
      "latitude": "29.99274133944329",
      "longitude": "-90.11473720481835"
    }
  },
  {
    "service_request": "2022-913738",
    "request_type": "Parks & Parkways",
    "request_reason": "Request Tree Service (Right of Way/Public Property)",
    "date_created": "2022-08-26T12:53:31.000",
    "date_modified": "2022-08-26T12:53:31.000",
    "request_status": "Pending",
    "responsible_agency": "Department of Parks & Parkway",
    "final_address": "919 Poland Ave",
    "address_councildis": "C",
    "status": "Pending",
    "rowid": "913738",
    "final_x": "3692940.12726",
    "final_y": "534351.905157",
    "longitude": "-90.03184510371813",
    "latitude": "29.96293012245502",
    "geocoded_column": {
      "latitude": "29.96293012245502",
      "longitude": "-90.03184510371813"
    }
  },
  {
    "service_request": "2022-913737",
    "request_type": "Health Related Questions",
    "request_reason": "Noise Ordinance Complaint",
    "date_created": "2022-08-26T12:53:21.000",
    "date_modified": "2022-08-26T12:53:21.000",
    "request_status": "Pending",
    "responsible_agency": "Health Department",
    "final_address": "901 Bourbon St",
    "address_councildis": "C",
    "status": "Pending",
    "rowid": "913737",
    "final_x": "3682707.32303",
    "final_y": "533304.72122",
    "longitude": "-90.06419561516127",
    "latitude": "29.960366345084232",
    "geocoded_column": {
      "latitude": "29.960366345084232",
      "longitude": "-90.06419561516127"
    }
  },
  {
    "service_request": "2022-913736",
    "request_type": "Trash/Recycling",
    "request_reason": "MIssed Recycling Pick-Up",
    "date_created": "2022-08-26T12:52:47.000",
    "date_modified": "2022-08-26T12:52:48.000",
    "request_status": "Pending",
    "responsible_agency": "Department of Sanitation",
    "final_address": "2105 Milan St",
    "address_councildis": "B",
    "status": "Assigned to Contractor",
    "contractor": "Richards Disposal",
    "rowid": "913736",
    "final_x": "3671449.51105",
    "final_y": "522794.027899",
    "longitude": "-90.10010277080632",
    "latitude": "29.93180343745689",
    "geocoded_column": {
      "latitude": "29.93180343745689",
      "longitude": "-90.10010277080632"
    }
  },