[
  {
    "service_request": "2023-994979",
    "request_type": "Health Related Request",
    "request_reason": "Noise Ordinance Complaint",
    "date_created": "2023-04-27T22:51:58.000",
    "date_modified": "2023-04-27T22:51:58.000",
    "request_status": "Pending",
    "responsible_agency": "Health Department",
    "final_address": "2625 General Pershing St, New Orleans, Louisiana, 70115",
    "address_councildis": "B",
    "status": "Pending",
    "rowid": "994979",
    "final_x": "3670927.57793",
    "final_y": "524619.598332",
    "longitude": "-90.10168851362245",
    "latitude": "29.936838603210717",
    "geocoded_column": {
      "latitude": "29.936838603210717",
      "longitude": "-90.10168851362245"
    }
  },
  {
    "service_request": "2023-994978",
    "request_type": "Utility Poles",
    "request_reason": "Utility Pole Leaning",
    "date_created": "2023-04-27T22:30:53.000",
    "date_modified": "2023-04-27T22:30:56.000",
    "request_status": "Pending",
    "responsible_agency": "Utility Company Collective",
    "final_address": "2100 BLK Terpsichore St",
    "address_councildis": "B",
    "status": "Pending",
    "rowid": "994978",
    "final_x": "3676955.3242",
    "final_y": "526583.717618",
    "longitude": "-90.08259092119515",
    "latitude": "29.942059753676777",
    "geocoded_column": {
      "latitude": "29.942059753676777",
      "longitude": "-90.08259092119515"
    }
  },
  {
    "service_request": "2023-994977",
    "request_type": "Health Related Request",
    "request_reason": "Noise Ordinance Complaint",
    "date_created": "2023-04-27T22:25:31.000",
    "date_modified": "2023-04-27T22:25:31.000",
    "request_status": "Pending",
    "responsible_agency": "Health Department",
    "final_address": "600 BLK N Broad St",
    "address_councildis": "D",
    "status": "Pending",
    "rowid": "994977",
    "final_x": "3676564.70556",
    "final_y": "536704.491011",
    "longitude": "-90.08347564771769",
    "latitude": "29.969900206357256",
    "geocoded_column": {
      "latitude": "29.969900206357256",
      "longitude": "-90.08347564771769"
    }
  },
  {
    "service_request": "2023-994976",
    "request_type": "Traffic Signals/Signs/Striping/Streetlights",
    "request_reason": "Street Light Outage/Malfunction",
    "date_created": "2023-04-27T22:22:07.000",
    "date_modified": "2023-04-27T22:22:07.000",
    "request_status": "Pending",
    "responsible_agency": "Department of Public Works",
    "final_address": "CURRAN BLVD & LAFOURCHE ST",
    "address_councildis": "E",
    "status": "Assigned to Contractor",
    "contractor": "Legacy Professional Services",
    "rowid": "994976",
    "final_x": "3710031.7",
    "final_y": "565827.18",
    "longitude": "-89.9766957779748",
    "latitude": "30.04893016466292",
    "geocoded_column": {
      "latitude": "30.04893016466292",
      "longitude": "-89.9766957779748"
    }
  },
  {
    "service_request": "2023-994975",
    "request_type": "Traffic Signals/Signs/Striping/Streetlights",
    "request_reason": "Street Light Outage/Malfunction",
    "date_created": "2023-04-27T22:19:40.000",
    "date_modified": "2023-04-27T22:19:41.000",
    "request_status": "Pending",
    "responsible_agency": "Department of Public Works",
    "final_address": "821 N Hennessey St",
    "address_councildis": "A",
    "status": "Assigned to Contractor",
    "contractor": "Legacy Professional Services",
    "rowid": "994975",
    "final_x": "3671891.44449",
    "final_y": "541207.147212",
    "longitude": "-90.09808099152934",
    "latitude": "29.982420319359605",
    "geocoded_column": {
      "latitude": "29.982420319359605",
      "longitude": "-90.09808099152934"
    }
  },
  {
    "service_request": "2023-994974",
    "request_type": "Health Related Request",
    "request_reason": "Noise Ordinance Complaint",
    "date_created": "2023-04-27T21:58:14.000",
    "date_modified": "2023-04-27T21:58:14.000",
    "request_status": "Pending",
    "responsible_agency": "Health Department",
    "final_address": "2428 Allen St",
    "address_councildis": "D",
    "status": "Pending",
    "rowid": "994974",
    "final_x": "3682335.05948",
    "final_y": "541196.753804",
    "longitude": "-90.06509531077216",
    "latitude": "29.982078036758463",
    "geocoded_column": {
      "latitude": "29.982078036758463",
      "longitude": "-90.06509531077216"
    }
  },
  {
    "service_request": "2023-994973",
    "request_type": "Abandoned Vehicles",
    "request_reason": "Abandoned/Junk Vehicles",
    "date_created": "2023-04-27T21:43:52.000",
    "date_modified": "2023-04-27T21:43:52.000",
    "request_status": "Pending",
    "responsible_agency": "Department of Public Works",
    "final_address": "3835 Cleveland Ave, New Orleans, Louisiana, 70119",
    "address_councildis": "A",
    "status": "Pending",
    "rowid": "994973",
    "final_x": "3671595.57345",
    "final_y": "537477.079304",
    "longitude": "-90.09914239808673",
    "latitude": "29.972172665729463",
    "geocoded_column": {
      "latitude": "29.972172665729463",
      "longitude": "-90.09914239808673"
    }
  },
  {
    "service_request": "2023-994972",
    "request_type": "Property Maintenance",
    "request_reason": "Property Maintenance",
    "date_created": "2023-04-27T21:28:10.000",
    "date_modified": "2023-04-27T21:28:10.000",
    "request_status": "Pending",
    "responsible_agency": "Department of Code Enforcement",
    "final_address": "1320 St Anthony St",
    "address_councildis": "C",
    "status": "Pending",
    "rowid": "994972",
    "final_x": "3683432.52341",
    "final_y": "536720.072455",
    "longitude": "-90.06178590310616",
    "latitude": "29.969735278571186",
    "geocoded_column": {
      "latitude": "29.969735278571186",
      "longitude": "-90.06178590310616"
    }
  },
  {
    "service_request": "2023-994971",
    "request_type": "Property Maintenance",
    "request_reason": "Property Maintenance",
    "date_created": "2023-04-27T21:27:08.000",
    "date_modified": "2023-04-27T21:27:08.000",
    "request_status": "Pending",
    "responsible_agency": "Department of Code Enforcement",
    "final_address": "1314 St Anthony St",
    "address_councildis": "C",
    "status": "Pending",
    "rowid": "994971",
    "final_x": "3683435.43593",
    "final_y": "536692.776711",
    "longitude": "-90.06177766171658",
    "latitude": "29.969660135855445",
    "geocoded_column": {
      "latitude": "29.969660135855445",
      "longitude": "-90.06177766171658"
    }
  },
  {
    "service_request": "2023-994970",
    "request_type": "Trash/Recycling",
    "request_reason": "Request a Large Item Pick Up",
    "date_created": "2023-04-27T21:24:14.000",
    "date_modified": "2023-04-27T21:24:15.000",
    "request_status": "Pending",
    "responsible_agency": "Department of Sanitation",
    "final_address": "1428 Desire St",
    "address_councildis": "C",
    "status": "Assigned to Contractor",
    "contractor": "IV Waste",
    "rowid": "994970",
    "final_x": "3690477.89795",
    "final_y": "537061.06324",
    "longitude": "-90.03952388998904",
    "latitude": "29.970456025862987",
    "geocoded_column": {
      "latitude": "29.970456025862987",
      "longitude": "-90.03952388998904"
    }
  },
  {
    "service_request": "2023-994969",
    "request_type": "Property Maintenance",
    "request_reason": "Property Maintenance",
    "date_created": "2023-04-27T21:20:55.000",
    "date_modified": "2023-04-27T21:20:55.000",
    "request_status": "Pending",
    "responsible_agency": "Department of Code Enforcement",
    "final_address": "1314 St Anthony St",
    "address_councildis": "C",
    "status": "Pending",
    "rowid": "994969",
    "final_x": "3683435.43593",
    "final_y": "536692.776711",
    "longitude": "-90.06177766171658",
    "latitude": "29.969660135855445",
    "geocoded_column": {
      "latitude": "29.969660135855445",
      "longitude": "-90.06177766171658"
    }
  },
  {
    "service_request": "2023-994968",
    "request_type": "Abandoned Vehicles",
    "request_reason": "Abandoned/Junk Vehicles",
    "date_created": "2023-04-27T21:20:08.000",
    "date_modified": "2023-04-27T21:20:09.000",
    "request_status": "Pending",
    "responsible_agency": "Department of Public Works",
    "final_address": "9133 Colapissa St",
    "address_councildis": "A",
    "status": "Pending",
    "rowid": "994968",
    "final_x": "3663795.35091",
    "final_y": "535952.162631",
    "longitude": "-90.12382775703136",
    "latitude": "29.968208360176057",
    "geocoded_column": {
      "latitude": "29.968208360176057",
      "longitude": "-90.12382775703136"
    }
  },
  {
    "service_request": "2023-994967",
    "request_type": "Abandoned Vehicles",
    "request_reason": "Abandoned/Junk Vehicles",
    "date_created": "2023-04-27T21:07:24.000",
    "date_modified": "2023-04-27T21:07:24.000",
    "request_status": "Pending",
    "responsible_agency": "Department of Public Works",
    "final_address": "2359 Odin St",
    "address_councildis": "D",
    "status": "Pending",
    "rowid": "994967",
    "final_x": "3684970.34921",
    "final_y": "553177.458391",
    "longitude": "-90.05635009527995",
    "latitude": "30.014940205189777",
    "geocoded_column": {
      "latitude": "30.014940205189777",
      "longitude": "-90.05635009527995"
    }
  },
  {
    "service_request": "2023-994966",
    "request_type": "Taxi Issues",
    "request_reason": "Taxi Complaint",
    "date_created": "2023-04-27T20:58:16.000",
    "date_modified": "2023-04-27T20:58:16.000",
    "request_status": "Pending",
    "responsible_agency": "Ground Transportation Bureau",
    "final_address": "817 Common St",
    "address_councildis": "B",
    "status": "Pending",
    "rowid": "994966",
    "final_x": "3680475.86792",
    "final_y": "530608.104258",
    "longitude": "-90.0713358739745",
    "latitude": "29.953019332872906",
    "geocoded_column": {
      "latitude": "29.953019332872906",
      "longitude": "-90.0713358739745"
    }
  },
  {
    "service_request": "2023-994965",
    "request_type": "Trash/Recycling",
    "request_reason": "Order Recycling Cart",
    "date_created": "2023-04-27T20:26:04.000",
    "date_modified": "2023-04-27T20:26:04.000",
    "request_status": "Pending",
    "responsible_agency": "Department of Sanitation",
    "final_address": "1906 Napoleon Ave",
    "address_councildis": "B",
    "status": "Pending",
    "rowid": "994965",
    "final_x": "3670597.63636",
    "final_y": "522003.563962",
    "longitude": "-90.10281885092698",
    "latitude": "29.92965509801179",
    "geocoded_column": {
      "latitude": "29.92965509801179",
      "longitude": "-90.10281885092698"
    }
  },
  {
    "service_request": "2023-994964",
    "request_type": "Trash/Recycling",
    "request_reason": "Request a Large Item Pick Up",
    "date_created": "2023-04-27T20:24:47.000",
    "date_modified": "2023-04-27T20:24:47.000",
    "request_status": "Pending",
    "responsible_agency": "Department of Sanitation",
    "final_address": "7210 Cove Dr",
    "address_councildis": "E",
    "status": "Assigned to Contractor",
    "contractor": "Waste Pro",
    "rowid": "994964",
    "final_x": "3700053.53424",
    "final_y": "558896.431836",
    "longitude": "-90.0084858298527",
    "latitude": "30.030194371207465",
    "geocoded_column": {
      "latitude": "30.030194371207465",
      "longitude": "-90.0084858298527"
    }
  },
  {
    "service_request": "2023-994963",
    "request_type": "Roads/Drainage",
    "request_reason": "Pothole",
    "date_created": "2023-04-27T20:01:12.000",
    "date_modified": "2023-04-27T20:01:12.000",
    "request_status": "Pending",
    "responsible_agency": "Department of Public Works",
    "final_address": "4000 BLK Martin Luther King, Jr. Blvd",
    "address_councildis": "B",
    "status": "Pending",
    "rowid": "994963",
    "final_x": "3671535.23465",
    "final_y": "530311.294808",
    "longitude": "-90.09957663002007",
    "latitude": "29.952470935019697",
    "geocoded_column": {
      "latitude": "29.952470935019697",
      "longitude": "-90.09957663002007"
    }
  },
  {
    "service_request": "2023-994962",
    "request_type": "Abandoned Vehicles",
    "request_reason": "Abandoned/Junk Vehicles",
    "date_created": "2023-04-27T19:46:51.000",
    "date_modified": "2023-04-27T19:46:51.000",
    "request_status": "Pending",
    "responsible_agency": "Department of Public Works",
    "final_address": "1631 Sixth St",
    "address_councildis": "B",
    "status": "Pending",
    "rowid": "994962",
    "final_x": "3675383.72424",
    "final_y": "522475.95353",
    "longitude": "-90.08769379233294",
    "latitude": "29.930811821581226",
    "geocoded_column": {
      "latitude": "29.930811821581226",
      "longitude": "-90.08769379233294"
    }
  },
  {
    "service_request": "2023-994961",
    "request_type": "Trash/Recycling",
    "request_reason": "Request a Large Item Pick Up",
    "date_created": "2023-04-27T19:05:54.000",
    "date_modified": "2023-04-27T19:05:55.000",
    "request_status": "Pending",
    "responsible_agency": "Department of Sanitation",
    "final_address": "4319 Fontainebleau Dr",
    "address_councildis": "B",
    "status": "Assigned to Contractor",
    "contractor": "Richards Disposal",
    "rowid": "994961",
    "final_x": "3669399.4953",
    "final_y": "529525.867265",
    "longitude": "-90.10634689774007",
    "latitude": "29.950374325265134",
    "geocoded_column": {
      "latitude": "29.950374325265134",
      "longitude": "-90.10634689774007"
    }
  },
  {
    "service_request": "2023-994960",
    "request_type": "Roads/Drainage",
    "request_reason": "Man hole cover issue",
    "date_created": "2023-04-27T18:57:47.000",
    "date_modified": "2023-04-27T18:57:47.000",
    "request_status": "Pending",
    "responsible_agency": "Department of Public Works",
    "final_address": "10130 Brookfield Dr",
    "address_councildis": "E",
    "status": "Pending",
    "rowid": "994960",
    "final_x": "3710048.50904",
    "final_y": "562830.161568",
    "longitude": "-89.97675479641984",
    "latitude": "30.040689019917604",
    "geocoded_column": {
      "latitude": "30.040689019917604",
      "longitude": "-89.97675479641984"
    }
  },
  {
    "service_request": "2023-994959",
    "request_type": "Trash/Recycling",
    "request_reason": "Replace Trash Cart",
    "date_created": "2023-04-27T18:44:17.000",
    "date_modified": "2023-04-27T18:44:18.000",
    "request_status": "Pending",
    "responsible_agency": "Department of Sanitation",
    "final_address": "430 Red Allen Way",
    "address_councildis": "C",
    "status": "Assigned to Contractor",
    "contractor": "Richards Disposal",
    "rowid": "994959",
    "final_x": "3686782.58543",
    "final_y": "528752.308608",
    "longitude": "-90.05148762422425",
    "latitude": "29.947724028924615",
    "geocoded_column": {
      "latitude": "29.947724028924615",
      "longitude": "-90.05148762422425"
    }
  },
  {
    "service_request": "2023-994958",
    "request_type": "Trash/Recycling",
    "request_reason": "Missed Trash Pick-Up",
    "date_created": "2023-04-27T18:43:03.000",
    "date_modified": "2023-04-27T18:43:04.000",
    "request_status": "Pending",
    "responsible_agency": "Department of Sanitation",
    "final_address": "430 Red Allen Way",
    "address_councildis": "C",
    "status": "Assigned to Contractor",
    "contractor": "Richards Disposal",
    "rowid": "994958",
    "final_x": "3686782.58543",
    "final_y": "528752.308608",
    "longitude": "-90.05148762422425",
    "latitude": "29.947724028924615",
    "geocoded_column": {
      "latitude": "29.947724028924615",
      "longitude": "-90.05148762422425"
    }
  },
  {
    "service_request": "2023-994957",
    "request_type": "Trash/Recycling",
    "request_reason": "Request a Large Item Pick Up",
    "date_created": "2023-04-27T18:38:44.000",
    "date_modified": "2023-04-27T18:38:45.000",
    "request_status": "Pending",
    "responsible_agency": "Department of Sanitation",
    "final_address": "1510 Paul Morphy St, New Orleans, Louisiana, 70119",
    "address_councildis": "D",
    "status": "Assigned to Contractor",
    "contractor": "IV Waste",
    "rowid": "994957",
    "final_x": "3678458.88648",
    "final_y": "539887.536458",
    "longitude": "-90.07738345829046",
    "latitude": "29.97859553929219",
    "geocoded_column": {
      "latitude": "29.97859553929219",
      "longitude": "-90.07738345829046"
    }
  },
  {
    "service_request": "2023-994956",
    "request_type": "Trash/Recycling",
    "request_reason": "Illegal Dumping",
    "date_created": "2023-04-27T18:37:56.000",
    "date_modified": "2023-04-27T18:39:33.000",
    "request_status": "Pending",
    "responsible_agency": "Department of Sanitation",
    "final_address": "1439 Tennessee St, New Orleans, Louisiana, 70117",
    "address_councildis": "E",
    "rowid": "994956",
    "final_x": "3696101.03222",
    "final_y": "535674.390855",
    "longitude": "-90.02181561183428",
    "latitude": "29.966467389831116",
    "geocoded_column": {
      "latitude": "29.966467389831116",
      "longitude": "-90.02181561183428"
    }
  },
  {
    "service_request": "2023-994955",
    "request_type": "Property Maintenance",
    "request_reason": "Property Maintenance",
    "date_created": "2023-04-27T18:36:32.000",
    "date_modified": "2023-04-27T18:36:32.000",
    "request_status": "Pending",
    "responsible_agency": "Department of Code Enforcement",
    "final_address": "4729 Banks St, New Orleans, Louisiana, 70119",
    "address_councildis": "A",
    "status": "Pending",
    "rowid": "994955",
    "final_x": "3668208.5385",
    "final_y": "539104.479178",
    "longitude": "-90.10978437578261",
    "latitude": "29.976747347428734",
    "geocoded_column": {
      "latitude": "29.976747347428734",
      "longitude": "-90.10978437578261"
    }
  },
  {
    "service_request": "2023-994954",
    "request_type": "Property Maintenance",
    "request_reason": "Property Maintenance",
    "date_created": "2023-04-27T18:26:56.000",
    "date_modified": "2023-04-27T18:26:56.000",
    "request_status": "Pending",
    "responsible_agency": "Department of Code Enforcement",
    "final_address": "2611 Vienna St",
    "address_councildis": "D",
    "status": "Pending",
    "rowid": "994954",
    "final_x": "3686579.66358",
    "final_y": "555258.980953",
    "longitude": "-90.05119185356509",
    "latitude": "30.02061421147409",
    "geocoded_column": {
      "latitude": "30.02061421147409",
      "longitude": "-90.05119185356509"
    }
  },
  {
    "service_request": "2023-994953",
    "request_type": "Trash/Recycling",
    "request_reason": "Request a Large Item Pick Up",
    "date_created": "2023-04-27T18:09:00.000",
    "date_modified": "2023-04-27T18:09:01.000",
    "request_status": "Pending",
    "responsible_agency": "Department of Sanitation",
    "final_address": "1700 BLK Eighth St",
    "address_councildis": "B",
    "status": "Assigned to Contractor",
    "contractor": "Richards Disposal",
    "rowid": "994953",
    "final_x": "3674678.04431",
    "final_y": "522383.016045",
    "longitude": "-90.08992471118297",
    "latitude": "29.93057734867248",
    "geocoded_column": {
      "latitude": "29.93057734867248",
      "longitude": "-90.08992471118297"
    }
  },
  {
    "service_request": "2023-994952",
    "request_type": "Trash/Recycling",
    "request_reason": "Request a Large Item Pick Up",
    "date_created": "2023-04-27T18:04:53.000",
    "date_modified": "2023-04-27T18:04:54.000",
    "request_status": "Pending",
    "responsible_agency": "Department of Sanitation",
    "final_address": "6203 Waldo Dr",
    "address_councildis": "D",
    "status": "Assigned to Contractor",
    "contractor": "IV Waste",
    "rowid": "994952",
    "final_x": "3681157.16559",
    "final_y": "555652.204889",
    "longitude": "-90.06831160242942",
    "latitude": "30.021861153359",
    "geocoded_column": {
      "latitude": "30.021861153359",
      "longitude": "-90.06831160242942"
    }
  },
  {
    "service_request": "2023-994951",
    "request_type": "Trash/Recycling",
    "request_reason": "Order Trash Cart",
    "date_created": "2023-04-27T18:01:24.000",
    "date_modified": "2023-04-27T18:01:24.000",
    "request_status": "Pending",
    "responsible_agency": "Department of Sanitation",
    "final_address": "2405 Mazant St",
    "address_councildis": "D",
    "status": "Assigned to Contractor",
    "contractor": "IV Waste",
    "rowid": "994951",
    "final_x": "3693388.53398",
    "final_y": "540202.775307",
    "longitude": "-90.03021897470545",
    "latitude": "29.979003924957876",
    "geocoded_column": {
      "latitude": "29.979003924957876",
      "longitude": "-90.03021897470545"
    }
  },
  {
    "service_request": "2023-994950",
    "request_type": "Abandoned Vehicles",
    "request_reason": "Abandoned/Junk Vehicles",
    "date_created": "2023-04-27T17:59:24.000",
    "date_modified": "2023-04-27T17:59:24.000",
    "request_status": "Pending",
    "responsible_agency": "Department of Public Works",
    "final_address": "4902 Canal St, New Orleans, Louisiana, 70119",
    "address_councildis": "A",
    "status": "Pending",
    "rowid": "994950",
    "final_x": "3668414.05934",
    "final_y": "540275.657483",
    "longitude": "-90.10909575436996",
    "latitude": "29.979961656780066",
    "geocoded_column": {
      "latitude": "29.979961656780066",
      "longitude": "-90.10909575436996"
    }
  },
  {
    "service_request": "2023-994949",
    "request_type": "Parks & Parkways",
    "request_reason": "Request Tree Service (Right of Way/Public Property)",
    "date_created": "2023-04-27T17:53:43.000",
    "date_modified": "2023-04-27T17:53:44.000",
    "request_status": "Pending",
    "responsible_agency": "Department of Parks & Parkway",
    "final_address": "BARONNE ST & WASHINGTON AVE",
    "address_councildis": "B",
    "status": "Pending",
    "rowid": "994949",
    "final_x": "3675516.3",
    "final_y": "523149.68",
    "longitude": "-90.08725213965037",
    "latitude": "29.93266038667893",
    "geocoded_column": {
      "latitude": "29.93266038667893",
      "longitude": "-90.08725213965037"
    }
  },
  {
    "service_request": "2023-994948",
    "request_type": "Trash/Recycling",
    "request_reason": "Replace Trash Cart",
    "date_created": "2023-04-27T17:47:50.000",
    "date_modified": "2023-04-27T17:47:51.000",
    "request_status": "Pending",
    "responsible_agency": "Department of Sanitation",
    "final_address": "915 Sixth St",
    "address_councildis": "B",
    "status": "Assigned to Contractor",
    "contractor": "Richards Disposal",
    "rowid": "994948",
    "final_x": "3676994.15125",
    "final_y": "520069.34828",
    "longitude": "-90.0826928195403",
    "latitude": "29.924146202614033",
    "geocoded_column": {
      "latitude": "29.924146202614033",
      "longitude": "-90.0826928195403"
    }
  },
  {
    "service_request": "2023-994947",
    "request_type": "Trash/Recycling",
    "request_reason": "Repair Recycling Cart",
    "date_created": "2023-04-27T17:36:04.000",
    "date_modified": "2023-04-27T17:36:04.000",
    "request_status": "Pending",
    "responsible_agency": "Department of Sanitation",
    "final_address": "5822 Fontainebleau Dr",
    "address_councildis": "A",
    "status": "Pending",
    "rowid": "994947",
    "final_x": "3668370.2409",
    "final_y": "529761.833409",
    "longitude": "-90.10958879908941",
    "latitude": "29.95105342029002",
    "geocoded_column": {
      "latitude": "29.95105342029002",
      "longitude": "-90.10958879908941"
    }
  },
  {
    "service_request": "2023-994946",
    "request_type": "Trash/Recycling",
    "request_reason": "Missed Trash Pick-Up",
    "date_created": "2023-04-27T17:35:25.000",
    "date_modified": "2023-04-27T17:35:26.000",
    "request_status": "Pending",
    "responsible_agency": "Department of Sanitation",
    "final_address": "5839 Fontainebleau Dr",
    "address_councildis": "B",
    "status": "Assigned to Contractor",
    "contractor": "Richards Disposal",
    "rowid": "994946",
    "final_x": "3668254.00301",
    "final_y": "529987.325889",
    "longitude": "-90.10994821957856",
    "latitude": "29.951676863908414",
    "geocoded_column": {
      "latitude": "29.951676863908414",
      "longitude": "-90.10994821957856"
    }
  },
  {
    "service_request": "2023-994945",
    "request_type": "Trash/Recycling",
    "request_reason": "Replace Trash Cart",
    "date_created": "2023-04-27T17:32:52.000",
    "date_modified": "2023-04-27T17:32:52.000",
    "request_status": "Pending",
    "responsible_agency": "Department of Sanitation",
    "final_address": "5839 Fontainebleau Dr",
    "address_councildis": "B",
    "status": "Assigned to Contractor",
    "contractor": "Richards Disposal",
    "rowid": "994945",
    "final_x": "3668254.00301",
    "final_y": "529987.325889",
    "longitude": "-90.10994821957856",
    "latitude": "29.951676863908414",
    "geocoded_column": {
      "latitude": "29.951676863908414",
      "longitude": "-90.10994821957856"
    }
  },
  {
    "service_request": "2023-994944",
    "request_type": "Trash/Recycling",
    "request_reason": "Missed Trash Pick-Up",
    "date_created": "2023-04-27T17:16:10.000",
    "date_modified": "2023-04-27T17:16:10.000",
    "request_status": "Pending",
    "responsible_agency": "Department of Sanitation",
    "final_address": "702 N Scott St",
    "address_councildis": "A",
    "status": "Assigned to Contractor",
    "contractor": "Richards Disposal",
    "rowid": "994944",
    "final_x": "3673149.31758",
    "final_y": "539561.39841",
    "longitude": "-90.09416421683129",
    "latitude": "29.9778577267474",
    "geocoded_column": {
      "latitude": "29.9778577267474",
      "longitude": "-90.09416421683129"
    }
  },
  {
    "service_request": "2023-994942",
    "request_type": "Property Maintenance",
    "request_reason": "Property Maintenance",
    "date_created": "2023-04-27T17:05:44.000",
    "date_modified": "2023-04-27T17:05:44.000",
    "request_status": "Pending",
    "responsible_agency": "Department of Code Enforcement",
    "final_address": "10130 Hillwood St",
    "address_councildis": "E",
    "status": "Pending",
    "rowid": "994942",
    "final_x": "3713028.02846",
    "final_y": "556594.461402",
    "longitude": "-89.96757350041261",
    "latitude": "30.02344599902903",
    "geocoded_column": {
      "latitude": "30.02344599902903",
      "longitude": "-89.96757350041261"
    }
  },
  {
    "service_request": "2023-994941",
    "request_type": "Trash/Recycling",
    "request_reason": "Missed Trash Pick-Up",
    "date_created": "2023-04-27T17:03:56.000",
    "date_modified": "2023-04-27T17:03:57.000",
    "request_status": "Pending",
    "responsible_agency": "Department of Sanitation",
    "final_address": "1405 Music St",
    "address_councildis": "C",
    "status": "Assigned to Contractor",
    "contractor": "IV Waste",
    "rowid": "994941",
    "final_x": "3686789.34978",
    "final_y": "537626.239432",
    "longitude": "-90.05115274347482",
    "latitude": "29.972124066773844",
    "geocoded_column": {
      "latitude": "29.972124066773844",
      "longitude": "-90.05115274347482"
    }
  },
  {
    "service_request": "2023-994940",
    "request_type": "Trash/Recycling",
    "request_reason": "Order Trash Cart",
    "date_created": "2023-04-27T17:01:31.000",
    "date_modified": "2023-04-27T17:01:32.000",
    "request_status": "Pending",
    "responsible_agency": "Department of Sanitation",
    "final_address": "11230 S Idlewood Ct",
    "address_councildis": "E",
    "status": "Assigned to Contractor",
    "contractor": "Waste Pro",
    "rowid": "994940",
    "final_x": "3716660.73445",
    "final_y": "559545.099805",
    "longitude": "-89.95598297283861",
    "latitude": "30.031439518659177",
    "geocoded_column": {
      "latitude": "30.031439518659177",
      "longitude": "-89.95598297283861"
    }
  },
  {
    "service_request": "2023-994939",
    "request_type": "Trash/Recycling",
    "request_reason": "Start Trash Service",
    "date_created": "2023-04-27T17:01:23.000",
    "date_modified": "2023-04-27T17:01:23.000",
    "request_status": "Pending",
    "responsible_agency": "Department of Sanitation",
    "final_address": "11230 S Idlewood Ct",
    "address_councildis": "E",
    "status": "Assigned to Contractor",
    "contractor": "Waste Pro",
    "rowid": "994939",
    "final_x": "3716660.73445",
    "final_y": "559545.099805",
    "longitude": "-89.95598297283861",
    "latitude": "30.031439518659177",
    "geocoded_column": {
      "latitude": "30.031439518659177",
      "longitude": "-89.95598297283861"
    }
  },
  {
    "service_request": "2023-994938",
    "request_type": "Abandoned Vehicles",
    "request_reason": "Abandoned/Junk Vehicles",
    "date_created": "2023-04-27T17:00:48.000",
    "date_modified": "2023-04-27T17:00:48.000",
    "request_status": "Pending",
    "responsible_agency": "Department of Public Works",
    "final_address": "4527 Baudin St",
    "address_councildis": "A",
    "status": "Pending",
    "rowid": "994938",
    "final_x": "3668532.54017",
    "final_y": "538324.896841",
    "longitude": "-90.10878738688906",
    "latitude": "29.974594241078403",
    "geocoded_column": {
      "latitude": "29.974594241078403",
      "longitude": "-90.10878738688906"
    }
  },
  {
    "service_request": "2023-994937",
    "request_type": "Trash/Recycling",
    "request_reason": "Order Recycling Cart",
    "date_created": "2023-04-27T16:59:14.000",
    "date_modified": "2023-04-27T16:59:15.000",
    "request_status": "Pending",
    "responsible_agency": "Department of Sanitation",
    "final_address": "10330 Deerfield Dr",
    "address_councildis": "E",
    "status": "Pending",
    "rowid": "994937",
    "final_x": "3710278.36369",
    "final_y": "563599.577825",
    "longitude": "-89.97599958097344",
    "latitude": "30.042797122163762",
    "geocoded_column": {
      "latitude": "30.042797122163762",
      "longitude": "-89.97599958097344"
    }
  },
  {
    "service_request": "2023-994936",
    "request_type": "Mosquito, Termite & Rodent Control",
    "request_reason": "Rodent Complaint (Rats)",
    "date_created": "2023-04-27T16:58:42.000",
    "date_modified": "2023-04-27T16:58:43.000",
    "request_status": "Pending",
    "responsible_agency": "Mosquito, Termite & Rodent Control Board",
    "final_address": "8014 Ebbtide Dr",
    "address_councildis": "E",
    "status": "Pending",
    "rowid": "994936",
    "final_x": "3701815.71287",
    "final_y": "562274.936415",
    "longitude": "-90.00279340589772",
    "latitude": "30.039427802027127",
    "geocoded_column": {
      "latitude": "30.039427802027127",
      "longitude": "-90.00279340589772"
    }
  },
  {
    "service_request": "2023-994935",
    "request_type": "Trash/Recycling",
    "request_reason": "Missed Trash Pick-Up",
    "date_created": "2023-04-27T16:58:30.000",
    "date_modified": "2023-04-27T16:58:30.000",
    "request_status": "Pending",
    "responsible_agency": "Department of Sanitation",
    "final_address": "10330 Deerfield Dr",
    "address_councildis": "E",
    "status": "Assigned to Contractor",
    "contractor": "Waste Pro",
    "rowid": "994935",
    "final_x": "3710278.36369",
    "final_y": "563599.577825",
    "longitude": "-89.97599958097344",
    "latitude": "30.042797122163762",
    "geocoded_column": {
      "latitude": "30.042797122163762",
      "longitude": "-89.97599958097344"
    }
  },
  {
    "service_request": "2023-994934",
    "request_type": "Trash/Recycling",
    "request_reason": "Request a Large Item Pick Up",
    "date_created": "2023-04-27T16:56:48.000",
    "date_modified": "2023-04-27T16:56:49.000",
    "request_status": "Pending",
    "responsible_agency": "Department of Sanitation",
    "final_address": "632 Wagner St",
    "address_councildis": "C",
    "status": "Assigned to Contractor",
    "contractor": "Richards Disposal",
    "rowid": "994934",
    "final_x": "3690608.60163",
    "final_y": "529087.925056",
    "longitude": "-90.03939545950345",
    "latitude": "29.948528614612144",
    "geocoded_column": {
      "latitude": "29.948528614612144",
      "longitude": "-90.03939545950345"
    }
  },
  {
    "service_request": "2023-994933",
    "request_type": "Abandoned Vehicles",
    "request_reason": "Abandoned/Junk Vehicles",
    "date_created": "2023-04-27T16:53:25.000",
    "date_modified": "2023-04-27T16:53:25.000",
    "request_status": "Pending",
    "responsible_agency": "Department of Public Works",
    "final_address": "221 N Alexander St, New Orleans, Louisiana, 70119",
    "address_councildis": "A",
    "status": "Pending",
    "rowid": "994933",
    "final_x": "3670311.76058",
    "final_y": "539701.24225",
    "longitude": "-90.10312149011716",
    "latitude": "29.978326322848872",
    "geocoded_column": {
      "latitude": "29.978326322848872",
      "longitude": "-90.10312149011716"
    }
  },
  {
    "service_request": "2023-994932",
    "request_type": "Property Maintenance",
    "request_reason": "Property Maintenance",
    "date_created": "2023-04-27T16:37:22.000",
    "date_modified": "2023-04-27T16:37:22.000",
    "request_status": "Pending",
    "responsible_agency": "Department of Code Enforcement",
    "final_address": "2332 Winthrop St",
    "address_councildis": "E",
    "status": "Pending",
    "rowid": "994932",
    "final_x": "3700439.88272",
    "final_y": "538202.238089",
    "longitude": "-90.0080213360208",
    "latitude": "29.973280790727685",
    "geocoded_column": {
      "latitude": "29.973280790727685",
      "longitude": "-90.0080213360208"
    }
  },
  {
    "service_request": "2023-994931",
    "request_type": "Abandoned Vehicles",
    "request_reason": "Abandoned/Junk Vehicles",
    "date_created": "2023-04-27T16:34:53.000",
    "date_modified": "2023-04-27T16:34:53.000",
    "request_status": "Pending",
    "responsible_agency": "Department of Public Works",
    "final_address": "2332 Winthrop St",
    "address_councildis": "E",
    "status": "Pending",
    "rowid": "994931",
    "final_x": "3700439.88272",
    "final_y": "538202.238089",
    "longitude": "-90.0080213360208",
    "latitude": "29.973280790727685",
    "geocoded_column": {
      "latitude": "29.973280790727685",
      "longitude": "-90.0080213360208"
    }
  },
  {
    "service_request": "2023-994930",
    "request_type": "Abandoned Vehicles",
    "request_reason": "Abandoned/Junk Vehicles",
    "date_created": "2023-04-27T16:30:50.000",
    "date_modified": "2023-04-27T16:30:50.000",
    "request_status": "Pending",
    "responsible_agency": "Department of Public Works",
    "final_address": "1857 Lauradale Dr",
    "address_councildis": "C",
    "status": "Pending",
    "rowid": "994930",
    "final_x": "3692684.29949",
    "final_y": "524260.754364",
    "longitude": "-90.03301459944848",
    "latitude": "29.9351909382534",
    "geocoded_column": {
      "latitude": "29.9351909382534",
      "longitude": "-90.03301459944848"
    }
  },
  {
    "service_request": "2023-994929",
    "request_type": "Traffic Signals/Signs/Striping/Streetlights",
    "request_reason": "Street Light Outage/Malfunction",
    "date_created": "2023-04-27T16:30:28.000",
    "date_modified": "2023-04-27T16:30:28.000",
    "request_status": "Pending",
    "responsible_agency": "Department of Public Works",
    "final_address": "1500 BLK Nunez St",
    "address_councildis": "C",
    "status": "Assigned to Contractor",
    "contractor": "Legacy Professional Services",
    "rowid": "994929",
    "final_x": "3687167.84446",
    "final_y": "525744.947314",
    "longitude": "-90.0503775293356",
    "latitude": "29.939442949595072",
    "geocoded_column": {
      "latitude": "29.939442949595072",
      "longitude": "-90.0503775293356"
    }
  },
  {
    "service_request": "2023-994928",
    "request_type": "Traffic Signals/Signs/Striping/Streetlights",
    "request_reason": "Street Light Outage/Malfunction",
    "date_created": "2023-04-27T16:25:55.000",
    "date_modified": "2023-04-27T16:25:56.000",
    "request_status": "Pending",
    "responsible_agency": "Department of Public Works",
    "final_address": "1600 BLK Bodenger Blvd",
    "address_councildis": "C",
    "status": "Assigned to Contractor",
    "contractor": "Legacy Professional Services",
    "rowid": "994928",
    "final_x": "3688481.16926",
    "final_y": "525739.319372",
    "longitude": "-90.04623140086238",
    "latitude": "29.93938697597731",
    "geocoded_column": {
      "latitude": "29.93938697597731",
      "longitude": "-90.04623140086238"
    }
  },
  {
    "service_request": "2023-994927",
    "request_type": "Trash/Recycling",
    "request_reason": "Repair Trash Cart",
    "date_created": "2023-04-27T16:25:36.000",
    "date_modified": "2023-04-27T16:25:37.000",
    "request_status": "Pending",
    "responsible_agency": "Department of Sanitation",
    "final_address": "2341 Camp St",
    "address_councildis": "B",
    "status": "Assigned to Contractor",
    "contractor": "Richards Disposal",
    "rowid": "994927",
    "final_x": "3678030.09038",
    "final_y": "521955.913978",
    "longitude": "-90.07935755060764",
    "latitude": "29.929302513314042",
    "geocoded_column": {
      "latitude": "29.929302513314042",
      "longitude": "-90.07935755060764"
    }
  },
  {
    "service_request": "2023-994926",
    "request_type": "Trash/Recycling",
    "request_reason": "Repair Trash Cart",
    "date_created": "2023-04-27T16:22:32.000",
    "date_modified": "2023-04-27T16:23:12.000",
    "request_status": "Pending",
    "responsible_agency": "Department of Sanitation",
    "final_address": "7355 Heather Ct",
    "address_councildis": "E",
    "status": "Assigned to Contractor",
    "contractor": "Waste Pro",
    "rowid": "994926",
    "final_x": "3705519.90046",
    "final_y": "562457.350751",
    "longitude": "-89.99108041323434",
    "latitude": "30.03981058049998",
    "geocoded_column": {
      "latitude": "30.03981058049998",
      "longitude": "-89.99108041323434"
    }
  },
  {
    "service_request": "2023-994925",
    "request_type": "Parks & Parkways",
    "request_reason": "Request Tree Service (Right of Way/Public Property)",
    "date_created": "2023-04-27T16:12:12.000",
    "date_modified": "2023-04-27T16:13:07.000",
    "request_status": "Pending",
    "responsible_agency": "Department of Parks & Parkway",
    "final_address": "5903 General Haig St",
    "address_councildis": "A",
    "status": "Pending",
    "rowid": "994925",
    "final_x": "3670522.58599",
    "final_y": "546479.834193",
    "longitude": "-90.10222560102804",
    "latitude": "29.99695890161036",
    "geocoded_column": {
      "latitude": "29.99695890161036",
      "longitude": "-90.10222560102804"
    }
  },
  {
    "service_request": "2023-994924",
    "request_type": "Traffic Signals/Signs/Striping/Streetlights",
    "request_reason": "Street Light Outage/Malfunction",
    "date_created": "2023-04-27T16:08:56.000",
    "date_modified": "2023-04-27T16:08:56.000",
    "request_status": "Pending",
    "responsible_agency": "Department of Public Works",
    "final_address": "VERNA ST & ST VINCENT ST",
    "address_councildis": "A",
    "status": "Assigned to Contractor",
    "contractor": "Legacy Professional Services",
    "rowid": "994924",
    "final_x": "3675989.4",
    "final_y": "541816.28",
    "longitude": "-90.08511666066013",
    "latitude": "29.98397311554523",
    "geocoded_column": {
      "latitude": "29.98397311554523",
      "longitude": "-90.08511666066013"
    }
  },
  {
    "service_request": "2023-994923",
    "request_type": "Roads/Drainage",
    "request_reason": "Pothole",
    "date_created": "2023-04-27T16:04:02.000",
    "date_modified": "2023-04-27T16:04:02.000",
    "request_status": "Pending",
    "responsible_agency": "Department of Public Works",
    "final_address": "2200 BLK N Tonti St",
    "address_councildis": "D",
    "status": "Pending",
    "rowid": "994923",
    "final_x": "3685242.52384",
    "final_y": "540770.660372",
    "longitude": "-90.05592715940637",
    "latitude": "29.98081762485239",
    "geocoded_column": {
      "latitude": "29.98081762485239",
      "longitude": "-90.05592715940637"
    }
  },
  {
    "service_request": "2023-994922",
    "request_type": "Trash/Recycling",
    "request_reason": "MIssed Recycling Pick-Up",
    "date_created": "2023-04-27T16:03:41.000",
    "date_modified": "2023-04-27T16:03:42.000",
    "request_status": "Pending",
    "responsible_agency": "Department of Sanitation",
    "final_address": "13132 Wales St",
    "address_councildis": "E",
    "status": "Assigned to Contractor",
    "contractor": "Waste Pro",
    "rowid": "994922",
    "final_x": "3716150.53087",
    "final_y": "570805.678887",
    "longitude": "-89.95716785516677",
    "latitude": "30.062418370215706",
    "geocoded_column": {
      "latitude": "30.062418370215706",
      "longitude": "-89.95716785516677"
    }
  },
  {
    "service_request": "2023-994921",
    "request_type": "Trash/Recycling",
    "request_reason": "Missed Trash Pick-Up",
    "date_created": "2023-04-27T16:01:31.000",
    "date_modified": "2023-04-27T16:01:31.000",
    "request_status": "Pending",
    "responsible_agency": "Department of Sanitation",
    "final_address": "122 N Tonti St",
    "address_councildis": "B",
    "status": "Assigned to Contractor",
    "contractor": "Richards Disposal",
    "rowid": "994921",
    "final_x": "3676653.55893",
    "final_y": "534438.136773",
    "longitude": "-90.0832731236767",
    "latitude": "29.96366583622217",
    "geocoded_column": {
      "latitude": "29.96366583622217",
      "longitude": "-90.0832731236767"
    }
  },
  {
    "service_request": "2023-994920",
    "request_type": "Trash/Recycling",
    "request_reason": "Missed Trash Pick-Up",
    "date_created": "2023-04-27T16:01:26.000",
    "date_modified": "2023-04-27T16:01:27.000",
    "request_status": "Pending",
    "responsible_agency": "Department of Sanitation",
    "final_address": "6719 Morrison Rd",
    "address_councildis": "E",
    "status": "Assigned to Contractor",
    "contractor": "Waste Pro",
    "rowid": "994920",
    "final_x": "3698350.34211",
    "final_y": "558674.947292",
    "longitude": "-90.0138759533093",
    "latitude": "30.029639411437532",
    "geocoded_column": {
      "latitude": "30.029639411437532",
      "longitude": "-90.0138759533093"
    }
  },
  {
    "service_request": "2023-994919",
    "request_type": "Trash/Recycling",
    "request_reason": "Request a Large Item Pick Up",
    "date_created": "2023-04-27T15:58:28.000",
    "date_modified": "2023-04-27T17:22:46.000",
    "case_close_date": "2023-04-27T12:22:46.000",
    "request_status": "Closed",
    "responsible_agency": "Department of Sanitation",
    "final_address": "5459 Stillwater Dr",
    "address_councildis": "E",
    "status": "Duplicate Request",
    "contractor": "Waste Pro",
    "rowid": "994919",
    "final_x": "3716805.54143",
    "final_y": "560658.361566",
    "longitude": "-89.9554830792094",
    "latitude": "30.034495753856575",
    "geocoded_column": {
      "latitude": "30.034495753856575",
      "longitude": "-89.9554830792094"
    }
  },
  {
    "service_request": "2023-994918",
    "request_type": "Trash/Recycling",
    "request_reason": "Missed Trash Pick-Up",
    "date_created": "2023-04-27T15:57:55.000",
    "date_modified": "2023-04-27T15:57:56.000",
    "request_status": "Pending",
    "responsible_agency": "Department of Sanitation",
    "final_address": "5418 S Rocheblave St",
    "address_councildis": "A",
    "status": "Assigned to Contractor",
    "contractor": "Richards Disposal",
    "rowid": "994918",
    "final_x": "3668700.4457",
    "final_y": "528285.65568",
    "longitude": "-90.10859599408083",
    "latitude": "29.9469847119146",
    "geocoded_column": {
      "latitude": "29.9469847119146",
      "longitude": "-90.10859599408083"
    }
  },
  {
    "service_request": "2023-994917",
    "request_type": "Utility Poles",
    "request_reason": "Utility Pole Leaning",
    "date_created": "2023-04-27T15:57:34.000",
    "date_modified": "2023-04-27T16:03:34.000",
    "request_status": "Pending",
    "responsible_agency": "Utility Company Collective",
    "final_address": "1110 Aline St",
    "address_councildis": "B",
    "status": "Pending",
    "rowid": "994917",
    "final_x": "3674400.79316",
    "final_y": "519453.150775",
    "longitude": "-90.09090024164782",
    "latitude": "29.92252943367725",
    "geocoded_column": {
      "latitude": "29.92252943367725",
      "longitude": "-90.09090024164782"
    }
  },
  {
    "service_request": "2023-994916",
    "request_type": "Trash/Recycling",
    "request_reason": "Missed Trash Pick-Up",
    "date_created": "2023-04-27T15:57:11.000",
    "date_modified": "2023-04-27T15:57:11.000",
    "request_status": "Pending",
    "responsible_agency": "Department of Sanitation",
    "final_address": "5418 S Rocheblave St",
    "address_councildis": "A",
    "status": "Assigned to Contractor",
    "contractor": "Richards Disposal",
    "rowid": "994916",
    "final_x": "3668700.4457",
    "final_y": "528285.65568",
    "longitude": "-90.10859599408083",
    "latitude": "29.9469847119146",
    "geocoded_column": {
      "latitude": "29.9469847119146",
      "longitude": "-90.10859599408083"
    }
  },
  {
    "service_request": "2023-994915",
    "request_type": "Traffic Signals/Signs/Striping/Streetlights",
    "request_reason": "Traffic Signal Malfunctioning/Damaged",
    "date_created": "2023-04-27T15:56:53.000",
    "date_modified": "2023-04-27T15:56:53.000",
    "request_status": "Pending",
    "responsible_agency": "Department of Public Works",
    "final_address": "800 Camp St",
    "address_councildis": "B",
    "status": "Pending",
    "rowid": "994915",
    "final_x": "3680807.97685",
    "final_y": "527824.045247",
    "longitude": "-90.07038411297987",
    "latitude": "29.94535404454029",
    "geocoded_column": {
      "latitude": "29.94535404454029",
      "longitude": "-90.07038411297987"
    }
  },
  {
    "service_request": "2023-994914",
    "request_type": "Trash/Recycling",
    "request_reason": "Order Trash Cart",
    "date_created": "2023-04-27T15:56:39.000",
    "date_modified": "2023-04-27T15:56:40.000",
    "request_status": "Pending",
    "responsible_agency": "Department of Sanitation",
    "final_address": "1232 Louisa St",
    "address_councildis": "C",
    "status": "Assigned to Contractor",
    "contractor": "IV Waste",
    "rowid": "994914",
    "final_x": "3689679.83318",
    "final_y": "536504.068871",
    "longitude": "-90.04206408395127",
    "latitude": "29.968949240793165",
    "geocoded_column": {
      "latitude": "29.968949240793165",
      "longitude": "-90.04206408395127"
    }
  },
  {
    "service_request": "2023-994913",
    "request_type": "Trash/Recycling",
    "request_reason": "Request a Large Item Pick Up",
    "date_created": "2023-04-27T15:56:13.000",
    "date_modified": "2023-04-27T17:23:11.000",
    "case_close_date": "2023-04-27T12:23:11.000",
    "request_status": "Closed",
    "responsible_agency": "Department of Sanitation",
    "final_address": "5459 Stillwater Dr",
    "address_councildis": "E",
    "status": "Duplicate Request",
    "contractor": "Waste Pro",
    "rowid": "994913",
    "final_x": "3716805.54143",
    "final_y": "560658.361566",
    "longitude": "-89.9554830792094",
    "latitude": "30.034495753856575",
    "geocoded_column": {
      "latitude": "30.034495753856575",
      "longitude": "-89.9554830792094"
    }
  },
  {
    "service_request": "2023-994912",
    "request_type": "Trash/Recycling",
    "request_reason": "Order Trash Cart",
    "date_created": "2023-04-27T15:56:09.000",
    "date_modified": "2023-04-27T15:56:09.000",
    "request_status": "Pending",
    "responsible_agency": "Department of Sanitation",
    "final_address": "1234 Louisa St",
    "address_councildis": "C",
    "status": "Assigned to Contractor",
    "contractor": "IV Waste",
    "rowid": "994912",
    "final_x": "3689683.43523",
    "final_y": "536513.674375",
    "longitude": "-90.04205236662602",
    "latitude": "29.96897554094038",
    "geocoded_column": {
      "latitude": "29.96897554094038",
      "longitude": "-90.04205236662602"
    }
  },
  {
    "service_request": "2023-994911",
    "request_type": "Trash/Recycling",
    "request_reason": "Request a Large Item Pick Up",
    "date_created": "2023-04-27T15:52:31.000",
    "date_modified": "2023-04-27T15:52:32.000",
    "request_status": "Pending",
    "responsible_agency": "Department of Sanitation",
    "final_address": "1330 Prytania St",
    "address_councildis": "B",
    "status": "Assigned to Contractor",
    "contractor": "Richards Disposal",
    "rowid": "994911",
    "final_x": "3679874.49659",
    "final_y": "525542.039165",
    "longitude": "-90.07341063107887",
    "latitude": "29.93910754498278",
    "geocoded_column": {
      "latitude": "29.93910754498278",
      "longitude": "-90.07341063107887"
    }
  },
  {
    "service_request": "2023-994910",
    "request_type": "Utility Poles",
    "request_reason": "Utility Pole Leaning",
    "date_created": "2023-04-27T15:51:41.000",
    "date_modified": "2023-04-27T15:51:45.000",
    "request_status": "Pending",
    "responsible_agency": "Utility Company Collective",
    "final_address": "2501 Amelia St",
    "address_councildis": "B",
    "status": "Pending",
    "rowid": "994910",
    "final_x": "3672390.71553",
    "final_y": "524322.746748",
    "longitude": "-90.09707941732725",
    "latitude": "29.93597903240438",
    "geocoded_column": {
      "latitude": "29.93597903240438",
      "longitude": "-90.09707941732725"
    }
  },
  {
    "service_request": "2023-994909",
    "request_type": "Trash/Recycling",
    "request_reason": "Missed Trash Pick-Up",
    "date_created": "2023-04-27T15:51:31.000",
    "date_modified": "2023-04-27T15:51:32.000",
    "request_status": "Pending",
    "responsible_agency": "Department of Sanitation",
    "final_address": "1328 Prytania St",
    "address_councildis": "B",
    "status": "Assigned to Contractor",
    "contractor": "Richards Disposal",
    "rowid": "994909",
    "final_x": "3679902.41813",
    "final_y": "525508.554237",
    "longitude": "-90.07332364189769",
    "latitude": "29.93901462831498",
    "geocoded_column": {
      "latitude": "29.93901462831498",
      "longitude": "-90.07332364189769"
    }
  },
  {
    "service_request": "2023-994908",
    "request_type": "Property Maintenance",
    "request_reason": "Property Maintenance",
    "date_created": "2023-04-27T15:50:49.000",
    "date_modified": "2023-04-27T15:52:39.000",
    "request_status": "Pending",
    "responsible_agency": "Department of Code Enforcement",
    "final_address": "DONNA DR & HAMMOND ST",
    "address_councildis": "E",
    "status": "Pending",
    "rowid": "994908",
    "final_x": "3710960.3",
    "final_y": "556238.78",
    "longitude": "-89.97412035723919",
    "latitude": "30.022535619516812",
    "geocoded_column": {
      "latitude": "30.022535619516812",
      "longitude": "-89.97412035723919"
    }
  },
  {
    "service_request": "2023-994907",
    "request_type": "Trash/Recycling",
    "request_reason": "Repair Trash Cart",
    "date_created": "2023-04-27T15:50:46.000",
    "date_modified": "2023-04-27T15:50:47.000",
    "request_status": "Pending",
    "responsible_agency": "Department of Sanitation",
    "final_address": "1328 Prytania St",
    "address_councildis": "B",
    "status": "Assigned to Contractor",
    "contractor": "Richards Disposal",
    "rowid": "994907",
    "final_x": "3679902.41813",
    "final_y": "525508.554237",
    "longitude": "-90.07332364189769",
    "latitude": "29.93901462831498",
    "geocoded_column": {
      "latitude": "29.93901462831498",
      "longitude": "-90.07332364189769"
    }
  },
  {
    "service_request": "2023-994906",
    "request_type": "Utility Poles",
    "request_reason": "Utility Pole Leaning",
    "date_created": "2023-04-27T15:50:43.000",
    "date_modified": "2023-04-27T15:50:46.000",
    "request_status": "Pending",
    "responsible_agency": "Utility Company Collective",
    "final_address": "2501 Amelia St",
    "address_councildis": "B",
    "status": "Pending",
    "rowid": "994906",
    "final_x": "3672390.71553",
    "final_y": "524322.746748",
    "longitude": "-90.09707941732725",
    "latitude": "29.93597903240438",
    "geocoded_column": {
      "latitude": "29.93597903240438",
      "longitude": "-90.09707941732725"
    }
  },
  {
    "service_request": "2023-994905",
    "request_type": "Trash/Recycling",
    "request_reason": "Replace Trash Cart",
    "date_created": "2023-04-27T15:50:22.000",
    "date_modified": "2023-04-27T15:50:22.000",
    "request_status": "Pending",
    "responsible_agency": "Department of Sanitation",
    "final_address": "2313 Coliseum St",
    "address_councildis": "B",
    "status": "Assigned to Contractor",
    "contractor": "Richards Disposal",
    "rowid": "994905",
    "final_x": "3677789.19189",
    "final_y": "522601.317434",
    "longitude": "-90.08009573821732",
    "latitude": "29.931084408886495",
    "geocoded_column": {
      "latitude": "29.931084408886495",
      "longitude": "-90.08009573821732"
    }
  },
  {
    "service_request": "2023-994904",
    "request_type": "Trash/Recycling",
    "request_reason": "Repair Trash Cart",
    "date_created": "2023-04-27T15:49:55.000",
    "date_modified": "2023-04-27T15:49:55.000",
    "request_status": "Pending",
    "responsible_agency": "Department of Sanitation",
    "final_address": "1330 Prytania St Apt 2",
    "address_councildis": "B",
    "status": "Assigned to Contractor",
    "contractor": "Richards Disposal",
    "rowid": "994904",
    "final_x": "3679902.41813",
    "final_y": "525508.554237",
    "longitude": "-90.07332364189769",
    "latitude": "29.93901462831498",
    "geocoded_column": {
      "latitude": "29.93901462831498",
      "longitude": "-90.07332364189769"
    }
  },
  {
    "service_request": "2023-994903",
    "request_type": "Trash/Recycling",
    "request_reason": "MIssed Recycling Pick-Up",
    "date_created": "2023-04-27T15:45:14.000",
    "date_modified": "2023-04-27T15:45:14.000",
    "request_status": "Pending",
    "responsible_agency": "Department of Sanitation",
    "final_address": "7928 Mackenzie St",
    "address_councildis": "E",
    "status": "Assigned to Contractor",
    "contractor": "Waste Pro",
    "rowid": "994903",
    "final_x": "3710322.12849",
    "final_y": "567068.034276",
    "longitude": "-89.97573139276935",
    "latitude": "30.052332554180254",
    "geocoded_column": {
      "latitude": "30.052332554180254",
      "longitude": "-89.97573139276935"
    }
  },
  {
    "service_request": "2023-994902",
    "request_type": "Trash/Recycling",
    "request_reason": "Order Trash Cart",
    "date_created": "2023-04-27T15:41:54.000",
    "date_modified": "2023-04-27T15:41:55.000",
    "request_status": "Pending",
    "responsible_agency": "Department of Sanitation",
    "final_address": "107 Rhodes Ave",
    "address_councildis": "C",
    "status": "Assigned to Contractor",
    "contractor": "Richards Disposal",
    "rowid": "994902",
    "final_x": "3705880.06743",
    "final_y": "519358.171447",
    "longitude": "-89.99153718044184",
    "latitude": "29.921292198681392",
    "geocoded_column": {
      "latitude": "29.921292198681392",
      "longitude": "-89.99153718044184"
    }
  },
  {
    "service_request": "2023-994900",
    "request_type": "Trash/Recycling",
    "request_reason": "Order Recycling Cart",
    "date_created": "2023-04-27T15:32:56.000",
    "date_modified": "2023-04-27T15:32:56.000",
    "request_status": "Pending",
    "responsible_agency": "Department of Sanitation",
    "final_address": "316 N Anthony St",
    "address_councildis": "A",
    "status": "Pending",
    "rowid": "994900",
    "final_x": "3669199.76846",
    "final_y": "541007.362059",
    "longitude": "-90.10658941007893",
    "latitude": "29.981950490504868",
    "geocoded_column": {
      "latitude": "29.981950490504868",
      "longitude": "-90.10658941007893"
    }
  },
  {
    "service_request": "2023-994901",
    "request_type": "Trash/Recycling",
    "request_reason": "Order Recycling Cart",
    "date_created": "2023-04-27T15:32:56.000",
    "date_modified": "2023-04-27T15:32:57.000",
    "request_status": "Pending",
    "responsible_agency": "Department of Sanitation",
    "final_address": "6588 Catina St",
    "address_councildis": "A",
    "status": "Pending",
    "rowid": "994901",
    "final_x": "3666916.8978",
    "final_y": "551578.076693",
    "longitude": "-90.11344438094442",
    "latitude": "30.011083329642585",
    "geocoded_column": {
      "latitude": "30.011083329642585",
      "longitude": "-90.11344438094442"
    }
  },
  {
    "service_request": "2023-994899",
    "request_type": "Trash/Recycling",
    "request_reason": "Replace Trash Cart",
    "date_created": "2023-04-27T15:26:44.000",
    "date_modified": "2023-04-27T15:26:44.000",
    "request_status": "Pending",
    "responsible_agency": "Department of Sanitation",
    "final_address": "2345 Annunciation St",
    "address_councildis": "B",
    "status": "Assigned to Contractor",
    "contractor": "Richards Disposal",
    "rowid": "994899",
    "final_x": "3678901.60872",
    "final_y": "520766.879737",
    "longitude": "-90.07664749801879",
    "latitude": "29.92600680325698",
    "geocoded_column": {
      "latitude": "29.92600680325698",
      "longitude": "-90.07664749801879"
    }
  },
  {
    "service_request": "2023-994897",
    "request_type": "Trash/Recycling",
    "request_reason": "Missed Trash Pick-Up",
    "date_created": "2023-04-27T15:25:05.000",
    "date_modified": "2023-04-27T15:25:06.000",
    "request_status": "Pending",
    "responsible_agency": "Department of Sanitation",
    "final_address": "2515 Erato St",
    "address_councildis": "B",
    "status": "Assigned to Contractor",
    "contractor": "Richards Disposal",
    "rowid": "994897",
    "final_x": "3676618.80974",
    "final_y": "527911.363135",
    "longitude": "-90.08360765354854",
    "latitude": "29.945720435743375",
    "geocoded_column": {
      "latitude": "29.945720435743375",
      "longitude": "-90.08360765354854"
    }
  },
  {
    "service_request": "2023-994896",
    "request_type": "Trash/Recycling",
    "request_reason": "Missed Trash Pick-Up",
    "date_created": "2023-04-27T15:24:18.000",
    "date_modified": "2023-04-27T15:24:19.000",
    "request_status": "Pending",
    "responsible_agency": "Department of Sanitation",
    "final_address": "1600 BLK Chippewa St",
    "address_councildis": "B",
    "status": "Assigned to Contractor",
    "contractor": "Richards Disposal",
    "rowid": "994896",
    "final_x": "3681072.78775",
    "final_y": "522677.18278",
    "longitude": "-90.06972722527576",
    "latitude": "29.93119385456631",
    "geocoded_column": {
      "latitude": "29.93119385456631",
      "longitude": "-90.06972722527576"
    }
  },
  {
    "service_request": "2023-994895",
    "request_type": "Traffic Signals/Signs/Striping/Streetlights",
    "request_reason": "Street Light Outage/Malfunction",
    "date_created": "2023-04-27T15:21:05.000",
    "date_modified": "2023-04-27T15:21:06.000",
    "request_status": "Pending",
    "responsible_agency": "Department of Public Works",
    "final_address": "0 BLK Interstate 10",
    "status": "Assigned to Contractor",
    "contractor": "Legacy Professional Services",
    "rowid": "994895",
    "final_x": "3749078.15502",
    "final_y": "605653.561774",
    "longitude": "-89.85166076471643",
    "latitude": "30.157105189447982",
    "geocoded_column": {
      "latitude": "30.157105189447982",
      "longitude": "-89.85166076471643"
    }
  },
  {
    "service_request": "2023-994894",
    "request_type": "Roads/Drainage",
    "request_reason": "Catch Basin - Clogged",
    "date_created": "2023-04-27T15:18:10.000",
    "date_modified": "2023-04-27T15:18:10.000",
    "request_status": "Pending",
    "responsible_agency": "Department of Public Works",
    "final_address": "333 St Charles Ave",
    "address_councildis": "B",
    "status": "Pending",
    "rowid": "994894",
    "final_x": "3680784.35733",
    "final_y": "529767.341121",
    "longitude": "-90.07039106084208",
    "latitude": "29.950698171749757",
    "geocoded_column": {
      "latitude": "29.950698171749757",
      "longitude": "-90.07039106084208"
    }
  },
  {
    "service_request": "2023-994893",
    "request_type": "Trash/Recycling",
    "request_reason": "MIssed Recycling Pick-Up",
    "date_created": "2023-04-27T15:17:13.000",
    "date_modified": "2023-04-27T15:17:14.000",
    "request_status": "Pending",
    "responsible_agency": "Department of Sanitation",
    "final_address": "9330 Grant St",
    "address_councildis": "E",
    "status": "Assigned to Contractor",
    "contractor": "Waste Pro",
    "rowid": "994893",
    "final_x": "3709968.64401",
    "final_y": "554767.790616",
    "longitude": "-89.97730872987711",
    "latitude": "30.018523280164214",
    "geocoded_column": {
      "latitude": "30.018523280164214",
      "longitude": "-89.97730872987711"
    }
  },
  {
    "service_request": "2023-994892",
    "request_type": "Trash/Recycling",
    "request_reason": "Order Trash Cart",
    "date_created": "2023-04-27T15:12:33.000",
    "date_modified": "2023-04-27T15:12:34.000",
    "request_status": "Pending",
    "responsible_agency": "Department of Sanitation",
    "final_address": "2316 Milan St",
    "address_councildis": "B",
    "status": "Assigned to Contractor",
    "contractor": "Richards Disposal",
    "rowid": "994892",
    "final_x": "3671291.71515",
    "final_y": "523568.753147",
    "longitude": "-90.10057460389051",
    "latitude": "29.933938351117508",
    "geocoded_column": {
      "latitude": "29.933938351117508",
      "longitude": "-90.10057460389051"
    }
  },
  {
    "service_request": "2023-994891",
    "request_type": "Abandoned Vehicles",
    "request_reason": "Abandoned/Junk Vehicles",
    "date_created": "2023-04-27T15:10:42.000",
    "date_modified": "2023-04-27T15:10:42.000",
    "request_status": "Pending",
    "responsible_agency": "Department of Public Works",
    "final_address": "2146 N Dorgenois St",
    "address_councildis": "D",
    "status": "Pending",
    "rowid": "994891",
    "final_x": "3683984.67458",
    "final_y": "541384.32846",
    "longitude": "-90.05987845570898",
    "latitude": "29.982543494128834",
    "geocoded_column": {
      "latitude": "29.982543494128834",
      "longitude": "-90.05987845570898"
    }
  },
  {
    "service_request": "2023-994890",
    "request_type": "Trash/Recycling",
    "request_reason": "Order Recycling Cart",
    "date_created": "2023-04-27T15:10:40.000",
    "date_modified": "2023-04-27T15:10:41.000",
    "request_status": "Pending",
    "responsible_agency": "Department of Sanitation",
    "final_address": "3029 N Rampart St",
    "address_councildis": "C",
    "status": "Pending",
    "rowid": "994890",
    "final_x": "3688561.88438",
    "final_y": "535674.726662",
    "longitude": "-90.04562406346908",
    "latitude": "29.9667034336842",
    "geocoded_column": {
      "latitude": "29.9667034336842",
      "longitude": "-90.04562406346908"
    }
  },
  {
    "service_request": "2023-994889",
    "request_type": "Abandoned Vehicles",
    "request_reason": "Abandoned/Junk Vehicles",
    "date_created": "2023-04-27T15:07:55.000",
    "date_modified": "2023-04-27T15:07:55.000",
    "request_status": "Pending",
    "responsible_agency": "Department of Public Works",
    "final_address": "2146 N Dorgenois St",
    "address_councildis": "D",
    "status": "Pending",
    "rowid": "994889",
    "final_x": "3683984.67458",
    "final_y": "541384.32846",
    "longitude": "-90.05987845570898",
    "latitude": "29.982543494128834",
    "geocoded_column": {
      "latitude": "29.982543494128834",
      "longitude": "-90.05987845570898"
    }
  },
  {
    "service_request": "2023-994887",
    "request_type": "Abandoned Vehicles",
    "request_reason": "Abandoned/Junk Vehicles",
    "date_created": "2023-04-27T15:05:43.000",
    "date_modified": "2023-04-27T15:05:43.000",
    "request_status": "Pending",
    "responsible_agency": "Department of Public Works",
    "final_address": "2910 Somerset Dr",
    "address_councildis": "C",
    "status": "Pending",
    "rowid": "994887",
    "final_x": "3702801.39946",
    "final_y": "520284.781304",
    "longitude": "-90.00122109944874",
    "latitude": "29.923938827008016",
    "geocoded_column": {
      "latitude": "29.923938827008016",
      "longitude": "-90.00122109944874"
    }
  },
  {
    "service_request": "2023-994886",
    "request_type": "Roads/Drainage",
    "request_reason": "Pothole",
    "date_created": "2023-04-27T14:56:15.000",
    "date_modified": "2023-04-27T14:57:40.000",
    "request_status": "Pending",
    "responsible_agency": "Department of Public Works",
    "final_address": "5549 Pasteur Blvd",
    "address_councildis": "D",
    "status": "Pending",
    "rowid": "994886",
    "final_x": "3682961.09672",
    "final_y": "553588.217815",
    "longitude": "-90.06268397366317",
    "latitude": "30.01613106095698",
    "geocoded_column": {
      "latitude": "30.01613106095698",
      "longitude": "-90.06268397366317"
    }
  },
  {
    "service_request": "2023-994885",
    "request_type": "Trash/Recycling",
    "request_reason": "Illegal Dumping",
    "date_created": "2023-04-27T14:54:16.000",
    "date_modified": "2023-04-27T14:54:16.000",
    "request_status": "Pending",
    "responsible_agency": "Department of Sanitation",
    "final_address": "ANNETTE ST & N ROMAN ST",
    "address_councildis": "D",
    "status": "Pending",
    "rowid": "994885",
    "final_x": "3682939.8",
    "final_y": "538727.28",
    "longitude": "-90.06327170497366",
    "latitude": "29.97526942829095",
    "geocoded_column": {
      "latitude": "29.97526942829095",
      "longitude": "-90.06327170497366"
    }
  },
  {
    "service_request": "2023-994884",
    "request_type": "Trash/Recycling",
    "request_reason": "Order Recycling Cart",
    "date_created": "2023-04-27T14:53:07.000",
    "date_modified": "2023-04-27T14:53:08.000",
    "request_status": "Pending",
    "responsible_agency": "Department of Sanitation",
    "final_address": "3216 St Ann St",
    "address_councildis": "A",
    "status": "Pending",
    "rowid": "994884",
    "final_x": "3675061.70952",
    "final_y": "538595.284681",
    "longitude": "-90.08815736924353",
    "latitude": "29.97514423860225",
    "geocoded_column": {
      "latitude": "29.97514423860225",
      "longitude": "-90.08815736924353"
    }
  },
  {
    "service_request": "2023-994883",
    "request_type": "Trash/Recycling",
    "request_reason": "Missed Trash Pick-Up",
    "date_created": "2023-04-27T14:50:55.000",
    "date_modified": "2023-04-27T15:23:18.000",
    "case_close_date": "2023-04-27T10:23:18.000",
    "request_status": "Closed",
    "responsible_agency": "Department of Sanitation",
    "final_address": "5000 BLK Marais St",
    "address_councildis": "E",
    "status": "Assigned to Contractor",
    "contractor": "Waste Pro",
    "contractor_action": "Completed",
    "rowid": "994883",
    "final_x": "3696204.8733",
    "final_y": "534582.914218",
    "longitude": "-90.02152714589893",
    "latitude": "29.96346294833723",
    "geocoded_column": {
      "latitude": "29.96346294833723",
      "longitude": "-90.02152714589893"
    }
  },
  {
    "service_request": "2023-994882",
    "request_type": "Trash/Recycling",
    "request_reason": "Order Recycling Cart",
    "date_created": "2023-04-27T14:45:36.000",
    "date_modified": "2023-04-27T14:45:36.000",
    "request_status": "Pending",
    "responsible_agency": "Department of Sanitation",
    "final_address": "3407 Burgundy St",
    "address_councildis": "C",
    "status": "Pending",
    "rowid": "994882",
    "final_x": "3690064.86",
    "final_y": "534927.804358",
    "longitude": "-90.04090429576867",
    "latitude": "29.9646031299772",
    "geocoded_column": {
      "latitude": "29.9646031299772",
      "longitude": "-90.04090429576867"
    }
  },
  {
    "service_request": "2023-994881",
    "request_type": "Property Maintenance",
    "request_reason": "Property Maintenance",
    "date_created": "2023-04-27T14:45:33.000",
    "date_modified": "2023-04-27T14:46:01.000",
    "request_status": "Pending",
    "responsible_agency": "Department of Code Enforcement",
    "final_address": "8008 Brevard Ave",
    "address_councildis": "E",
    "status": "Pending",
    "rowid": "994881",
    "final_x": "3705721.62129",
    "final_y": "564523.608993",
    "longitude": "-89.99036638420274",
    "latitude": "30.045485472343625",
    "geocoded_column": {
      "latitude": "30.045485472343625",
      "longitude": "-89.99036638420274"
    }
  },
  {
    "service_request": "2023-994880",
    "request_type": "Trash/Recycling",
    "request_reason": "Request a Large Item Pick Up",
    "date_created": "2023-04-27T14:45:06.000",
    "date_modified": "2023-04-27T14:45:22.000",
    "request_status": "Pending",
    "responsible_agency": "Department of Sanitation",
    "final_address": "2531 Painters St",
    "address_councildis": "D",
    "status": "Assigned to Contractor",
    "contractor": "IV Waste",
    "rowid": "994880",
    "final_x": "3687163.78319",
    "final_y": "541925.889292",
    "longitude": "-90.04981811807515",
    "latitude": "29.983935061384035",
    "geocoded_column": {
      "latitude": "29.983935061384035",
      "longitude": "-90.04981811807515"
    }
  },
  {
    "service_request": "2023-994879",
    "request_type": "Trash/Recycling",
    "request_reason": "Order Recycling Cart",
    "date_created": "2023-04-27T14:43:50.000",
    "date_modified": "2023-04-27T14:43:50.000",
    "request_status": "Pending",
    "responsible_agency": "Department of Sanitation",
    "final_address": "26 Winners Cir",
    "address_councildis": "E",
    "status": "Pending",
    "rowid": "994879",
    "final_x": "3715932.71372",
    "final_y": "570399.651495",
    "longitude": "-89.95787177955212",
    "latitude": "30.061309154462325",
    "geocoded_column": {
      "latitude": "30.061309154462325",
      "longitude": "-89.95787177955212"
    }
  },
  {
    "service_request": "2023-994878",
    "request_type": "Roads/Drainage",
    "request_reason": "Pothole",
    "date_created": "2023-04-27T14:43:09.000",
    "date_modified": "2023-04-27T14:43:46.000",
    "case_close_date": "2023-04-27T09:43:46.000",
    "request_status": "Closed",
    "responsible_agency": "Department of Public Works",
    "final_address": "2700 BLK Orchid St",
    "address_councildis": "A",
    "status": "Resolved",
    "rowid": "994878",
    "final_x": "3677764.22711",
    "final_y": "538674.688842",
    "longitude": "-90.07961936376624",
    "latitude": "29.975281543959717",
    "geocoded_column": {
      "latitude": "29.975281543959717",
      "longitude": "-90.07961936376624"
    }
  },
  {
    "service_request": "2023-994877",
    "request_type": "Trash/Recycling",
    "request_reason": "Order Trash Cart",
    "date_created": "2023-04-27T14:42:27.000",
    "date_modified": "2023-04-27T14:42:28.000",
    "request_status": "Pending",
    "responsible_agency": "Department of Sanitation",
    "final_address": "26 Winners Cir",
    "address_councildis": "E",
    "status": "Assigned to Contractor",
    "contractor": "Waste Pro",
    "rowid": "994877",
    "final_x": "3715932.71372",
    "final_y": "570399.651495",
    "longitude": "-89.95787177955212",
    "latitude": "30.061309154462325",
    "geocoded_column": {
      "latitude": "30.061309154462325",
      "longitude": "-89.95787177955212"
    }
  },
  {
    "service_request": "2023-994876",
    "request_type": "Trash/Recycling",
    "request_reason": "Missed Trash Pick-Up",
    "date_created": "2023-04-27T14:38:27.000",
    "date_modified": "2023-04-27T15:29:41.000",
    "case_close_date": "2023-04-27T10:29:41.000",
    "request_status": "Closed",
    "responsible_agency": "Department of Sanitation",
    "final_address": "4050 Franklin Ave",
    "address_councildis": "D",
    "status": "Assigned to Contractor",
    "contractor": "IV Waste",
    "contractor_action": "Completed",
    "rowid": "994876",
    "final_x": "3686897.07842",
    "final_y": "547963.28853",
    "longitude": "-90.05044701274083",
    "latitude": "30.00054395801091",
    "geocoded_column": {
      "latitude": "30.00054395801091",
      "longitude": "-90.05044701274083"
    }
  },
  {
    "service_request": "2023-994875",
    "request_type": "Roads/Drainage",
    "request_reason": "Alley Way",
    "date_created": "2023-04-27T14:38:22.000",
    "date_modified": "2023-04-27T14:38:22.000",
    "request_status": "Pending",
    "responsible_agency": "Department of Public Works",
    "final_address": "6737 General Haig St",
    "address_councildis": "A",
    "status": "Pending",
    "rowid": "994875",
    "final_x": "3671091.02164",
    "final_y": "552154.48175",
    "longitude": "-90.10023702534198",
    "latitude": "30.01254538878504",
    "geocoded_column": {
      "latitude": "30.01254538878504",
      "longitude": "-90.10023702534198"
    }
  },
  {
    "service_request": "2023-994874",
    "request_type": "Roads/Drainage",
    "request_reason": "Street Subsidence (Sinking)",
    "date_created": "2023-04-27T14:37:20.000",
    "date_modified": "2023-04-27T14:37:21.000",
    "request_status": "Pending",
    "responsible_agency": "Department of Public Works",
    "final_address": "6000 BLK Kingston Ct",
    "address_councildis": "C",
    "status": "Pending",
    "rowid": "994874",
    "final_x": "3706446.44009",
    "final_y": "517759.042354",
    "longitude": "-89.9898085932943",
    "latitude": "29.916876900088347",
    "geocoded_column": {
      "latitude": "29.916876900088347",
      "longitude": "-89.9898085932943"
    }
  },
  {
    "service_request": "2023-994873",
    "request_type": "Trash/Recycling",
    "request_reason": "Missed Trash Pick-Up",
    "date_created": "2023-04-27T14:35:22.000",
    "date_modified": "2023-04-27T14:35:22.000",
    "request_status": "Pending",
    "responsible_agency": "Department of Sanitation",
    "final_address": "1831 Audubon St",
    "address_councildis": "A",
    "status": "Assigned to Contractor",
    "contractor": "Richards Disposal",
    "rowid": "994873",
    "final_x": "3665785.82298",
    "final_y": "528303.803392",
    "longitude": "-90.11779796714376",
    "latitude": "29.94711995113553",
    "geocoded_column": {
      "latitude": "29.94711995113553",
      "longitude": "-90.11779796714376"
    }
  },
  {
    "service_request": "2023-994872",
    "request_type": "Trash/Recycling",
    "request_reason": "Request a Large Item Pick Up",
    "date_created": "2023-04-27T14:34:04.000",
    "date_modified": "2023-04-27T14:34:05.000",
    "request_status": "Pending",
    "responsible_agency": "Department of Sanitation",
    "final_address": "7300 Spring Lake Dr",
    "address_councildis": "E",
    "status": "Assigned to Contractor",
    "contractor": "Waste Pro",
    "rowid": "994872",
    "final_x": "3700550.08221",
    "final_y": "558887.444828",
    "longitude": "-90.00691707483311",
    "latitude": "30.030153864897148",
    "geocoded_column": {
      "latitude": "30.030153864897148",
      "longitude": "-90.00691707483311"
    }
  },
  {
    "service_request": "2023-994871",
    "request_type": "Trash/Recycling",
    "request_reason": "Order Trash Cart",
    "date_created": "2023-04-27T14:32:34.000",
    "date_modified": "2023-04-27T14:33:25.000",
    "request_status": "Pending",
    "responsible_agency": "Department of Sanitation",
    "final_address": "3300 N Galvez St",
    "address_councildis": "D",
    "status": "Assigned to Contractor",
    "contractor": "IV Waste",
    "rowid": "994871",
    "final_x": "3690809.59484",
    "final_y": "539499.003466",
    "longitude": "-90.0383893457746",
    "latitude": "29.977149195688046",
    "geocoded_column": {
      "latitude": "29.977149195688046",
      "longitude": "-90.0383893457746"
    }
  },
  {
    "service_request": "2023-994870",
    "request_type": "Trash/Recycling",
    "request_reason": "Missed Trash Pick-Up",
    "date_created": "2023-04-27T14:32:00.000",
    "date_modified": "2023-04-27T15:21:45.000",
    "case_close_date": "2023-04-27T10:21:45.000",
    "request_status": "Closed",
    "responsible_agency": "Department of Sanitation",
    "final_address": "4818 Marais St",
    "address_councildis": "E",
    "status": "Assigned to Contractor",
    "contractor": "Waste Pro",
    "contractor_action": "Completed",
    "rowid": "994870",
    "final_x": "3695285.89251",
    "final_y": "534755.517126",
    "longitude": "-90.02442294728269",
    "latitude": "29.963966442017295",
    "geocoded_column": {
      "latitude": "29.963966442017295",
      "longitude": "-90.02442294728269"
    }
  },
  {
    "service_request": "2023-994869",
    "request_type": "Trash/Recycling",
    "request_reason": "Replace Recycling Cart",
    "date_created": "2023-04-27T14:31:31.000",
    "date_modified": "2023-04-27T14:31:31.000",
    "request_status": "Pending",
    "responsible_agency": "Department of Sanitation",
    "final_address": "5925 Oxford Pl",
    "address_councildis": "C",
    "status": "Pending",
    "rowid": "994869",
    "final_x": "3705805.37681",
    "final_y": "519681.056696",
    "longitude": "-89.99176101072977",
    "latitude": "29.922182425645808",
    "geocoded_column": {
      "latitude": "29.922182425645808",
      "longitude": "-89.99176101072977"
    }
  },
  {
    "service_request": "2023-994868",
    "request_type": "Trash/Recycling",
    "request_reason": "Replace Trash Cart",
    "date_created": "2023-04-27T14:31:24.000",
    "date_modified": "2023-04-27T14:31:25.000",
    "request_status": "Pending",
    "responsible_agency": "Department of Sanitation",
    "final_address": "2757 St Peter St",
    "address_councildis": "A",
    "status": "Assigned to Contractor",
    "contractor": "Richards Disposal",
    "rowid": "994868",
    "final_x": "3676289.82849",
    "final_y": "537186.82836",
    "longitude": "-90.08432713243002",
    "latitude": "29.971234711205792",
    "geocoded_column": {
      "latitude": "29.971234711205792",
      "longitude": "-90.08432713243002"
    }
  },
  {
    "service_request": "2023-994867",
    "request_type": "Roads/Drainage",
    "request_reason": "Alley Way",
    "date_created": "2023-04-27T14:26:16.000",
    "date_modified": "2023-04-27T14:26:16.000",
    "request_status": "Pending",
    "responsible_agency": "Department of Public Works",
    "final_address": "6737 General Haig St",
    "address_councildis": "A",
    "status": "Pending",
    "rowid": "994867",
    "final_x": "3671091.02164",
    "final_y": "552154.48175",
    "longitude": "-90.10023702534198",
    "latitude": "30.01254538878504",
    "geocoded_column": {
      "latitude": "30.01254538878504",
      "longitude": "-90.10023702534198"
    }
  },
  {
    "service_request": "2023-994866",
    "request_type": "Roads/Drainage",
    "request_reason": "Catch Basin - Clogged",
    "date_created": "2023-04-27T14:25:30.000",
    "date_modified": "2023-04-27T14:25:30.000",
    "request_status": "Pending",
    "responsible_agency": "Department of Public Works",
    "final_address": "1939 Burdette St",
    "address_councildis": "A",
    "status": "Pending",
    "rowid": "994866",
    "final_x": "3664661.44052",
    "final_y": "529613.106241",
    "longitude": "-90.12130435181943",
    "latitude": "29.950752860729676",
    "geocoded_column": {
      "latitude": "29.950752860729676",
      "longitude": "-90.12130435181943"
    }
  },
  {
    "service_request": "2023-994864",
    "request_type": "Trash/Recycling",
    "request_reason": "Repair Trash Cart",
    "date_created": "2023-04-27T14:20:33.000",
    "date_modified": "2023-04-27T14:20:33.000",
    "request_status": "Pending",
    "responsible_agency": "Department of Sanitation",
    "final_address": "4444 Cessna Ct",
    "address_councildis": "D",
    "status": "Assigned to Contractor",
    "contractor": "Waste Pro",
    "rowid": "994864",
    "final_x": "3696546.13559",
    "final_y": "552641.790934",
    "longitude": "-90.01979574151123",
    "latitude": "30.013107520388907",
    "geocoded_column": {
      "latitude": "30.013107520388907",
      "longitude": "-90.01979574151123"
    }
  },
  {
    "service_request": "2023-994863",
    "request_type": "Abandoned Vehicles",
    "request_reason": "Abandoned/Junk Vehicles",
    "date_created": "2023-04-27T14:14:35.000",
    "date_modified": "2023-04-27T14:14:35.000",
    "request_status": "Pending",
    "responsible_agency": "Department of Public Works",
    "final_address": "3301 Plymouth Pl",
    "address_councildis": "C",
    "status": "Pending",
    "rowid": "994863",
    "final_x": "3702746.85482",
    "final_y": "519120.117495",
    "longitude": "-90.00143600986202",
    "latitude": "29.92073814692604",
    "geocoded_column": {
      "latitude": "29.92073814692604",
      "longitude": "-90.00143600986202"
    }
  },
  {
    "service_request": "2023-994862",
    "request_type": "Roads/Drainage",
    "request_reason": "Alley Way",
    "date_created": "2023-04-27T14:13:24.000",
    "date_modified": "2023-04-27T14:17:20.000",
    "case_close_date": "2023-04-27T09:17:20.000",
    "request_status": "Closed",
    "responsible_agency": "Department of Public Works",
    "final_address": "118 City Park Ave",
    "address_councildis": "A",
    "status": "Duplicate Request",
    "rowid": "994862",
    "final_x": "3667651.43245",
    "final_y": "540854.232907",
    "longitude": "-90.1114849682831",
    "latitude": "29.98157492613766",
    "geocoded_column": {
      "latitude": "29.98157492613766",
      "longitude": "-90.1114849682831"
    }
  },
  {
    "service_request": "2023-994861",
    "request_type": "Roads/Drainage",
    "request_reason": "Pothole",
    "date_created": "2023-04-27T14:09:43.000",
    "date_modified": "2023-04-27T14:09:43.000",
    "request_status": "Pending",
    "responsible_agency": "Department of Public Works",
    "final_address": "NEW",
    "address_councildis": "B",
    "status": "Pending",
    "rowid": "994861",
    "final_x": "3672187.92769",
    "final_y": "534175.720965",
    "longitude": "-90.09738410181727",
    "latitude": "29.963077482958436",
    "geocoded_column": {
      "latitude": "29.963077482958436",
      "longitude": "-90.09738410181727"
    }
  },
  {
    "service_request": "2023-994860",
    "request_type": "Trash/Recycling",
    "request_reason": "Request a Large Item Pick Up",
    "date_created": "2023-04-27T14:07:46.000",
    "date_modified": "2023-04-27T14:07:46.000",
    "request_status": "Pending",
    "responsible_agency": "Department of Sanitation",
    "final_address": "7825 Sycamore St",
    "address_councildis": "A",
    "status": "Assigned to Contractor",
    "contractor": "Richards Disposal",
    "rowid": "994860",
    "final_x": "3665031.75924",
    "final_y": "530387.096258",
    "longitude": "-90.12010919344",
    "latitude": "29.952870306448016",
    "geocoded_column": {
      "latitude": "29.952870306448016",
      "longitude": "-90.12010919344"
    }
  },
  {
    "service_request": "2023-994859",
    "request_type": "Trash/Recycling",
    "request_reason": "MIssed Recycling Pick-Up",
    "date_created": "2023-04-27T14:05:19.000",
    "date_modified": "2023-04-27T14:05:19.000",
    "request_status": "Pending",
    "responsible_agency": "Department of Sanitation",
    "final_address": "702 Washington Ave",
    "address_councildis": "B",
    "status": "Assigned to Contractor",
    "contractor": "Richards Disposal",
    "rowid": "994859",
    "final_x": "3677804.5339",
    "final_y": "519561.826295",
    "longitude": "-90.08015224693371",
    "latitude": "29.92272633588398",
    "geocoded_column": {
      "latitude": "29.92272633588398",
      "longitude": "-90.08015224693371"
    }
  },
  {
    "service_request": "2023-994858",
    "request_type": "Abandoned Vehicles",
    "request_reason": "Abandoned/Junk Vehicles",
    "date_created": "2023-04-27T14:04:51.000",
    "date_modified": "2023-04-27T14:04:51.000",
    "request_status": "Pending",
    "responsible_agency": "Department of Public Works",
    "final_address": "3310 Plymouth Pl",
    "address_councildis": "C",
    "status": "Pending",
    "rowid": "994858",
    "final_x": "3702871.82378",
    "final_y": "519051.267511",
    "longitude": "-90.00104407008529",
    "latitude": "29.9205448384092",
    "geocoded_column": {
      "latitude": "29.9205448384092",
      "longitude": "-90.00104407008529"
    }
  },
  {
    "service_request": "2023-994857",
    "request_type": "Abandoned Vehicles",
    "request_reason": "Abandoned/Junk Vehicles",
    "date_created": "2023-04-27T14:01:57.000",
    "date_modified": "2023-04-27T14:01:57.000",
    "request_status": "Pending",
    "responsible_agency": "Department of Public Works",
    "final_address": "3310 Plymouth Pl",
    "address_councildis": "C",
    "status": "Pending",
    "rowid": "994857",
    "final_x": "3702871.82378",
    "final_y": "519051.267511",
    "longitude": "-90.00104407008529",
    "latitude": "29.9205448384092",
    "geocoded_column": {
      "latitude": "29.9205448384092",
      "longitude": "-90.00104407008529"
    }
  },
  {
    "service_request": "2023-994856",
    "request_type": "Trash/Recycling",
    "request_reason": "Request a Large Item Pick Up",
    "date_created": "2023-04-27T13:59:24.000",
    "date_modified": "2023-04-27T13:59:25.000",
    "request_status": "Pending",
    "responsible_agency": "Department of Sanitation",
    "final_address": "7150 Warfield St",
    "address_councildis": "E",
    "status": "Assigned to Contractor",
    "contractor": "Waste Pro",
    "rowid": "994856",
    "final_x": "3701632.90935",
    "final_y": "552991.717655",
    "longitude": "-90.0037115468363",
    "latitude": "30.013908367327982",
    "geocoded_column": {
      "latitude": "30.013908367327982",
      "longitude": "-90.0037115468363"
    }
  },
  {
    "service_request": "2023-994855",
    "request_type": "Trash/Recycling",
    "request_reason": "Request a Large Item Pick Up",
    "date_created": "2023-04-27T13:54:13.000",
    "date_modified": "2023-04-27T13:54:14.000",
    "request_status": "Pending",
    "responsible_agency": "Department of Sanitation",
    "final_address": "2311 Octavia St",
    "address_councildis": "A",
    "status": "Assigned to Contractor",
    "contractor": "Richards Disposal",
    "rowid": "994855",
    "final_x": "3667673.35738",
    "final_y": "524169.378172",
    "longitude": "-90.11197743534515",
    "latitude": "29.935696421926075",
    "geocoded_column": {
      "latitude": "29.935696421926075",
      "longitude": "-90.11197743534515"
    }
  },
  {
    "service_request": "2023-994854",
    "request_type": "Parks & Parkways",
    "request_reason": "Request Tree Service (Right of Way/Public Property)",
    "date_created": "2023-04-27T13:53:39.000",
    "date_modified": "2023-04-27T13:53:40.000",
    "request_status": "Pending",
    "responsible_agency": "Department of Parks & Parkway",
    "final_address": "2005 N Rampart St",
    "address_councildis": "C",
    "status": "Pending",
    "rowid": "994854",
    "final_x": "3684326.0781",
    "final_y": "535913.306759",
    "longitude": "-90.05899231655846",
    "latitude": "29.967489657085196",
    "geocoded_column": {
      "latitude": "29.967489657085196",
      "longitude": "-90.05899231655846"
    }
  },
  {
    "service_request": "2023-994853",
    "request_type": "Trash/Recycling",
    "request_reason": "Order Recycling Cart",
    "date_created": "2023-04-27T13:50:40.000",
    "date_modified": "2023-04-27T13:50:40.000",
    "request_status": "Pending",
    "responsible_agency": "Department of Sanitation",
    "final_address": "1866 Carnot St",
    "address_councildis": "D",
    "status": "Pending",
    "rowid": "994853",
    "final_x": "3681529.68719",
    "final_y": "549700.528084",
    "longitude": "-90.06734230828614",
    "latitude": "30.005484887972724",
    "geocoded_column": {
      "latitude": "30.005484887972724",
      "longitude": "-90.06734230828614"
    }
  },
  {
    "service_request": "2023-994852",
    "request_type": "Trash/Recycling",
    "request_reason": "Order Trash Cart",
    "date_created": "2023-04-27T13:48:11.000",
    "date_modified": "2023-04-27T13:48:12.000",
    "request_status": "Pending",
    "responsible_agency": "Department of Sanitation",
    "final_address": "1866 Carnot St",
    "address_councildis": "D",
    "status": "Assigned to Contractor",
    "contractor": "IV Waste",
    "rowid": "994852",
    "final_x": "3681529.68719",
    "final_y": "549700.528084",
    "longitude": "-90.06734230828614",
    "latitude": "30.005484887972724",
    "geocoded_column": {
      "latitude": "30.005484887972724",
      "longitude": "-90.06734230828614"
    }
  },
  {
    "service_request": "2023-994851",
    "request_type": "Trash/Recycling",
    "request_reason": "Report a Missed Trash/Recycling Pick Up",
    "date_created": "2023-04-27T13:47:50.000",
    "date_modified": "2023-04-27T13:47:51.000",
    "request_status": "Pending",
    "responsible_agency": "Department of Sanitation",
    "final_address": "N CLAIBORNE AVE & URSULINES AVE",
    "address_councildis": "D",
    "contractor": "Richards Disposal",
    "rowid": "994851",
    "final_x": "3680724.68",
    "final_y": "535739.58",
    "longitude": "-90.07037164369352",
    "latitude": "29.967121608050693",
    "geocoded_column": {
      "latitude": "29.967121608050693",
      "longitude": "-90.07037164369352"
    }
  },
  {
    "service_request": "2023-994850",
    "request_type": "Parks & Parkways",
    "request_reason": "Request Tree Service (Right of Way/Public Property)",
    "date_created": "2023-04-27T13:47:08.000",
    "date_modified": "2023-04-27T13:47:09.000",
    "request_status": "Pending",
    "responsible_agency": "Department of Parks & Parkway",
    "final_address": "209 Cambridge Ct",
    "address_councildis": "C",
    "status": "Pending",
    "rowid": "994850",
    "final_x": "3706415.0586",
    "final_y": "518346.053238",
    "longitude": "-89.98988592175506",
    "latitude": "29.918491988236745",
    "geocoded_column": {
      "latitude": "29.918491988236745",
      "longitude": "-89.98988592175506"
    }
  },
  {
    "service_request": "2023-994849",
    "request_type": "Trash/Recycling",
    "request_reason": "Order Trash Cart",
    "date_created": "2023-04-27T13:46:23.000",
    "date_modified": "2023-04-27T13:46:24.000",
    "request_status": "Pending",
    "responsible_agency": "Department of Sanitation",
    "final_address": "8129 Oleander St",
    "address_councildis": "A",
    "status": "Assigned to Contractor",
    "contractor": "Richards Disposal",
    "rowid": "994849",
    "final_x": "3666620.51674",
    "final_y": "533852.544517",
    "longitude": "-90.11497623388043",
    "latitude": "29.962352803439735",
    "geocoded_column": {
      "latitude": "29.962352803439735",
      "longitude": "-90.11497623388043"
    }
  },
  {
    "service_request": "2023-994848",
    "request_type": "Trash/Recycling",
    "request_reason": "Order Recycling Cart",
    "date_created": "2023-04-27T13:45:56.000",
    "date_modified": "2023-04-27T13:45:56.000",
    "request_status": "Pending",
    "responsible_agency": "Department of Sanitation",
    "final_address": "8129 Oleander St",
    "address_councildis": "A",
    "status": "Pending",
    "rowid": "994848",
    "final_x": "3666620.51674",
    "final_y": "533852.544517",
    "longitude": "-90.11497623388043",
    "latitude": "29.962352803439735",
    "geocoded_column": {
      "latitude": "29.962352803439735",
      "longitude": "-90.11497623388043"
    }
  },
  {
    "service_request": "2023-994847",
    "request_type": "Trash/Recycling",
    "request_reason": "Order Recycling Cart",
    "date_created": "2023-04-27T13:45:38.000",
    "date_modified": "2023-04-27T13:45:38.000",
    "request_status": "Pending",
    "responsible_agency": "Department of Sanitation",
    "final_address": "8127 Oleander St",
    "address_councildis": "A",
    "status": "Pending",
    "rowid": "994847",
    "final_x": "3666634.73505",
    "final_y": "533840.754053",
    "longitude": "-90.11493173022849",
    "latitude": "29.962319967843097",
    "geocoded_column": {
      "latitude": "29.962319967843097",
      "longitude": "-90.11493173022849"
    }
  },
  {
    "service_request": "2023-994846",
    "request_type": "Trash/Recycling",
    "request_reason": "Replace Trash Cart",
    "date_created": "2023-04-27T13:42:32.000",
    "date_modified": "2023-04-27T13:42:33.000",
    "request_status": "Pending",
    "responsible_agency": "Department of Sanitation",
    "final_address": "1542 Calhoun St",
    "address_councildis": "A",
    "status": "Assigned to Contractor",
    "contractor": "Richards Disposal",
    "rowid": "994846",
    "final_x": "3664624.22964",
    "final_y": "522620.325754",
    "longitude": "-90.12165532846097",
    "latitude": "29.931526033323397",
    "geocoded_column": {
      "latitude": "29.931526033323397",
      "longitude": "-90.12165532846097"
    }
  },
  {
    "service_request": "2023-994845",
    "request_type": "Traffic Signals/Signs/Striping/Streetlights",
    "request_reason": "Disabled Parking Sign ",
    "date_created": "2023-04-27T13:40:05.000",
    "date_modified": "2023-04-27T13:40:06.000",
    "request_status": "Pending",
    "responsible_agency": "Department of Public Works",
    "final_address": "824 Roosevelt Pl",
    "address_councildis": "A",
    "status": "Pending",
    "rowid": "994845",
    "final_x": "3673594.88673",
    "final_y": "539814.058634",
    "longitude": "-90.092748312479",
    "latitude": "29.978539199059547",
    "geocoded_column": {
      "latitude": "29.978539199059547",
      "longitude": "-90.092748312479"
    }
  },
  {
    "service_request": "2023-994844",
    "request_type": "Trash/Recycling",
    "request_reason": "Order Trash Cart",
    "date_created": "2023-04-27T13:39:48.000",
    "date_modified": "2023-04-27T13:39:49.000",
    "request_status": "Pending",
    "responsible_agency": "Department of Sanitation",
    "final_address": "4008 General Ogden St",
    "address_councildis": "A",
    "status": "Assigned to Contractor",
    "contractor": "Richards Disposal",
    "rowid": "994844",
    "final_x": "3666598.48781",
    "final_y": "537715.408264",
    "longitude": "-90.11491608811066",
    "latitude": "29.972975041968578",
    "geocoded_column": {
      "latitude": "29.972975041968578",
      "longitude": "-90.11491608811066"
    }
  },
  {
    "service_request": "2023-994843",
    "request_type": "Trash/Recycling",
    "request_reason": "MIssed Recycling Pick-Up",
    "date_created": "2023-04-27T13:38:45.000",
    "date_modified": "2023-04-27T13:38:46.000",
    "request_status": "Pending",
    "responsible_agency": "Department of Sanitation",
    "final_address": "1234 Henry Clay Ave",
    "address_councildis": "A",
    "status": "Assigned to Contractor",
    "contractor": "Richards Disposal",
    "rowid": "994843",
    "final_x": "3664327.06445",
    "final_y": "521120.367609",
    "longitude": "-90.12264347982506",
    "latitude": "29.92741025864685",
    "geocoded_column": {
      "latitude": "29.92741025864685",
      "longitude": "-90.12264347982506"
    }
  },
  {
    "service_request": "2023-994842",
    "request_type": "Abandoned Vehicles",
    "request_reason": "Abandoned/Junk Vehicles",
    "date_created": "2023-04-27T13:37:10.000",
    "date_modified": "2023-04-27T13:37:10.000",
    "request_status": "Pending",
    "responsible_agency": "Department of Public Works",
    "final_address": "2800 BLK Saint Thomas St",
    "address_councildis": "B",
    "status": "Pending",
    "rowid": "994842",
    "final_x": "3677815.18502",
    "final_y": "519207.215638",
    "longitude": "-90.08013086802488",
    "latitude": "29.921750951065523",
    "geocoded_column": {
      "latitude": "29.921750951065523",
      "longitude": "-90.08013086802488"
    }
  },
  {
    "service_request": "2023-994841",
    "request_type": "Trash/Recycling",
    "request_reason": "Return Trash Cart",
    "date_created": "2023-04-27T13:35:54.000",
    "date_modified": "2023-04-27T13:35:55.000",
    "request_status": "Pending",
    "responsible_agency": "Department of Sanitation",
    "final_address": "2229 Valence St",
    "address_councildis": "B",
    "status": "Assigned to Contractor",
    "contractor": "Richards Disposal",
    "rowid": "994841",
    "final_x": "3669595.98734",
    "final_y": "523147.127163",
    "longitude": "-90.10594221855766",
    "latitude": "29.932829069973195",
    "geocoded_column": {
      "latitude": "29.932829069973195",
      "longitude": "-90.10594221855766"
    }
  },
  {
    "service_request": "2023-994840",
    "request_type": "Trash/Recycling",
    "request_reason": "Repair Trash Cart",
    "date_created": "2023-04-27T13:34:15.000",
    "date_modified": "2023-04-27T13:34:16.000",
    "request_status": "Pending",
    "responsible_agency": "Department of Sanitation",
    "final_address": "2229 Valence St",
    "address_councildis": "B",
    "status": "Assigned to Contractor",
    "contractor": "Richards Disposal",
    "rowid": "994840",
    "final_x": "3669595.98734",
    "final_y": "523147.127163",
    "longitude": "-90.10594221855766",
    "latitude": "29.932829069973195",
    "geocoded_column": {
      "latitude": "29.932829069973195",
      "longitude": "-90.10594221855766"
    }
  },
  {
    "service_request": "2023-994839",
    "request_type": "Traffic Signals/Signs/Striping/Streetlights",
    "request_reason": "Street Light Outage/Malfunction",
    "date_created": "2023-04-27T13:32:53.000",
    "date_modified": "2023-04-27T13:32:54.000",
    "request_status": "Pending",
    "responsible_agency": "Department of Public Works",
    "final_address": "6335 Wales St",
    "address_councildis": "E",
    "status": "Assigned to Contractor",
    "contractor": "Legacy Professional Services",
    "rowid": "994839",
    "final_x": "3696341.71344",
    "final_y": "559924.159453",
    "longitude": "-90.02017792242059",
    "latitude": "30.03313771129868",
    "geocoded_column": {
      "latitude": "30.03313771129868",
      "longitude": "-90.02017792242059"
    }
  },
  {
    "service_request": "2023-994838",
    "request_type": "Trash/Recycling",
    "request_reason": "MIssed Recycling Pick-Up",
    "date_created": "2023-04-27T13:30:39.000",
    "date_modified": "2023-04-27T13:30:40.000",
    "request_status": "Pending",
    "responsible_agency": "Department of Sanitation",
    "final_address": "4021 Dryades St",
    "address_councildis": "B",
    "status": "Assigned to Contractor",
    "contractor": "Richards Disposal",
    "rowid": "994838",
    "final_x": "3672015.05998",
    "final_y": "522122.440058",
    "longitude": "-90.09834024183361",
    "latitude": "29.929940038306103",
    "geocoded_column": {
      "latitude": "29.929940038306103",
      "longitude": "-90.09834024183361"
    }
  },