[
  {
    "service_request": "2022-898563",
    "request_type": "Traffic Signals/Signs/Striping/Streetlights",
    "request_reason": "Street Light Outage/Malfunction",
    "date_created": "2022-07-11T00:40:04.000",
    "date_modified": "2022-07-11T00:40:05.000",
    "request_status": "Pending",
    "responsible_agency": "Department of Public Works",
    "final_address": "3501 White Oak Ave",
    "address_councildis": "C",
    "status": "Pending",
    "contractor": "Royal Engineering",
    "rowid": "898563",
    "final_x": "3703122.45732",
    "final_y": "514421.443699",
    "longitude": "-90.00042294326816",
    "latitude": "29.907806393443558",
    "geocoded_column": {
      "latitude": "29.907806393443558",
      "longitude": "-90.00042294326816"
    }
  },
  {
    "service_request": "2022-898562",
    "request_type": "Traffic Signals/Signs/Striping/Streetlights",
    "request_reason": "Street Light Outage/Malfunction",
    "date_created": "2022-07-11T00:35:30.000",
    "date_modified": "2022-07-11T00:35:30.000",
    "request_status": "Pending",
    "responsible_agency": "Department of Public Works",
    "final_address": "3501 Red Oak Ct",
    "address_councildis": "C",
    "status": "Pending",
    "contractor": "Royal Engineering",
    "rowid": "898562",
    "final_x": "3703563.20369",
    "final_y": "513700.85093",
    "longitude": "-89.9990583831085",
    "latitude": "29.90581090359385",
    "geocoded_column": {
      "latitude": "29.90581090359385",
      "longitude": "-89.9990583831085"
    }
  },
  {
    "service_request": "2022-898560",
    "request_type": "Trash/Recycling",
    "request_reason": "Order Recycling Cart",
    "date_created": "2022-07-10T21:59:28.000",
    "date_modified": "2022-07-10T21:59:28.000",
    "request_status": "Pending",
    "responsible_agency": "Department of Sanitation",
    "final_address": "2016 Cambronne St",
    "address_councildis": "A",
    "status": "Pending",
    "rowid": "898560",
    "final_x": "3663133.94887",
    "final_y": "531316.010498",
    "longitude": "-90.12607076276406",
    "latitude": "29.95547963583239",
    "geocoded_column": {
      "latitude": "29.95547963583239",
      "longitude": "-90.12607076276406"
    }
  },
  {
    "service_request": "2022-898559",
    "request_type": "Mosquito, Termite & Rodent Control",
    "request_reason": "Mosquito Complaint",
    "date_created": "2022-07-10T21:38:37.000",
    "date_modified": "2022-07-10T21:38:37.000",
    "request_status": "Pending",
    "responsible_agency": "Mosquito, Termite & Rodent Control Board",
    "final_address": "1607 Feliciana St",
    "address_councildis": "D",
    "status": "Pending",
    "rowid": "898559",
    "final_x": "3689268.50838",
    "final_y": "538050.192457",
    "longitude": "-90.04330809898335",
    "latitude": "29.973213275898882",
    "geocoded_column": {
      "latitude": "29.973213275898882",
      "longitude": "-90.04330809898335"
    }
  },
  {
    "service_request": "2022-898558",
    "request_type": "Traffic Signals/Signs/Striping/Streetlights",
    "request_reason": "Street Name Sign Damaged or Missing",
    "date_created": "2022-07-10T21:24:54.000",
    "date_modified": "2022-07-10T21:24:54.000",
    "request_status": "Pending",
    "responsible_agency": "Department of Public Works",
    "final_address": "11100 S Parkwood Ct",
    "address_councildis": "E",
    "status": "Pending",
    "rowid": "898558",
    "final_x": "3716332.17989",
    "final_y": "558631.516892",
    "longitude": "-89.95705588310013",
    "latitude": "30.028938386728633",
    "geocoded_column": {
      "latitude": "30.028938386728633",
      "longitude": "-89.95705588310013"
    }
  },
  {
    "service_request": "2022-898555",
    "request_type": "Traffic Signals/Signs/Striping/Streetlights",
    "request_reason": "Traffic Sign Missing/Damaged",
    "date_created": "2022-07-10T20:47:58.000",
    "date_modified": "2022-07-10T20:47:58.000",
    "request_status": "Pending",
    "responsible_agency": "Department of Public Works",
    "final_address": "1925 St Bernard Ave",
    "address_councildis": "D",
    "status": "Pending",
    "rowid": "898555",
    "final_x": "3681598.37679",
    "final_y": "539104.488586",
    "longitude": "-90.06749511193281",
    "latitude": "29.976347435942994",
    "geocoded_column": {
      "latitude": "29.976347435942994",
      "longitude": "-90.06749511193281"
    }
  },
  {
    "service_request": "2022-898554",
    "request_type": "Property Maintenance",
    "request_reason": "Property Maintenance",
    "date_created": "2022-07-10T20:47:08.000",
    "date_modified": "2022-07-10T20:47:08.000",
    "request_status": "Pending",
    "responsible_agency": "Department of Code Enforcement",
    "final_address": "2800 BLK Lafitte Ave",
    "address_councildis": "A",
    "status": "Pending",
    "rowid": "898554",
    "final_x": "3675718.098",
    "final_y": "536838.419549",
    "longitude": "-90.08614471456204",
    "latitude": "29.97029382916608",
    "geocoded_column": {
      "latitude": "29.97029382916608",
      "longitude": "-90.08614471456204"
    }
  },
  {
    "service_request": "2022-898553",
    "request_type": "Roads/Drainage",
    "request_reason": "Catch Basin - Clogged",
    "date_created": "2022-07-10T20:45:00.000",
    "date_modified": "2022-07-10T20:45:00.000",
    "request_status": "Pending",
    "responsible_agency": "Department of Public Works",
    "final_address": "2424 Calhoun St",
    "address_councildis": "A",
    "status": "Pending",
    "rowid": "898553",
    "final_x": "3666075.44135",
    "final_y": "525917.771965",
    "longitude": "-90.11696350296958",
    "latitude": "29.94055068194443",
    "geocoded_column": {
      "latitude": "29.94055068194443",
      "longitude": "-90.11696350296958"
    }
  },
  {
    "service_request": "2022-898552",
    "request_type": "Trash/Recycling",
    "request_reason": "Request a Large Item Pick Up",
    "date_created": "2022-07-10T20:34:29.000",
    "date_modified": "2022-07-10T20:34:30.000",
    "request_status": "Pending",
    "responsible_agency": "Department of Sanitation",
    "final_address": "4508 Jeanne Marie Pl",
    "address_councildis": "D",
    "status": "Assigned to Contractor",
    "contractor": "Metro Disposal",
    "rowid": "898552",
    "final_x": "3678416.06197",
    "final_y": "549126.097043",
    "longitude": "-90.07719883961582",
    "latitude": "30.0039996306993",
    "geocoded_column": {
      "latitude": "30.0039996306993",
      "longitude": "-90.07719883961582"
    }
  },
  {
    "service_request": "2022-898551",
    "request_type": "Property Maintenance",
    "request_reason": "Property Maintenance",
    "date_created": "2022-07-10T20:26:14.000",
    "date_modified": "2022-07-10T20:26:14.000",
    "request_status": "Pending",
    "responsible_agency": "Department of Code Enforcement",
    "final_address": "7849 Read Blvd Apt 12",
    "address_councildis": "E",
    "status": "Pending",
    "rowid": "898551",
    "final_x": "3708429.38795",
    "final_y": "565267.44797",
    "longitude": "-89.98178086429685",
    "latitude": "30.047443191521047",
    "geocoded_column": {
      "latitude": "30.047443191521047",
      "longitude": "-89.98178086429685"
    }
  },
  {
    "service_request": "2022-898550",
    "request_type": "Trash/Recycling",
    "request_reason": "Missed Trash Pick-Up",
    "date_created": "2022-07-10T20:13:05.000",
    "date_modified": "2022-07-10T20:13:06.000",
    "request_status": "Pending",
    "responsible_agency": "Department of Sanitation",
    "final_address": "2008 St Andrew St",
    "address_councildis": "B",
    "status": "Assigned to Contractor",
    "contractor": "Richards Disposal",
    "rowid": "898550",
    "final_x": "3677142.01186",
    "final_y": "525474.991165",
    "longitude": "-90.08203973420315",
    "latitude": "29.93900551703923",
    "geocoded_column": {
      "latitude": "29.93900551703923",
      "longitude": "-90.08203973420315"
    }
  },
  {
    "service_request": "2022-898549",
    "request_type": "Trash/Recycling",
    "request_reason": "Order Trash Cart",
    "date_created": "2022-07-10T19:54:24.000",
    "date_modified": "2022-07-10T19:54:25.000",
    "request_status": "Pending",
    "responsible_agency": "Department of Sanitation",
    "final_address": "2500 Cleveland Ave",
    "address_councildis": "B",
    "status": "Assigned to Contractor",
    "contractor": "Richards Disposal",
    "rowid": "898549",
    "final_x": "3675803.45973",
    "final_y": "534134.090885",
    "longitude": "-90.0859681055459",
    "latitude": "29.96285528611645",
    "geocoded_column": {
      "latitude": "29.96285528611645",
      "longitude": "-90.0859681055459"
    }
  },
  {
    "service_request": "2022-898547",
    "request_type": "Roads/Drainage",
    "request_reason": "Catch Basin - Clogged",
    "date_created": "2022-07-10T19:39:38.000",
    "date_modified": "2022-07-10T19:39:38.000",
    "request_status": "Pending",
    "responsible_agency": "Department of Public Works",
    "final_address": "4825 Magazine St",
    "address_councildis": "B",
    "status": "Pending",
    "rowid": "898547",
    "final_x": "3669367.14919",
    "final_y": "518665.927927",
    "longitude": "-90.10681607376455",
    "latitude": "29.92051393702706",
    "geocoded_column": {
      "latitude": "29.92051393702706",
      "longitude": "-90.10681607376455"
    }
  },
  {
    "service_request": "2022-898546",
    "request_type": "Trash/Recycling",
    "request_reason": "Missed Trash Pick-Up",
    "date_created": "2022-07-10T19:24:45.000",
    "date_modified": "2022-07-10T19:24:46.000",
    "request_status": "Pending",
    "responsible_agency": "Department of Sanitation",
    "final_address": "8228 Pritchard Pl",
    "address_councildis": "A",
    "status": "Assigned to Contractor",
    "contractor": "Richards Disposal",
    "rowid": "898546",
    "final_x": "3665582.81581",
    "final_y": "533267.60186",
    "longitude": "-90.11827274573828",
    "latitude": "29.960774701479707",
    "geocoded_column": {
      "latitude": "29.960774701479707",
      "longitude": "-90.11827274573828"
    }
  },
  {
    "service_request": "2022-898545",
    "request_type": "Trash/Recycling",
    "request_reason": "Missed Trash Pick-Up",
    "date_created": "2022-07-10T18:30:47.000",
    "date_modified": "2022-07-10T18:30:47.000",
    "request_status": "Pending",
    "responsible_agency": "Department of Sanitation",
    "final_address": "3325 Nashville Ave",
    "address_councildis": "A",
    "status": "Assigned to Contractor",
    "contractor": "Richards Disposal",
    "rowid": "898545",
    "final_x": "3668072.35354",
    "final_y": "527917.583871",
    "longitude": "-90.1105915217633",
    "latitude": "29.945991078591565",
    "geocoded_column": {
      "latitude": "29.945991078591565",
      "longitude": "-90.1105915217633"
    }
  },
  {
    "service_request": "2022-898544",
    "request_type": "Trash/Recycling",
    "request_reason": "Illegal Dumping",
    "date_created": "2022-07-10T18:29:29.000",
    "date_modified": "2022-07-10T18:29:29.000",
    "request_status": "Pending",
    "responsible_agency": "Department of Sanitation",
    "final_address": "3017 N Claiborne Ave",
    "address_councildis": "D",
    "status": "Pending",
    "rowid": "898544",
    "final_x": "3689054.38671",
    "final_y": "538039.461577",
    "longitude": "-90.04398471747783",
    "latitude": "29.973190396482106",
    "geocoded_column": {
      "latitude": "29.973190396482106",
      "longitude": "-90.04398471747783"
    }
  },
  {
    "service_request": "2022-898542",
    "request_type": "Trash/Recycling",
    "request_reason": "Request a Large Item Pick Up",
    "date_created": "2022-07-10T18:26:16.000",
    "date_modified": "2022-07-10T18:26:17.000",
    "request_status": "Pending",
    "responsible_agency": "Department of Sanitation",
    "final_address": "4705 Baudin St",
    "address_councildis": "A",
    "status": "Assigned to Contractor",
    "contractor": "Richards Disposal",
    "rowid": "898542",
    "final_x": "3668118.31962",
    "final_y": "538641.267081",
    "longitude": "-90.11008493415986",
    "latitude": "29.97547631850757",
    "geocoded_column": {
      "latitude": "29.97547631850757",
      "longitude": "-90.11008493415986"
    }
  },
  {
    "service_request": "2022-898540",
    "request_type": "Trash/Recycling",
    "request_reason": "Repair Trash Cart",
    "date_created": "2022-07-10T18:13:43.000",
    "date_modified": "2022-07-10T18:13:43.000",
    "request_status": "Pending",
    "responsible_agency": "Department of Sanitation",
    "final_address": "6065 Louis Xiv St",
    "address_councildis": "A",
    "status": "Assigned to Contractor",
    "contractor": "Metro Disposal",
    "rowid": "898540",
    "final_x": "3668218.98465",
    "final_y": "547806.221074",
    "longitude": "-90.10945783835763",
    "latitude": "30.000673860510908",
    "geocoded_column": {
      "latitude": "30.000673860510908",
      "longitude": "-90.10945783835763"
    }
  },
  {
    "service_request": "2022-898539",
    "request_type": "Trash/Recycling",
    "request_reason": "Missed Trash Pick-Up",
    "date_created": "2022-07-10T18:09:09.000",
    "date_modified": "2022-07-10T18:09:09.000",
    "request_status": "Pending",
    "responsible_agency": "Department of Sanitation",
    "final_address": "2200 Palmer Ave",
    "address_councildis": "A",
    "status": "Assigned to Contractor",
    "contractor": "Richards Disposal",
    "rowid": "898539",
    "final_x": "3666017.31424",
    "final_y": "525015.072573",
    "longitude": "-90.11717726936953",
    "latitude": "29.93807024429685",
    "geocoded_column": {
      "latitude": "29.93807024429685",
      "longitude": "-90.11717726936953"
    }
  },
  {
    "service_request": "2022-898538",
    "request_type": "Abandoned Vehicles",
    "request_reason": "Abandoned/Junk Vehicles",
    "date_created": "2022-07-10T18:07:15.000",
    "date_modified": "2022-07-10T18:07:15.000",
    "request_status": "Pending",
    "responsible_agency": "Department of Public Works",
    "final_address": "2121 Spain St",
    "address_councildis": "D",
    "status": "Pending",
    "rowid": "898538",
    "final_x": "3685857.52828",
    "final_y": "540269.602315",
    "longitude": "-90.0540023772111",
    "latitude": "29.97942102531175",
    "geocoded_column": {
      "latitude": "29.97942102531175",
      "longitude": "-90.0540023772111"
    }
  },
  {
    "service_request": "2022-898537",
    "request_type": "Property Maintenance",
    "request_reason": "Property Maintenance",
    "date_created": "2022-07-10T17:55:28.000",
    "date_modified": "2022-07-10T17:55:28.000",
    "request_status": "Pending",
    "responsible_agency": "Department of Code Enforcement",
    "final_address": "4154 Toulouse St",
    "address_councildis": "A",
    "status": "Pending",
    "rowid": "898537",
    "final_x": "3671814.15009",
    "final_y": "540000.079819",
    "longitude": "-90.09836621645715",
    "latitude": "29.97910358661188",
    "geocoded_column": {
      "latitude": "29.97910358661188",
      "longitude": "-90.09836621645715"
    }
  },
  {
    "service_request": "2022-898536",
    "request_type": "Property Maintenance",
    "request_reason": "Property Maintenance",
    "date_created": "2022-07-10T17:52:16.000",
    "date_modified": "2022-07-10T17:52:16.000",
    "request_status": "Pending",
    "responsible_agency": "Department of Code Enforcement",
    "final_address": "4154 Toulouse St",
    "address_councildis": "A",
    "status": "Pending",
    "rowid": "898536",
    "final_x": "3671814.15009",
    "final_y": "540000.079819",
    "longitude": "-90.09836621645715",
    "latitude": "29.97910358661188",
    "geocoded_column": {
      "latitude": "29.97910358661188",
      "longitude": "-90.09836621645715"
    }
  },
  {
    "service_request": "2022-898535",
    "request_type": "Abandoned Vehicles",
    "request_reason": "Abandoned/Junk Vehicles",
    "date_created": "2022-07-10T17:44:10.000",
    "date_modified": "2022-07-10T17:44:10.000",
    "request_status": "Pending",
    "responsible_agency": "Department of Public Works",
    "final_address": "2613 Chippewa St",
    "address_councildis": "B",
    "status": "Pending",
    "rowid": "898535",
    "final_x": "3678267.31016",
    "final_y": "519889.789496",
    "longitude": "-90.07868010980728",
    "latitude": "29.92361420328351",
    "geocoded_column": {
      "latitude": "29.92361420328351",
      "longitude": "-90.07868010980728"
    }
  },
  {
    "service_request": "2022-898534",
    "request_type": "Trash/Recycling",
    "request_reason": "Replace Trash Cart",
    "date_created": "2022-07-10T17:38:33.000",
    "date_modified": "2022-07-10T17:38:34.000",
    "request_status": "Pending",
    "responsible_agency": "Department of Sanitation",
    "final_address": "7328 Nelson St",
    "address_councildis": "A",
    "status": "Assigned to Contractor",
    "contractor": "Richards Disposal",
    "rowid": "898534",
    "final_x": "3666305.75975",
    "final_y": "530662.10925",
    "longitude": "-90.1160772240571",
    "latitude": "29.953589350262273",
    "geocoded_column": {
      "latitude": "29.953589350262273",
      "longitude": "-90.1160772240571"
    }
  },
  {
    "service_request": "2022-898532",
    "request_type": "Trash/Recycling",
    "request_reason": "Order Recycling Cart",
    "date_created": "2022-07-10T17:15:42.000",
    "date_modified": "2022-07-10T17:15:42.000",
    "request_status": "Pending",
    "responsible_agency": "Department of Sanitation",
    "final_address": "2932 Ursulines Ave",
    "address_councildis": "A",
    "status": "Pending",
    "rowid": "898532",
    "final_x": "3676566.37665",
    "final_y": "538877.741705",
    "longitude": "-90.08339550168891",
    "latitude": "29.97587585289125",
    "geocoded_column": {
      "latitude": "29.97587585289125",
      "longitude": "-90.08339550168891"
    }
  },
  {
    "service_request": "2022-898531",
    "request_type": "Property Maintenance",
    "request_reason": "Property Maintenance",
    "date_created": "2022-07-10T16:59:33.000",
    "date_modified": "2022-07-10T16:59:33.000",
    "request_status": "Pending",
    "responsible_agency": "Department of Code Enforcement",
    "final_address": "4730 Freret St",
    "address_councildis": "B",
    "status": "Pending",
    "rowid": "898531",
    "final_x": "3669235.8617",
    "final_y": "523857.789691",
    "longitude": "-90.10705510078016",
    "latitude": "29.934793766018775",
    "geocoded_column": {
      "latitude": "29.934793766018775",
      "longitude": "-90.10705510078016"
    }
  },
  {
    "service_request": "2022-898530",
    "request_type": "Traffic Signals/Signs/Striping/Streetlights",
    "request_reason": "Street Light Outage/Malfunction",
    "date_created": "2022-07-10T16:50:56.000",
    "date_modified": "2022-07-10T16:50:57.000",
    "request_status": "Pending",
    "responsible_agency": "Department of Public Works",
    "final_address": "7514 Dominique Pl",
    "address_councildis": "E",
    "status": "Pending",
    "contractor": "Royal Engineering",
    "rowid": "898530",
    "final_x": "3725483.30867",
    "final_y": "569860.015142",
    "longitude": "-89.92770380272081",
    "latitude": "30.059506695009446",
    "geocoded_column": {
      "latitude": "30.059506695009446",
      "longitude": "-89.92770380272081"
    }
  },
  {
    "service_request": "2022-898529",
    "request_type": "Abandoned Vehicles",
    "request_reason": "Abandoned/Junk Vehicles",
    "date_created": "2022-07-10T16:50:40.000",
    "date_modified": "2022-07-10T16:50:40.000",
    "request_status": "Pending",
    "responsible_agency": "Department of Public Works",
    "final_address": "7819 Green St",
    "address_councildis": "A",
    "status": "Pending",
    "rowid": "898529",
    "final_x": "3663886.91123",
    "final_y": "529049.866304",
    "longitude": "-90.12376870461965",
    "latitude": "29.94922663705527",
    "geocoded_column": {
      "latitude": "29.94922663705527",
      "longitude": "-90.12376870461965"
    }
  },
  {
    "service_request": "2022-898528",
    "request_type": "Trash/Recycling",
    "request_reason": "Request a Large Item Pick Up",
    "date_created": "2022-07-10T16:19:05.000",
    "date_modified": "2022-07-10T16:20:30.000",
    "request_status": "Pending",
    "responsible_agency": "Department of Sanitation",
    "final_address": "1531 N Miro St",
    "address_councildis": "D",
    "status": "Assigned to Contractor",
    "contractor": "Metro Disposal",
    "rowid": "898528",
    "final_x": "3680131.15573",
    "final_y": "538735.490825",
    "longitude": "-90.07214186189915",
    "latitude": "29.975377306635007",
    "geocoded_column": {
      "latitude": "29.975377306635007",
      "longitude": "-90.07214186189915"
    }
  },
  {
    "service_request": "2022-898526",
    "request_type": "Mosquito, Termite & Rodent Control",
    "request_reason": "Mosquito Complaint",
    "date_created": "2022-07-10T16:06:03.000",
    "date_modified": "2022-07-10T16:06:03.000",
    "request_status": "Pending",
    "responsible_agency": "Mosquito, Termite & Rodent Control Board",
    "final_address": "2133 St Charles Ave",
    "address_councildis": "B",
    "status": "Pending",
    "rowid": "898526",
    "final_x": "3677662.45538",
    "final_y": "523831.048379",
    "longitude": "-90.08045338132254",
    "latitude": "29.934469577229795",
    "geocoded_column": {
      "latitude": "29.934469577229795",
      "longitude": "-90.08045338132254"
    }
  },
  {
    "service_request": "2022-898525",
    "request_type": "Mosquito, Termite & Rodent Control",
    "request_reason": "Mosquito Complaint",
    "date_created": "2022-07-10T16:04:52.000",
    "date_modified": "2022-07-10T16:04:52.000",
    "request_status": "Pending",
    "responsible_agency": "Mosquito, Termite & Rodent Control Board",
    "final_address": "2233 St Charles Ave",
    "address_councildis": "B",
    "status": "Pending",
    "rowid": "898525",
    "final_x": "3677334.61602",
    "final_y": "523583.641595",
    "longitude": "-90.08149689557798",
    "latitude": "29.933799142159096",
    "geocoded_column": {
      "latitude": "29.933799142159096",
      "longitude": "-90.08149689557798"
    }
  },
  {
    "service_request": "2022-898524",
    "request_type": "Trash/Recycling",
    "request_reason": "Illegal Dumping",
    "date_created": "2022-07-10T15:57:15.000",
    "date_modified": "2022-07-10T15:57:15.000",
    "request_status": "Pending",
    "responsible_agency": "Department of Sanitation",
    "final_address": "129 N Miro St",
    "address_councildis": "B",
    "status": "Pending",
    "rowid": "898524",
    "final_x": "3676849.36219",
    "final_y": "534348.493957",
    "longitude": "-90.082657886256",
    "latitude": "29.96341347373488",
    "geocoded_column": {
      "latitude": "29.96341347373488",
      "longitude": "-90.082657886256"
    }
  },
  {
    "service_request": "2022-898523",
    "request_type": "Trash/Recycling",
    "request_reason": "Illegal Dumping",
    "date_created": "2022-07-10T15:55:31.000",
    "date_modified": "2022-07-10T15:55:31.000",
    "request_status": "Pending",
    "responsible_agency": "Department of Sanitation",
    "final_address": "116 N Miro St",
    "address_councildis": "B",
    "status": "Pending",
    "rowid": "898523",
    "final_x": "3676870.81819",
    "final_y": "534221.677573",
    "longitude": "-90.08259450185498",
    "latitude": "29.963064127609247",
    "geocoded_column": {
      "latitude": "29.963064127609247",
      "longitude": "-90.08259450185498"
    }
  },
  {
    "service_request": "2022-898522",
    "request_type": "Trash/Recycling",
    "request_reason": "Illegal Dumping",
    "date_created": "2022-07-10T15:53:23.000",
    "date_modified": "2022-07-10T15:53:23.000",
    "request_status": "Pending",
    "responsible_agency": "Department of Sanitation",
    "final_address": "2220 Iberville St",
    "address_councildis": "B",
    "status": "Pending",
    "rowid": "898522",
    "final_x": "3677056.72565",
    "final_y": "534295.872901",
    "longitude": "-90.08200486943744",
    "latitude": "29.96326255855136",
    "geocoded_column": {
      "latitude": "29.96326255855136",
      "longitude": "-90.08200486943744"
    }
  },
  {
    "service_request": "2022-898521",
    "request_type": "Trash/Recycling",
    "request_reason": "Illegal Dumping",
    "date_created": "2022-07-10T15:51:59.000",
    "date_modified": "2022-07-10T15:51:59.000",
    "request_status": "Pending",
    "responsible_agency": "Department of Sanitation",
    "final_address": "4037 Banks St",
    "address_councildis": "A",
    "status": "Pending",
    "rowid": "898521",
    "final_x": "3670538.96327",
    "final_y": "537335.927176",
    "longitude": "-90.10248414740127",
    "latitude": "29.971815795895292",
    "geocoded_column": {
      "latitude": "29.971815795895292",
      "longitude": "-90.10248414740127"
    }
  },
  {
    "service_request": "2022-898520",
    "request_type": "Roads/Drainage",
    "request_reason": "Catch Basin - Broken/Damage",
    "date_created": "2022-07-10T15:51:16.000",
    "date_modified": "2022-07-10T15:51:16.000",
    "request_status": "Pending",
    "responsible_agency": "Department of Public Works",
    "final_address": "5 Michoud Blvd",
    "address_councildis": "E",
    "status": "Pending",
    "rowid": "898520",
    "final_x": "3726293.30541",
    "final_y": "571675.542632",
    "longitude": "-89.92507296473472",
    "latitude": "30.064471279122",
    "geocoded_column": {
      "latitude": "30.064471279122",
      "longitude": "-89.92507296473472"
    }
  },
  {
    "service_request": "2022-898519",
    "request_type": "Trash/Recycling",
    "request_reason": "Missed Trash Pick-Up",
    "date_created": "2022-07-10T15:49:22.000",
    "date_modified": "2022-07-10T15:49:23.000",
    "request_status": "Pending",
    "responsible_agency": "Department of Sanitation",
    "final_address": "911 Joliet St",
    "address_councildis": "A",
    "status": "Assigned to Contractor",
    "contractor": "Richards Disposal",
    "rowid": "898519",
    "final_x": "3660297.26125",
    "final_y": "528608.501952",
    "longitude": "-90.13511745080395",
    "latitude": "29.94811673058677",
    "geocoded_column": {
      "latitude": "29.94811673058677",
      "longitude": "-90.13511745080395"
    }
  },
  {
    "service_request": "2022-898518",
    "request_type": "Trash/Recycling",
    "request_reason": "Request a Large Item Pick Up",
    "date_created": "2022-07-10T15:43:33.000",
    "date_modified": "2022-07-10T15:43:34.000",
    "request_status": "Pending",
    "responsible_agency": "Department of Sanitation",
    "final_address": "3011 Banks St",
    "address_councildis": "B",
    "status": "Assigned to Contractor",
    "contractor": "Richards Disposal",
    "rowid": "898518",
    "final_x": "3673570.03105",
    "final_y": "535018.804998",
    "longitude": "-90.09299075878157",
    "latitude": "29.96535461676896",
    "geocoded_column": {
      "latitude": "29.96535461676896",
      "longitude": "-90.09299075878157"
    }
  },
  {
    "service_request": "2022-898517",
    "request_type": "Trash/Recycling",
    "request_reason": "Request a Large Item Pick Up",
    "date_created": "2022-07-10T15:42:03.000",
    "date_modified": "2022-07-10T15:42:04.000",
    "request_status": "Pending",
    "responsible_agency": "Department of Sanitation",
    "final_address": "311 S Pierce St, New Orleans, Louisiana, 70119",
    "address_councildis": "A",
    "status": "Assigned to Contractor",
    "contractor": "Richards Disposal",
    "rowid": "898517",
    "final_x": "3670896.17735",
    "final_y": "537352.591112",
    "longitude": "-90.10135544083474",
    "latitude": "29.97185106040841",
    "geocoded_column": {
      "latitude": "29.97185106040841",
      "longitude": "-90.10135544083474"
    }
  },
  {
    "service_request": "2022-898516",
    "request_type": "Traffic Signals/Signs/Striping/Streetlights",
    "request_reason": "Street Light Outage/Malfunction",
    "date_created": "2022-07-10T15:16:30.000",
    "date_modified": "2022-07-10T15:16:31.000",
    "request_status": "Pending",
    "responsible_agency": "Department of Public Works",
    "final_address": "77 Yosemite Dr",
    "address_councildis": "C",
    "status": "Pending",
    "contractor": "Royal Engineering",
    "rowid": "898516",
    "final_x": "3699405.07428",
    "final_y": "516182.253428",
    "longitude": "-90.01209133980548",
    "latitude": "29.912766405520955",
    "geocoded_column": {
      "latitude": "29.912766405520955",
      "longitude": "-90.01209133980548"
    }
  },
  {
    "service_request": "2022-898515",
    "request_type": "Roads/Drainage",
    "request_reason": "Catch Basin - Clogged",
    "date_created": "2022-07-10T15:11:54.000",
    "date_modified": "2022-07-10T15:11:54.000",
    "request_status": "Pending",
    "responsible_agency": "Department of Public Works",
    "final_address": "1829 Joseph St",
    "address_councildis": "A",
    "status": "Pending",
    "rowid": "898515",
    "final_x": "3667067.73159",
    "final_y": "523008.337659",
    "longitude": "-90.11392841859323",
    "latitude": "29.932521667469846",
    "geocoded_column": {
      "latitude": "29.932521667469846",
      "longitude": "-90.11392841859323"
    }
  },
  {
    "service_request": "2022-898514",
    "request_type": "Traffic Signals/Signs/Striping/Streetlights",
    "request_reason": "Street Light Knocked Down/Leaning",
    "date_created": "2022-07-10T15:01:45.000",
    "date_modified": "2022-07-10T15:01:46.000",
    "request_status": "Pending",
    "responsible_agency": "Department of Public Works",
    "final_address": "2 Versailles Blvd",
    "address_councildis": "A",
    "status": "Pending",
    "contractor": "Royal Engineering",
    "rowid": "898514",
    "final_x": "3666839.58125",
    "final_y": "528811.059392",
    "longitude": "-90.11445380807919",
    "latitude": "29.948483961417054",
    "geocoded_column": {
      "latitude": "29.948483961417054",
      "longitude": "-90.11445380807919"
    }
  },
  {
    "service_request": "2022-898513",
    "request_type": "Trash/Recycling",
    "request_reason": "Repair Trash Cart",
    "date_created": "2022-07-10T14:54:37.000",
    "date_modified": "2022-07-10T14:54:38.000",
    "request_status": "Pending",
    "responsible_agency": "Department of Sanitation",
    "final_address": "4206 Danneel St, New Orleans, Louisiana, 70115",
    "address_councildis": "B",
    "status": "Assigned to Contractor",
    "contractor": "Richards Disposal",
    "rowid": "898513",
    "final_x": "3671333.67041",
    "final_y": "522302.944506",
    "longitude": "-90.10048514804915",
    "latitude": "29.930456543718883",
    "geocoded_column": {
      "latitude": "29.930456543718883",
      "longitude": "-90.10048514804915"
    }
  },
  {
    "service_request": "2022-898512",
    "request_type": "Traffic Signals/Signs/Striping/Streetlights",
    "request_reason": "Traffic Signal Malfunctioning/Damaged",
    "date_created": "2022-07-10T14:37:43.000",
    "date_modified": "2022-07-10T14:37:43.000",
    "request_status": "Pending",
    "responsible_agency": "Department of Public Works",
    "status": "Pending",
    "rowid": "898512",
    "longitude": "0.0",
    "latitude": "0.0",
    "geocoded_column": {
      "latitude": "0.0",
      "longitude": "0.0"
    }
  },
  {
    "service_request": "2022-898511",
    "request_type": "Property Maintenance",
    "request_reason": "Property Maintenance",
    "date_created": "2022-07-10T14:36:14.000",
    "date_modified": "2022-07-10T14:36:16.000",
    "request_status": "Pending",
    "responsible_agency": "Department of Code Enforcement",
    "final_address": "2828 St Andrew St",
    "address_councildis": "B",
    "status": "Pending",
    "rowid": "898511",
    "final_x": "3675277.3732",
    "final_y": "527550.434815",
    "longitude": "-90.0878554038681",
    "latitude": "29.94476816296276",
    "geocoded_column": {
      "latitude": "29.94476816296276",
      "longitude": "-90.0878554038681"
    }
  },
  {
    "service_request": "2022-898510",
    "request_type": "Trash/Recycling",
    "request_reason": "MIssed Recycling Pick-Up",
    "date_created": "2022-07-10T14:18:04.000",
    "date_modified": "2022-07-10T14:18:05.000",
    "request_status": "Pending",
    "responsible_agency": "Department of Sanitation",
    "final_address": "1823 S Carrollton Ave",
    "address_councildis": "A",
    "status": "Assigned to Contractor",
    "contractor": "Richards Disposal",
    "rowid": "898510",
    "final_x": "3663648.63661",
    "final_y": "529960.723649",
    "longitude": "-90.12449070513121",
    "latitude": "29.951738114919607",
    "geocoded_column": {
      "latitude": "29.951738114919607",
      "longitude": "-90.12449070513121"
    }
  },
  {
    "service_request": "2022-898509",
    "request_type": "Trash/Recycling",
    "request_reason": "Missed Trash Pick-Up",
    "date_created": "2022-07-10T14:11:08.000",
    "date_modified": "2022-07-10T14:11:09.000",
    "request_status": "Pending",
    "responsible_agency": "Department of Sanitation",
    "final_address": "1429 Elysian Fields Ave, New Orleans, Louisiana, 70117",
    "address_councildis": "C",
    "status": "Assigned to Contractor",
    "contractor": "Metro Disposal",
    "rowid": "898509",
    "final_x": "3685005.24732",
    "final_y": "537663.329224",
    "longitude": "-90.05678592050026",
    "latitude": "29.972280823917412",
    "geocoded_column": {
      "latitude": "29.972280823917412",
      "longitude": "-90.05678592050026"
    }
  },
  {
    "service_request": "2022-898508",
    "request_type": "Trash/Recycling",
    "request_reason": "Order Recycling Cart",
    "date_created": "2022-07-10T13:51:24.000",
    "date_modified": "2022-07-10T13:51:24.000",
    "request_status": "Pending",
    "responsible_agency": "Department of Sanitation",
    "final_address": "3312 Octavia St",
    "address_councildis": "A",
    "status": "Pending",
    "rowid": "898508",
    "final_x": "3668371.43918",
    "final_y": "527841.367743",
    "longitude": "-90.10964977378092",
    "latitude": "29.945772729794232",
    "geocoded_column": {
      "latitude": "29.945772729794232",
      "longitude": "-90.10964977378092"
    }
  },
  {
    "service_request": "2022-898507",
    "request_type": "Mosquito, Termite & Rodent Control",
    "request_reason": "Mosquito Complaint",
    "date_created": "2022-07-10T13:48:04.000",
    "date_modified": "2022-07-10T13:48:04.000",
    "request_status": "Pending",
    "responsible_agency": "Mosquito, Termite & Rodent Control Board",
    "final_address": "725 Louisa St",
    "address_councildis": "C",
    "status": "Pending",
    "rowid": "898507",
    "final_x": "3689274.54684",
    "final_y": "534555.325061",
    "longitude": "-90.04341328186864",
    "latitude": "29.963603429187017",
    "geocoded_column": {
      "latitude": "29.963603429187017",
      "longitude": "-90.04341328186864"
    }
  },
  {
    "service_request": "2022-898506",
    "request_type": "Property Maintenance",
    "request_reason": "Property Maintenance",
    "date_created": "2022-07-10T13:40:04.000",
    "date_modified": "2022-07-10T13:40:04.000",
    "request_status": "Pending",
    "responsible_agency": "Department of Code Enforcement",
    "final_address": "1659 N Villere St",
    "address_councildis": "C",
    "status": "Pending",
    "rowid": "898506",
    "final_x": "3682982.85647",
    "final_y": "537308.787208",
    "longitude": "-90.06318538125174",
    "latitude": "29.971367753418424",
    "geocoded_column": {
      "latitude": "29.971367753418424",
      "longitude": "-90.06318538125174"
    }
  },
  {
    "service_request": "2022-898505",
    "request_type": "Abandoned Vehicles",
    "request_reason": "Abandoned/Junk Vehicles",
    "date_created": "2022-07-10T13:32:11.000",
    "date_modified": "2022-07-10T13:32:11.000",
    "request_status": "Pending",
    "responsible_agency": "Department of Public Works",
    "final_address": "936 Pacific Ave",
    "address_councildis": "C",
    "status": "Pending",
    "rowid": "898505",
    "final_x": "3688471.86326",
    "final_y": "528038.868479",
    "longitude": "-90.04617922780365",
    "latitude": "29.94571024142988",
    "geocoded_column": {
      "latitude": "29.94571024142988",
      "longitude": "-90.04617922780365"
    }
  },
  {
    "service_request": "2022-898504",
    "request_type": "Trash/Recycling",
    "request_reason": "Order Recycling Cart",
    "date_created": "2022-07-10T13:16:17.000",
    "date_modified": "2022-07-10T13:16:17.000",
    "request_status": "Pending",
    "responsible_agency": "Department of Sanitation",
    "final_address": "1821 Joliet St",
    "address_councildis": "A",
    "status": "Pending",
    "rowid": "898504",
    "final_x": "3662474.51245",
    "final_y": "531004.134082",
    "longitude": "-90.1281633933603",
    "latitude": "29.95464116434558",
    "geocoded_column": {
      "latitude": "29.95464116434558",
      "longitude": "-90.1281633933603"
    }
  },
  {
    "service_request": "2022-898503",
    "request_type": "Trash/Recycling",
    "request_reason": "Order Trash Cart",
    "date_created": "2022-07-10T13:15:46.000",
    "date_modified": "2022-07-10T13:15:46.000",
    "request_status": "Pending",
    "responsible_agency": "Department of Sanitation",
    "final_address": "1821 Joliet St",
    "address_councildis": "A",
    "status": "Assigned to Contractor",
    "contractor": "Richards Disposal",
    "rowid": "898503",
    "final_x": "3662474.51245",
    "final_y": "531004.134082",
    "longitude": "-90.1281633933603",
    "latitude": "29.95464116434558",
    "geocoded_column": {
      "latitude": "29.95464116434558",
      "longitude": "-90.1281633933603"
    }
  },
  {
    "service_request": "2022-898502",
    "request_type": "Roads/Drainage",
    "request_reason": "Man hole cover issue",
    "date_created": "2022-07-10T13:15:31.000",
    "date_modified": "2022-07-10T13:15:31.000",
    "request_status": "Pending",
    "responsible_agency": "Department of Public Works",
    "final_address": "CHAPELLE ST & VICKSBURG ST",
    "address_councildis": "A",
    "status": "Pending",
    "rowid": "898502",
    "final_x": "3669357.3",
    "final_y": "552637.58",
    "longitude": "-90.10569828867997",
    "latitude": "30.01392492598768",
    "geocoded_column": {
      "latitude": "30.01392492598768",
      "longitude": "-90.10569828867997"
    }
  },
  {
    "service_request": "2022-898500",
    "request_type": "Trash/Recycling",
    "request_reason": "Illegal Dumping",
    "date_created": "2022-07-10T12:56:08.000",
    "date_modified": "2022-07-10T12:56:09.000",
    "request_status": "Pending",
    "responsible_agency": "Department of Sanitation",
    "final_address": "1900 BLK Bordeaux St",
    "address_councildis": "B",
    "status": "Pending",
    "rowid": "898500",
    "final_x": "3669256.48396",
    "final_y": "521970.161228",
    "longitude": "-90.10705377205589",
    "latitude": "29.9296027854821",
    "geocoded_column": {
      "latitude": "29.9296027854821",
      "longitude": "-90.10705377205589"
    }
  },
  {
    "service_request": "2022-898499",
    "request_type": "Roads/Drainage",
    "request_reason": "Street Flooding / Drainage",
    "date_created": "2022-07-10T12:55:59.000",
    "date_modified": "2022-07-10T12:55:59.000",
    "request_status": "Pending",
    "responsible_agency": "Department of Public Works",
    "final_address": "7033 Walmsley Ave",
    "address_councildis": "B",
    "status": "Pending",
    "rowid": "898499",
    "final_x": "3667681.41569",
    "final_y": "531005.945922",
    "longitude": "-90.11172189115865",
    "latitude": "29.954494533429543",
    "geocoded_column": {
      "latitude": "29.954494533429543",
      "longitude": "-90.11172189115865"
    }
  },
  {
    "service_request": "2022-898498",
    "request_type": "Trash/Recycling",
    "request_reason": "Replace Trash Cart",
    "date_created": "2022-07-10T12:43:34.000",
    "date_modified": "2022-07-10T12:47:13.000",
    "request_status": "Pending",
    "responsible_agency": "Department of Sanitation",
    "final_address": "1127 N Derbigny St",
    "address_councildis": "D",
    "status": "Assigned to Contractor",
    "contractor": "Richards Disposal",
    "rowid": "898498",
    "final_x": "3680509.60968",
    "final_y": "536249.116551",
    "longitude": "-90.07103311050922",
    "latitude": "29.968529175182194",
    "geocoded_column": {
      "latitude": "29.968529175182194",
      "longitude": "-90.07103311050922"
    }
  },
  {
    "service_request": "2022-898497",
    "request_type": "Trash/Recycling",
    "request_reason": "Request a Large Item Pick Up",
    "date_created": "2022-07-10T12:39:20.000",
    "date_modified": "2022-07-10T12:39:21.000",
    "request_status": "Pending",
    "responsible_agency": "Department of Sanitation",
    "final_address": "148 16Th St",
    "address_councildis": "A",
    "status": "Assigned to Contractor",
    "contractor": "Metro Disposal",
    "rowid": "898497",
    "final_x": "3665747.42829",
    "final_y": "548348.467026",
    "longitude": "-90.11724750918813",
    "latitude": "30.002237205758245",
    "geocoded_column": {
      "latitude": "30.002237205758245",
      "longitude": "-90.11724750918813"
    }
  },
  {
    "service_request": "2022-898496",
    "request_type": "Parks & Parkways",
    "request_reason": "Request Tree Service (Right of Way/Public Property)",
    "date_created": "2022-07-10T12:32:07.000",
    "date_modified": "2022-07-10T12:32:07.000",
    "request_status": "Pending",
    "responsible_agency": "Department of Parks & Parkway",
    "final_address": "1515 Webster St",
    "address_councildis": "A",
    "status": "Pending",
    "rowid": "898496",
    "final_x": "3665156.93453",
    "final_y": "522053.951418",
    "longitude": "-90.11999256821501",
    "latitude": "29.9299531831054",
    "geocoded_column": {
      "latitude": "29.9299531831054",
      "longitude": "-90.11999256821501"
    }
  },
  {
    "service_request": "2022-898495",
    "request_type": "Parks & Parkways",
    "request_reason": "Request Tree Service (Right of Way/Public Property)",
    "date_created": "2022-07-10T12:28:03.000",
    "date_modified": "2022-07-10T12:28:03.000",
    "request_status": "Pending",
    "responsible_agency": "Department of Parks & Parkway",
    "final_address": "5627 Pratt Dr",
    "address_councildis": "D",
    "status": "Pending",
    "rowid": "898495",
    "final_x": "3680411.77071",
    "final_y": "553290.876311",
    "longitude": "-90.07074907017432",
    "latitude": "30.01539096577846",
    "geocoded_column": {
      "latitude": "30.01539096577846",
      "longitude": "-90.07074907017432"
    }
  },
  {
    "service_request": "2022-898494",
    "request_type": "Trash/Recycling",
    "request_reason": "Request a Large Item Pick Up",
    "date_created": "2022-07-10T12:27:13.000",
    "date_modified": "2022-07-10T12:27:14.000",
    "request_status": "Pending",
    "responsible_agency": "Department of Sanitation",
    "final_address": "8141 Apple St",
    "address_councildis": "A",
    "status": "Assigned to Contractor",
    "contractor": "Richards Disposal",
    "rowid": "898494",
    "final_x": "3665187.43764",
    "final_y": "532369.695235",
    "longitude": "-90.11955131430865",
    "latitude": "29.958317274519903",
    "geocoded_column": {
      "latitude": "29.958317274519903",
      "longitude": "-90.11955131430865"
    }
  },
  {
    "service_request": "2022-898493",
    "request_type": "Trash/Recycling",
    "request_reason": "Request a Large Item Pick Up",
    "date_created": "2022-07-10T12:25:02.000",
    "date_modified": "2022-07-10T12:25:03.000",
    "request_status": "Pending",
    "responsible_agency": "Department of Sanitation",
    "final_address": "8126 Apple St",
    "address_councildis": "A",
    "status": "Assigned to Contractor",
    "contractor": "Richards Disposal",
    "rowid": "898493",
    "final_x": "3665183.4953",
    "final_y": "532199.455235",
    "longitude": "-90.11956945759181",
    "latitude": "29.95784928496541",
    "geocoded_column": {
      "latitude": "29.95784928496541",
      "longitude": "-90.11956945759181"
    }
  },
  {
    "service_request": "2022-898491",
    "request_type": "Abandoned Vehicles",
    "request_reason": "Abandoned/Junk Vehicles",
    "date_created": "2022-07-10T12:20:58.000",
    "date_modified": "2022-07-10T12:20:58.000",
    "request_status": "Pending",
    "responsible_agency": "Department of Public Works",
    "final_address": "1711 Audubon St",
    "address_councildis": "A",
    "status": "Pending",
    "rowid": "898491",
    "final_x": "3665508.98215",
    "final_y": "527875.705279",
    "longitude": "-90.1186863893367",
    "latitude": "29.945950891728756",
    "geocoded_column": {
      "latitude": "29.945950891728756",
      "longitude": "-90.1186863893367"
    }
  },
  {
    "service_request": "2022-898490",
    "request_type": "Trash/Recycling",
    "request_reason": "Missed Trash Pick-Up",
    "date_created": "2022-07-10T12:16:32.000",
    "date_modified": "2022-07-10T12:17:31.000",
    "request_status": "Pending",
    "responsible_agency": "Department of Sanitation",
    "final_address": "4993 Wright Rd",
    "address_councildis": "E",
    "status": "Assigned to Contractor",
    "contractor": "Metro Disposal",
    "rowid": "898490",
    "final_x": "3716553.28223",
    "final_y": "558314.099548",
    "longitude": "-89.95636926903012",
    "latitude": "30.02805831202737",
    "geocoded_column": {
      "latitude": "30.02805831202737",
      "longitude": "-89.95636926903012"
    }
  },
  {
    "service_request": "2022-898489",
    "request_type": "Trash/Recycling",
    "request_reason": "Illegal Dumping",
    "date_created": "2022-07-10T12:11:15.000",
    "date_modified": "2022-07-10T12:11:15.000",
    "request_status": "Pending",
    "responsible_agency": "Department of Sanitation",
    "final_address": "3305 Pleasure St",
    "address_councildis": "D",
    "status": "Pending",
    "rowid": "898489",
    "final_x": "3692221.93449",
    "final_y": "544865.751247",
    "longitude": "-90.03373649220048",
    "latitude": "29.991861858578623",
    "geocoded_column": {
      "latitude": "29.991861858578623",
      "longitude": "-90.03373649220048"
    }
  },
  {
    "service_request": "2022-898488",
    "request_type": "Property Maintenance",
    "request_reason": "Property Maintenance",
    "date_created": "2022-07-10T11:56:33.000",
    "date_modified": "2022-07-10T11:56:33.000",
    "request_status": "Pending",
    "responsible_agency": "Department of Code Enforcement",
    "final_address": "1139 Kerlerec St",
    "address_councildis": "C",
    "status": "Pending",
    "rowid": "898488",
    "final_x": "3682866.32616",
    "final_y": "535831.512007",
    "longitude": "-90.0636050988241",
    "latitude": "29.967309308458706",
    "geocoded_column": {
      "latitude": "29.967309308458706",
      "longitude": "-90.0636050988241"
    }
  },
  {
    "service_request": "2022-898487",
    "request_type": "Mosquito, Termite & Rodent Control",
    "request_reason": "Mosquito Complaint",
    "date_created": "2022-07-10T11:40:49.000",
    "date_modified": "2022-07-10T11:40:49.000",
    "request_status": "Pending",
    "responsible_agency": "Mosquito, Termite & Rodent Control Board",
    "final_address": "5966 Colbert St",
    "address_councildis": "A",
    "status": "Pending",
    "rowid": "898487",
    "final_x": "3667346.95873",
    "final_y": "547259.000337",
    "longitude": "-90.11223106163747",
    "latitude": "29.999194774207208",
    "geocoded_column": {
      "latitude": "29.999194774207208",
      "longitude": "-90.11223106163747"
    }
  },
  {
    "service_request": "2022-898486",
    "request_type": "Trash/Recycling",
    "request_reason": "Request a Large Item Pick Up",
    "date_created": "2022-07-10T11:32:49.000",
    "date_modified": "2022-07-10T11:32:49.000",
    "request_status": "Pending",
    "responsible_agency": "Department of Sanitation",
    "final_address": "4612 Virgilian St",
    "address_councildis": "D",
    "status": "Assigned to Contractor",
    "contractor": "Metro Disposal",
    "rowid": "898486",
    "final_x": "3697465.57475",
    "final_y": "553056.592407",
    "longitude": "-90.01687576624965",
    "latitude": "30.014219055052433",
    "geocoded_column": {
      "latitude": "30.014219055052433",
      "longitude": "-90.01687576624965"
    }
  },
  {
    "service_request": "2022-898485",
    "request_type": "Abandoned Vehicles",
    "request_reason": "Abandoned/Junk Vehicles",
    "date_created": "2022-07-10T11:32:16.000",
    "date_modified": "2022-07-10T11:32:16.000",
    "request_status": "Pending",
    "responsible_agency": "Department of Public Works",
    "final_address": "335 Lowerline St",
    "address_councildis": "A",
    "status": "Pending",
    "rowid": "898485",
    "final_x": "3661564.48794",
    "final_y": "523591.679867",
    "longitude": "-90.13128245245194",
    "latitude": "29.934285564215774",
    "geocoded_column": {
      "latitude": "29.934285564215774",
      "longitude": "-90.13128245245194"
    }
  },
  {
    "service_request": "2022-898484",
    "request_type": "Trash/Recycling",
    "request_reason": "Missed Trash Pick-Up",
    "date_created": "2022-07-10T11:28:01.000",
    "date_modified": "2022-07-10T11:28:01.000",
    "request_status": "Pending",
    "responsible_agency": "Department of Sanitation",
    "final_address": "2636 Dublin St",
    "address_councildis": "A",
    "status": "Assigned to Contractor",
    "contractor": "Richards Disposal",
    "rowid": "898484",
    "final_x": "3665274.8329",
    "final_y": "532587.138628",
    "longitude": "-90.11926806749284",
    "latitude": "29.95891262689653",
    "geocoded_column": {
      "latitude": "29.95891262689653",
      "longitude": "-90.11926806749284"
    }
  },
  {
    "service_request": "2022-898483",
    "request_type": "Trash/Recycling",
    "request_reason": "Missed Trash Pick-Up",
    "date_created": "2022-07-10T11:25:38.000",
    "date_modified": "2022-07-10T11:25:38.000",
    "request_status": "Pending",
    "responsible_agency": "Department of Sanitation",
    "final_address": "6465 Oakland Dr",
    "address_councildis": "A",
    "status": "Assigned to Contractor",
    "contractor": "Richards Disposal",
    "rowid": "898483",
    "final_x": "3666916.94285",
    "final_y": "540193.467723",
    "longitude": "-90.11382704849251",
    "latitude": "29.97977955973463",
    "geocoded_column": {
      "latitude": "29.97977955973463",
      "longitude": "-90.11382704849251"
    }
  },
  {
    "service_request": "2022-898482",
    "request_type": "Traffic Signals/Signs/Striping/Streetlights",
    "request_reason": "Street Name Sign Damaged or Missing",
    "date_created": "2022-07-10T11:12:54.000",
    "date_modified": "2022-07-10T11:12:54.000",
    "request_status": "Pending",
    "responsible_agency": "Department of Public Works",
    "final_address": "11100 S Parkwood Ct",
    "address_councildis": "E",
    "status": "Pending",
    "rowid": "898482",
    "final_x": "3716332.17989",
    "final_y": "558631.516892",
    "longitude": "-89.95705588310013",
    "latitude": "30.028938386728633",
    "geocoded_column": {
      "latitude": "30.028938386728633",
      "longitude": "-89.95705588310013"
    }
  },
  {
    "service_request": "2022-898481",
    "request_type": "Parks & Parkways",
    "request_reason": "Request Tree Service (Right of Way/Public Property)",
    "date_created": "2022-07-10T11:11:32.000",
    "date_modified": "2022-07-10T16:37:42.000",
    "request_status": "Pending",
    "responsible_agency": "Department of Parks & Parkway",
    "final_address": "5627 Pratt Dr",
    "address_councildis": "D",
    "status": "Pending",
    "rowid": "898481",
    "final_x": "3680411.77071",
    "final_y": "553290.876311",
    "longitude": "-90.07074907017432",
    "latitude": "30.01539096577846",
    "geocoded_column": {
      "latitude": "30.01539096577846",
      "longitude": "-90.07074907017432"
    }
  },
  {
    "service_request": "2022-898480",
    "request_type": "Roads/Drainage",
    "request_reason": "Pothole",
    "date_created": "2022-07-10T11:10:43.000",
    "date_modified": "2022-07-10T11:10:43.000",
    "request_status": "Pending",
    "responsible_agency": "Department of Public Works",
    "final_address": "8100 Forshey St",
    "address_councildis": "A",
    "status": "Pending",
    "rowid": "898480",
    "final_x": "3666967.6018",
    "final_y": "533905.308549",
    "longitude": "-90.1138784116776",
    "latitude": "29.962487734900648",
    "geocoded_column": {
      "latitude": "29.962487734900648",
      "longitude": "-90.1138784116776"
    }
  },
  {
    "service_request": "2022-898479",
    "request_type": "Abandoned Vehicles",
    "request_reason": "Abandoned/Junk Vehicles",
    "date_created": "2022-07-10T11:08:32.000",
    "date_modified": "2022-07-10T11:08:32.000",
    "request_status": "Pending",
    "responsible_agency": "Department of Public Works",
    "final_address": "2635 S Carrollton Ave",
    "address_councildis": "A",
    "status": "Pending",
    "rowid": "898479",
    "final_x": "3665663.6272",
    "final_y": "532192.811971",
    "longitude": "-90.11805355457126",
    "latitude": "29.957817024812766",
    "geocoded_column": {
      "latitude": "29.957817024812766",
      "longitude": "-90.11805355457126"
    }
  },
  {
    "service_request": "2022-898478",
    "request_type": "Abandoned Vehicles",
    "request_reason": "Abandoned/Junk Vehicles",
    "date_created": "2022-07-10T11:07:45.000",
    "date_modified": "2022-07-10T11:07:45.000",
    "request_status": "Pending",
    "responsible_agency": "Department of Public Works",
    "final_address": "2544 Cleveland Ave",
    "address_councildis": "B",
    "status": "Pending",
    "rowid": "898478",
    "final_x": "3675539.97928",
    "final_y": "534330.917509",
    "longitude": "-90.08679338243189",
    "latitude": "29.963404377086253",
    "geocoded_column": {
      "latitude": "29.963404377086253",
      "longitude": "-90.08679338243189"
    }
  },
  {
    "service_request": "2022-898477",
    "request_type": "Trash/Recycling",
    "request_reason": "Request a Large Item Pick Up",
    "date_created": "2022-07-10T11:06:54.000",
    "date_modified": "2022-07-10T11:06:55.000",
    "request_status": "Pending",
    "responsible_agency": "Department of Sanitation",
    "final_address": "742 Huntlee Dr",
    "address_councildis": "C",
    "status": "Assigned to Contractor",
    "contractor": "Richards Disposal",
    "rowid": "898477",
    "final_x": "3701806.18372",
    "final_y": "519547.082231",
    "longitude": "-90.00438962450487",
    "latitude": "29.92194218485388",
    "geocoded_column": {
      "latitude": "29.92194218485388",
      "longitude": "-90.00438962450487"
    }
  },
  {
    "service_request": "2022-898476",
    "request_type": "Trash/Recycling",
    "request_reason": "MIssed Recycling Pick-Up",
    "date_created": "2022-07-10T11:05:24.000",
    "date_modified": "2022-07-10T11:05:25.000",
    "request_status": "Pending",
    "responsible_agency": "Department of Sanitation",
    "final_address": "8326 Forshey St",
    "address_councildis": "A",
    "status": "Assigned to Contractor",
    "contractor": "Richards Disposal",
    "rowid": "898476",
    "final_x": "3666260.05569",
    "final_y": "534545.125189",
    "longitude": "-90.11609128909129",
    "latitude": "29.964267705827456",
    "geocoded_column": {
      "latitude": "29.964267705827456",
      "longitude": "-90.11609128909129"
    }
  },
  {
    "service_request": "2022-898475",
    "request_type": "Trash/Recycling",
    "request_reason": "Missed Trash Pick-Up",
    "date_created": "2022-07-10T11:04:08.000",
    "date_modified": "2022-07-10T11:04:08.000",
    "request_status": "Pending",
    "responsible_agency": "Department of Sanitation",
    "final_address": "1724 Josephine St, New Orleans, Louisiana, 70113",
    "address_councildis": "B",
    "status": "Assigned to Contractor",
    "contractor": "Richards Disposal",
    "rowid": "898475",
    "final_x": "3677537.44053",
    "final_y": "524373.990332",
    "longitude": "-90.0808293141306",
    "latitude": "29.935966247436124",
    "geocoded_column": {
      "latitude": "29.935966247436124",
      "longitude": "-90.0808293141306"
    }
  },
  {
    "service_request": "2022-898474",
    "request_type": "Roads/Drainage",
    "request_reason": "Catch Basin - Clogged",
    "date_created": "2022-07-10T11:03:00.000",
    "date_modified": "2022-07-10T11:03:00.000",
    "request_status": "Pending",
    "responsible_agency": "Department of Public Works",
    "final_address": "2527 Cleveland Ave",
    "address_councildis": "B",
    "status": "Pending",
    "rowid": "898474",
    "final_x": "3675734.17345",
    "final_y": "534376.653573",
    "longitude": "-90.08617856593321",
    "latitude": "29.963524325457225",
    "geocoded_column": {
      "latitude": "29.963524325457225",
      "longitude": "-90.08617856593321"
    }
  },
  {
    "service_request": "2022-898473",
    "request_type": "Roads/Drainage",
    "request_reason": "Street Flooding / Drainage",
    "date_created": "2022-07-10T11:01:39.000",
    "date_modified": "2022-07-10T11:01:39.000",
    "request_status": "Pending",
    "responsible_agency": "Department of Public Works",
    "final_address": "2527 Cleveland Ave",
    "address_councildis": "B",
    "status": "Pending",
    "rowid": "898473",
    "final_x": "3675734.17345",
    "final_y": "534376.653573",
    "longitude": "-90.08617856593321",
    "latitude": "29.963524325457225",
    "geocoded_column": {
      "latitude": "29.963524325457225",
      "longitude": "-90.08617856593321"
    }
  },
  {
    "service_request": "2022-898472",
    "request_type": "Trash/Recycling",
    "request_reason": "Missed Trash Pick-Up",
    "date_created": "2022-07-10T11:00:58.000",
    "date_modified": "2022-07-10T11:00:58.000",
    "request_status": "Pending",
    "responsible_agency": "Department of Sanitation",
    "final_address": "742 Huntlee Dr",
    "address_councildis": "C",
    "status": "Assigned to Contractor",
    "contractor": "Richards Disposal",
    "rowid": "898472",
    "final_x": "3701806.18372",
    "final_y": "519547.082231",
    "longitude": "-90.00438962450487",
    "latitude": "29.92194218485388",
    "geocoded_column": {
      "latitude": "29.92194218485388",
      "longitude": "-90.00438962450487"
    }
  },
  {
    "service_request": "2022-898471",
    "request_type": "Trash/Recycling",
    "request_reason": "Request a Large Item Pick Up",
    "date_created": "2022-07-10T10:59:23.000",
    "date_modified": "2022-07-10T10:59:23.000",
    "request_status": "Pending",
    "responsible_agency": "Department of Sanitation",
    "final_address": "7929 Freret St",
    "address_councildis": "A",
    "status": "Assigned to Contractor",
    "contractor": "Richards Disposal",
    "rowid": "898471",
    "final_x": "3661926.85114",
    "final_y": "527522.518655",
    "longitude": "-90.13000815603785",
    "latitude": "29.9450836666227",
    "geocoded_column": {
      "latitude": "29.9450836666227",
      "longitude": "-90.13000815603785"
    }
  },
  {
    "service_request": "2022-898470",
    "request_type": "Roads/Drainage",
    "request_reason": "Catch Basin - Broken/Damage",
    "date_created": "2022-07-10T10:58:42.000",
    "date_modified": "2022-07-10T10:58:42.000",
    "request_status": "Pending",
    "responsible_agency": "Department of Public Works",
    "final_address": "15 Lake Forest Blvd",
    "address_councildis": "E",
    "status": "Pending",
    "rowid": "898470",
    "final_x": "3716242.96837",
    "final_y": "562496.328351",
    "longitude": "-89.95719111279516",
    "latitude": "30.039568009572108",
    "geocoded_column": {
      "latitude": "30.039568009572108",
      "longitude": "-89.95719111279516"
    }
  },
  {
    "service_request": "2022-898469",
    "request_type": "Roads/Drainage",
    "request_reason": "Catch Basin - Broken/Damage",
    "date_created": "2022-07-10T10:56:20.000",
    "date_modified": "2022-07-10T10:56:20.000",
    "request_status": "Pending",
    "responsible_agency": "Department of Public Works",
    "final_address": "11331 Lake Forest Blvd",
    "address_councildis": "E",
    "status": "Pending",
    "rowid": "898469",
    "final_x": "3717204.45714",
    "final_y": "562560.991904",
    "longitude": "-89.95415009457436",
    "latitude": "30.039714022198723",
    "geocoded_column": {
      "latitude": "30.039714022198723",
      "longitude": "-89.95415009457436"
    }
  },
  {
    "service_request": "2022-898468",
    "request_type": "Trash/Recycling",
    "request_reason": "Illegal Dumping",
    "date_created": "2022-07-10T10:47:27.000",
    "date_modified": "2022-07-10T10:47:27.000",
    "request_status": "Pending",
    "responsible_agency": "Department of Sanitation",
    "final_address": "2305 Joliet St",
    "address_councildis": "A",
    "status": "Pending",
    "rowid": "898468",
    "final_x": "3663581.86259",
    "final_y": "532216.808771",
    "longitude": "-90.12462640162236",
    "latitude": "29.957943554488644",
    "geocoded_column": {
      "latitude": "29.957943554488644",
      "longitude": "-90.12462640162236"
    }
  },
  {
    "service_request": "2022-898467",
    "request_type": "Property Maintenance",
    "request_reason": "Property Maintenance",
    "date_created": "2022-07-10T10:47:26.000",
    "date_modified": "2022-07-10T10:47:26.000",
    "request_status": "Pending",
    "responsible_agency": "Department of Code Enforcement",
    "final_address": "85 Allard Blvd",
    "address_councildis": "A",
    "status": "Pending",
    "rowid": "898467",
    "final_x": "3672766.23892",
    "final_y": "540290.684107",
    "longitude": "-90.09534922910164",
    "latitude": "29.97987439942383",
    "geocoded_column": {
      "latitude": "29.97987439942383",
      "longitude": "-90.09534922910164"
    }
  },
  {
    "service_request": "2022-898465",
    "request_type": "Property Maintenance",
    "request_reason": "Property Maintenance",
    "date_created": "2022-07-10T10:21:39.000",
    "date_modified": "2022-07-10T10:21:39.000",
    "request_status": "Pending",
    "responsible_agency": "Department of Code Enforcement",
    "final_address": "2622 Hyman Pl",
    "address_councildis": "C",
    "status": "Pending",
    "rowid": "898465",
    "final_x": "3701112.89604",
    "final_y": "521426.111033",
    "longitude": "-90.0065093453901",
    "latitude": "29.927130958032315",
    "geocoded_column": {
      "latitude": "29.927130958032315",
      "longitude": "-90.0065093453901"
    }
  },
  {
    "service_request": "2022-898464",
    "request_type": "Property Maintenance",
    "request_reason": "Property Maintenance",
    "date_created": "2022-07-10T10:21:38.000",
    "date_modified": "2022-07-10T10:21:38.000",
    "request_status": "Pending",
    "responsible_agency": "Department of Code Enforcement",
    "final_address": "2622 Hyman Pl",
    "address_councildis": "C",
    "status": "Pending",
    "rowid": "898464",
    "final_x": "3701112.89604",
    "final_y": "521426.111033",
    "longitude": "-90.0065093453901",
    "latitude": "29.927130958032315",
    "geocoded_column": {
      "latitude": "29.927130958032315",
      "longitude": "-90.0065093453901"
    }
  },
  {
    "service_request": "2022-898463",
    "request_type": "Trash/Recycling",
    "request_reason": "Missed Trash Pick-Up",
    "date_created": "2022-07-10T10:19:27.000",
    "date_modified": "2022-07-10T10:19:28.000",
    "request_status": "Pending",
    "responsible_agency": "Department of Sanitation",
    "final_address": "9118 Apple St",
    "address_councildis": "A",
    "status": "Assigned to Contractor",
    "contractor": "Richards Disposal",
    "rowid": "898463",
    "final_x": "3662610.09984",
    "final_y": "534557.668229",
    "longitude": "-90.12761718838134",
    "latitude": "29.964408305703383",
    "geocoded_column": {
      "latitude": "29.964408305703383",
      "longitude": "-90.12761718838134"
    }
  },
  {
    "service_request": "2022-898462",
    "request_type": "Trash/Recycling",
    "request_reason": "Request a Large Item Pick Up",
    "date_created": "2022-07-10T09:50:20.000",
    "date_modified": "2022-07-10T09:50:21.000",
    "request_status": "Pending",
    "responsible_agency": "Department of Sanitation",
    "final_address": "98 Egret St",
    "address_councildis": "D",
    "status": "Assigned to Contractor",
    "contractor": "Metro Disposal",
    "rowid": "898462",
    "final_x": "3673822.33422",
    "final_y": "555773.998809",
    "longitude": "-90.09148363806145",
    "latitude": "30.022416661586494",
    "geocoded_column": {
      "latitude": "30.022416661586494",
      "longitude": "-90.09148363806145"
    }
  },
  {
    "service_request": "2022-898461",
    "request_type": "Trash/Recycling",
    "request_reason": "Missed Trash Pick-Up",
    "date_created": "2022-07-10T09:48:42.000",
    "date_modified": "2022-07-10T09:48:43.000",
    "request_status": "Pending",
    "responsible_agency": "Department of Sanitation",
    "final_address": "135 N Alexander St",
    "address_councildis": "A",
    "status": "Assigned to Contractor",
    "contractor": "Richards Disposal",
    "rowid": "898461",
    "final_x": "3670148.40174",
    "final_y": "539523.631434",
    "longitude": "-90.10364345803605",
    "latitude": "29.977842774780814",
    "geocoded_column": {
      "latitude": "29.977842774780814",
      "longitude": "-90.10364345803605"
    }
  },
  {
    "service_request": "2022-898460",
    "request_type": "Roads/Drainage",
    "request_reason": "Street Subsidence (Sinking)",
    "date_created": "2022-07-10T09:42:37.000",
    "date_modified": "2022-07-10T09:42:37.000",
    "request_status": "Pending",
    "responsible_agency": "Department of Public Works",
    "final_address": "ST ANDREW ST & PRYTANIA ST",
    "address_councildis": "B",
    "status": "Pending",
    "rowid": "898460",
    "final_x": "3678532.0",
    "final_y": "523749.68",
    "longitude": "-90.07771106524251",
    "latitude": "29.93421966914228",
    "geocoded_column": {
      "latitude": "29.93421966914228",
      "longitude": "-90.07771106524251"
    }
  },
  {
    "service_request": "2022-898459",
    "request_type": "Trash/Recycling",
    "request_reason": "Missed Trash Pick-Up",
    "date_created": "2022-07-10T09:41:24.000",
    "date_modified": "2022-07-10T09:41:24.000",
    "request_status": "Pending",
    "responsible_agency": "Department of Sanitation",
    "final_address": "8735 Apricot St",
    "address_councildis": "A",
    "status": "Assigned to Contractor",
    "contractor": "Richards Disposal",
    "rowid": "898459",
    "final_x": "3664064.00032",
    "final_y": "534284.947717",
    "longitude": "-90.12303496031429",
    "latitude": "29.96361626729517",
    "geocoded_column": {
      "latitude": "29.96361626729517",
      "longitude": "-90.12303496031429"
    }
  },
  {
    "service_request": "2022-898458",
    "request_type": "Traffic Signals/Signs/Striping/Streetlights",
    "request_reason": "Street Light Outage/Malfunction",
    "date_created": "2022-07-10T09:40:44.000",
    "date_modified": "2022-07-10T09:40:44.000",
    "request_status": "Pending",
    "responsible_agency": "Department of Public Works",
    "final_address": "2400 Jay St",
    "address_councildis": "D",
    "status": "Pending",
    "contractor": "Royal Engineering",
    "rowid": "898458",
    "final_x": "3684780.86754",
    "final_y": "557294.154075",
    "longitude": "-90.05680386300332",
    "latitude": "30.0262654059715",
    "geocoded_column": {
      "latitude": "30.0262654059715",
      "longitude": "-90.05680386300332"
    }
  },
  {
    "service_request": "2022-898457",
    "request_type": "Roads/Drainage",
    "request_reason": "Catch Basin - Clogged",
    "date_created": "2022-07-10T09:40:42.000",
    "date_modified": "2022-07-10T09:40:42.000",
    "request_status": "Pending",
    "responsible_agency": "Department of Public Works",
    "final_address": "1450 St Andrew St",
    "address_councildis": "B",
    "status": "Pending",
    "rowid": "898457",
    "final_x": "3678559.9076",
    "final_y": "523658.811259",
    "longitude": "-90.07762610561298",
    "latitude": "29.933968969048664",
    "geocoded_column": {
      "latitude": "29.933968969048664",
      "longitude": "-90.07762610561298"
    }
  },
  {
    "service_request": "2022-898456",
    "request_type": "Trash/Recycling",
    "request_reason": "Request a Large Item Pick Up",
    "date_created": "2022-07-10T09:35:58.000",
    "date_modified": "2022-07-10T09:35:58.000",
    "request_status": "Pending",
    "responsible_agency": "Department of Sanitation",
    "final_address": "2354 Prancer St",
    "address_councildis": "C",
    "status": "Assigned to Contractor",
    "contractor": "Richards Disposal",
    "rowid": "898456",
    "final_x": "3700018.19268",
    "final_y": "522597.64825",
    "longitude": "-90.00992230638495",
    "latitude": "29.930387090876703",
    "geocoded_column": {
      "latitude": "29.930387090876703",
      "longitude": "-90.00992230638495"
    }
  },
  {
    "service_request": "2022-898455",
    "request_type": "Roads/Drainage",
    "request_reason": "Street Subsidence (Sinking)",
    "date_created": "2022-07-10T09:16:56.000",
    "date_modified": "2022-07-10T09:16:56.000",
    "request_status": "Pending",
    "responsible_agency": "Department of Public Works",
    "final_address": "BERMUDA ST & VERRET ST & ELIZA ST",
    "address_councildis": "C",
    "status": "Pending",
    "rowid": "898455",
    "final_x": "3686961.4",
    "final_y": "529891.28",
    "longitude": "-90.05088278826737",
    "latitude": "29.95085030989243",
    "geocoded_column": {
      "latitude": "29.95085030989243",
      "longitude": "-90.05088278826737"
    }
  },
  {
    "service_request": "2022-898454",
    "request_type": "Roads/Drainage",
    "request_reason": "Alley Way",
    "date_created": "2022-07-10T09:05:07.000",
    "date_modified": "2022-07-10T09:05:07.000",
    "request_status": "Pending",
    "responsible_agency": "Department of Public Works",
    "final_address": "2620 Fern St",
    "address_councildis": "A",
    "status": "Pending",
    "rowid": "898454",
    "final_x": "3665983.94772",
    "final_y": "531776.887171",
    "longitude": "-90.11705601129128",
    "latitude": "29.95666402223682",
    "geocoded_column": {
      "latitude": "29.95666402223682",
      "longitude": "-90.11705601129128"
    }
  },
  {
    "service_request": "2022-898453",
    "request_type": "Abandoned Vehicles",
    "request_reason": "Abandoned/Junk Vehicles",
    "date_created": "2022-07-10T08:58:42.000",
    "date_modified": "2022-07-10T08:58:42.000",
    "request_status": "Pending",
    "responsible_agency": "Department of Public Works",
    "final_address": "1440 N Johnson St",
    "address_councildis": "D",
    "status": "Pending",
    "rowid": "898453",
    "final_x": "3680376.72725",
    "final_y": "537694.159112",
    "longitude": "-90.07140250132167",
    "latitude": "29.9725065696412",
    "geocoded_column": {
      "latitude": "29.9725065696412",
      "longitude": "-90.07140250132167"
    }
  },
  {
    "service_request": "2022-898452",
    "request_type": "Trash/Recycling",
    "request_reason": "Missed Trash Pick-Up",
    "date_created": "2022-07-10T08:51:24.000",
    "date_modified": "2022-07-10T08:51:24.000",
    "request_status": "Pending",
    "responsible_agency": "Department of Sanitation",
    "final_address": "3135 Royal St",
    "address_councildis": "C",
    "status": "Assigned to Contractor",
    "contractor": "Metro Disposal",
    "rowid": "898452",
    "final_x": "3688913.26172",
    "final_y": "534469.099653",
    "longitude": "-90.04455724204797",
    "latitude": "29.963377517642567",
    "geocoded_column": {
      "latitude": "29.963377517642567",
      "longitude": "-90.04455724204797"
    }
  },
  {
    "service_request": "2022-898451",
    "request_type": "Trash/Recycling",
    "request_reason": "Missed Trash Pick-Up",
    "date_created": "2022-07-10T08:47:59.000",
    "date_modified": "2022-07-10T08:47:59.000",
    "request_status": "Pending",
    "responsible_agency": "Department of Sanitation",
    "final_address": "8300 BLK Belfast St",
    "address_councildis": "A",
    "status": "Assigned to Contractor",
    "contractor": "Richards Disposal",
    "rowid": "898451",
    "final_x": "3664926.96637",
    "final_y": "532967.736674",
    "longitude": "-90.12035382445559",
    "latitude": "29.959969277162656",
    "geocoded_column": {
      "latitude": "29.959969277162656",
      "longitude": "-90.12035382445559"
    }
  },
  {
    "service_request": "2022-898450",
    "request_type": "Traffic Signals/Signs/Striping/Streetlights",
    "request_reason": "Traffic Sign Missing/Damaged",
    "date_created": "2022-07-10T08:41:21.000",
    "date_modified": "2022-07-10T08:41:21.000",
    "request_status": "Pending",
    "responsible_agency": "Department of Public Works",
    "final_address": "921 Kentucky St",
    "address_councildis": "C",
    "status": "Pending",
    "rowid": "898450",
    "final_x": "3693186.57526",
    "final_y": "534300.851141",
    "longitude": "-90.03106868736454",
    "latitude": "29.962782042603532",
    "geocoded_column": {
      "latitude": "29.962782042603532",
      "longitude": "-90.03106868736454"
    }
  },
  {
    "service_request": "2022-898449",
    "request_type": "Trash/Recycling",
    "request_reason": "Missed Trash Pick-Up",
    "date_created": "2022-07-10T08:40:27.000",
    "date_modified": "2022-07-10T08:40:28.000",
    "request_status": "Pending",
    "responsible_agency": "Department of Sanitation",
    "final_address": "8237 Apricot St",
    "address_councildis": "A",
    "status": "Assigned to Contractor",
    "contractor": "Richards Disposal",
    "rowid": "898449",
    "final_x": "3665372.41389",
    "final_y": "533087.166724",
    "longitude": "-90.11894319578644",
    "latitude": "29.960284697163896",
    "geocoded_column": {
      "latitude": "29.960284697163896",
      "longitude": "-90.11894319578644"
    }
  },
  {
    "service_request": "2022-898448",
    "request_type": "Property Maintenance",
    "request_reason": "Property Maintenance",
    "date_created": "2022-07-10T08:34:24.000",
    "date_modified": "2022-07-10T08:34:24.000",
    "request_status": "Pending",
    "responsible_agency": "Department of Code Enforcement",
    "final_address": "2542 Mistletoe St",
    "address_councildis": "A",
    "status": "Pending",
    "rowid": "898448",
    "final_x": "3662437.36647",
    "final_y": "534717.008838",
    "longitude": "-90.12815737716123",
    "latitude": "29.96485143691225",
    "geocoded_column": {
      "latitude": "29.96485143691225",
      "longitude": "-90.12815737716123"
    }
  },
  {
    "service_request": "2022-898447",
    "request_type": "Trash/Recycling",
    "request_reason": "Illegal Dumping",
    "date_created": "2022-07-10T08:31:46.000",
    "date_modified": "2022-07-10T08:31:46.000",
    "request_status": "Pending",
    "responsible_agency": "Department of Sanitation",
    "final_address": "2542 Mistletoe St",
    "address_councildis": "A",
    "status": "Pending",
    "rowid": "898447",
    "final_x": "3662437.36647",
    "final_y": "534717.008838",
    "longitude": "-90.12815737716123",
    "latitude": "29.96485143691225",
    "geocoded_column": {
      "latitude": "29.96485143691225",
      "longitude": "-90.12815737716123"
    }
  },
  {
    "service_request": "2022-898446",
    "request_type": "Trash/Recycling",
    "request_reason": "Missed Trash Pick-Up",
    "date_created": "2022-07-10T08:29:41.000",
    "date_modified": "2022-07-10T08:29:41.000",
    "request_status": "Pending",
    "responsible_agency": "Department of Sanitation",
    "final_address": "9117 Apple St",
    "address_councildis": "A",
    "status": "Assigned to Contractor",
    "contractor": "Richards Disposal",
    "rowid": "898446",
    "final_x": "3662669.60391",
    "final_y": "534593.932869",
    "longitude": "-90.12742807301017",
    "latitude": "29.964506299805635",
    "geocoded_column": {
      "latitude": "29.964506299805635",
      "longitude": "-90.12742807301017"
    }
  },
  {
    "service_request": "2022-898445",
    "request_type": "Trash/Recycling",
    "request_reason": "Request a Large Item Pick Up",
    "date_created": "2022-07-10T08:23:34.000",
    "date_modified": "2022-07-10T08:23:35.000",
    "request_status": "Pending",
    "responsible_agency": "Department of Sanitation",
    "final_address": "3935 S Pin Oak Ave",
    "address_councildis": "C",
    "status": "Assigned to Contractor",
    "contractor": "Richards Disposal",
    "rowid": "898445",
    "final_x": "3704876.86615",
    "final_y": "513479.025586",
    "longitude": "-89.99492058499678",
    "latitude": "29.905158832576763",
    "geocoded_column": {
      "latitude": "29.905158832576763",
      "longitude": "-89.99492058499678"
    }
  },
  {
    "service_request": "2022-898444",
    "request_type": "Abandoned Vehicles",
    "request_reason": "Abandoned/Junk Vehicles",
    "date_created": "2022-07-10T07:49:46.000",
    "date_modified": "2022-07-10T07:55:32.000",
    "request_status": "Pending",
    "responsible_agency": "Department of Public Works",
    "final_address": "1601 Lafitte Ave",
    "address_councildis": "C",
    "status": "Pending",
    "rowid": "898444",
    "final_x": "3679888.22639",
    "final_y": "534255.789317",
    "longitude": "-90.0730647078564",
    "latitude": "29.963067014315964",
    "geocoded_column": {
      "latitude": "29.963067014315964",
      "longitude": "-90.0730647078564"
    }
  },
  {
    "service_request": "2022-898443",
    "request_type": "Law Enforcement Services",
    "request_reason": "Off Duty Officer for Hire",
    "date_created": "2022-07-10T07:34:26.000",
    "date_modified": "2022-07-10T07:34:26.000",
    "request_status": "Pending",
    "responsible_agency": "Office of Police Secondary Employment",
    "status": "Pending",
    "rowid": "898443",
    "longitude": "0.0",
    "latitude": "0.0",
    "geocoded_column": {
      "latitude": "0.0",
      "longitude": "0.0"
    }
  },
  {
    "service_request": "2022-898442",
    "request_type": "Property Maintenance",
    "request_reason": "Property Maintenance",
    "date_created": "2022-07-10T07:30:11.000",
    "date_modified": "2022-07-10T07:30:11.000",
    "request_status": "Pending",
    "responsible_agency": "Department of Code Enforcement",
    "final_address": "800 Canal St",
    "address_councildis": "B",
    "status": "Pending",
    "rowid": "898442",
    "final_x": "3680798.96482",
    "final_y": "530830.025986",
    "longitude": "-90.07030795216937",
    "latitude": "29.953619754055183",
    "geocoded_column": {
      "latitude": "29.953619754055183",
      "longitude": "-90.07030795216937"
    }
  },
  {
    "service_request": "2022-898441",
    "request_type": "Property Maintenance",
    "request_reason": "Property Maintenance",
    "date_created": "2022-07-10T07:05:49.000",
    "date_modified": "2022-07-10T07:05:49.000",
    "request_status": "Pending",
    "responsible_agency": "Department of Code Enforcement",
    "final_address": "420 Julia St",
    "address_councildis": "B",
    "status": "Pending",
    "rowid": "898441",
    "final_x": "3681541.45269",
    "final_y": "527696.448767",
    "longitude": "-90.06807274587679",
    "latitude": "29.944980947221936",
    "geocoded_column": {
      "latitude": "29.944980947221936",
      "longitude": "-90.06807274587679"
    }
  },
  {
    "service_request": "2022-898440",
    "request_type": "Trash/Recycling",
    "request_reason": "Request a Large Item Pick Up",
    "date_created": "2022-07-10T00:28:41.000",
    "date_modified": "2022-07-10T00:28:42.000",
    "request_status": "Pending",
    "responsible_agency": "Department of Sanitation",
    "final_address": "207 River Oaks Dr",
    "address_councildis": "C",
    "status": "Assigned to Contractor",
    "contractor": "Richards Disposal",
    "rowid": "898440",
    "final_x": "3701542.86692",
    "final_y": "523224.971067",
    "longitude": "-90.00508622249473",
    "latitude": "29.932063502452092",
    "geocoded_column": {
      "latitude": "29.932063502452092",
      "longitude": "-90.00508622249473"
    }
  },
  {
    "service_request": "2022-898439",
    "request_type": "Traffic Signals/Signs/Striping/Streetlights",
    "request_reason": "Street Light Outage/Malfunction",
    "date_created": "2022-07-10T00:27:35.000",
    "date_modified": "2022-07-10T00:27:35.000",
    "request_status": "Pending",
    "responsible_agency": "Department of Public Works",
    "final_address": "213 River Oaks Dr",
    "address_councildis": "C",
    "status": "Pending",
    "contractor": "Royal Engineering",
    "rowid": "898439",
    "final_x": "3701536.04279",
    "final_y": "523051.275515",
    "longitude": "-90.00511412157888",
    "latitude": "29.931586117539354",
    "geocoded_column": {
      "latitude": "29.931586117539354",
      "longitude": "-90.00511412157888"
    }
  },
  {
    "service_request": "2022-898438",
    "request_type": "Safety & Permits",
    "request_reason": "Licenses & Permits",
    "date_created": "2022-07-09T23:18:31.000",
    "date_modified": "2022-07-09T23:18:31.000",
    "request_status": "Pending",
    "responsible_agency": "Safety and Permits",
    "status": "Pending",
    "rowid": "898438",
    "longitude": "0.0",
    "latitude": "0.0",
    "geocoded_column": {
      "latitude": "0.0",
      "longitude": "0.0"
    }
  },
  {
    "service_request": "2022-898437",
    "request_type": "Trash/Recycling",
    "request_reason": "Order Recycling Cart",
    "date_created": "2022-07-09T22:43:41.000",
    "date_modified": "2022-07-09T22:43:41.000",
    "request_status": "Pending",
    "responsible_agency": "Department of Sanitation",
    "final_address": "11050 Guildford Rd",
    "address_councildis": "E",
    "status": "Pending",
    "rowid": "898437",
    "final_x": "3711917.73381",
    "final_y": "564238.695201",
    "longitude": "-89.9707945429734",
    "latitude": "30.0445009393671",
    "geocoded_column": {
      "latitude": "30.0445009393671",
      "longitude": "-89.9707945429734"
    }
  },
  {
    "service_request": "2022-898436",
    "request_type": "Trash/Recycling",
    "request_reason": "Replace Trash Cart",
    "date_created": "2022-07-09T22:42:19.000",
    "date_modified": "2022-07-09T22:42:20.000",
    "request_status": "Pending",
    "responsible_agency": "Department of Sanitation",
    "final_address": "11050 Guildford Rd",
    "address_councildis": "E",
    "status": "Assigned to Contractor",
    "contractor": "Metro Disposal",
    "rowid": "898436",
    "final_x": "3711917.73381",
    "final_y": "564238.695201",
    "longitude": "-89.9707945429734",
    "latitude": "30.0445009393671",
    "geocoded_column": {
      "latitude": "30.0445009393671",
      "longitude": "-89.9707945429734"
    }
  },
  {
    "service_request": "2022-898435",
    "request_type": "Safety & Permits",
    "request_reason": "Licenses & Permits",
    "date_created": "2022-07-09T22:27:30.000",
    "date_modified": "2022-07-09T22:27:30.000",
    "request_status": "Pending",
    "responsible_agency": "Safety and Permits",
    "status": "Pending",
    "rowid": "898435",
    "longitude": "0.0",
    "latitude": "0.0",
    "geocoded_column": {
      "latitude": "0.0",
      "longitude": "0.0"
    }
  },
  {
    "service_request": "2022-898434",
    "request_type": "Trash/Recycling",
    "request_reason": "Missed Trash Pick-Up",
    "date_created": "2022-07-09T22:18:02.000",
    "date_modified": "2022-07-09T22:18:02.000",
    "request_status": "Pending",
    "responsible_agency": "Department of Sanitation",
    "final_address": "8506 Apricot St",
    "address_councildis": "A",
    "status": "Assigned to Contractor",
    "contractor": "Richards Disposal",
    "rowid": "898434",
    "final_x": "3664686.92685",
    "final_y": "533611.932741",
    "longitude": "-90.12109029887758",
    "latitude": "29.961747590287853",
    "geocoded_column": {
      "latitude": "29.961747590287853",
      "longitude": "-90.12109029887758"
    }
  },
  {
    "service_request": "2022-898433",
    "request_type": "Health Related Questions",
    "request_reason": "Request Information on the Health Marketplace",
    "date_created": "2022-07-09T21:53:49.000",
    "date_modified": "2022-07-09T21:53:49.000",
    "request_status": "Pending",
    "responsible_agency": "Health Department",
    "status": "Pending",
    "rowid": "898433",
    "longitude": "0.0",
    "latitude": "0.0",
    "geocoded_column": {
      "latitude": "0.0",
      "longitude": "0.0"
    }
  },
  {
    "service_request": "2022-898432",
    "request_type": "Roads/Drainage",
    "request_reason": "Damaged Sidewalk",
    "date_created": "2022-07-09T21:43:30.000",
    "date_modified": "2022-07-09T21:43:30.000",
    "request_status": "Pending",
    "responsible_agency": "Department of Public Works",
    "final_address": "1625 Milton St",
    "address_councildis": "D",
    "status": "Pending",
    "rowid": "898432",
    "final_x": "3679877.70607",
    "final_y": "546312.946704",
    "longitude": "-90.07267902787703",
    "latitude": "29.99622032826536",
    "geocoded_column": {
      "latitude": "29.99622032826536",
      "longitude": "-90.07267902787703"
    }
  },
  {
    "service_request": "2022-898431",
    "request_type": "Roads/Drainage",
    "request_reason": "Leaking Hydrant",
    "date_created": "2022-07-09T21:35:22.000",
    "date_modified": "2022-07-09T21:35:23.000",
    "request_status": "Pending",
    "responsible_agency": "Department of Public Works",
    "final_address": "NAPOLEON AVE & S CLAIBORNE AVE",
    "address_councildis": "B",
    "status": "Pending",
    "rowid": "898431",
    "final_x": "3670320.5",
    "final_y": "525786.88",
    "longitude": "-90.10356554298984",
    "latitude": "29.940066178929065",
    "geocoded_column": {
      "latitude": "29.940066178929065",
      "longitude": "-90.10356554298984"
    }
  },
  {
    "service_request": "2022-898429",
    "request_type": "Traffic Signals/Signs/Striping/Streetlights",
    "request_reason": "Street Light Outage/Malfunction",
    "date_created": "2022-07-09T21:24:08.000",
    "date_modified": "2022-07-09T21:24:08.000",
    "request_status": "Pending",
    "responsible_agency": "Department of Public Works",
    "final_address": "6041 Colbert St",
    "address_councildis": "A",
    "status": "Pending",
    "contractor": "Royal Engineering",
    "rowid": "898429",
    "final_x": "3667548.10017",
    "final_y": "547791.383506",
    "longitude": "-90.1115777165768",
    "latitude": "30.000652748521013",
    "geocoded_column": {
      "latitude": "30.000652748521013",
      "longitude": "-90.1115777165768"
    }
  },
  {
    "service_request": "2022-898428",
    "request_type": "Traffic Signals/Signs/Striping/Streetlights",
    "request_reason": "Street Light Outage/Malfunction",
    "date_created": "2022-07-09T21:13:46.000",
    "date_modified": "2022-07-09T21:13:46.000",
    "request_status": "Pending",
    "responsible_agency": "Department of Public Works",
    "final_address": "3400 Burgundy St",
    "address_councildis": "C",
    "status": "Pending",
    "contractor": "Royal Engineering",
    "rowid": "898428",
    "final_x": "3690040.14838",
    "final_y": "534844.789894",
    "longitude": "-90.04098528975295",
    "latitude": "29.96437563562714",
    "geocoded_column": {
      "latitude": "29.96437563562714",
      "longitude": "-90.04098528975295"
    }
  },
  {
    "service_request": "2022-898427",
    "request_type": "Traffic Signals/Signs/Striping/Streetlights",
    "request_reason": "Street Light Outage/Malfunction",
    "date_created": "2022-07-09T21:11:42.000",
    "date_modified": "2022-07-09T21:11:43.000",
    "request_status": "Pending",
    "responsible_agency": "Department of Public Works",
    "final_address": "409 26Th St",
    "address_councildis": "A",
    "status": "Pending",
    "contractor": "Royal Engineering",
    "rowid": "898427",
    "final_x": "3664747.66573",
    "final_y": "550010.592532",
    "longitude": "-90.12035030675825",
    "latitude": "30.006836614531736",
    "geocoded_column": {
      "latitude": "30.006836614531736",
      "longitude": "-90.12035030675825"
    }
  },
  {
    "service_request": "2022-898426",
    "request_type": "Trash/Recycling",
    "request_reason": "Missed Trash Pick-Up",
    "date_created": "2022-07-09T20:52:01.000",
    "date_modified": "2022-07-09T20:52:02.000",
    "request_status": "Pending",
    "responsible_agency": "Department of Sanitation",
    "final_address": "2123 Cambronne St",
    "address_councildis": "A",
    "status": "Assigned to Contractor",
    "contractor": "Richards Disposal",
    "rowid": "898426",
    "final_x": "3663443.70176",
    "final_y": "531547.111171",
    "longitude": "-90.12508497547998",
    "latitude": "29.95610611034164",
    "geocoded_column": {
      "latitude": "29.95610611034164",
      "longitude": "-90.12508497547998"
    }
  },
  {
    "service_request": "2022-898425",
    "request_type": "Traffic Signals/Signs/Striping/Streetlights",
    "request_reason": "Street Light Knocked Down/Leaning",
    "date_created": "2022-07-09T20:49:44.000",
    "date_modified": "2022-07-09T20:49:45.000",
    "request_status": "Pending",
    "responsible_agency": "Department of Public Works",
    "final_address": "2000 N Broad St",
    "address_councildis": "D",
    "status": "Pending",
    "contractor": "Royal Engineering",
    "rowid": "898425",
    "final_x": "3680582.42575",
    "final_y": "541927.947532",
    "longitude": "-90.07060551867562",
    "latitude": "29.98414178682257",
    "geocoded_column": {
      "latitude": "29.98414178682257",
      "longitude": "-90.07060551867562"
    }
  },
  {
    "service_request": "2022-898424",
    "request_type": "Property Maintenance",
    "request_reason": "Property Maintenance",
    "date_created": "2022-07-09T20:49:05.000",
    "date_modified": "2022-07-09T20:49:05.000",
    "request_status": "Pending",
    "responsible_agency": "Department of Code Enforcement",
    "final_address": "1001 Newton St",
    "address_councildis": "C",
    "status": "Pending",
    "rowid": "898424",
    "final_x": "3688449.99772",
    "final_y": "527878.401279",
    "longitude": "-90.0462539553205",
    "latitude": "29.945269686732686",
    "geocoded_column": {
      "latitude": "29.945269686732686",
      "longitude": "-90.0462539553205"
    }
  },
  {
    "service_request": "2022-898423",
    "request_type": "Traffic Signals/Signs/Striping/Streetlights",
    "request_reason": "Street Light Outage/Malfunction",
    "date_created": "2022-07-09T20:41:33.000",
    "date_modified": "2022-07-09T20:41:34.000",
    "request_status": "Pending",
    "responsible_agency": "Department of Public Works",
    "final_address": "4926 Charmes Ct",
    "address_councildis": "E",
    "status": "Pending",
    "contractor": "Royal Engineering",
    "rowid": "898423",
    "final_x": "3726420.04608",
    "final_y": "561926.999519",
    "longitude": "-89.92505107107378",
    "latitude": "30.037662590014182",
    "geocoded_column": {
      "latitude": "30.037662590014182",
      "longitude": "-89.92505107107378"
    }
  },
  {
    "service_request": "2022-898422",
    "request_type": "Traffic Signals/Signs/Striping/Streetlights",
    "request_reason": "Street Light Knocked Down/Leaning",
    "date_created": "2022-07-09T20:34:48.000",
    "date_modified": "2022-07-09T20:34:49.000",
    "request_status": "Pending",
    "responsible_agency": "Department of Public Works",
    "final_address": "N BROAD ST & DUELS ST",
    "address_councildis": "D",
    "status": "Pending",
    "contractor": "Royal Engineering",
    "rowid": "898422",
    "final_x": "3680662.0",
    "final_y": "542256.08",
    "longitude": "-90.07034275596625",
    "latitude": "29.985041624846367",
    "geocoded_column": {
      "latitude": "29.985041624846367",
      "longitude": "-90.07034275596625"
    }
  },
  {
    "service_request": "2022-898421",
    "request_type": "Trash/Recycling",
    "request_reason": "Missed Trash Pick-Up",
    "date_created": "2022-07-09T20:32:37.000",
    "date_modified": "2022-07-09T20:32:38.000",
    "request_status": "Pending",
    "responsible_agency": "Department of Sanitation",
    "final_address": "134 N Alexander St",
    "address_councildis": "A",
    "status": "Assigned to Contractor",
    "contractor": "Richards Disposal",
    "rowid": "898421",
    "final_x": "3670253.93831",
    "final_y": "539432.27457",
    "longitude": "-90.10331323336244",
    "latitude": "29.97758845966334",
    "geocoded_column": {
      "latitude": "29.97758845966334",
      "longitude": "-90.10331323336244"
    }
  },
  {
    "service_request": "2022-898420",
    "request_type": "Roads/Drainage",
    "request_reason": "Leaking Hydrant",
    "date_created": "2022-07-09T20:30:51.000",
    "date_modified": "2022-07-09T20:30:52.000",
    "request_status": "Pending",
    "responsible_agency": "Department of Public Works",
    "final_address": "CLARA ST & NAPOLEON AVE",
    "address_councildis": "B",
    "status": "Pending",
    "rowid": "898420",
    "final_x": "3670394.5",
    "final_y": "525078.68",
    "longitude": "-90.10335591388849",
    "latitude": "29.93811667420613",
    "geocoded_column": {
      "latitude": "29.93811667420613",
      "longitude": "-90.10335591388849"
    }
  },
  {
    "service_request": "2022-898419",
    "request_type": "Abandoned Vehicles",
    "request_reason": "Abandoned/Junk Vehicles",
    "date_created": "2022-07-09T20:23:40.000",
    "date_modified": "2022-07-09T20:23:40.000",
    "request_status": "Pending",
    "responsible_agency": "Department of Public Works",
    "final_address": "1624 Farragut St",
    "address_councildis": "C",
    "status": "Pending",
    "rowid": "898419",
    "final_x": "3692358.29661",
    "final_y": "525172.041469",
    "longitude": "-90.03401116275724",
    "latitude": "29.937706835375035",
    "geocoded_column": {
      "latitude": "29.937706835375035",
      "longitude": "-90.03401116275724"
    }
  },
  {
    "service_request": "2022-898418",
    "request_type": "Trash/Recycling",
    "request_reason": "Missed Trash Pick-Up",
    "date_created": "2022-07-09T19:51:29.000",
    "date_modified": "2022-07-09T19:51:30.000",
    "request_status": "Pending",
    "responsible_agency": "Department of Sanitation",
    "final_address": "20285 Old Spanish Trl",
    "address_councildis": "E",
    "status": "Assigned to Contractor",
    "contractor": "Metro Disposal",
    "rowid": "898418",
    "final_x": "3760224.96208",
    "final_y": "572694.263529",
    "longitude": "-89.81777217770386",
    "latitude": "30.066081972191537",
    "geocoded_column": {
      "latitude": "30.066081972191537",
      "longitude": "-89.81777217770386"
    }
  },
  {
    "service_request": "2022-898417",
    "request_type": "Abandoned Vehicles",
    "request_reason": "Abandoned/Junk Vehicles",
    "date_created": "2022-07-09T19:48:40.000",
    "date_modified": "2022-07-09T19:48:40.000",
    "request_status": "Pending",
    "responsible_agency": "Department of Public Works",
    "final_address": "1904 Pauline St",
    "address_councildis": "D",
    "status": "Pending",
    "rowid": "898417",
    "final_x": "3691929.47715",
    "final_y": "538524.538505",
    "longitude": "-90.03488728273699",
    "latitude": "29.974434916501085",
    "geocoded_column": {
      "latitude": "29.974434916501085",
      "longitude": "-90.03488728273699"
    }
  },
  {
    "service_request": "2022-898416",
    "request_type": "Roads/Drainage",
    "request_reason": "Accessibility Ramps, Curbs and Sidewalk Repair",
    "date_created": "2022-07-09T19:33:38.000",
    "date_modified": "2022-07-09T19:33:38.000",
    "request_status": "Pending",
    "responsible_agency": "Department of Public Works",
    "final_address": "7040 Queensway Dr",
    "address_councildis": "E",
    "status": "Pending",
    "rowid": "898416",
    "final_x": "3719116.17004",
    "final_y": "569416.064678",
    "longitude": "-89.94784662236164",
    "latitude": "30.058499242565798",
    "geocoded_column": {
      "latitude": "30.058499242565798",
      "longitude": "-89.94784662236164"
    }
  },
  {
    "service_request": "2022-898414",
    "request_type": "Mosquito, Termite & Rodent Control",
    "request_reason": "Mosquito Complaint",
    "date_created": "2022-07-09T19:28:50.000",
    "date_modified": "2022-07-09T19:28:50.000",
    "request_status": "Pending",
    "responsible_agency": "Mosquito, Termite & Rodent Control Board",
    "final_address": "1705 Jourdan Ave",
    "address_councildis": "E",
    "status": "Pending",
    "rowid": "898414",
    "final_x": "3695730.85002",
    "final_y": "536800.60628",
    "longitude": "-90.02294396337103",
    "latitude": "29.96957572651589",
    "geocoded_column": {
      "latitude": "29.96957572651589",
      "longitude": "-90.02294396337103"
    }
  },
  {
    "service_request": "2022-898413",
    "request_type": "Roads/Drainage",
    "request_reason": "Pothole",
    "date_created": "2022-07-09T19:12:21.000",
    "date_modified": "2022-07-09T19:12:21.000",
    "request_status": "Pending",
    "responsible_agency": "Department of Public Works",
    "final_address": "6115 Mandeville St",
    "address_councildis": "D",
    "status": "Pending",
    "rowid": "898413",
    "final_x": "3684312.32393",
    "final_y": "555536.033817",
    "longitude": "-90.05834621860586",
    "latitude": "30.021445569390945",
    "geocoded_column": {
      "latitude": "30.021445569390945",
      "longitude": "-90.05834621860586"
    }
  },
  {
    "service_request": "2022-898412",
    "request_type": "Trash/Recycling",
    "request_reason": "Missed Trash Pick-Up",
    "date_created": "2022-07-09T19:11:35.000",
    "date_modified": "2022-07-09T19:11:36.000",
    "request_status": "Pending",
    "responsible_agency": "Department of Sanitation",
    "final_address": "3638 Metropolitan St",
    "address_councildis": "D",
    "status": "Assigned to Contractor",
    "contractor": "Metro Disposal",
    "rowid": "898412",
    "final_x": "3691629.33974",
    "final_y": "545801.786576",
    "longitude": "-90.03557488053252",
    "latitude": "29.99445408363884",
    "geocoded_column": {
      "latitude": "29.99445408363884",
      "longitude": "-90.03557488053252"
    }
  },
  {
    "service_request": "2022-898411",
    "request_type": "Property Maintenance",
    "request_reason": "Property Maintenance",
    "date_created": "2022-07-09T19:02:42.000",
    "date_modified": "2022-07-09T19:02:44.000",
    "request_status": "Pending",
    "responsible_agency": "Department of Code Enforcement",
    "final_address": "828 Girod St",
    "address_councildis": "B",
    "status": "Pending",
    "rowid": "898411",
    "final_x": "3679866.95605",
    "final_y": "528689.576192",
    "longitude": "-90.0733251648677",
    "latitude": "29.9477624511556",
    "geocoded_column": {
      "latitude": "29.9477624511556",
      "longitude": "-90.0733251648677"
    }
  },