[
  {
    "service_request": "2026-1259472",
    "request_type": "Trash/Recycling",
    "request_reason": "Request a Large Item Pick Up",
    "date_created": "2026-02-19T23:47:15.000",
    "date_modified": "2026-02-19T23:47:16.000",
    "request_status": "Pending",
    "responsible_agency": "Department of Sanitation",
    "final_address": "1730 France St",
    "address_councildis": "D",
    "status": "Assigned to Contractor",
    "contractor": "IV Waste",
    "rowid": "1259472",
    "final_x": "3692974.67862",
    "final_y": "537661.014024",
    "longitude": "-90.0316172825136",
    "latitude": "29.97202792300032",
    "geocoded_column": {
      "latitude": "29.97202792300032",
      "longitude": "-90.0316172825136"
    }
  },
  {
    "service_request": "2026-1259471",
    "request_type": "Trash/Recycling",
    "request_reason": "Request a Large Item Pick Up",
    "date_created": "2026-02-19T23:44:32.000",
    "date_modified": "2026-02-19T23:44:35.000",
    "request_status": "Pending",
    "responsible_agency": "Department of Sanitation",
    "final_address": "1715 France St",
    "address_councildis": "D",
    "status": "Assigned to Contractor",
    "contractor": "IV Waste",
    "rowid": "1259471",
    "final_x": "3693020.20886",
    "final_y": "537521.33044",
    "longitude": "-90.03147850327866",
    "latitude": "29.97164242045645",
    "geocoded_column": {
      "latitude": "29.97164242045645",
      "longitude": "-90.03147850327866"
    }
  },
  {
    "service_request": "2026-1259470",
    "request_type": "Trash/Recycling",
    "request_reason": "Order Trash Cart",
    "date_created": "2026-02-19T23:27:08.000",
    "date_modified": "2026-02-19T23:27:10.000",
    "request_status": "Pending",
    "responsible_agency": "Department of Sanitation",
    "final_address": "16 Castle Pines Dr",
    "address_councildis": "C",
    "status": "Assigned to Contractor",
    "contractor": "Richards Disposal",
    "rowid": "1259470",
    "final_x": "3719611.21413",
    "final_y": "511447.962096",
    "longitude": "-89.94849634177555",
    "latitude": "29.899092668283693",
    "geocoded_column": {
      "latitude": "29.899092668283693",
      "longitude": "-89.94849634177555"
    }
  },
  {
    "service_request": "2026-1259469",
    "request_type": "Abandoned Vehicles",
    "request_reason": "Abandoned/Junk Vehicles",
    "date_created": "2026-02-19T23:06:21.000",
    "date_modified": "2026-02-19T23:06:23.000",
    "request_status": "Pending",
    "responsible_agency": "Department of Public Works",
    "final_address": "7622 Cohn St",
    "address_councildis": "A",
    "status": "Pending",
    "rowid": "1259469",
    "final_x": "3664760.12621",
    "final_y": "529101.658496",
    "longitude": "-90.12100983733222",
    "latitude": "29.94934367413492",
    "geocoded_column": {
      "latitude": "29.94934367413492",
      "longitude": "-90.12100983733222"
    }
  },
  {
    "service_request": "2026-1259468",
    "request_type": "Trash/Recycling",
    "request_reason": "Missed Trash Pick-Up",
    "date_created": "2026-02-19T23:00:05.000",
    "date_modified": "2026-02-19T23:00:26.000",
    "request_status": "Pending",
    "responsible_agency": "Department of Sanitation",
    "final_address": "2329 General Meyer Ave",
    "address_councildis": "C",
    "status": "Assigned to Contractor",
    "contractor": "Richards Disposal",
    "rowid": "1259468",
    "final_x": "3692652.05296",
    "final_y": "527621.965631",
    "longitude": "-90.03299598049206",
    "latitude": "29.944434123735533",
    "geocoded_column": {
      "latitude": "29.944434123735533",
      "longitude": "-90.03299598049206"
    }
  },
  {
    "service_request": "2026-1259467",
    "request_type": "Trash/Recycling",
    "request_reason": "MIssed Recycling Pick-Up",
    "date_created": "2026-02-19T22:58:10.000",
    "date_modified": "2026-02-19T22:58:12.000",
    "request_status": "Pending",
    "responsible_agency": "Department of Sanitation",
    "final_address": "2329 General Meyer Ave",
    "address_councildis": "C",
    "status": "Assigned to Contractor",
    "contractor": "Richards Disposal",
    "rowid": "1259467",
    "final_x": "3692652.05296",
    "final_y": "527621.965631",
    "longitude": "-90.03299598049206",
    "latitude": "29.944434123735533",
    "geocoded_column": {
      "latitude": "29.944434123735533",
      "longitude": "-90.03299598049206"
    }
  },
  {
    "service_request": "2026-1259466",
    "request_type": "Trash/Recycling",
    "request_reason": "Request a Large Item Pick Up",
    "date_created": "2026-02-19T22:38:59.000",
    "date_modified": "2026-02-19T22:39:01.000",
    "request_status": "Pending",
    "responsible_agency": "Department of Sanitation",
    "final_address": "10001 Flossmoor Dr",
    "address_councildis": "E",
    "status": "Assigned to Contractor",
    "contractor": "Waste Pro",
    "rowid": "1259466",
    "final_x": "3709214.14545",
    "final_y": "563424.249632",
    "longitude": "-89.97936945701574",
    "latitude": "30.042349659710577",
    "geocoded_column": {
      "latitude": "30.042349659710577",
      "longitude": "-89.97936945701574"
    }
  },
  {
    "service_request": "2026-1259465",
    "request_type": "Trash/Recycling",
    "request_reason": "Replace Recycling Cart",
    "date_created": "2026-02-19T22:20:41.000",
    "date_modified": "2026-02-19T22:20:43.000",
    "request_status": "Pending",
    "responsible_agency": "Department of Sanitation",
    "final_address": "2636 Valence St",
    "address_councildis": "B",
    "status": "Pending",
    "rowid": "1259465",
    "final_x": "3669311.40001",
    "final_y": "524579.39174",
    "longitude": "-90.10679224143358",
    "latitude": "29.936775716468127",
    "geocoded_column": {
      "latitude": "29.936775716468127",
      "longitude": "-90.10679224143358"
    }
  },
  {
    "service_request": "2026-1259464",
    "request_type": "Trash/Recycling",
    "request_reason": "Request a Large Item Pick Up",
    "date_created": "2026-02-19T21:47:25.000",
    "date_modified": "2026-02-19T21:47:27.000",
    "request_status": "Pending",
    "responsible_agency": "Department of Sanitation",
    "final_address": "6821 Manchester St",
    "address_councildis": "E",
    "status": "Assigned to Contractor",
    "contractor": "Waste Pro",
    "rowid": "1259464",
    "final_x": "3698467.64912",
    "final_y": "560019.128541",
    "longitude": "-90.01345633947615",
    "latitude": "30.03333167740206",
    "geocoded_column": {
      "latitude": "30.03333167740206",
      "longitude": "-90.01345633947615"
    }
  },
  {
    "service_request": "2026-1259463",
    "request_type": "Trash/Recycling",
    "request_reason": "Request a Large Item Pick Up",
    "date_created": "2026-02-19T21:40:31.000",
    "date_modified": "2026-02-19T21:40:34.000",
    "request_status": "Pending",
    "responsible_agency": "Department of Sanitation",
    "final_address": "1540 Crete St",
    "address_councildis": "A",
    "status": "Assigned to Contractor",
    "contractor": "IV Waste",
    "rowid": "1259463",
    "final_x": "3678086.77896",
    "final_y": "539953.667658",
    "longitude": "-90.07855642503785",
    "latitude": "29.978788586886925",
    "geocoded_column": {
      "latitude": "29.978788586886925",
      "longitude": "-90.07855642503785"
    }
  },
  {
    "service_request": "2026-1259462",
    "request_type": "Abandoned Vehicles",
    "request_reason": "Abandoned/Junk Vehicles",
    "date_created": "2026-02-19T21:27:08.000",
    "date_modified": "2026-02-19T21:27:10.000",
    "request_status": "Pending",
    "responsible_agency": "Department of Public Works",
    "final_address": "3131 Newton St",
    "address_councildis": "C",
    "status": "Pending",
    "rowid": "1259462",
    "final_x": "3695879.02282",
    "final_y": "527748.884223",
    "longitude": "-90.02280297034454",
    "latitude": "29.944682016710022",
    "geocoded_column": {
      "latitude": "29.944682016710022",
      "longitude": "-90.02280297034454"
    }
  },
  {
    "service_request": "2026-1259461",
    "request_type": "Parks & Parkways",
    "request_reason": "Request Grass Cutting Service (City Owned Property)",
    "date_created": "2026-02-19T20:50:35.000",
    "date_modified": "2026-02-19T20:50:37.000",
    "request_status": "Pending",
    "responsible_agency": "Department of Parks & Parkway",
    "final_address": "2038 St Ferdinand St",
    "address_councildis": "D",
    "status": "Pending",
    "rowid": "1259461",
    "final_x": "3688630.93391",
    "final_y": "540019.830987",
    "longitude": "-90.04525175421071",
    "latitude": "29.978648808020875",
    "geocoded_column": {
      "latitude": "29.978648808020875",
      "longitude": "-90.04525175421071"
    }
  },
  {
    "service_request": "2026-1259460",
    "request_type": "Abandoned Vehicles",
    "request_reason": "Abandoned/Junk Vehicles",
    "date_created": "2026-02-19T20:23:45.000",
    "date_modified": "2026-02-19T20:23:49.000",
    "request_status": "Pending",
    "responsible_agency": "Department of Public Works",
    "final_address": "7400 BLK Canal Blvd",
    "address_councildis": "D",
    "status": "Pending",
    "rowid": "1259460",
    "final_x": "3669257.16768",
    "final_y": "556498.491449",
    "longitude": "-90.10588398341537",
    "latitude": "30.02454401081706",
    "geocoded_column": {
      "latitude": "30.02454401081706",
      "longitude": "-90.10588398341537"
    }
  },
  {
    "service_request": "2026-1259459",
    "request_type": "Streetlights",
    "request_reason": "Streetlight Outage/Malfunction",
    "date_created": "2026-02-19T19:36:52.000",
    "date_modified": "2026-02-19T19:36:55.000",
    "request_status": "Pending",
    "responsible_agency": "Department of Public Works",
    "final_address": "43 Winners Cir",
    "address_councildis": "E",
    "status": "Pending",
    "rowid": "1259459",
    "final_x": "3715815.54175",
    "final_y": "570199.433639",
    "longitude": "-89.9582497498865",
    "latitude": "30.060762505169205",
    "geocoded_column": {
      "latitude": "30.060762505169205",
      "longitude": "-89.9582497498865"
    }
  },
  {
    "service_request": "2026-1259458",
    "request_type": "Drainage",
    "request_reason": "Catch Basin Not Draining",
    "date_created": "2026-02-19T19:23:48.000",
    "date_modified": "2026-02-19T19:23:51.000",
    "request_status": "Pending",
    "responsible_agency": "Sewerage & Water Board",
    "final_address": "720 Amethyst St",
    "address_councildis": "D",
    "status": "Pending",
    "rowid": "1259458",
    "final_x": "3669597.39028",
    "final_y": "556649.93577",
    "longitude": "-90.10480380532462",
    "latitude": "30.024950402963196",
    "geocoded_column": {
      "latitude": "30.024950402963196",
      "longitude": "-90.10480380532462"
    }
  },
  {
    "service_request": "2026-1259457",
    "request_type": "Drainage",
    "request_reason": "Catch Basin Not Draining",
    "date_created": "2026-02-19T19:14:44.000",
    "date_modified": "2026-02-19T19:14:46.000",
    "request_status": "Pending",
    "responsible_agency": "Sewerage & Water Board",
    "final_address": "720 Amethyst St",
    "address_councildis": "D",
    "status": "Pending",
    "rowid": "1259457",
    "final_x": "3669597.39028",
    "final_y": "556649.93577",
    "longitude": "-90.10480380532462",
    "latitude": "30.024950402963196",
    "geocoded_column": {
      "latitude": "30.024950402963196",
      "longitude": "-90.10480380532462"
    }
  },
  {
    "service_request": "2026-1259456",
    "request_type": "New Orleans Recreation Development Commission (NORDC)",
    "request_reason": "Facilities and Parks Maintenance/Clean Up",
    "date_created": "2026-02-19T19:11:25.000",
    "date_modified": "2026-02-19T19:11:27.000",
    "request_status": "Pending",
    "responsible_agency": "New Orleans Recreation Development Commission",
    "final_address": "1001 Harrison Ave",
    "address_councildis": "A",
    "status": "Pending",
    "rowid": "1259456",
    "final_x": "3671379.97268",
    "final_y": "549154.840595",
    "longitude": "-90.09942615406044",
    "latitude": "30.00428887869337",
    "geocoded_column": {
      "latitude": "30.00428887869337",
      "longitude": "-90.09942615406044"
    }
  },
  {
    "service_request": "2026-1259455",
    "request_type": "Trash/Recycling",
    "request_reason": "Illegal Dumping",
    "date_created": "2026-02-19T19:10:19.000",
    "date_modified": "2026-02-19T19:10:21.000",
    "request_status": "Pending",
    "responsible_agency": "Department of Sanitation",
    "final_address": "1 Andry St Wharf",
    "address_councildis": "E",
    "status": "Pending",
    "rowid": "1259455",
    "final_x": "3696525.82115",
    "final_y": "531143.320066",
    "longitude": "-90.020638067924",
    "latitude": "29.953995171978537",
    "geocoded_column": {
      "latitude": "29.953995171978537",
      "longitude": "-90.020638067924"
    }
  },
  {
    "service_request": "2026-1259454",
    "request_type": "Abandoned Vehicles",
    "request_reason": "Abandoned/Junk Vehicles",
    "date_created": "2026-02-19T19:09:29.000",
    "date_modified": "2026-02-19T19:09:31.000",
    "request_status": "Pending",
    "responsible_agency": "Department of Public Works",
    "final_address": "2320 Amelia St",
    "address_councildis": "B",
    "status": "Pending",
    "rowid": "1259454",
    "final_x": "3672458.01383",
    "final_y": "523763.308795",
    "longitude": "-90.09688601282674",
    "latitude": "29.934438762624687",
    "geocoded_column": {
      "latitude": "29.934438762624687",
      "longitude": "-90.09688601282674"
    }
  },
  {
    "service_request": "2026-1259453",
    "request_type": "Trash/Recycling",
    "request_reason": "Missed Trash Pick-Up",
    "date_created": "2026-02-19T18:59:28.000",
    "date_modified": "2026-02-19T18:59:30.000",
    "request_status": "Pending",
    "responsible_agency": "Department of Sanitation",
    "final_address": "2221 General Pershing St",
    "address_councildis": "B",
    "status": "Assigned to Contractor",
    "contractor": "IV Waste",
    "rowid": "1259453",
    "final_x": "3671051.49908",
    "final_y": "523225.372091",
    "longitude": "-90.10134461319788",
    "latitude": "29.933001267865862",
    "geocoded_column": {
      "latitude": "29.933001267865862",
      "longitude": "-90.10134461319788"
    }
  },
  {
    "service_request": "2026-1259452",
    "request_type": "Abandoned Vehicles",
    "request_reason": "Abandoned/Junk Vehicles",
    "date_created": "2026-02-19T18:55:15.000",
    "date_modified": "2026-02-19T18:55:17.000",
    "request_status": "Pending",
    "responsible_agency": "Department of Public Works",
    "final_address": "2220 St Anthony St",
    "address_councildis": "D",
    "status": "Pending",
    "rowid": "1259452",
    "final_x": "3683095.96444",
    "final_y": "540410.298379",
    "longitude": "-90.06271955451078",
    "latitude": "29.97989238089113",
    "geocoded_column": {
      "latitude": "29.97989238089113",
      "longitude": "-90.06271955451078"
    }
  },
  {
    "service_request": "2026-1259451",
    "request_type": "Roads and Streets",
    "request_reason": "Pothole",
    "date_created": "2026-02-19T18:23:13.000",
    "date_modified": "2026-02-19T18:23:15.000",
    "request_status": "Pending",
    "responsible_agency": "Department of Public Works",
    "final_address": "3637 Magazine St",
    "address_councildis": "B",
    "status": "Pending",
    "rowid": "1259451",
    "final_x": "3673802.2539",
    "final_y": "519243.578103",
    "longitude": "-90.09279675412732",
    "latitude": "29.92197100768267",
    "geocoded_column": {
      "latitude": "29.92197100768267",
      "longitude": "-90.09279675412732"
    }
  },
  {
    "service_request": "2026-1259450",
    "request_type": "Streetlights",
    "request_reason": "Streetlight Outage/Malfunction",
    "date_created": "2026-02-19T18:13:47.000",
    "date_modified": "2026-02-19T18:13:50.000",
    "request_status": "Pending",
    "responsible_agency": "Department of Public Works",
    "final_address": "201 Helena St",
    "address_councildis": "A",
    "status": "Pending",
    "rowid": "1259450",
    "final_x": "3668489.53428",
    "final_y": "540915.227467",
    "longitude": "-90.10883578552816",
    "latitude": "29.981718040331383",
    "geocoded_column": {
      "latitude": "29.981718040331383",
      "longitude": "-90.10883578552816"
    }
  },
  {
    "service_request": "2026-1259449",
    "request_type": "Trash/Recycling",
    "request_reason": "Order Recycling Cart",
    "date_created": "2026-02-19T18:06:25.000",
    "date_modified": "2026-02-19T18:06:32.000",
    "request_status": "Pending",
    "responsible_agency": "Department of Sanitation",
    "final_address": "1915 S Gayoso St",
    "address_councildis": "B",
    "status": "Pending",
    "rowid": "1259449",
    "final_x": "3669987.80122",
    "final_y": "529677.977345",
    "longitude": "-90.10448417891938",
    "latitude": "29.95077524298731",
    "geocoded_column": {
      "latitude": "29.95077524298731",
      "longitude": "-90.10448417891938"
    }
  },
  {
    "service_request": "2026-1259448",
    "request_type": "Trash/Recycling",
    "request_reason": "Missed Trash Pick-Up",
    "date_created": "2026-02-19T17:49:46.000",
    "date_modified": "2026-02-19T17:49:48.000",
    "request_status": "Pending",
    "responsible_agency": "Department of Sanitation",
    "final_address": "5252 Annunciation St",
    "address_councildis": "B",
    "status": "Assigned to Contractor",
    "contractor": "IV Waste",
    "rowid": "1259448",
    "final_x": "3667535.18861",
    "final_y": "517534.757814",
    "longitude": "-90.11263677711774",
    "latitude": "29.91745736721848",
    "geocoded_column": {
      "latitude": "29.91745736721848",
      "longitude": "-90.11263677711774"
    }
  },
  {
    "service_request": "2026-1259447",
    "request_type": "Trash/Recycling",
    "request_reason": "Missed Trash Pick-Up",
    "date_created": "2026-02-19T17:43:19.000",
    "date_modified": "2026-02-19T17:43:21.000",
    "request_status": "Pending",
    "responsible_agency": "Department of Sanitation",
    "final_address": "2133 Valence St",
    "address_councildis": "B",
    "status": "Assigned to Contractor",
    "contractor": "IV Waste",
    "rowid": "1259447",
    "final_x": "3669586.49658",
    "final_y": "522818.246139",
    "longitude": "-90.10598330133418",
    "latitude": "29.931925032141045",
    "geocoded_column": {
      "latitude": "29.931925032141045",
      "longitude": "-90.10598330133418"
    }
  },
  {
    "service_request": "2026-1259446",
    "request_type": "Property Maintenance",
    "request_reason": "Property Maintenance",
    "date_created": "2026-02-19T17:14:45.000",
    "date_modified": "2026-02-19T17:14:46.000",
    "request_status": "Pending",
    "responsible_agency": "Department of Code Enforcement",
    "final_address": "6301 Tchoupitoulas St",
    "address_councildis": "A",
    "status": "Pending",
    "rowid": "1259446",
    "final_x": "3662712.59213",
    "final_y": "518158.89727",
    "longitude": "-90.12783834616127",
    "latitude": "29.919313945291464",
    "geocoded_column": {
      "latitude": "29.919313945291464",
      "longitude": "-90.12783834616127"
    }
  },
  {
    "service_request": "2026-1259445",
    "request_type": "Trash/Recycling",
    "request_reason": "Order Recycling Cart",
    "date_created": "2026-02-19T17:13:55.000",
    "date_modified": "2026-02-19T17:13:56.000",
    "request_status": "Pending",
    "responsible_agency": "Department of Sanitation",
    "final_address": "5321 Venus St",
    "address_councildis": "D",
    "status": "Pending",
    "rowid": "1259445",
    "final_x": "3686381.4783",
    "final_y": "552388.090198",
    "longitude": "-90.05191950287225",
    "latitude": "30.012726415113764",
    "geocoded_column": {
      "latitude": "30.012726415113764",
      "longitude": "-90.05191950287225"
    }
  },
  {
    "service_request": "2026-1259444",
    "request_type": "Abandoned Vehicles",
    "request_reason": "Abandoned/Junk Vehicles",
    "date_created": "2026-02-19T17:11:56.000",
    "date_modified": "2026-02-19T17:11:59.000",
    "request_status": "Pending",
    "responsible_agency": "Department of Public Works",
    "final_address": "319 Calhoun St",
    "address_councildis": "A",
    "status": "Pending",
    "rowid": "1259444",
    "final_x": "3662857.84615",
    "final_y": "518244.433078",
    "longitude": "-90.12737700869398",
    "latitude": "29.9195449394412",
    "geocoded_column": {
      "latitude": "29.9195449394412",
      "longitude": "-90.12737700869398"
    }
  },
  {
    "service_request": "2026-1259443",
    "request_type": "Abandoned Vehicles",
    "request_reason": "Abandoned/Junk Vehicles",
    "date_created": "2026-02-19T17:10:49.000",
    "date_modified": "2026-02-19T17:10:58.000",
    "request_status": "Pending",
    "responsible_agency": "Department of Public Works",
    "final_address": "322 Calhoun St",
    "address_councildis": "A",
    "status": "Pending",
    "rowid": "1259443",
    "final_x": "3662787.58323",
    "final_y": "518287.652278",
    "longitude": "-90.1275973593474",
    "latitude": "29.9196658119982",
    "geocoded_column": {
      "latitude": "29.9196658119982",
      "longitude": "-90.1275973593474"
    }
  },
  {
    "service_request": "2026-1259442",
    "request_type": "Trash/Recycling",
    "request_reason": "Request a Large Item Pick Up",
    "date_created": "2026-02-19T17:09:36.000",
    "date_modified": "2026-02-19T17:09:39.000",
    "request_status": "Pending",
    "responsible_agency": "Department of Sanitation",
    "final_address": "203 S Dupre St",
    "address_councildis": "B",
    "status": "Assigned to Contractor",
    "contractor": "IV Waste",
    "rowid": "1259442",
    "final_x": "3674294.93006",
    "final_y": "535310.99879",
    "longitude": "-90.09069155233556",
    "latitude": "29.96613645513948",
    "geocoded_column": {
      "latitude": "29.96613645513948",
      "longitude": "-90.09069155233556"
    }
  },
  {
    "service_request": "2026-1259441",
    "request_type": "Trash/Recycling",
    "request_reason": "Missed Trash Pick-Up",
    "date_created": "2026-02-19T17:02:59.000",
    "date_modified": "2026-02-19T17:03:00.000",
    "request_status": "Pending",
    "responsible_agency": "Department of Sanitation",
    "final_address": "1630 St Roch Ave Apt A",
    "address_councildis": "D",
    "status": "Assigned to Contractor",
    "contractor": "IV Waste",
    "rowid": "1259441",
    "final_x": "3686244.52834",
    "final_y": "538521.767369",
    "longitude": "-90.05284177062042",
    "latitude": "29.974603207078154",
    "geocoded_column": {
      "latitude": "29.974603207078154",
      "longitude": "-90.05284177062042"
    }
  },
  {
    "service_request": "2026-1259440",
    "request_type": "Safety & Permits",
    "request_reason": "Licenses & Permits",
    "date_created": "2026-02-19T17:01:47.000",
    "date_modified": "2026-02-19T17:01:48.000",
    "request_status": "Pending",
    "responsible_agency": "Safety and Permits",
    "final_address": "3525 St Claude Ave",
    "address_councildis": "C",
    "status": "Pending",
    "rowid": "1259440",
    "final_x": "3690673.55593",
    "final_y": "535710.501575",
    "longitude": "-90.03895416343828",
    "latitude": "29.96673638049295",
    "geocoded_column": {
      "latitude": "29.96673638049295",
      "longitude": "-90.03895416343828"
    }
  },
  {
    "service_request": "2026-1259439",
    "request_type": "Safety & Permits",
    "request_reason": "Construction permit",
    "date_created": "2026-02-19T17:00:51.000",
    "date_modified": "2026-02-19T17:00:53.000",
    "request_status": "Pending",
    "responsible_agency": "Safety and Permits",
    "final_address": "21111 Chef Menteur Hwy",
    "address_councildis": "E",
    "status": "Pending",
    "rowid": "1259439",
    "final_x": "3765132.68048",
    "final_y": "574451.785579",
    "longitude": "-89.80218438720877",
    "latitude": "30.070734943836513",
    "geocoded_column": {
      "latitude": "30.070734943836513",
      "longitude": "-89.80218438720877"
    }
  },
  {
    "service_request": "2026-1259438",
    "request_type": "Property Maintenance",
    "request_reason": "Property Maintenance",
    "date_created": "2026-02-19T16:54:23.000",
    "date_modified": "2026-02-19T16:54:24.000",
    "request_status": "Pending",
    "responsible_agency": "Department of Code Enforcement",
    "final_address": "2508 Palmyra St",
    "address_councildis": "B",
    "status": "Pending",
    "rowid": "1259438",
    "final_x": "3675531.02632",
    "final_y": "533882.365253",
    "longitude": "-90.08683706401973",
    "latitude": "29.962171277325137",
    "geocoded_column": {
      "latitude": "29.962171277325137",
      "longitude": "-90.08683706401973"
    }
  },
  {
    "service_request": "2026-1259437",
    "request_type": "Trash/Recycling",
    "request_reason": "Request a Large Item Pick Up",
    "date_created": "2026-02-19T16:53:09.000",
    "date_modified": "2026-02-19T16:53:11.000",
    "request_status": "Pending",
    "responsible_agency": "Department of Sanitation",
    "final_address": "7842 Shubert St",
    "address_councildis": "E",
    "status": "Assigned to Contractor",
    "contractor": "Waste Pro",
    "rowid": "1259437",
    "final_x": "3695457.19645",
    "final_y": "559508.013597",
    "longitude": "-90.02298810778659",
    "latitude": "30.032021312160797",
    "geocoded_column": {
      "latitude": "30.032021312160797",
      "longitude": "-90.02298810778659"
    }
  },
  {
    "service_request": "2026-1259436",
    "request_type": "Trash/Recycling",
    "request_reason": "Missed Trash Pick-Up",
    "date_created": "2026-02-19T16:49:50.000",
    "date_modified": "2026-02-19T16:49:57.000",
    "request_status": "Pending",
    "responsible_agency": "Department of Sanitation",
    "final_address": "4 Forest Oaks Dr",
    "address_councildis": "C",
    "status": "Assigned to Contractor",
    "contractor": "Richards Disposal",
    "rowid": "1259436",
    "final_x": "3722096.18169",
    "final_y": "510730.054255",
    "longitude": "-89.94068178453126",
    "latitude": "29.89703586190956",
    "geocoded_column": {
      "latitude": "29.89703586190956",
      "longitude": "-89.94068178453126"
    }
  },
  {
    "service_request": "2026-1259435",
    "request_type": "Roads and Streets",
    "request_reason": "Debris in Driving Lanes",
    "date_created": "2026-02-19T16:48:46.000",
    "date_modified": "2026-02-19T16:48:48.000",
    "request_status": "Pending",
    "responsible_agency": "Department of Public Works",
    "final_address": "5620 New England Dr",
    "address_councildis": "E",
    "status": "Pending",
    "rowid": "1259435",
    "final_x": "3723578.98175",
    "final_y": "564220.931169",
    "longitude": "-89.93394085926474",
    "latitude": "30.044065661332613",
    "geocoded_column": {
      "latitude": "30.044065661332613",
      "longitude": "-89.93394085926474"
    }
  },
  {
    "service_request": "2026-1259434",
    "request_type": "Drainage",
    "request_reason": "Catch Basin Not Draining",
    "date_created": "2026-02-19T16:46:01.000",
    "date_modified": "2026-02-19T16:46:02.000",
    "request_status": "Pending",
    "responsible_agency": "Sewerage & Water Board",
    "final_address": "3311 Elysian Fields Ave",
    "address_councildis": "D",
    "status": "Pending",
    "rowid": "1259434",
    "final_x": "3684448.90748",
    "final_y": "544885.791055",
    "longitude": "-90.05828911642917",
    "latitude": "29.992157081476037",
    "geocoded_column": {
      "latitude": "29.992157081476037",
      "longitude": "-90.05828911642917"
    }
  },
  {
    "service_request": "2026-1259433",
    "request_type": "Trash/Recycling",
    "request_reason": "Repair Trash Cart",
    "date_created": "2026-02-19T16:43:38.000",
    "date_modified": "2026-02-19T16:43:39.000",
    "request_status": "Pending",
    "responsible_agency": "Department of Sanitation",
    "final_address": "4835 Tchoupitoulas St",
    "address_councildis": "B",
    "status": "Assigned to Contractor",
    "contractor": "IV Waste",
    "rowid": "1259433",
    "final_x": "3669430.86561",
    "final_y": "517313.532853",
    "longitude": "-90.10666065045312",
    "latitude": "29.9167934018749",
    "geocoded_column": {
      "latitude": "29.9167934018749",
      "longitude": "-90.10666065045312"
    }
  },
  {
    "service_request": "2026-1259432",
    "request_type": "Trash/Recycling",
    "request_reason": "Repair Trash Cart",
    "date_created": "2026-02-19T16:43:09.000",
    "date_modified": "2026-02-19T16:43:12.000",
    "request_status": "Pending",
    "responsible_agency": "Department of Sanitation",
    "final_address": "4833 Tchoupitoulas St",
    "address_councildis": "B",
    "status": "Assigned to Contractor",
    "contractor": "IV Waste",
    "rowid": "1259432",
    "final_x": "3669445.18855",
    "final_y": "517313.532853",
    "longitude": "-90.10661544116729",
    "latitude": "29.91679298024948",
    "geocoded_column": {
      "latitude": "29.91679298024948",
      "longitude": "-90.10661544116729"
    }
  },
  {
    "service_request": "2026-1259431",
    "request_type": "Trash/Recycling",
    "request_reason": "Request a Large Item Pick Up",
    "date_created": "2026-02-19T16:41:49.000",
    "date_modified": "2026-02-19T16:41:50.000",
    "request_status": "Pending",
    "responsible_agency": "Department of Sanitation",
    "final_address": "4551 Laine Ave",
    "address_councildis": "E",
    "status": "Assigned to Contractor",
    "contractor": "Waste Pro",
    "rowid": "1259431",
    "final_x": "3705871.09233",
    "final_y": "554185.1958",
    "longitude": "-89.99027696739601",
    "latitude": "30.017054066909694",
    "geocoded_column": {
      "latitude": "30.017054066909694",
      "longitude": "-89.99027696739601"
    }
  },
  {
    "service_request": "2026-1259430",
    "request_type": "Trash/Recycling",
    "request_reason": "Request a Large Item Pick Up",
    "date_created": "2026-02-19T16:39:44.000",
    "date_modified": "2026-02-19T16:39:46.000",
    "request_status": "Pending",
    "responsible_agency": "Department of Sanitation",
    "final_address": "2613 Columbus St",
    "address_councildis": "D",
    "status": "Assigned to Contractor",
    "contractor": "IV Waste",
    "rowid": "1259430",
    "final_x": "3678557.08264",
    "final_y": "539681.696714",
    "longitude": "-90.07708044596058",
    "latitude": "29.978026591250625",
    "geocoded_column": {
      "latitude": "29.978026591250625",
      "longitude": "-90.07708044596058"
    }
  },
  {
    "service_request": "2026-1259429",
    "request_type": "Trash/Recycling",
    "request_reason": "Request a Large Item Pick Up",
    "date_created": "2026-02-19T16:36:05.000",
    "date_modified": "2026-02-19T16:36:06.000",
    "request_status": "Pending",
    "responsible_agency": "Department of Sanitation",
    "final_address": "3708 Preston Pl",
    "address_councildis": "C",
    "status": "Assigned to Contractor",
    "contractor": "Richards Disposal",
    "rowid": "1259429",
    "final_x": "3708492.66558",
    "final_y": "517395.232437",
    "longitude": "-89.98336343777682",
    "latitude": "29.915810419512944",
    "geocoded_column": {
      "latitude": "29.915810419512944",
      "longitude": "-89.98336343777682"
    }
  },
  {
    "service_request": "2026-1259428",
    "request_type": "Street and Traffic Signs",
    "request_reason": "Additional Signage Request",
    "date_created": "2026-02-19T16:33:28.000",
    "date_modified": "2026-02-19T16:33:30.000",
    "request_status": "Pending",
    "responsible_agency": "Department of Public Works",
    "final_address": "1601 Ursulines Ave",
    "address_councildis": "D",
    "status": "Pending",
    "rowid": "1259428",
    "final_x": "3680959.34696",
    "final_y": "535593.876038",
    "longitude": "-90.06963563861692",
    "latitude": "29.966713857973833",
    "geocoded_column": {
      "latitude": "29.966713857973833",
      "longitude": "-90.06963563861692"
    }
  },
  {
    "service_request": "2026-1259427",
    "request_type": "Trash/Recycling",
    "request_reason": "Request a Large Item Pick Up",
    "date_created": "2026-02-19T16:31:41.000",
    "date_modified": "2026-02-19T16:31:42.000",
    "request_status": "Pending",
    "responsible_agency": "Department of Sanitation",
    "final_address": "2746 Ramsey Dr",
    "address_councildis": "C",
    "status": "Assigned to Contractor",
    "contractor": "Richards Disposal",
    "rowid": "1259427",
    "final_x": "3703157.73694",
    "final_y": "520595.267896",
    "longitude": "-90.00008487416912",
    "latitude": "29.924781161941475",
    "geocoded_column": {
      "latitude": "29.924781161941475",
      "longitude": "-90.00008487416912"
    }
  },
  {
    "service_request": "2026-1259426",
    "request_type": "Parks & Parkways",
    "request_reason": "Request Grass Cutting Service (City Owned Property)",
    "date_created": "2026-02-19T16:31:12.000",
    "date_modified": "2026-02-19T16:31:14.000",
    "request_status": "Pending",
    "responsible_agency": "Department of Parks & Parkway",
    "final_address": "1610 Ursulines Ave",
    "address_councildis": "D",
    "status": "Pending",
    "rowid": "1259426",
    "final_x": "3680865.33864",
    "final_y": "535582.685062",
    "longitude": "-90.06993290593158",
    "latitude": "29.966685937074374",
    "geocoded_column": {
      "latitude": "29.966685937074374",
      "longitude": "-90.06993290593158"
    }
  },
  {
    "service_request": "2026-1259425",
    "request_type": "Trash/Recycling",
    "request_reason": "Missed Trash Pick-Up",
    "date_created": "2026-02-19T16:25:05.000",
    "date_modified": "2026-02-19T16:27:59.000",
    "case_close_date": "2026-02-19T10:27:58.000",
    "request_status": "Closed",
    "responsible_agency": "Department of Sanitation",
    "final_address": "5322 Magazine St",
    "address_councildis": "B",
    "status": "Invalid Request",
    "contractor": "IV Waste",
    "contractor_action": "Invalid Request",
    "rowid": "1259425",
    "final_x": "3667281.83777",
    "final_y": "518586.115063",
    "longitude": "-90.11340113458039",
    "latitude": "29.920355688590877",
    "geocoded_column": {
      "latitude": "29.920355688590877",
      "longitude": "-90.11340113458039"
    }
  },
  {
    "service_request": "2026-1259424",
    "request_type": "Alley Ways",
    "request_reason": "Alley Way Issues",
    "date_created": "2026-02-19T16:24:44.000",
    "date_modified": "2026-02-19T16:24:46.000",
    "request_status": "Pending",
    "responsible_agency": "Department of Public Works",
    "final_address": "757 Florida Blvd",
    "address_councildis": "A",
    "status": "Pending",
    "rowid": "1259424",
    "final_x": "3668812.22439",
    "final_y": "545422.603536",
    "longitude": "-90.1076642928867",
    "latitude": "29.994102299382384",
    "geocoded_column": {
      "latitude": "29.994102299382384",
      "longitude": "-90.1076642928867"
    }
  },
  {
    "service_request": "2026-1259423",
    "request_type": "Trash/Recycling",
    "request_reason": "Request a Large Item Pick Up",
    "date_created": "2026-02-19T16:23:55.000",
    "date_modified": "2026-02-19T16:24:38.000",
    "request_status": "Pending",
    "responsible_agency": "Department of Sanitation",
    "final_address": "4719 Stemway Dr",
    "address_councildis": "D",
    "status": "Assigned to Contractor",
    "contractor": "Waste Pro",
    "rowid": "1259423",
    "final_x": "3696995.31242",
    "final_y": "554083.43868",
    "longitude": "-90.01832431850424",
    "latitude": "30.01705734277201",
    "geocoded_column": {
      "latitude": "30.01705734277201",
      "longitude": "-90.01832431850424"
    }
  },
  {
    "service_request": "2026-1259422",
    "request_type": "Trash/Recycling",
    "request_reason": "Replace Trash Cart",
    "date_created": "2026-02-19T16:21:16.000",
    "date_modified": "2026-02-19T16:21:18.000",
    "request_status": "Pending",
    "responsible_agency": "Department of Sanitation",
    "final_address": "1521 Melpomene St",
    "address_councildis": "B",
    "status": "Assigned to Contractor",
    "contractor": "IV Waste",
    "rowid": "1259422",
    "final_x": "3679509.90856",
    "final_y": "525392.596285",
    "longitude": "-90.0745668627377",
    "latitude": "29.93870764458958",
    "geocoded_column": {
      "latitude": "29.93870764458958",
      "longitude": "-90.0745668627377"
    }
  },
  {
    "service_request": "2026-1259421",
    "request_type": "Trash/Recycling",
    "request_reason": "Change Size of Trash Cart",
    "date_created": "2026-02-19T16:18:24.000",
    "date_modified": "2026-02-19T16:18:25.000",
    "request_status": "Pending",
    "responsible_agency": "Department of Sanitation",
    "final_address": "4008 Vendome Pl",
    "address_councildis": "B",
    "status": "Assigned to Contractor",
    "contractor": "IV Waste",
    "rowid": "1259421",
    "final_x": "3668610.45863",
    "final_y": "529870.926017",
    "longitude": "-90.10882662827768",
    "latitude": "29.951346332855007",
    "geocoded_column": {
      "latitude": "29.951346332855007",
      "longitude": "-90.10882662827768"
    }
  },
  {
    "service_request": "2026-1259420",
    "request_type": "Trash/Recycling",
    "request_reason": "Order Trash Cart",
    "date_created": "2026-02-19T16:13:52.000",
    "date_modified": "2026-02-19T16:13:53.000",
    "request_status": "Pending",
    "responsible_agency": "Department of Sanitation",
    "final_address": "1202 State St",
    "address_councildis": "A",
    "status": "Assigned to Contractor",
    "contractor": "IV Waste",
    "rowid": "1259420",
    "final_x": "3665074.13402",
    "final_y": "520569.933688",
    "longitude": "-90.12030355166996",
    "latitude": "29.925875012979013",
    "geocoded_column": {
      "latitude": "29.925875012979013",
      "longitude": "-90.12030355166996"
    }
  },
  {
    "service_request": "2026-1259419",
    "request_type": "Trash/Recycling",
    "request_reason": "Request a Large Item Pick Up",
    "date_created": "2026-02-19T16:11:29.000",
    "date_modified": "2026-02-19T16:11:31.000",
    "request_status": "Pending",
    "responsible_agency": "Department of Sanitation",
    "final_address": "1202 State St",
    "address_councildis": "A",
    "status": "Assigned to Contractor",
    "contractor": "IV Waste",
    "rowid": "1259419",
    "final_x": "3665074.13402",
    "final_y": "520569.933688",
    "longitude": "-90.12030355166996",
    "latitude": "29.925875012979013",
    "geocoded_column": {
      "latitude": "29.925875012979013",
      "longitude": "-90.12030355166996"
    }
  },
  {
    "service_request": "2026-1259418",
    "request_type": "Trash/Recycling",
    "request_reason": "Missed Trash Pick-Up",
    "date_created": "2026-02-19T16:10:37.000",
    "date_modified": "2026-02-19T16:16:20.000",
    "case_close_date": "2026-02-19T10:16:18.000",
    "request_status": "Closed",
    "responsible_agency": "Department of Sanitation",
    "final_address": "1827 Cadiz St",
    "address_councildis": "B",
    "status": "Invalid Request",
    "contractor": "IV Waste",
    "contractor_action": "Invalid Request",
    "rowid": "1259418",
    "final_x": "3670037.21274",
    "final_y": "521763.553722",
    "longitude": "-90.10459613851084",
    "latitude": "29.929011683298935",
    "geocoded_column": {
      "latitude": "29.929011683298935",
      "longitude": "-90.10459613851084"
    }
  },
  {
    "service_request": "2026-1259417",
    "request_type": "Trash/Recycling",
    "request_reason": "Repair Trash Cart",
    "date_created": "2026-02-19T16:03:09.000",
    "date_modified": "2026-02-19T16:03:17.000",
    "request_status": "Pending",
    "responsible_agency": "Department of Sanitation",
    "final_address": "5530 Camp St",
    "address_councildis": "A",
    "status": "Assigned to Contractor",
    "contractor": "IV Waste",
    "rowid": "1259417",
    "final_x": "3666263.29223",
    "final_y": "519197.419255",
    "longitude": "-90.11659572497574",
    "latitude": "29.922066361602717",
    "geocoded_column": {
      "latitude": "29.922066361602717",
      "longitude": "-90.11659572497574"
    }
  },
  {
    "service_request": "2026-1259416",
    "request_type": "Parks & Parkways",
    "request_reason": "Request Tree Service (Right of Way/Public Property)",
    "date_created": "2026-02-19T16:01:33.000",
    "date_modified": "2026-02-19T16:01:35.000",
    "request_status": "Pending",
    "responsible_agency": "Department of Parks & Parkway",
    "final_address": "951 Navarre St",
    "address_councildis": "A",
    "status": "Pending",
    "rowid": "1259416",
    "final_x": "3669914.11822",
    "final_y": "543765.706766",
    "longitude": "-90.10423969464283",
    "latitude": "29.989513948147117",
    "geocoded_column": {
      "latitude": "29.989513948147117",
      "longitude": "-90.10423969464283"
    }
  },
  {
    "service_request": "2026-1259415",
    "request_type": "Trash/Recycling",
    "request_reason": "Request a Large Item Pick Up",
    "date_created": "2026-02-19T16:01:26.000",
    "date_modified": "2026-02-19T16:01:28.000",
    "request_status": "Pending",
    "responsible_agency": "Department of Sanitation",
    "final_address": "5530 Camp St",
    "address_councildis": "A",
    "status": "Assigned to Contractor",
    "contractor": "IV Waste",
    "rowid": "1259415",
    "final_x": "3666263.29223",
    "final_y": "519197.419255",
    "longitude": "-90.11659572497574",
    "latitude": "29.922066361602717",
    "geocoded_column": {
      "latitude": "29.922066361602717",
      "longitude": "-90.11659572497574"
    }
  },
  {
    "service_request": "2026-1259414",
    "request_type": "Trash/Recycling",
    "request_reason": "Missed Trash Pick-Up",
    "date_created": "2026-02-19T15:57:57.000",
    "date_modified": "2026-02-19T16:31:46.000",
    "case_close_date": "2026-02-19T10:31:46.000",
    "request_status": "Closed",
    "responsible_agency": "Department of Sanitation",
    "final_address": "1534 Harrison Ave",
    "address_councildis": "D",
    "status": "Invalid Request",
    "contractor": "IV Waste",
    "contractor_action": "Invalid Request",
    "rowid": "1259414",
    "final_x": "3679046.91016",
    "final_y": "547637.37813",
    "longitude": "-90.07525751741039",
    "latitude": "29.999887152457447",
    "geocoded_column": {
      "latitude": "29.999887152457447",
      "longitude": "-90.07525751741039"
    }
  },
  {
    "service_request": "2026-1259413",
    "request_type": "Trash/Recycling",
    "request_reason": "Missed Trash Pick-Up",
    "date_created": "2026-02-19T15:57:40.000",
    "date_modified": "2026-02-19T16:01:30.000",
    "case_close_date": "2026-02-19T10:01:29.000",
    "request_status": "Closed",
    "responsible_agency": "Department of Sanitation",
    "final_address": "5715 Constance St",
    "address_councildis": "A",
    "status": "Invalid Request",
    "contractor": "IV Waste",
    "contractor_action": "Invalid Request",
    "rowid": "1259413",
    "final_x": "3665642.70656",
    "final_y": "518700.141303",
    "longitude": "-90.1185713039261",
    "latitude": "29.920717108476044",
    "geocoded_column": {
      "latitude": "29.920717108476044",
      "longitude": "-90.1185713039261"
    }
  },
  {
    "service_request": "2026-1259412",
    "request_type": "Streetlights",
    "request_reason": "Streetlight Outage/Malfunction",
    "date_created": "2026-02-19T15:57:33.000",
    "date_modified": "2026-02-19T15:59:15.000",
    "request_status": "Pending",
    "responsible_agency": "Department of Public Works",
    "final_address": "4002 Camp St",
    "address_councildis": "B",
    "status": "Pending",
    "rowid": "1259412",
    "final_x": "3672454.06843",
    "final_y": "519240.517559",
    "longitude": "-90.09705252159483",
    "latitude": "29.92200265771704",
    "geocoded_column": {
      "latitude": "29.92200265771704",
      "longitude": "-90.09705252159483"
    }
  },
  {
    "service_request": "2026-1259411",
    "request_type": "Streetlights",
    "request_reason": "Streetlight Outage/Malfunction",
    "date_created": "2026-02-19T15:57:26.000",
    "date_modified": "2026-02-19T15:57:27.000",
    "request_status": "Pending",
    "responsible_agency": "Department of Public Works",
    "final_address": "2925 Martin Luther King, Jr. Blvd",
    "address_councildis": "B",
    "status": "Pending",
    "rowid": "1259411",
    "final_x": "3675239.65217",
    "final_y": "528109.866559",
    "longitude": "-90.08795530333344",
    "latitude": "29.946307542924433",
    "geocoded_column": {
      "latitude": "29.946307542924433",
      "longitude": "-90.08795530333344"
    }
  },
  {
    "service_request": "2026-1259410",
    "request_type": "Streetlights",
    "request_reason": "Streetlight Outage/Malfunction",
    "date_created": "2026-02-19T15:57:16.000",
    "date_modified": "2026-02-19T15:59:49.000",
    "request_status": "Pending",
    "responsible_agency": "Department of Public Works",
    "final_address": "3953 Camp St",
    "address_councildis": "B",
    "status": "Pending",
    "rowid": "1259410",
    "final_x": "3672541.03515",
    "final_y": "519361.687287",
    "longitude": "-90.0967738759507",
    "latitude": "29.922333255437202",
    "geocoded_column": {
      "latitude": "29.922333255437202",
      "longitude": "-90.0967738759507"
    }
  },
  {
    "service_request": "2026-1259409",
    "request_type": "Parks & Parkways",
    "request_reason": "Request Tree Service (Right of Way/Public Property)",
    "date_created": "2026-02-19T15:56:16.000",
    "date_modified": "2026-02-19T15:56:17.000",
    "request_status": "Pending",
    "responsible_agency": "Department of Parks & Parkway",
    "final_address": "2228 Easter Ln",
    "address_councildis": "C",
    "status": "Pending",
    "rowid": "1259409",
    "final_x": "3699322.4641",
    "final_y": "522951.326203",
    "longitude": "-90.01210572640409",
    "latitude": "29.93138165966102",
    "geocoded_column": {
      "latitude": "29.93138165966102",
      "longitude": "-90.01210572640409"
    }
  },
  {
    "service_request": "2026-1259408",
    "request_type": "Trash/Recycling",
    "request_reason": "Replace Trash Cart",
    "date_created": "2026-02-19T15:53:48.000",
    "date_modified": "2026-02-19T15:53:49.000",
    "request_status": "Pending",
    "responsible_agency": "Department of Sanitation",
    "final_address": "4422 S Tonti St",
    "address_councildis": "B",
    "status": "Assigned to Contractor",
    "contractor": "IV Waste",
    "rowid": "1259408",
    "final_x": "3669853.61383",
    "final_y": "528074.148351",
    "longitude": "-90.10496216378918",
    "latitude": "29.94636919378032",
    "geocoded_column": {
      "latitude": "29.94636919378032",
      "longitude": "-90.10496216378918"
    }
  },
  {
    "service_request": "2026-1259407",
    "request_type": "Roads and Streets",
    "request_reason": "Abandoned Service Cut",
    "date_created": "2026-02-19T15:52:30.000",
    "date_modified": "2026-02-19T15:52:32.000",
    "request_status": "Pending",
    "responsible_agency": "Department of Public Works",
    "final_address": "2301 Dryades St",
    "address_councildis": "B",
    "status": "Pending",
    "rowid": "1259407",
    "final_x": "524255.334012",
    "final_y": "524255.334012",
    "longitude": "-100.0202468845503",
    "latitude": "29.65413671042328",
    "geocoded_column": {
      "latitude": "29.65413671042328",
      "longitude": "-100.0202468845503"
    }
  },
  {
    "service_request": "2026-1259406",
    "request_type": "Trash/Recycling",
    "request_reason": "Missed Trash Pick-Up",
    "date_created": "2026-02-19T15:49:24.000",
    "date_modified": "2026-02-19T15:51:51.000",
    "case_close_date": "2026-02-19T09:51:50.000",
    "request_status": "Closed",
    "responsible_agency": "Department of Sanitation",
    "final_address": "5128 Music St",
    "address_councildis": "D",
    "status": "Invalid Request",
    "contractor": "IV Waste",
    "contractor_action": "Invalid Request",
    "rowid": "1259406",
    "final_x": "3685455.57257",
    "final_y": "551679.441301",
    "longitude": "-90.0548698326398",
    "latitude": "30.010806328342294",
    "geocoded_column": {
      "latitude": "30.010806328342294",
      "longitude": "-90.0548698326398"
    }
  },
  {
    "service_request": "2026-1259405",
    "request_type": "Abandoned Vehicles",
    "request_reason": "Abandoned/Junk Vehicles",
    "date_created": "2026-02-19T15:49:22.000",
    "date_modified": "2026-02-19T15:49:24.000",
    "request_status": "Pending",
    "responsible_agency": "Department of Public Works",
    "final_address": "2138 Spain St",
    "address_councildis": "D",
    "status": "Pending",
    "rowid": "1259405",
    "final_x": "3685777.61385",
    "final_y": "540411.122699",
    "longitude": "-90.0542497886728",
    "latitude": "29.979812609648338",
    "geocoded_column": {
      "latitude": "29.979812609648338",
      "longitude": "-90.0542497886728"
    }
  },
  {
    "service_request": "2026-1259404",
    "request_type": "Trash/Recycling",
    "request_reason": "Request a Large Item Pick Up",
    "date_created": "2026-02-19T15:42:09.000",
    "date_modified": "2026-02-19T15:42:12.000",
    "request_status": "Pending",
    "responsible_agency": "Department of Sanitation",
    "final_address": "12920 Parlange Ct",
    "address_councildis": "E",
    "status": "Assigned to Contractor",
    "contractor": "Waste Pro",
    "rowid": "1259404",
    "final_x": "3716828.11519",
    "final_y": "567831.076068",
    "longitude": "-89.9551391131594",
    "latitude": "30.054217050233348",
    "geocoded_column": {
      "latitude": "30.054217050233348",
      "longitude": "-89.9551391131594"
    }
  },
  {
    "service_request": "2026-1259403",
    "request_type": "Trash/Recycling",
    "request_reason": "Missed Trash Pick-Up",
    "date_created": "2026-02-19T15:39:57.000",
    "date_modified": "2026-02-19T16:15:15.000",
    "case_close_date": "2026-02-19T10:15:14.000",
    "request_status": "Closed",
    "responsible_agency": "Department of Sanitation",
    "final_address": "5128 Music St",
    "address_councildis": "D",
    "status": "Invalid Request",
    "contractor": "IV Waste",
    "contractor_action": "Invalid Request",
    "rowid": "1259403",
    "final_x": "3685455.57257",
    "final_y": "551679.441301",
    "longitude": "-90.0548698326398",
    "latitude": "30.010806328342294",
    "geocoded_column": {
      "latitude": "30.010806328342294",
      "longitude": "-90.0548698326398"
    }
  },
  {
    "service_request": "2026-1259402",
    "request_type": "Parks & Parkways",
    "request_reason": "Request Grass Cutting Service (City Owned Property)",
    "date_created": "2026-02-19T15:36:22.000",
    "date_modified": "2026-02-19T15:36:26.000",
    "request_status": "Pending",
    "responsible_agency": "Department of Parks & Parkway",
    "final_address": "4773 Flake Ave",
    "address_councildis": "E",
    "status": "Pending",
    "rowid": "1259402",
    "final_x": "3706169.18027",
    "final_y": "555715.889945",
    "longitude": "-89.98927841029054",
    "latitude": "30.02125327382551",
    "geocoded_column": {
      "latitude": "30.02125327382551",
      "longitude": "-89.98927841029054"
    }
  },
  {
    "service_request": "2026-1259401",
    "request_type": "Trash/Recycling",
    "request_reason": "Request a Large Item Pick Up",
    "date_created": "2026-02-19T15:34:40.000",
    "date_modified": "2026-02-19T15:34:43.000",
    "request_status": "Pending",
    "responsible_agency": "Department of Sanitation",
    "final_address": "7520 Brevard Ave",
    "address_councildis": "E",
    "status": "Assigned to Contractor",
    "contractor": "Waste Pro",
    "rowid": "1259401",
    "final_x": "3706483.06174",
    "final_y": "563141.610464",
    "longitude": "-89.98801116170256",
    "latitude": "30.041660965434193",
    "geocoded_column": {
      "latitude": "30.041660965434193",
      "longitude": "-89.98801116170256"
    }
  },
  {
    "service_request": "2026-1259400",
    "request_type": "Trash/Recycling",
    "request_reason": "Replace Recycling Cart",
    "date_created": "2026-02-19T15:27:07.000",
    "date_modified": "2026-02-19T15:27:08.000",
    "request_status": "Pending",
    "responsible_agency": "Department of Sanitation",
    "final_address": "7608 Ligustrum Dr",
    "address_councildis": "E",
    "status": "Pending",
    "rowid": "1259400",
    "final_x": "3701465.61514",
    "final_y": "561062.872734",
    "longitude": "-90.00394425198881",
    "latitude": "30.036106273753457",
    "geocoded_column": {
      "latitude": "30.036106273753457",
      "longitude": "-90.00394425198881"
    }
  },
  {
    "service_request": "2026-1259399",
    "request_type": "Abandoned Vehicles",
    "request_reason": "Abandoned/Junk Vehicles",
    "date_created": "2026-02-19T15:25:47.000",
    "date_modified": "2026-02-19T15:25:50.000",
    "request_status": "Pending",
    "responsible_agency": "Department of Public Works",
    "final_address": "GENERAL TAYLOR & ANNUNCIATION ST",
    "address_councildis": "B",
    "status": "Pending",
    "rowid": "1259399",
    "final_x": "3673352.8",
    "final_y": "517974.18",
    "longitude": "-90.09425882353281",
    "latitude": "29.918493940509745",
    "geocoded_column": {
      "latitude": "29.918493940509745",
      "longitude": "-90.09425882353281"
    }
  },
  {
    "service_request": "2026-1259398",
    "request_type": "Trash/Recycling",
    "request_reason": "Request a Large Item Pick Up",
    "date_created": "2026-02-19T15:24:27.000",
    "date_modified": "2026-02-19T15:24:30.000",
    "request_status": "Pending",
    "responsible_agency": "Department of Sanitation",
    "final_address": "6636 Harbourview Dr",
    "address_councildis": "E",
    "status": "Assigned to Contractor",
    "contractor": "Waste Pro",
    "rowid": "1259398",
    "final_x": "3699212.66487",
    "final_y": "555951.456601",
    "longitude": "-90.01125033996827",
    "latitude": "30.022123524500046",
    "geocoded_column": {
      "latitude": "30.022123524500046",
      "longitude": "-90.01125033996827"
    }
  },
  {
    "service_request": "2026-1259397",
    "request_type": "Taxi Issues",
    "request_reason": "Transportation For Hire Complaint",
    "date_created": "2026-02-19T15:22:16.000",
    "date_modified": "2026-02-19T15:22:18.000",
    "request_status": "Pending",
    "responsible_agency": "Department of Public Works",
    "final_address": "717 Orleans Ave",
    "address_councildis": "C",
    "status": "Pending",
    "rowid": "1259397",
    "final_x": "3682502.39119",
    "final_y": "532793.756676",
    "longitude": "-90.06486060910726",
    "latitude": "29.958967606776813",
    "geocoded_column": {
      "latitude": "29.958967606776813",
      "longitude": "-90.06486060910726"
    }
  },
  {
    "service_request": "2026-1259396",
    "request_type": "Property Maintenance",
    "request_reason": "Property Maintenance",
    "date_created": "2026-02-19T15:20:30.000",
    "date_modified": "2026-02-19T15:24:22.000",
    "request_status": "Pending",
    "responsible_agency": "Department of Code Enforcement",
    "final_address": "1738 L. B. Landry Ave",
    "address_councildis": "C",
    "status": "Pending",
    "rowid": "1259396",
    "final_x": "3690119.15081",
    "final_y": "524711.855804",
    "longitude": "-90.04109667973647",
    "latitude": "29.93651110710652",
    "geocoded_column": {
      "latitude": "29.93651110710652",
      "longitude": "-90.04109667973647"
    }
  },
  {
    "service_request": "2026-1259395",
    "request_type": "Trash/Recycling",
    "request_reason": "Request a Large Item Pick Up",
    "date_created": "2026-02-19T15:17:09.000",
    "date_modified": "2026-02-19T15:17:10.000",
    "request_status": "Pending",
    "responsible_agency": "Department of Sanitation",
    "final_address": "7901 Berg Rd",
    "address_councildis": "E",
    "status": "Assigned to Contractor",
    "contractor": "Waste Pro",
    "rowid": "1259395",
    "final_x": "3711422.64075",
    "final_y": "567571.92298",
    "longitude": "-89.97223411306068",
    "latitude": "30.053682145261206",
    "geocoded_column": {
      "latitude": "30.053682145261206",
      "longitude": "-89.97223411306068"
    }
  },
  {
    "service_request": "2026-1259394",
    "request_type": "Trash/Recycling",
    "request_reason": "Request a Large Item Pick Up",
    "date_created": "2026-02-19T15:11:04.000",
    "date_modified": "2026-02-19T15:11:06.000",
    "request_status": "Pending",
    "responsible_agency": "Department of Sanitation",
    "final_address": "8428 Birch St",
    "address_councildis": "A",
    "status": "Assigned to Contractor",
    "contractor": "IV Waste",
    "rowid": "1259394",
    "final_x": "3661906.35335",
    "final_y": "530279.225153",
    "longitude": "-90.12998146776508",
    "latitude": "29.952664317651863",
    "geocoded_column": {
      "latitude": "29.952664317651863",
      "longitude": "-90.12998146776508"
    }
  },
  {
    "service_request": "2026-1259393",
    "request_type": "Trash/Recycling",
    "request_reason": "Replace Trash Cart",
    "date_created": "2026-02-19T15:10:05.000",
    "date_modified": "2026-02-19T15:10:07.000",
    "request_status": "Pending",
    "responsible_agency": "Department of Sanitation",
    "final_address": "409 Eliza St",
    "address_councildis": "C",
    "status": "Assigned to Contractor",
    "contractor": "Richards Disposal",
    "rowid": "1259393",
    "final_x": "3686737.81487",
    "final_y": "529689.626753",
    "longitude": "-90.05159587744112",
    "latitude": "29.950302711255198",
    "geocoded_column": {
      "latitude": "29.950302711255198",
      "longitude": "-90.05159587744112"
    }
  },
  {
    "service_request": "2026-1259392",
    "request_type": "Trash/Recycling",
    "request_reason": "Request a Large Item Pick Up",
    "date_created": "2026-02-19T15:09:04.000",
    "date_modified": "2026-02-19T15:09:06.000",
    "request_status": "Pending",
    "responsible_agency": "Department of Sanitation",
    "final_address": "13953 Linden St",
    "address_councildis": "E",
    "status": "Assigned to Contractor",
    "contractor": "Waste Pro",
    "rowid": "1259392",
    "final_x": "3718211.49285",
    "final_y": "572362.326249",
    "longitude": "-89.9505938011654",
    "latitude": "30.066630279387706",
    "geocoded_column": {
      "latitude": "30.066630279387706",
      "longitude": "-89.9505938011654"
    }
  },
  {
    "service_request": "2026-1259391",
    "request_type": "Roads and Streets",
    "request_reason": "Street Subsidence (Sinking)",
    "date_created": "2026-02-19T15:07:51.000",
    "date_modified": "2026-02-19T15:07:53.000",
    "request_status": "Pending",
    "responsible_agency": "Sewerage & Water Board",
    "final_address": "3638 Magazine St",
    "address_councildis": "B",
    "status": "Pending",
    "rowid": "1259391",
    "final_x": "3673823.39809",
    "final_y": "519131.858423",
    "longitude": "-90.09273382886234",
    "latitude": "29.9216631848834",
    "geocoded_column": {
      "latitude": "29.9216631848834",
      "longitude": "-90.09273382886234"
    }
  },
  {
    "service_request": "2026-1259390",
    "request_type": "Trash/Recycling",
    "request_reason": "Repair Trash Cart",
    "date_created": "2026-02-19T15:04:26.000",
    "date_modified": "2026-02-19T15:04:28.000",
    "request_status": "Pending",
    "responsible_agency": "Department of Sanitation",
    "final_address": "9116 Belfast St",
    "address_councildis": "A",
    "status": "Assigned to Contractor",
    "contractor": "IV Waste",
    "rowid": "1259390",
    "final_x": "3662841.92768",
    "final_y": "534813.936582",
    "longitude": "-90.12687656972615",
    "latitude": "29.965106250148036",
    "geocoded_column": {
      "latitude": "29.965106250148036",
      "longitude": "-90.12687656972615"
    }
  },
  {
    "service_request": "2026-1259389",
    "request_type": "Trash/Recycling",
    "request_reason": "Request a Large Item Pick Up",
    "date_created": "2026-02-19T15:03:06.000",
    "date_modified": "2026-02-19T15:03:07.000",
    "request_status": "Pending",
    "responsible_agency": "Department of Sanitation",
    "final_address": "440 Eliza St",
    "address_councildis": "C",
    "status": "Assigned to Contractor",
    "contractor": "Richards Disposal",
    "rowid": "1259389",
    "final_x": "3686831.61513",
    "final_y": "529845.491329",
    "longitude": "-90.05129419974405",
    "latitude": "29.95072840016767",
    "geocoded_column": {
      "latitude": "29.95072840016767",
      "longitude": "-90.05129419974405"
    }
  },
  {
    "service_request": "2026-1259388",
    "request_type": "Trash/Recycling",
    "request_reason": "Repair Trash Cart",
    "date_created": "2026-02-19T15:03:01.000",
    "date_modified": "2026-02-19T15:03:07.000",
    "request_status": "Pending",
    "responsible_agency": "Department of Sanitation",
    "final_address": "201 Audubon St",
    "address_councildis": "A",
    "status": "Assigned to Contractor",
    "contractor": "IV Waste",
    "rowid": "1259388",
    "final_x": "3661001.57203",
    "final_y": "521182.798009",
    "longitude": "-90.1331392252253",
    "latitude": "29.927678119325964",
    "geocoded_column": {
      "latitude": "29.927678119325964",
      "longitude": "-90.1331392252253"
    }
  },
  {
    "service_request": "2026-1259387",
    "request_type": "Trash/Recycling",
    "request_reason": "Request a Large Item Pick Up",
    "date_created": "2026-02-19T15:00:54.000",
    "date_modified": "2026-02-19T15:00:56.000",
    "request_status": "Pending",
    "responsible_agency": "Department of Sanitation",
    "final_address": "6960 W Laverne St",
    "address_councildis": "D",
    "status": "Assigned to Contractor",
    "contractor": "Waste Pro",
    "rowid": "1259387",
    "final_x": "3695890.54058",
    "final_y": "556526.70025",
    "longitude": "-90.02172656059912",
    "latitude": "30.02381020417033",
    "geocoded_column": {
      "latitude": "30.02381020417033",
      "longitude": "-90.02172656059912"
    }
  },
  {
    "service_request": "2026-1259386",
    "request_type": "Trash/Recycling",
    "request_reason": "Illegal Dumping",
    "date_created": "2026-02-19T14:59:27.000",
    "date_modified": "2026-02-19T14:59:29.000",
    "request_status": "Pending",
    "responsible_agency": "Department of Sanitation",
    "final_address": "5661 Bullard Ave",
    "address_councildis": "E",
    "status": "Pending",
    "rowid": "1259386",
    "final_x": "3717217.88274",
    "final_y": "562232.219551",
    "longitude": "-89.95412017240513",
    "latitude": "30.038809587180545",
    "geocoded_column": {
      "latitude": "30.038809587180545",
      "longitude": "-89.95412017240513"
    }
  },
  {
    "service_request": "2026-1259385",
    "request_type": "Trash/Recycling",
    "request_reason": "Replace Trash Cart",
    "date_created": "2026-02-19T14:55:38.000",
    "date_modified": "2026-02-19T14:55:39.000",
    "request_status": "Pending",
    "responsible_agency": "Department of Sanitation",
    "final_address": "3230 Nashville Ave",
    "address_councildis": "A",
    "status": "Assigned to Contractor",
    "contractor": "IV Waste",
    "rowid": "1259385",
    "final_x": "3667867.32545",
    "final_y": "527725.338623",
    "longitude": "-90.11124534092289",
    "latitude": "29.945468480840393",
    "geocoded_column": {
      "latitude": "29.945468480840393",
      "longitude": "-90.11124534092289"
    }
  },
  {
    "service_request": "2026-1259384",
    "request_type": "Trash/Recycling",
    "request_reason": "Request a Large Item Pick Up",
    "date_created": "2026-02-19T14:52:20.000",
    "date_modified": "2026-02-19T14:52:21.000",
    "request_status": "Pending",
    "responsible_agency": "Department of Sanitation",
    "final_address": "5921 Jamison St",
    "address_councildis": "D",
    "status": "Assigned to Contractor",
    "contractor": "Waste Pro",
    "rowid": "1259384",
    "final_x": "3696189.73008",
    "final_y": "553596.570391",
    "longitude": "-90.0208872339325",
    "latitude": "30.01574403449208",
    "geocoded_column": {
      "latitude": "30.01574403449208",
      "longitude": "-90.0208872339325"
    }
  },
  {
    "service_request": "2026-1259383",
    "request_type": "Roads and Streets",
    "request_reason": "Pothole",
    "date_created": "2026-02-19T14:51:07.000",
    "date_modified": "2026-02-19T14:52:04.000",
    "request_status": "Pending",
    "responsible_agency": "Department of Public Works",
    "final_address": "3800 BLK General Taylor St",
    "address_councildis": "B",
    "status": "Pending",
    "rowid": "1259383",
    "final_x": "3670823.65372",
    "final_y": "528723.537813",
    "longitude": "-90.10187736402774",
    "latitude": "29.948126172684642",
    "geocoded_column": {
      "latitude": "29.948126172684642",
      "longitude": "-90.10187736402774"
    }
  },
  {
    "service_request": "2026-1259382",
    "request_type": "Abandoned Vehicles",
    "request_reason": "Abandoned/Junk Vehicles",
    "date_created": "2026-02-19T14:47:27.000",
    "date_modified": "2026-02-19T14:47:29.000",
    "request_status": "Pending",
    "responsible_agency": "Department of Public Works",
    "final_address": "2639 Milan St",
    "address_councildis": "B",
    "status": "Pending",
    "rowid": "1259382",
    "final_x": "3671255.40411",
    "final_y": "524767.862076",
    "longitude": "-90.10064851209869",
    "latitude": "29.93723658729047",
    "geocoded_column": {
      "latitude": "29.93723658729047",
      "longitude": "-90.10064851209869"
    }
  },
  {
    "service_request": "2026-1259381",
    "request_type": "Streetlights",
    "request_reason": "Streetlight Outage/Malfunction",
    "date_created": "2026-02-19T14:45:32.000",
    "date_modified": "2026-02-19T14:45:34.000",
    "request_status": "Pending",
    "responsible_agency": "Department of Public Works",
    "final_address": "2713 Constitution Pl",
    "address_councildis": "D",
    "status": "Pending",
    "rowid": "1259381",
    "final_x": "3687576.52918",
    "final_y": "543003.576909",
    "longitude": "-90.04847627780043",
    "latitude": "29.98688559948988",
    "geocoded_column": {
      "latitude": "29.98688559948988",
      "longitude": "-90.04847627780043"
    }
  },
  {
    "service_request": "2026-1259380",
    "request_type": "Roads and Streets",
    "request_reason": "Sidewalk Damaged or Missing",
    "date_created": "2026-02-19T14:42:50.000",
    "date_modified": "2026-02-19T14:42:52.000",
    "request_status": "Pending",
    "responsible_agency": "Department of Public Works",
    "final_address": "1116 Jena St",
    "address_councildis": "B",
    "status": "Pending",
    "rowid": "1259380",
    "final_x": "3670524.85147",
    "final_y": "519627.910648",
    "longitude": "-90.10312913732764",
    "latitude": "29.92312495882427",
    "geocoded_column": {
      "latitude": "29.92312495882427",
      "longitude": "-90.10312913732764"
    }
  },
  {
    "service_request": "2026-1259379",
    "request_type": "Street and Traffic Signs",
    "request_reason": "Traffic or Parking Sign Damaged or Missing",
    "date_created": "2026-02-19T14:38:57.000",
    "date_modified": "2026-02-19T14:39:03.000",
    "request_status": "Pending",
    "responsible_agency": "Department of Public Works",
    "final_address": "5776 Press Dr",
    "address_councildis": "D",
    "status": "Pending",
    "rowid": "1259379",
    "final_x": "3688857.93123",
    "final_y": "554959.83868",
    "longitude": "-90.04400386437018",
    "latitude": "30.019721388972393",
    "geocoded_column": {
      "latitude": "30.019721388972393",
      "longitude": "-90.04400386437018"
    }
  },
  {
    "service_request": "2026-1259378",
    "request_type": "Abandoned Vehicles",
    "request_reason": "Abandoned/Junk Vehicles",
    "date_created": "2026-02-19T14:34:24.000",
    "date_modified": "2026-02-19T14:34:25.000",
    "request_status": "Pending",
    "responsible_agency": "Department of Public Works",
    "final_address": "1813 N Robertson St",
    "address_councildis": "C",
    "status": "Pending",
    "rowid": "1259378",
    "final_x": "3683509.39823",
    "final_y": "537733.624392",
    "longitude": "-90.06150759753184",
    "latitude": "29.972519848920914",
    "geocoded_column": {
      "latitude": "29.972519848920914",
      "longitude": "-90.06150759753184"
    }
  },
  {
    "service_request": "2026-1259377",
    "request_type": "Drainage",
    "request_reason": "Catch Basin Frame and Cover Missing or Damaged",
    "date_created": "2026-02-19T14:32:14.000",
    "date_modified": "2026-02-19T14:35:06.000",
    "request_status": "Pending",
    "responsible_agency": "Sewerage & Water Board",
    "final_address": "6220 Craigie Rd",
    "address_councildis": "E",
    "status": "Pending",
    "rowid": "1259377",
    "final_x": "3696229.79767",
    "final_y": "558852.443292",
    "longitude": "-90.02057038631786",
    "latitude": "30.030194428761295",
    "geocoded_column": {
      "latitude": "30.030194428761295",
      "longitude": "-90.02057038631786"
    }
  },
  {
    "service_request": "2026-1259376",
    "request_type": "Trash/Recycling",
    "request_reason": "Order Recycling Cart",
    "date_created": "2026-02-19T14:31:04.000",
    "date_modified": "2026-02-19T14:31:05.000",
    "request_status": "Pending",
    "responsible_agency": "Department of Sanitation",
    "final_address": "2301 Dryades St",
    "address_councildis": "B",
    "status": "Pending",
    "rowid": "1259376",
    "final_x": "524255.334012",
    "final_y": "524255.334012",
    "longitude": "-100.0202468845503",
    "latitude": "29.65413671042328",
    "geocoded_column": {
      "latitude": "29.65413671042328",
      "longitude": "-100.0202468845503"
    }
  },
  {
    "service_request": "2026-1259375",
    "request_type": "Trash/Recycling",
    "request_reason": "Order Recycling Cart",
    "date_created": "2026-02-19T14:29:17.000",
    "date_modified": "2026-02-19T14:29:19.000",
    "request_status": "Pending",
    "responsible_agency": "Department of Sanitation",
    "final_address": "1900 Philip St",
    "address_councildis": "B",
    "status": "Pending",
    "rowid": "1259375",
    "final_x": "524289.122556",
    "final_y": "524289.122556",
    "longitude": "-100.02014886945518",
    "latitude": "29.654236395919767",
    "geocoded_column": {
      "latitude": "29.654236395919767",
      "longitude": "-100.02014886945518"
    }
  },
  {
    "service_request": "2026-1259374",
    "request_type": "Abandoned Vehicles",
    "request_reason": "Abandoned/Junk Vehicles",
    "date_created": "2026-02-19T14:27:14.000",
    "date_modified": "2026-02-19T14:27:15.000",
    "request_status": "Pending",
    "responsible_agency": "Department of Public Works",
    "final_address": "1500 BLK Third St",
    "address_councildis": "B",
    "status": "Pending",
    "rowid": "1259374",
    "final_x": "3676596.65104",
    "final_y": "522642.314739",
    "longitude": "-90.08385902357196",
    "latitude": "29.93123294863763",
    "geocoded_column": {
      "latitude": "29.93123294863763",
      "longitude": "-90.08385902357196"
    }
  },
  {
    "service_request": "2026-1259373",
    "request_type": "Trash/Recycling",
    "request_reason": "Request a Large Item Pick Up",
    "date_created": "2026-02-19T14:26:51.000",
    "date_modified": "2026-02-19T14:38:55.000",
    "request_status": "Pending",
    "responsible_agency": "Department of Sanitation",
    "final_address": "4617 Lafon Dr",
    "address_councildis": "E",
    "status": "Assigned to Contractor",
    "contractor": "Waste Pro",
    "rowid": "1259373",
    "final_x": "3701278.69009",
    "final_y": "553537.792215",
    "longitude": "-90.00481068727473",
    "latitude": "30.01542116187114",
    "geocoded_column": {
      "latitude": "30.01542116187114",
      "longitude": "-90.00481068727473"
    }
  },
  {
    "service_request": "2026-1259372",
    "request_type": "Abandoned Vehicles",
    "request_reason": "Abandoned/Junk Vehicles",
    "date_created": "2026-02-19T14:25:51.000",
    "date_modified": "2026-02-19T14:25:53.000",
    "request_status": "Pending",
    "responsible_agency": "Department of Public Works",
    "final_address": "4228 Hollygrove St",
    "address_councildis": "A",
    "status": "Pending",
    "rowid": "1259372",
    "final_x": "3666916.19444",
    "final_y": "538597.706313",
    "longitude": "-90.1138830507991",
    "latitude": "29.97539177356217",
    "geocoded_column": {
      "latitude": "29.97539177356217",
      "longitude": "-90.1138830507991"
    }
  },
  {
    "service_request": "2026-1259371",
    "request_type": "Trash/Recycling",
    "request_reason": "Repair Trash Cart",
    "date_created": "2026-02-19T14:21:37.000",
    "date_modified": "2026-02-19T14:21:39.000",
    "request_status": "Pending",
    "responsible_agency": "Department of Sanitation",
    "final_address": "2431 Burgundy St",
    "address_councildis": "C",
    "status": "Assigned to Contractor",
    "contractor": "IV Waste",
    "rowid": "1259371",
    "final_x": "3686092.7581",
    "final_y": "535697.522311",
    "longitude": "-90.05342073034049",
    "latitude": "29.966842181184763",
    "geocoded_column": {
      "latitude": "29.966842181184763",
      "longitude": "-90.05342073034049"
    }
  },
  {
    "service_request": "2026-1259370",
    "request_type": "Trash/Recycling",
    "request_reason": "Request a Large Item Pick Up",
    "date_created": "2026-02-19T14:20:27.000",
    "date_modified": "2026-02-19T14:20:28.000",
    "request_status": "Pending",
    "responsible_agency": "Department of Sanitation",
    "final_address": "911 S Telemachus St",
    "address_councildis": "B",
    "status": "Assigned to Contractor",
    "contractor": "IV Waste",
    "rowid": "1259370",
    "final_x": "3670078.88577",
    "final_y": "534482.129477",
    "longitude": "-90.1040338401192",
    "latitude": "29.963982387838467",
    "geocoded_column": {
      "latitude": "29.963982387838467",
      "longitude": "-90.1040338401192"
    }
  },
  {
    "service_request": "2026-1259369",
    "request_type": "Trash/Recycling",
    "request_reason": "Start Trash Service",
    "date_created": "2026-02-19T14:18:50.000",
    "date_modified": "2026-02-19T14:18:53.000",
    "request_status": "Pending",
    "responsible_agency": "Department of Sanitation",
    "final_address": "2627 Joseph St",
    "address_councildis": "A",
    "status": "Assigned to Contractor",
    "contractor": "IV Waste",
    "rowid": "1259369",
    "final_x": "3667674.09402",
    "final_y": "525659.545853",
    "longitude": "-90.11192496230962",
    "latitude": "29.939793883046075",
    "geocoded_column": {
      "latitude": "29.939793883046075",
      "longitude": "-90.11192496230962"
    }
  },
  {
    "service_request": "2026-1259368",
    "request_type": "Trash/Recycling",
    "request_reason": "Illegal Dumping",
    "date_created": "2026-02-19T14:15:38.000",
    "date_modified": "2026-02-19T14:15:39.000",
    "request_status": "Pending",
    "responsible_agency": "Department of Sanitation",
    "final_address": "FRANKLIN AVE & JONQUIL ST",
    "address_councildis": "D",
    "status": "Pending",
    "rowid": "1259368",
    "final_x": "3687039.8",
    "final_y": "547219.18",
    "longitude": "-90.05002247399892",
    "latitude": "29.998493534036275",
    "geocoded_column": {
      "latitude": "29.998493534036275",
      "longitude": "-90.05002247399892"
    }
  },
  {
    "service_request": "2026-1259367",
    "request_type": "Trash/Recycling",
    "request_reason": "Request a Large Item Pick Up",
    "date_created": "2026-02-19T14:13:56.000",
    "date_modified": "2026-02-19T14:13:57.000",
    "request_status": "Pending",
    "responsible_agency": "Department of Sanitation",
    "final_address": "4667 Evangeline Dr",
    "address_councildis": "E",
    "status": "Assigned to Contractor",
    "contractor": "Waste Pro",
    "rowid": "1259367",
    "final_x": "3709221.31077",
    "final_y": "555317.626265",
    "longitude": "-89.97964948419498",
    "latitude": "30.020059411203043",
    "geocoded_column": {
      "latitude": "30.020059411203043",
      "longitude": "-89.97964948419498"
    }
  },
  {
    "service_request": "2026-1259366",
    "request_type": "Trash/Recycling",
    "request_reason": "Repair Recycling Cart",
    "date_created": "2026-02-19T14:10:06.000",
    "date_modified": "2026-02-19T14:10:07.000",
    "request_status": "Pending",
    "responsible_agency": "Department of Sanitation",
    "final_address": "3213 Baronne St",
    "address_councildis": "B",
    "status": "Pending",
    "rowid": "1259366",
    "final_x": "3674403.03726",
    "final_y": "522469.25817",
    "longitude": "-90.09078991659192",
    "latitude": "29.930822689394326",
    "geocoded_column": {
      "latitude": "29.930822689394326",
      "longitude": "-90.09078991659192"
    }
  },
  {
    "service_request": "2026-1259365",
    "request_type": "Trash/Recycling",
    "request_reason": "Request a Large Item Pick Up",
    "date_created": "2026-02-19T14:10:03.000",
    "date_modified": "2026-02-19T14:10:05.000",
    "request_status": "Pending",
    "responsible_agency": "Department of Sanitation",
    "final_address": "2226 Alabo St",
    "address_councildis": "E",
    "status": "Assigned to Contractor",
    "contractor": "Waste Pro",
    "rowid": "1259365",
    "final_x": "3700045.50288",
    "final_y": "537919.425929",
    "longitude": "-90.00927718039569",
    "latitude": "29.97251569626216",
    "geocoded_column": {
      "latitude": "29.97251569626216",
      "longitude": "-90.00927718039569"
    }
  },
  {
    "service_request": "2026-1259364",
    "request_type": "Trash/Recycling",
    "request_reason": "Request a Large Item Pick Up",
    "date_created": "2026-02-19T14:09:38.000",
    "date_modified": "2026-02-19T15:05:08.000",
    "request_status": "Pending",
    "responsible_agency": "Department of Sanitation",
    "final_address": "1419 Joseph St",
    "address_councildis": "A",
    "status": "Assigned to Contractor",
    "contractor": "IV Waste",
    "rowid": "1259364",
    "final_x": "3666628.17908",
    "final_y": "521091.708857",
    "longitude": "-90.11538036719244",
    "latitude": "29.92726440138948",
    "geocoded_column": {
      "latitude": "29.92726440138948",
      "longitude": "-90.11538036719244"
    }
  },
  {
    "service_request": "2026-1259363",
    "request_type": "Trash/Recycling",
    "request_reason": "Replace Trash Cart",
    "date_created": "2026-02-19T14:08:26.000",
    "date_modified": "2026-02-19T14:08:29.000",
    "request_status": "Pending",
    "responsible_agency": "Department of Sanitation",
    "final_address": "1709 Eighth St",
    "address_councildis": "B",
    "status": "Assigned to Contractor",
    "contractor": "IV Waste",
    "rowid": "1259363",
    "final_x": "3674717.46331",
    "final_y": "522381.59801",
    "longitude": "-90.0898003196615",
    "latitude": "29.93057227328993",
    "geocoded_column": {
      "latitude": "29.93057227328993",
      "longitude": "-90.0898003196615"
    }
  },
  {
    "service_request": "2026-1259362",
    "request_type": "Property Maintenance",
    "request_reason": "Property Maintenance",
    "date_created": "2026-02-19T14:06:51.000",
    "date_modified": "2026-02-19T14:06:52.000",
    "request_status": "Pending",
    "responsible_agency": "Department of Code Enforcement",
    "final_address": "0 BLK N Broad St",
    "address_councildis": "B",
    "status": "Pending",
    "rowid": "1259362",
    "final_x": "3675449.49847",
    "final_y": "535200.531093",
    "longitude": "-90.08704924250887",
    "latitude": "29.965798227126992",
    "geocoded_column": {
      "latitude": "29.965798227126992",
      "longitude": "-90.08704924250887"
    }
  },
  {
    "service_request": "2026-1259361",
    "request_type": "Trash/Recycling",
    "request_reason": "Replace Trash Cart",
    "date_created": "2026-02-19T14:06:50.000",
    "date_modified": "2026-02-19T14:06:52.000",
    "request_status": "Pending",
    "responsible_agency": "Department of Sanitation",
    "final_address": "1709 Eighth St",
    "address_councildis": "B",
    "status": "Assigned to Contractor",
    "contractor": "IV Waste",
    "rowid": "1259361",
    "final_x": "3674717.46331",
    "final_y": "522381.59801",
    "longitude": "-90.0898003196615",
    "latitude": "29.93057227328993",
    "geocoded_column": {
      "latitude": "29.93057227328993",
      "longitude": "-90.0898003196615"
    }
  },
  {
    "service_request": "2026-1259360",
    "request_type": "Property Maintenance",
    "request_reason": "Property Maintenance",
    "date_created": "2026-02-19T14:03:49.000",
    "date_modified": "2026-02-19T15:30:05.000",
    "case_close_date": "2026-02-19T09:30:05.000",
    "request_status": "Closed",
    "responsible_agency": "Department of Code Enforcement",
    "final_address": "4557 Skyview Dr",
    "address_councildis": "D",
    "status": "Referred to Code Enforcement",
    "rowid": "1259360",
    "final_x": "3696802.70538",
    "final_y": "553235.398999",
    "longitude": "-90.01896360971018",
    "latitude": "30.014731629680423",
    "geocoded_column": {
      "latitude": "30.014731629680423",
      "longitude": "-90.01896360971018"
    }
  },
  {
    "service_request": "2026-1259359",
    "request_type": "Roads and Streets",
    "request_reason": "Abandoned Service Cut",
    "date_created": "2026-02-19T14:03:08.000",
    "date_modified": "2026-02-19T14:05:20.000",
    "request_status": "Pending",
    "responsible_agency": "Department of Public Works",
    "final_address": "7633 Ligustrum Dr",
    "address_councildis": "E",
    "status": "Pending",
    "rowid": "1259359",
    "final_x": "3701542.47524",
    "final_y": "561274.860894",
    "longitude": "-90.0036935871496",
    "latitude": "30.036686706385712",
    "geocoded_column": {
      "latitude": "30.036686706385712",
      "longitude": "-90.0036935871496"
    }
  },
  {
    "service_request": "2026-1259358",
    "request_type": "Trash/Recycling",
    "request_reason": "Start Trash Service",
    "date_created": "2026-02-19T14:02:30.000",
    "date_modified": "2026-02-19T14:02:31.000",
    "request_status": "Pending",
    "responsible_agency": "Department of Sanitation",
    "final_address": "4113 N Villere St",
    "address_councildis": "D",
    "status": "Assigned to Contractor",
    "contractor": "IV Waste",
    "rowid": "1259358",
    "final_x": "3692555.22025",
    "final_y": "536346.490887",
    "longitude": "-90.03298910754238",
    "latitude": "29.9684265459535",
    "geocoded_column": {
      "latitude": "29.9684265459535",
      "longitude": "-90.03298910754238"
    }
  },
  {
    "service_request": "2026-1259357",
    "request_type": "Health Related Request",
    "request_reason": "Homeless Encampment Complaint",
    "date_created": "2026-02-19T13:57:45.000",
    "date_modified": "2026-02-19T13:57:47.000",
    "request_status": "Pending",
    "responsible_agency": "Office Of Homeless Services And Strategy",
    "final_address": "CROWDER BLVD & CROWDER EXIT & I 10 W ONRAMP",
    "address_councildis": "E",
    "status": "Pending",
    "rowid": "1259357",
    "final_x": "3704699.5",
    "final_y": "559063.58",
    "longitude": "-89.99379849601604",
    "latitude": "30.030505441406184",
    "geocoded_column": {
      "latitude": "30.030505441406184",
      "longitude": "-89.99379849601604"
    }
  },
  {
    "service_request": "2026-1259356",
    "request_type": "Trash/Recycling",
    "request_reason": "Request a Large Item Pick Up",
    "date_created": "2026-02-19T13:46:03.000",
    "date_modified": "2026-02-19T13:48:43.000",
    "request_status": "Pending",
    "responsible_agency": "Department of Sanitation",
    "final_address": "4760 Spain St",
    "address_councildis": "D",
    "status": "Assigned to Contractor",
    "contractor": "IV Waste",
    "rowid": "1259356",
    "final_x": "3684890.85173",
    "final_y": "550588.885716",
    "longitude": "-90.0566923914802",
    "latitude": "30.00782501013563",
    "geocoded_column": {
      "latitude": "30.00782501013563",
      "longitude": "-90.0566923914802"
    }
  },
  {
    "service_request": "2026-1259355",
    "request_type": "Trash/Recycling",
    "request_reason": "Replace Trash Cart",
    "date_created": "2026-02-19T13:45:50.000",
    "date_modified": "2026-02-19T13:45:51.000",
    "request_status": "Pending",
    "responsible_agency": "Department of Sanitation",
    "final_address": "9525 Stroelitz St",
    "address_councildis": "A",
    "status": "Assigned to Contractor",
    "contractor": "IV Waste",
    "rowid": "1259355",
    "final_x": "3664179.52237",
    "final_y": "538429.952521",
    "longitude": "-90.12253183597215",
    "latitude": "29.97501030584408",
    "geocoded_column": {
      "latitude": "29.97501030584408",
      "longitude": "-90.12253183597215"
    }
  },
  {
    "service_request": "2026-1259354",
    "request_type": "General Services",
    "request_reason": "General Service Request",
    "date_created": "2026-02-19T13:45:20.000",
    "date_modified": "2026-02-19T14:17:10.000",
    "case_close_date": "2026-02-19T08:17:09.000",
    "request_status": "Closed",
    "responsible_agency": "Orleans Parish Communication District",
    "final_address": "Crowder Blvd, New Orleans, Louisiana, 70126",
    "address_councildis": "E",
    "status": "Additional information requested from citizen",
    "rowid": "1259354",
    "final_x": "3706285.56452",
    "final_y": "556117.323482",
    "longitude": "-89.98889578897932",
    "latitude": "30.02235330616904",
    "geocoded_column": {
      "latitude": "30.02235330616904",
      "longitude": "-89.98889578897932"
    }
  },
  {
    "service_request": "2026-1259353",
    "request_type": "Trash/Recycling",
    "request_reason": "Request a Large Item Pick Up",
    "date_created": "2026-02-19T13:41:29.000",
    "date_modified": "2026-02-19T13:41:31.000",
    "request_status": "Pending",
    "responsible_agency": "Department of Sanitation",
    "final_address": "4061 Mcfarland St",
    "address_councildis": "D",
    "status": "Assigned to Contractor",
    "contractor": "IV Waste",
    "rowid": "1259353",
    "final_x": "3689425.46083",
    "final_y": "548313.15413",
    "longitude": "-90.04244725951499",
    "latitude": "30.001427882284965",
    "geocoded_column": {
      "latitude": "30.001427882284965",
      "longitude": "-90.04244725951499"
    }
  },
  {
    "service_request": "2026-1259352",
    "request_type": "Trash/Recycling",
    "request_reason": "Request a Large Item Pick Up",
    "date_created": "2026-02-19T13:38:49.000",
    "date_modified": "2026-02-19T13:38:51.000",
    "request_status": "Pending",
    "responsible_agency": "Department of Sanitation",
    "final_address": "7500 Ebbtide Dr",
    "address_councildis": "E",
    "status": "Assigned to Contractor",
    "contractor": "Waste Pro",
    "rowid": "1259352",
    "final_x": "3702294.22737",
    "final_y": "561024.89667",
    "longitude": "-90.00132709171326",
    "latitude": "30.03597539501221",
    "geocoded_column": {
      "latitude": "30.03597539501221",
      "longitude": "-90.00132709171326"
    }
  },
  {
    "service_request": "2026-1259351",
    "request_type": "Trash/Recycling",
    "request_reason": "Missed Trash Pick-Up",
    "date_created": "2026-02-19T13:37:59.000",
    "date_modified": "2026-02-19T13:39:55.000",
    "case_close_date": "2026-02-19T07:39:46.000",
    "request_status": "Closed",
    "responsible_agency": "Department of Sanitation",
    "final_address": "1233 Mandeville St",
    "address_councildis": "C",
    "status": "Invalid Request",
    "contractor": "IV Waste",
    "contractor_action": "Invalid Request",
    "rowid": "1259351",
    "final_x": "3685767.13327",
    "final_y": "537001.579016",
    "longitude": "-90.0544030857688",
    "latitude": "29.970437880775492",
    "geocoded_column": {
      "latitude": "29.970437880775492",
      "longitude": "-90.0544030857688"
    }
  },
  {
    "service_request": "2026-1259350",
    "request_type": "Trash/Recycling",
    "request_reason": "Request a Large Item Pick Up",
    "date_created": "2026-02-19T13:32:45.000",
    "date_modified": "2026-02-19T13:32:46.000",
    "request_status": "Pending",
    "responsible_agency": "Department of Sanitation",
    "final_address": "2824 Dryades St",
    "address_councildis": "B",
    "status": "Assigned to Contractor",
    "contractor": "IV Waste",
    "rowid": "1259350",
    "final_x": "3675155.85109",
    "final_y": "523290.052923",
    "longitude": "-90.08838523376917",
    "latitude": "29.93305713983952",
    "geocoded_column": {
      "latitude": "29.93305713983952",
      "longitude": "-90.08838523376917"
    }
  },
  {
    "service_request": "2026-1259349",
    "request_type": "Trash/Recycling",
    "request_reason": "Repair Trash Cart",
    "date_created": "2026-02-19T13:32:16.000",
    "date_modified": "2026-02-19T13:32:18.000",
    "request_status": "Pending",
    "responsible_agency": "Department of Sanitation",
    "final_address": "614 Soraparu St",
    "address_councildis": "B",
    "status": "Assigned to Contractor",
    "contractor": "IV Waste",
    "rowid": "1259349",
    "final_x": "3679257.8061",
    "final_y": "520250.655288",
    "longitude": "-90.07554097505921",
    "latitude": "29.924576607779787",
    "geocoded_column": {
      "latitude": "29.924576607779787",
      "longitude": "-90.07554097505921"
    }
  },
  {
    "service_request": "2026-1259348",
    "request_type": "Trash/Recycling",
    "request_reason": "Request a Large Item Pick Up",
    "date_created": "2026-02-19T13:30:43.000",
    "date_modified": "2026-02-19T13:31:30.000",
    "request_status": "Pending",
    "responsible_agency": "Department of Sanitation",
    "final_address": "7801 Branch Dr",
    "address_councildis": "E",
    "status": "Assigned to Contractor",
    "contractor": "Waste Pro",
    "rowid": "1259348",
    "final_x": "3714364.85938",
    "final_y": "569256.51959",
    "longitude": "-89.96287091635176",
    "latitude": "30.0582176686775",
    "geocoded_column": {
      "latitude": "30.0582176686775",
      "longitude": "-89.96287091635176"
    }
  },
  {
    "service_request": "2026-1259347",
    "request_type": "Trash/Recycling",
    "request_reason": "Order Recycling Cart",
    "date_created": "2026-02-19T13:30:20.000",
    "date_modified": "2026-02-19T13:30:23.000",
    "request_status": "Pending",
    "responsible_agency": "Department of Sanitation",
    "final_address": "1330 St Anthony St",
    "address_councildis": "C",
    "status": "Pending",
    "rowid": "1259347",
    "final_x": "3683380.5574",
    "final_y": "536812.696072",
    "longitude": "-90.06194677062696",
    "latitude": "29.969991546990173",
    "geocoded_column": {
      "latitude": "29.969991546990173",
      "longitude": "-90.06194677062696"
    }
  },
  {
    "service_request": "2026-1259346",
    "request_type": "Trash/Recycling",
    "request_reason": "Request a Large Item Pick Up",
    "date_created": "2026-02-19T13:29:09.000",
    "date_modified": "2026-02-19T13:29:11.000",
    "request_status": "Pending",
    "responsible_agency": "Department of Sanitation",
    "final_address": "10114 Hammond St",
    "address_councildis": "E",
    "status": "Assigned to Contractor",
    "contractor": "Waste Pro",
    "rowid": "1259346",
    "final_x": "3712935.77432",
    "final_y": "556335.049178",
    "longitude": "-89.96787476905696",
    "latitude": "30.02273574086943",
    "geocoded_column": {
      "latitude": "30.02273574086943",
      "longitude": "-89.96787476905696"
    }
  },
  {
    "service_request": "2026-1259345",
    "request_type": "Abandoned Vehicles",
    "request_reason": "Abandoned/Junk Vehicles",
    "date_created": "2026-02-19T13:25:08.000",
    "date_modified": "2026-02-19T13:25:10.000",
    "request_status": "Pending",
    "responsible_agency": "Department of Public Works",
    "final_address": "4217 Orleans Ave",
    "address_councildis": "A",
    "status": "Pending",
    "rowid": "1259345",
    "final_x": "3671948.06715",
    "final_y": "540850.627211",
    "longitude": "-90.09791428990914",
    "latitude": "29.981438332606853",
    "geocoded_column": {
      "latitude": "29.981438332606853",
      "longitude": "-90.09791428990914"
    }
  },
  {
    "service_request": "2026-1259344",
    "request_type": "Trash/Recycling",
    "request_reason": "Repair Recycling Cart",
    "date_created": "2026-02-19T13:20:47.000",
    "date_modified": "2026-02-19T13:20:49.000",
    "request_status": "Pending",
    "responsible_agency": "Department of Sanitation",
    "final_address": "5966 Memphis St",
    "address_councildis": "A",
    "status": "Pending",
    "rowid": "1259344",
    "final_x": "3669090.03521",
    "final_y": "547161.947025",
    "longitude": "-90.10672790798479",
    "latitude": "29.998876719506544",
    "geocoded_column": {
      "latitude": "29.998876719506544",
      "longitude": "-90.10672790798479"
    }
  },
  {
    "service_request": "2026-1259343",
    "request_type": "Trash/Recycling",
    "request_reason": "Request a Large Item Pick Up",
    "date_created": "2026-02-19T13:19:24.000",
    "date_modified": "2026-02-19T13:19:27.000",
    "request_status": "Pending",
    "responsible_agency": "Department of Sanitation",
    "final_address": "2211 Magnolia St",
    "address_councildis": "B",
    "status": "Assigned to Contractor",
    "contractor": "IV Waste",
    "rowid": "1259343",
    "final_x": "3675110.41851",
    "final_y": "526794.929086",
    "longitude": "-90.08840844693744",
    "latitude": "29.942695759849947",
    "geocoded_column": {
      "latitude": "29.942695759849947",
      "longitude": "-90.08840844693744"
    }
  },
  {
    "service_request": "2026-1259342",
    "request_type": "Abandoned Vehicles",
    "request_reason": "Abandoned/Junk Vehicles",
    "date_created": "2026-02-19T13:17:30.000",
    "date_modified": "2026-02-19T13:17:31.000",
    "request_status": "Pending",
    "responsible_agency": "Department of Public Works",
    "final_address": "4400 BLK Saint Ann St",
    "address_councildis": "A",
    "status": "Pending",
    "rowid": "1259342",
    "final_x": "3671428.85494",
    "final_y": "541368.92722",
    "longitude": "-90.09953657830569",
    "latitude": "29.982878863174857",
    "geocoded_column": {
      "latitude": "29.982878863174857",
      "longitude": "-90.09953657830569"
    }
  },
  {
    "service_request": "2026-1259341",
    "request_type": "Street and Traffic Signs",
    "request_reason": "Street Name Sign Damaged or Missing",
    "date_created": "2026-02-19T13:17:15.000",
    "date_modified": "2026-02-19T13:17:16.000",
    "request_status": "Pending",
    "responsible_agency": "Department of Public Works",
    "final_address": "INDIANA ST & HUDSON ST",
    "address_councildis": "C",
    "status": "Pending",
    "rowid": "1259341",
    "final_x": "3693729.4",
    "final_y": "520482.08",
    "longitude": "-90.02985093883838",
    "latitude": "29.924768216000587",
    "geocoded_column": {
      "latitude": "29.924768216000587",
      "longitude": "-90.02985093883838"
    }
  },
  {
    "service_request": "2026-1259340",
    "request_type": "Streetlights",
    "request_reason": "Streetlight Outage/Malfunction",
    "date_created": "2026-02-19T13:15:58.000",
    "date_modified": "2026-02-19T13:16:00.000",
    "request_status": "Pending",
    "responsible_agency": "Department of Public Works",
    "final_address": "3520 Indiana St",
    "address_councildis": "C",
    "status": "Pending",
    "rowid": "1259340",
    "final_x": "3693823.38102",
    "final_y": "520530.526776",
    "longitude": "-90.02955253320269",
    "latitude": "29.924898488224432",
    "geocoded_column": {
      "latitude": "29.924898488224432",
      "longitude": "-90.02955253320269"
    }
  },
  {
    "service_request": "2026-1259338",
    "request_type": "Roads and Streets",
    "request_reason": "Street Subsidence (Sinking)",
    "date_created": "2026-02-19T13:10:20.000",
    "date_modified": "2026-02-19T13:13:58.000",
    "request_status": "Pending",
    "responsible_agency": "Sewerage & Water Board",
    "final_address": "717 Second St",
    "address_councildis": "B",
    "status": "Pending",
    "rowid": "1259338",
    "final_x": "3678589.1099",
    "final_y": "520250.522872",
    "longitude": "-90.07765182784492",
    "latitude": "29.924596410169475",
    "geocoded_column": {
      "latitude": "29.924596410169475",
      "longitude": "-90.07765182784492"
    }
  },
  {
    "service_request": "2026-1259337",
    "request_type": "Trash/Recycling",
    "request_reason": "Request a Large Item Pick Up",
    "date_created": "2026-02-19T13:08:53.000",
    "date_modified": "2026-02-19T13:08:55.000",
    "request_status": "Pending",
    "responsible_agency": "Department of Sanitation",
    "final_address": "4551 Eastview Dr",
    "address_councildis": "E",
    "status": "Assigned to Contractor",
    "contractor": "Waste Pro",
    "rowid": "1259337",
    "final_x": "3705291.04708",
    "final_y": "554155.763288",
    "longitude": "-89.99211074547773",
    "latitude": "30.016991820244723",
    "geocoded_column": {
      "latitude": "30.016991820244723",
      "longitude": "-89.99211074547773"
    }
  },
  {
    "service_request": "2026-1259336",
    "request_type": "Trash/Recycling",
    "request_reason": "Request a Large Item Pick Up",
    "date_created": "2026-02-19T13:08:11.000",
    "date_modified": "2026-02-19T13:08:12.000",
    "request_status": "Pending",
    "responsible_agency": "Department of Sanitation",
    "final_address": "3129 Burgundy St",
    "address_councildis": "C",
    "status": "Assigned to Contractor",
    "contractor": "IV Waste",
    "rowid": "1259336",
    "final_x": "3689057.21615",
    "final_y": "535174.644614",
    "longitude": "-90.04407758231892",
    "latitude": "29.965313067325226",
    "geocoded_column": {
      "latitude": "29.965313067325226",
      "longitude": "-90.04407758231892"
    }
  },
  {
    "service_request": "2026-1259335",
    "request_type": "Trash/Recycling",
    "request_reason": "Missed Trash Pick-Up",
    "date_created": "2026-02-19T13:06:48.000",
    "date_modified": "2026-02-19T13:06:50.000",
    "request_status": "Pending",
    "responsible_agency": "Department of Sanitation",
    "final_address": "12970 Chanelle Ct",
    "address_councildis": "E",
    "status": "Assigned to Contractor",
    "contractor": "Waste Pro",
    "rowid": "1259335",
    "final_x": "3717190.9532",
    "final_y": "567724.617956",
    "longitude": "-89.95399633127306",
    "latitude": "30.053912329621085",
    "geocoded_column": {
      "latitude": "30.053912329621085",
      "longitude": "-89.95399633127306"
    }
  },
  {
    "service_request": "2026-1259334",
    "request_type": "Trash/Recycling",
    "request_reason": "Order Recycling Cart",
    "date_created": "2026-02-19T13:06:27.000",
    "date_modified": "2026-02-19T13:06:29.000",
    "request_status": "Pending",
    "responsible_agency": "Department of Sanitation",
    "final_address": "2130 Annunciation St",
    "address_councildis": "B",
    "status": "Pending",
    "rowid": "1259334",
    "final_x": "3679668.24898",
    "final_y": "521287.759161",
    "longitude": "-90.07420937135875",
    "latitude": "29.927415909818915",
    "geocoded_column": {
      "latitude": "29.927415909818915",
      "longitude": "-90.07420937135875"
    }
  },