[
  {
    "service_request": "2024-1071007",
    "request_type": "Traffic Signals/Signs/Striping/Streetlights",
    "request_reason": "Street Light Outage/Malfunction",
    "date_created": "2024-02-27T22:23:43.000",
    "date_modified": "2024-02-27T22:23:43.000",
    "request_status": "Pending",
    "responsible_agency": "Department of Public Works",
    "final_address": "LOWERLINE ST & GARFIELD ST",
    "address_councildis": "A",
    "status": "Assigned to Contractor",
    "contractor": "Legacy Professional Services",
    "rowid": "1071007",
    "final_x": "3661550.1",
    "final_y": "523650.38",
    "longitude": "-90.13132593098273",
    "latitude": "29.934447386118293",
    "geocoded_column": {
      "latitude": "29.934447386118293",
      "longitude": "-90.13132593098273"
    }
  },
  {
    "service_request": "2024-1071006",
    "request_type": "Traffic Signals/Signs/Striping/Streetlights",
    "request_reason": "Street Light Outage/Malfunction",
    "date_created": "2024-02-27T22:20:47.000",
    "date_modified": "2024-02-27T22:20:47.000",
    "request_status": "Pending",
    "responsible_agency": "Department of Public Works",
    "final_address": "LOWERLINE ST & GARFIELD ST",
    "address_councildis": "A",
    "status": "Assigned to Contractor",
    "contractor": "Legacy Professional Services",
    "rowid": "1071006",
    "final_x": "3661550.1",
    "final_y": "523650.38",
    "longitude": "-90.13132593098273",
    "latitude": "29.934447386118293",
    "geocoded_column": {
      "latitude": "29.934447386118293",
      "longitude": "-90.13132593098273"
    }
  },
  {
    "service_request": "2024-1071005",
    "request_type": "Property Maintenance",
    "request_reason": "Property Maintenance",
    "date_created": "2024-02-27T22:03:52.000",
    "date_modified": "2024-02-27T22:03:52.000",
    "request_status": "Pending",
    "responsible_agency": "Department of Code Enforcement",
    "final_address": "529 S Rendon St",
    "address_councildis": "B",
    "status": "Pending",
    "rowid": "1071005",
    "final_x": "3672442.62055",
    "final_y": "535011.035654",
    "longitude": "-90.09655133893993",
    "latitude": "29.9653667621743",
    "geocoded_column": {
      "latitude": "29.9653667621743",
      "longitude": "-90.09655133893993"
    }
  },
  {
    "service_request": "2024-1071004",
    "request_type": "Trash/Recycling",
    "request_reason": "Missed Trash Pick-Up",
    "date_created": "2024-02-27T21:39:35.000",
    "date_modified": "2024-02-27T21:39:35.000",
    "request_status": "Pending",
    "responsible_agency": "Department of Sanitation",
    "final_address": "1910 Louisiana Ave",
    "address_councildis": "B",
    "status": "Assigned to Contractor",
    "contractor": "Richards Disposal",
    "rowid": "1071004",
    "final_x": "3673667.45083",
    "final_y": "522618.963898",
    "longitude": "-90.09310694810445",
    "latitude": "29.93125624443677",
    "geocoded_column": {
      "latitude": "29.93125624443677",
      "longitude": "-90.09310694810445"
    }
  },
  {
    "service_request": "2024-1071003",
    "request_type": "Trash/Recycling",
    "request_reason": "Request a Large Item Pick Up",
    "date_created": "2024-02-27T21:15:04.000",
    "date_modified": "2024-02-27T21:15:05.000",
    "request_status": "Pending",
    "responsible_agency": "Department of Sanitation",
    "final_address": "1212 Deslonde St",
    "address_councildis": "E",
    "status": "Assigned to Contractor",
    "contractor": "Waste Pro",
    "rowid": "1071003",
    "final_x": "3695428.91549",
    "final_y": "534951.821766",
    "longitude": "-90.02396421232473",
    "latitude": "29.96450171713659",
    "geocoded_column": {
      "latitude": "29.96450171713659",
      "longitude": "-90.02396421232473"
    }
  },
  {
    "service_request": "2024-1071002",
    "request_type": "Abandoned Vehicles",
    "request_reason": "Abandoned/Junk Vehicles",
    "date_created": "2024-02-27T20:38:33.000",
    "date_modified": "2024-02-27T20:38:33.000",
    "request_status": "Pending",
    "responsible_agency": "Department of Public Works",
    "final_address": "2900 BLK Pine St",
    "address_councildis": "B",
    "status": "Pending",
    "rowid": "1071002",
    "final_x": "3667387.97424",
    "final_y": "531911.679075",
    "longitude": "-90.11261799918289",
    "latitude": "29.956993601857125",
    "geocoded_column": {
      "latitude": "29.956993601857125",
      "longitude": "-90.11261799918289"
    }
  },
  {
    "service_request": "2024-1071001",
    "request_type": "Trash/Recycling",
    "request_reason": "Request a Large Item Pick Up",
    "date_created": "2024-02-27T20:12:38.000",
    "date_modified": "2024-02-27T20:12:39.000",
    "request_status": "Pending",
    "responsible_agency": "Department of Sanitation",
    "final_address": "4919 S Derbigny St",
    "address_councildis": "B",
    "status": "Assigned to Contractor",
    "contractor": "Richards Disposal",
    "rowid": "1071001",
    "final_x": "3669090.45639",
    "final_y": "526377.695486",
    "longitude": "-90.10742903276821",
    "latitude": "29.94172697261908",
    "geocoded_column": {
      "latitude": "29.94172697261908",
      "longitude": "-90.10742903276821"
    }
  },
  {
    "service_request": "2024-1070999",
    "request_type": "Abandoned Vehicles",
    "request_reason": "Abandoned/Junk Vehicles",
    "date_created": "2024-02-27T20:01:07.000",
    "date_modified": "2024-02-27T20:01:07.000",
    "request_status": "Pending",
    "responsible_agency": "Department of Public Works",
    "final_address": "540 Turquoise St",
    "address_councildis": "D",
    "status": "Pending",
    "rowid": "1070999",
    "final_x": "3668496.03751",
    "final_y": "555292.160025",
    "longitude": "-90.10832978166168",
    "latitude": "30.02124942589741",
    "geocoded_column": {
      "latitude": "30.02124942589741",
      "longitude": "-90.10832978166168"
    }
  },
  {
    "service_request": "2024-1070998",
    "request_type": "Abandoned Vehicles",
    "request_reason": "Abandoned/Junk Vehicles",
    "date_created": "2024-02-27T19:51:13.000",
    "date_modified": "2024-02-27T19:51:13.000",
    "request_status": "Pending",
    "responsible_agency": "Department of Public Works",
    "final_address": "7424 General Haig St",
    "address_councildis": "D",
    "status": "Pending",
    "rowid": "1070998",
    "final_x": "3671219.06151",
    "final_y": "555706.288985",
    "longitude": "-90.09971167496414",
    "latitude": "30.02230780513205",
    "geocoded_column": {
      "latitude": "30.02230780513205",
      "longitude": "-90.09971167496414"
    }
  },
  {
    "service_request": "2024-1070996",
    "request_type": "Trash/Recycling",
    "request_reason": "Replace Recycling Cart",
    "date_created": "2024-02-27T18:35:16.000",
    "date_modified": "2024-02-27T18:35:16.000",
    "request_status": "Pending",
    "responsible_agency": "Department of Sanitation",
    "final_address": "2721 Danbury Dr",
    "address_councildis": "C",
    "status": "Pending",
    "rowid": "1070996",
    "final_x": "3703591.5226",
    "final_y": "520783.086969",
    "longitude": "-89.99870866149085",
    "latitude": "29.925283713642234",
    "geocoded_column": {
      "latitude": "29.925283713642234",
      "longitude": "-89.99870866149085"
    }
  },
  {
    "service_request": "2024-1070995",
    "request_type": "Parks & Parkways",
    "request_reason": "Tree Stump (removal, grind)",
    "date_created": "2024-02-27T18:28:38.000",
    "date_modified": "2024-02-27T18:28:38.000",
    "request_status": "Pending",
    "responsible_agency": "Department of Parks & Parkway",
    "final_address": "2721 Danbury Dr",
    "address_councildis": "C",
    "status": "Pending",
    "rowid": "1070995",
    "final_x": "3703591.5226",
    "final_y": "520783.086969",
    "longitude": "-89.99870866149085",
    "latitude": "29.925283713642234",
    "geocoded_column": {
      "latitude": "29.925283713642234",
      "longitude": "-89.99870866149085"
    }
  },
  {
    "service_request": "2024-1070994",
    "request_type": "Traffic Signals/Signs/Striping/Streetlights",
    "request_reason": "Striping/Road Surface Markings",
    "date_created": "2024-02-27T18:22:01.000",
    "date_modified": "2024-02-27T18:22:01.000",
    "request_status": "Pending",
    "responsible_agency": "Department of Public Works",
    "final_address": "2136 Louisiana Ave",
    "address_councildis": "B",
    "status": "Pending",
    "rowid": "1070994",
    "final_x": "3673306.30184",
    "final_y": "523450.196155",
    "longitude": "-90.09421867462069",
    "latitude": "29.93355260756638",
    "geocoded_column": {
      "latitude": "29.93355260756638",
      "longitude": "-90.09421867462069"
    }
  },
  {
    "service_request": "2024-1070993",
    "request_type": "Roads/Drainage",
    "request_reason": "Debris in Roadway",
    "date_created": "2024-02-27T18:18:02.000",
    "date_modified": "2024-02-27T18:18:03.000",
    "request_status": "Pending",
    "responsible_agency": "Department of Public Works",
    "final_address": "CHEF MENTEUR HWY & WILSON AVE",
    "address_councildis": "E",
    "status": "Pending",
    "rowid": "1070993",
    "final_x": "3703246.7",
    "final_y": "552425.58",
    "longitude": "-89.99863366607299",
    "latitude": "30.012300115548967",
    "geocoded_column": {
      "latitude": "30.012300115548967",
      "longitude": "-89.99863366607299"
    }
  },
  {
    "service_request": "2024-1070992",
    "request_type": "Trash/Recycling",
    "request_reason": "MIssed Recycling Pick-Up",
    "date_created": "2024-02-27T18:13:20.000",
    "date_modified": "2024-02-27T18:13:21.000",
    "request_status": "Pending",
    "responsible_agency": "Department of Sanitation",
    "final_address": "2517 Conti St",
    "address_councildis": "B",
    "status": "Assigned to Contractor",
    "contractor": "Richards Disposal",
    "rowid": "1070992",
    "final_x": "3676742.78318",
    "final_y": "535554.884422",
    "longitude": "-90.08295287913514",
    "latitude": "29.966733837000522",
    "geocoded_column": {
      "latitude": "29.966733837000522",
      "longitude": "-90.08295287913514"
    }
  },
  {
    "service_request": "2024-1070991",
    "request_type": "Abandoned Vehicles",
    "request_reason": "Vehicle Blocking Your Driveway",
    "date_created": "2024-02-27T18:11:25.000",
    "date_modified": "2024-02-27T18:11:25.000",
    "request_status": "Pending",
    "responsible_agency": "Department of Public Works",
    "final_address": "1614 Opelousas ave",
    "address_councildis": "C",
    "status": "Pending",
    "rowid": "1070991",
    "final_x": "3690405.86364",
    "final_y": "529085.611392",
    "longitude": "-90.04003566863395",
    "latitude": "29.94852854639118",
    "geocoded_column": {
      "latitude": "29.94852854639118",
      "longitude": "-90.04003566863395"
    }
  },
  {
    "service_request": "2024-1070990",
    "request_type": "Trash/Recycling",
    "request_reason": "Request a Large Item Pick Up",
    "date_created": "2024-02-27T17:51:40.000",
    "date_modified": "2024-02-27T17:51:41.000",
    "request_status": "Pending",
    "responsible_agency": "Department of Sanitation",
    "final_address": "1730 Prytania St",
    "address_councildis": "B",
    "status": "Assigned to Contractor",
    "contractor": "Richards Disposal",
    "rowid": "1070990",
    "final_x": "3679214.4589",
    "final_y": "524490.956028",
    "longitude": "-90.07553087665991",
    "latitude": "29.936237353005108",
    "geocoded_column": {
      "latitude": "29.936237353005108",
      "longitude": "-90.07553087665991"
    }
  },
  {
    "service_request": "2024-1070989",
    "request_type": "Parks & Parkways",
    "request_reason": "Request Tree Service (Right of Way/Public Property)",
    "date_created": "2024-02-27T17:49:07.000",
    "date_modified": "2024-02-27T17:49:07.000",
    "request_status": "Pending",
    "responsible_agency": "Department of Parks & Parkway",
    "final_address": "53 Neron Pl",
    "address_councildis": "A",
    "status": "Pending",
    "rowid": "1070989",
    "final_x": "3665646.37946",
    "final_y": "530307.321154",
    "longitude": "-90.118171158678",
    "latitude": "29.952633042673728",
    "geocoded_column": {
      "latitude": "29.952633042673728",
      "longitude": "-90.118171158678"
    }
  },
  {
    "service_request": "2024-1070988",
    "request_type": "Trash/Recycling",
    "request_reason": "Missed Trash Pick-Up",
    "date_created": "2024-02-27T17:48:20.000",
    "date_modified": "2024-02-27T17:48:21.000",
    "request_status": "Pending",
    "responsible_agency": "Department of Sanitation",
    "final_address": "7540 Hickman St",
    "address_councildis": "E",
    "status": "Assigned to Contractor",
    "contractor": "Waste Pro",
    "rowid": "1070988",
    "final_x": "3706166.93777",
    "final_y": "563123.526048",
    "longitude": "-89.98901089207631",
    "latitude": "30.041621442120622",
    "geocoded_column": {
      "latitude": "30.041621442120622",
      "longitude": "-89.98901089207631"
    }
  },
  {
    "service_request": "2024-1070987",
    "request_type": "Trash/Recycling",
    "request_reason": "MIssed Recycling Pick-Up",
    "date_created": "2024-02-27T17:47:55.000",
    "date_modified": "2024-02-27T17:47:56.000",
    "request_status": "Pending",
    "responsible_agency": "Department of Sanitation",
    "final_address": "6760 General Haig St",
    "address_councildis": "A",
    "status": "Assigned to Contractor",
    "contractor": "IV Waste",
    "rowid": "1070987",
    "final_x": "3670903.34075",
    "final_y": "552322.489558",
    "longitude": "-90.10082428485133",
    "latitude": "30.013012903033637",
    "geocoded_column": {
      "latitude": "30.013012903033637",
      "longitude": "-90.10082428485133"
    }
  },
  {
    "service_request": "2024-1070986",
    "request_type": "Safety & Permits",
    "request_reason": "Licenses & Permits",
    "date_created": "2024-02-27T17:42:54.000",
    "date_modified": "2024-02-27T17:42:54.000",
    "request_status": "Pending",
    "responsible_agency": "Safety and Permits",
    "final_address": "233 Decatur St",
    "address_councildis": "C",
    "status": "Pending",
    "rowid": "1070986",
    "final_x": "3682188.17468",
    "final_y": "530779.769218",
    "longitude": "-90.06592316937477",
    "latitude": "29.95343938670711",
    "geocoded_column": {
      "latitude": "29.95343938670711",
      "longitude": "-90.06592316937477"
    }
  },
  {
    "service_request": "2024-1070985",
    "request_type": "Traffic Signals/Signs/Striping/Streetlights",
    "request_reason": "Street Light Outage/Malfunction",
    "date_created": "2024-02-27T17:29:38.000",
    "date_modified": "2024-02-27T17:29:38.000",
    "request_status": "Pending",
    "responsible_agency": "Department of Public Works",
    "final_address": "3300 BLK Tchoupitoulas St",
    "address_councildis": "B",
    "status": "Assigned to Contractor",
    "contractor": "Legacy Professional Services",
    "rowid": "1070985",
    "final_x": "3675980.61946",
    "final_y": "517986.062241",
    "longitude": "-90.08596377503963",
    "latitude": "29.918448215439316",
    "geocoded_column": {
      "latitude": "29.918448215439316",
      "longitude": "-90.08596377503963"
    }
  },
  {
    "service_request": "2024-1070984",
    "request_type": "Roads/Drainage",
    "request_reason": "Pothole",
    "date_created": "2024-02-27T17:27:13.000",
    "date_modified": "2024-02-27T17:27:13.000",
    "request_status": "Pending",
    "responsible_agency": "Department of Public Works",
    "final_address": "4216 Chestnut St",
    "address_councildis": "B",
    "status": "Pending",
    "rowid": "1070984",
    "final_x": "3671574.31393",
    "final_y": "519539.203703",
    "longitude": "-90.09981939416457",
    "latitude": "29.922850019854593",
    "geocoded_column": {
      "latitude": "29.922850019854593",
      "longitude": "-90.09981939416457"
    }
  },
  {
    "service_request": "2024-1070983",
    "request_type": "Abandoned Vehicles",
    "request_reason": "Abandoned/Junk Vehicles",
    "date_created": "2024-02-27T17:25:17.000",
    "date_modified": "2024-02-27T17:25:17.000",
    "request_status": "Pending",
    "responsible_agency": "Department of Public Works",
    "final_address": "7301 Hampson St",
    "address_councildis": "A",
    "status": "Pending",
    "rowid": "1070983",
    "final_x": "3662911.79015",
    "final_y": "525298.288765",
    "longitude": "-90.12697231785812",
    "latitude": "29.9389392654832",
    "geocoded_column": {
      "latitude": "29.9389392654832",
      "longitude": "-90.12697231785812"
    }
  },
  {
    "service_request": "2024-1070982",
    "request_type": "Abandoned Vehicles",
    "request_reason": "Abandoned/Junk Vehicles",
    "date_created": "2024-02-27T17:15:43.000",
    "date_modified": "2024-02-27T17:15:43.000",
    "request_status": "Pending",
    "responsible_agency": "Department of Public Works",
    "final_address": "7319 Hampson St",
    "address_councildis": "A",
    "status": "Pending",
    "rowid": "1070982",
    "final_x": "3662840.37831",
    "final_y": "525347.879805",
    "longitude": "-90.1271961263855",
    "latitude": "29.93907769220298",
    "geocoded_column": {
      "latitude": "29.93907769220298",
      "longitude": "-90.1271961263855"
    }
  },
  {
    "service_request": "2024-1070981",
    "request_type": "Trash/Recycling",
    "request_reason": "MIssed Recycling Pick-Up",
    "date_created": "2024-02-27T17:03:01.000",
    "date_modified": "2024-02-27T17:03:02.000",
    "request_status": "Pending",
    "responsible_agency": "Department of Sanitation",
    "final_address": "5353 Berkley Dr",
    "address_councildis": "C",
    "status": "Assigned to Contractor",
    "contractor": "Richards Disposal",
    "rowid": "1070981",
    "final_x": "3703732.32567",
    "final_y": "518105.796598",
    "longitude": "-89.99836265705274",
    "latitude": "29.91791758037602",
    "geocoded_column": {
      "latitude": "29.91791758037602",
      "longitude": "-89.99836265705274"
    }
  },
  {
    "service_request": "2024-1070980",
    "request_type": "Traffic Signals/Signs/Striping/Streetlights",
    "request_reason": "Traffic Signal Malfunctioning/Damaged",
    "date_created": "2024-02-27T16:54:53.000",
    "date_modified": "2024-02-27T16:54:54.000",
    "request_status": "Pending",
    "responsible_agency": "Department of Public Works",
    "final_address": "MORRISON RD & READ BLVD",
    "address_councildis": "E",
    "status": "Pending",
    "rowid": "1070980",
    "final_x": "3708986.9",
    "final_y": "563787.08",
    "longitude": "-89.9800740921111",
    "latitude": "30.043354679575092",
    "geocoded_column": {
      "latitude": "30.043354679575092",
      "longitude": "-89.9800740921111"
    }
  },
  {
    "service_request": "2024-1070979",
    "request_type": "Trash/Recycling",
    "request_reason": "Repair Trash Cart",
    "date_created": "2024-02-27T16:52:26.000",
    "date_modified": "2024-02-27T16:52:27.000",
    "request_status": "Pending",
    "responsible_agency": "Department of Sanitation",
    "final_address": "3712 Red Cypress Dr",
    "address_councildis": "C",
    "status": "Assigned to Contractor",
    "contractor": "Richards Disposal",
    "rowid": "1070979",
    "final_x": "3702999.31127",
    "final_y": "512260.996081",
    "longitude": "-90.0008908962087",
    "latitude": "29.901869833681022",
    "geocoded_column": {
      "latitude": "29.901869833681022",
      "longitude": "-90.0008908962087"
    }
  },
  {
    "service_request": "2024-1070977",
    "request_type": "Traffic Signals/Signs/Striping/Streetlights",
    "request_reason": "Striping/Road Surface Markings",
    "date_created": "2024-02-27T16:34:02.000",
    "date_modified": "2024-02-27T16:34:03.000",
    "request_status": "Pending",
    "responsible_agency": "Department of Public Works",
    "final_address": "7501 Expedition Dr",
    "address_councildis": "E",
    "status": "Pending",
    "rowid": "1070977",
    "final_x": "3726380.00883",
    "final_y": "571111.131816",
    "longitude": "-89.9248208228404",
    "latitude": "30.062916459108504",
    "geocoded_column": {
      "latitude": "30.062916459108504",
      "longitude": "-89.9248208228404"
    }
  },
  {
    "service_request": "2024-1070976",
    "request_type": "Trash/Recycling",
    "request_reason": "Replace Trash Cart",
    "date_created": "2024-02-27T16:30:49.000",
    "date_modified": "2024-02-27T16:30:49.000",
    "request_status": "Pending",
    "responsible_agency": "Department of Sanitation",
    "final_address": "1336 Lamanche St",
    "address_councildis": "E",
    "status": "Assigned to Contractor",
    "contractor": "Waste Pro",
    "rowid": "1070976",
    "final_x": "3698593.68023",
    "final_y": "534718.902214",
    "longitude": "-90.01397865226953",
    "latitude": "29.963761452863768",
    "geocoded_column": {
      "latitude": "29.963761452863768",
      "longitude": "-90.01397865226953"
    }
  },
  {
    "service_request": "2024-1070975",
    "request_type": "Trash/Recycling",
    "request_reason": "MIssed Recycling Pick-Up",
    "date_created": "2024-02-27T16:27:25.000",
    "date_modified": "2024-02-27T16:27:26.000",
    "request_status": "Pending",
    "responsible_agency": "Department of Sanitation",
    "final_address": "3300 BLK Laurel St",
    "address_councildis": "B",
    "status": "Assigned to Contractor",
    "contractor": "Richards Disposal",
    "rowid": "1070975",
    "final_x": "3675523.41565",
    "final_y": "519040.692021",
    "longitude": "-90.08737072806095",
    "latitude": "29.921361786423017",
    "geocoded_column": {
      "latitude": "29.921361786423017",
      "longitude": "-90.08737072806095"
    }
  },
  {
    "service_request": "2024-1070974",
    "request_type": "Trash/Recycling",
    "request_reason": "Request a Large Item Pick Up",
    "date_created": "2024-02-27T16:26:12.000",
    "date_modified": "2024-02-27T16:34:56.000",
    "request_status": "Pending",
    "responsible_agency": "Department of Sanitation",
    "final_address": "1021 Franklin Ave, New Orleans, Louisiana, 70117",
    "address_councildis": "C",
    "status": "Assigned to Contractor",
    "contractor": "IV Waste",
    "rowid": "1070974",
    "final_x": "3687084.18102",
    "final_y": "536189.299015",
    "longitude": "-90.05027243521138",
    "latitude": "29.96816390808259",
    "geocoded_column": {
      "latitude": "29.96816390808259",
      "longitude": "-90.05027243521138"
    }
  },
  {
    "service_request": "2024-1070973",
    "request_type": "Abandoned Vehicles",
    "request_reason": "Abandoned/Junk Vehicles",
    "date_created": "2024-02-27T16:22:51.000",
    "date_modified": "2024-02-27T16:22:51.000",
    "request_status": "Pending",
    "responsible_agency": "Department of Public Works",
    "final_address": "3201 Chippewa St",
    "address_councildis": "B",
    "status": "Pending",
    "rowid": "1070973",
    "final_x": "3676453.13851",
    "final_y": "518660.345975",
    "longitude": "-90.08444908493479",
    "latitude": "29.920288126416974",
    "geocoded_column": {
      "latitude": "29.920288126416974",
      "longitude": "-90.08444908493479"
    }
  },
  {
    "service_request": "2024-1070972",
    "request_type": "Roads/Drainage",
    "request_reason": "Man hole cover issue",
    "date_created": "2024-02-27T16:18:20.000",
    "date_modified": "2024-02-27T16:18:20.000",
    "request_status": "Pending",
    "responsible_agency": "Department of Public Works",
    "final_address": "ST ANTHONY ST & N MIRO ST",
    "address_councildis": "D",
    "status": "Pending",
    "rowid": "1070972",
    "final_x": "3683189.0",
    "final_y": "540234.98",
    "longitude": "-90.06243185186685",
    "latitude": "29.979407479664467",
    "geocoded_column": {
      "latitude": "29.979407479664467",
      "longitude": "-90.06243185186685"
    }
  },
  {
    "service_request": "2024-1070971",
    "request_type": "Roads/Drainage",
    "request_reason": "Pothole",
    "date_created": "2024-02-27T16:16:51.000",
    "date_modified": "2024-02-27T16:16:51.000",
    "request_status": "Pending",
    "responsible_agency": "Department of Public Works",
    "final_address": "5769 Warrington Dr",
    "address_councildis": "D",
    "status": "Pending",
    "rowid": "1070971",
    "final_x": "3680829.62299",
    "final_y": "554464.313944",
    "longitude": "-90.06938795480225",
    "latitude": "30.018604825870657",
    "geocoded_column": {
      "latitude": "30.018604825870657",
      "longitude": "-90.06938795480225"
    }
  },
  {
    "service_request": "2024-1070970",
    "request_type": "Trash/Recycling",
    "request_reason": "Start Trash Service",
    "date_created": "2024-02-27T16:10:21.000",
    "date_modified": "2024-02-27T16:10:21.000",
    "request_status": "Pending",
    "responsible_agency": "Department of Sanitation",
    "final_address": "1801 Carondelet St",
    "address_councildis": "B",
    "status": "Assigned to Contractor",
    "contractor": "Richards Disposal",
    "rowid": "1070970",
    "final_x": "3677886.00616",
    "final_y": "524887.348156",
    "longitude": "-90.07971115300901",
    "latitude": "29.93736733135757",
    "geocoded_column": {
      "latitude": "29.93736733135757",
      "longitude": "-90.07971115300901"
    }
  },
  {
    "service_request": "2024-1070969",
    "request_type": "Trash/Recycling",
    "request_reason": "Repair Trash Cart",
    "date_created": "2024-02-27T16:01:51.000",
    "date_modified": "2024-02-27T16:01:52.000",
    "request_status": "Pending",
    "responsible_agency": "Department of Sanitation",
    "final_address": "215 34Th St",
    "address_councildis": "A",
    "status": "Assigned to Contractor",
    "contractor": "IV Waste",
    "rowid": "1070969",
    "final_x": "3665541.90138",
    "final_y": "551394.971541",
    "longitude": "-90.1177946988746",
    "latitude": "30.01062003338319",
    "geocoded_column": {
      "latitude": "30.01062003338319",
      "longitude": "-90.1177946988746"
    }
  },
  {
    "service_request": "2024-1070968",
    "request_type": "Trash/Recycling",
    "request_reason": "Request a Large Item Pick Up",
    "date_created": "2024-02-27T16:00:34.000",
    "date_modified": "2024-02-27T16:00:34.000",
    "request_status": "Pending",
    "responsible_agency": "Department of Sanitation",
    "final_address": "7438 Strathmore Dr",
    "address_councildis": "E",
    "status": "Assigned to Contractor",
    "contractor": "Waste Pro",
    "rowid": "1070968",
    "final_x": "3714579.00427",
    "final_y": "566719.191779",
    "longitude": "-89.96228999951636",
    "latitude": "30.051234013687996",
    "geocoded_column": {
      "latitude": "30.051234013687996",
      "longitude": "-89.96228999951636"
    }
  },
  {
    "service_request": "2024-1070967",
    "request_type": "Trash/Recycling",
    "request_reason": "Missed Trash Pick-Up",
    "date_created": "2024-02-27T16:00:30.000",
    "date_modified": "2024-02-27T16:00:30.000",
    "request_status": "Pending",
    "responsible_agency": "Department of Sanitation",
    "final_address": "323 Opelousas Ave",
    "address_councildis": "C",
    "status": "Assigned to Contractor",
    "contractor": "Richards Disposal",
    "rowid": "1070967",
    "final_x": "3686313.68732",
    "final_y": "528991.298432",
    "longitude": "-90.05295968529492",
    "latitude": "29.948395584747722",
    "geocoded_column": {
      "latitude": "29.948395584747722",
      "longitude": "-90.05295968529492"
    }
  },
  {
    "service_request": "2024-1070966",
    "request_type": "Trash/Recycling",
    "request_reason": "Repair Trash Cart",
    "date_created": "2024-02-27T16:00:19.000",
    "date_modified": "2024-02-27T16:00:20.000",
    "request_status": "Pending",
    "responsible_agency": "Department of Sanitation",
    "final_address": "2170 L. B. Landry Ave",
    "address_councildis": "C",
    "status": "Assigned to Contractor",
    "contractor": "Richards Disposal",
    "rowid": "1070966",
    "final_x": "3689986.58832",
    "final_y": "522370.11961",
    "longitude": "-90.04159852588057",
    "latitude": "29.930076234037212",
    "geocoded_column": {
      "latitude": "29.930076234037212",
      "longitude": "-90.04159852588057"
    }
  },
  {
    "service_request": "2024-1070965",
    "request_type": "Trash/Recycling",
    "request_reason": "Order Recycling Cart",
    "date_created": "2024-02-27T15:58:28.000",
    "date_modified": "2024-02-27T15:58:29.000",
    "request_status": "Pending",
    "responsible_agency": "Department of Sanitation",
    "final_address": "11248 Midpoint Dr",
    "address_councildis": "E",
    "status": "Pending",
    "rowid": "1070965",
    "final_x": "3718024.16268",
    "final_y": "559177.620636",
    "longitude": "-89.95168853404788",
    "latitude": "30.030383964788175",
    "geocoded_column": {
      "latitude": "30.030383964788175",
      "longitude": "-89.95168853404788"
    }
  },
  {
    "service_request": "2024-1070964",
    "request_type": "Trash/Recycling",
    "request_reason": "Missed Trash Pick-Up",
    "date_created": "2024-02-27T15:50:35.000",
    "date_modified": "2024-02-27T15:50:35.000",
    "request_status": "Pending",
    "responsible_agency": "Department of Sanitation",
    "final_address": "6120 Law St",
    "address_councildis": "E",
    "status": "Assigned to Contractor",
    "contractor": "Waste Pro",
    "rowid": "1070964",
    "final_x": "3701816.47895",
    "final_y": "538559.798473",
    "longitude": "-90.0036606924821",
    "latitude": "29.974220099732527",
    "geocoded_column": {
      "latitude": "29.974220099732527",
      "longitude": "-90.0036606924821"
    }
  },
  {
    "service_request": "2024-1070963",
    "request_type": "Trash/Recycling",
    "request_reason": "Replace Trash Cart",
    "date_created": "2024-02-27T15:48:36.000",
    "date_modified": "2024-02-27T15:48:37.000",
    "request_status": "Pending",
    "responsible_agency": "Department of Sanitation",
    "final_address": "47 S Lark St",
    "address_councildis": "D",
    "status": "Assigned to Contractor",
    "contractor": "IV Waste",
    "rowid": "1070963",
    "final_x": "3675338.82357",
    "final_y": "555997.446489",
    "longitude": "-90.08668421035736",
    "latitude": "30.022985782926906",
    "geocoded_column": {
      "latitude": "30.022985782926906",
      "longitude": "-90.08668421035736"
    }
  },
  {
    "service_request": "2024-1070962",
    "request_type": "Trash/Recycling",
    "request_reason": "Order Recycling Cart",
    "date_created": "2024-02-27T15:47:38.000",
    "date_modified": "2024-02-27T15:47:38.000",
    "request_status": "Pending",
    "responsible_agency": "Department of Sanitation",
    "final_address": "4629 Tchoupitoulas St",
    "address_councildis": "B",
    "status": "Pending",
    "rowid": "1070962",
    "final_x": "3670183.25748",
    "final_y": "517400.355829",
    "longitude": "-90.10428284295669",
    "latitude": "29.917009968413574",
    "geocoded_column": {
      "latitude": "29.917009968413574",
      "longitude": "-90.10428284295669"
    }
  },
  {
    "service_request": "2024-1070961",
    "request_type": "Trash/Recycling",
    "request_reason": "Order Trash Cart",
    "date_created": "2024-02-27T15:47:12.000",
    "date_modified": "2024-02-27T15:47:12.000",
    "request_status": "Pending",
    "responsible_agency": "Department of Sanitation",
    "final_address": "4528 S Roman St",
    "address_councildis": "B",
    "status": "Assigned to Contractor",
    "contractor": "Richards Disposal",
    "rowid": "1070961",
    "final_x": "3669633.95418",
    "final_y": "526472.193982",
    "longitude": "-90.1057098978402",
    "latitude": "29.94197081304551",
    "geocoded_column": {
      "latitude": "29.94197081304551",
      "longitude": "-90.1057098978402"
    }
  },
  {
    "service_request": "2024-1070960",
    "request_type": "Trash/Recycling",
    "request_reason": "Order Recycling Cart",
    "date_created": "2024-02-27T15:46:49.000",
    "date_modified": "2024-02-27T15:46:50.000",
    "request_status": "Pending",
    "responsible_agency": "Department of Sanitation",
    "final_address": "4528 S Roman St",
    "address_councildis": "B",
    "status": "Pending",
    "rowid": "1070960",
    "final_x": "3669633.95418",
    "final_y": "526472.193982",
    "longitude": "-90.1057098978402",
    "latitude": "29.94197081304551",
    "geocoded_column": {
      "latitude": "29.94197081304551",
      "longitude": "-90.1057098978402"
    }
  },
  {
    "service_request": "2024-1070959",
    "request_type": "Trash/Recycling",
    "request_reason": "Request a Large Item Pick Up",
    "date_created": "2024-02-27T15:46:06.000",
    "date_modified": "2024-02-27T15:46:06.000",
    "request_status": "Pending",
    "responsible_agency": "Department of Sanitation",
    "final_address": "10 Charlotte Dr",
    "address_councildis": "D",
    "status": "Assigned to Contractor",
    "contractor": "IV Waste",
    "rowid": "1070959",
    "final_x": "3680056.82434",
    "final_y": "551437.783317",
    "longitude": "-90.0719349896129",
    "latitude": "30.01030637879483",
    "geocoded_column": {
      "latitude": "30.01030637879483",
      "longitude": "-90.0719349896129"
    }
  },
  {
    "service_request": "2024-1070958",
    "request_type": "Trash/Recycling",
    "request_reason": "Request a Large Item Pick Up",
    "date_created": "2024-02-27T15:46:05.000",
    "date_modified": "2024-02-27T15:46:05.000",
    "request_status": "Pending",
    "responsible_agency": "Department of Sanitation",
    "final_address": "1520 Arts St",
    "address_councildis": "C",
    "status": "Assigned to Contractor",
    "contractor": "IV Waste",
    "rowid": "1070958",
    "final_x": "3687037.13244",
    "final_y": "538145.275465",
    "longitude": "-90.05035185264467",
    "latitude": "29.97354360776205",
    "geocoded_column": {
      "latitude": "29.97354360776205",
      "longitude": "-90.05035185264467"
    }
  },
  {
    "service_request": "2024-1070957",
    "request_type": "Trash/Recycling",
    "request_reason": "Order Recycling Cart",
    "date_created": "2024-02-27T15:43:26.000",
    "date_modified": "2024-02-27T15:43:27.000",
    "request_status": "Pending",
    "responsible_agency": "Department of Sanitation",
    "final_address": "85 Egret St",
    "address_councildis": "D",
    "status": "Pending",
    "rowid": "1070957",
    "final_x": "3673589.30363",
    "final_y": "555650.068185",
    "longitude": "-90.0922242012521",
    "latitude": "30.02208283929915",
    "geocoded_column": {
      "latitude": "30.02208283929915",
      "longitude": "-90.0922242012521"
    }
  },
  {
    "service_request": "2024-1070956",
    "request_type": "Trash/Recycling",
    "request_reason": "MIssed Recycling Pick-Up",
    "date_created": "2024-02-27T15:42:53.000",
    "date_modified": "2024-02-27T16:48:55.000",
    "case_close_date": "2024-02-27T10:48:55.000",
    "request_status": "Closed",
    "responsible_agency": "Department of Sanitation",
    "final_address": "85 Egret St",
    "address_councildis": "D",
    "status": "Assigned to Contractor",
    "contractor": "IV Waste",
    "contractor_action": "Completed",
    "rowid": "1070956",
    "final_x": "3673589.30363",
    "final_y": "555650.068185",
    "longitude": "-90.0922242012521",
    "latitude": "30.02208283929915",
    "geocoded_column": {
      "latitude": "30.02208283929915",
      "longitude": "-90.0922242012521"
    }
  },
  {
    "service_request": "2024-1070955",
    "request_type": "Roads/Drainage",
    "request_reason": "Leaking Hydrant",
    "date_created": "2024-02-27T15:40:10.000",
    "date_modified": "2024-02-27T15:40:11.000",
    "request_status": "Pending",
    "responsible_agency": "Department of Public Works",
    "final_address": "3100 BLK de Armas St",
    "address_councildis": "C",
    "status": "Pending",
    "rowid": "1070955",
    "final_x": "3695917.4349",
    "final_y": "527027.274145",
    "longitude": "-90.02270775244256",
    "latitude": "29.942696631252723",
    "geocoded_column": {
      "latitude": "29.942696631252723",
      "longitude": "-90.02270775244256"
    }
  },
  {
    "service_request": "2024-1070954",
    "request_type": "Trash/Recycling",
    "request_reason": "Illegal Dumping",
    "date_created": "2024-02-27T15:32:22.000",
    "date_modified": "2024-02-27T15:32:22.000",
    "request_status": "Pending",
    "responsible_agency": "Department of Sanitation",
    "final_address": "4709 Franklin Ave",
    "address_councildis": "D",
    "status": "Pending",
    "rowid": "1070954",
    "final_x": "3686913.27023",
    "final_y": "550433.063636",
    "longitude": "-90.05030849904",
    "latitude": "30.007334444052375",
    "geocoded_column": {
      "latitude": "30.007334444052375",
      "longitude": "-90.05030849904"
    }
  },
  {
    "service_request": "2024-1070953",
    "request_type": "Traffic Signals/Signs/Striping/Streetlights",
    "request_reason": "Street Light Outage/Malfunction",
    "date_created": "2024-02-27T15:31:35.000",
    "date_modified": "2024-02-27T15:31:36.000",
    "request_status": "Pending",
    "responsible_agency": "Department of Public Works",
    "final_address": "Esplanade Avenue & Moss Street",
    "address_councildis": "A",
    "status": "Assigned to Contractor",
    "contractor": "Legacy Professional Services",
    "rowid": "1070953",
    "final_x": "3674746.6459",
    "final_y": "541602.452364",
    "longitude": "-90.08904929006643",
    "latitude": "29.983422329205908",
    "geocoded_column": {
      "latitude": "29.983422329205908",
      "longitude": "-90.08904929006643"
    }
  },
  {
    "service_request": "2024-1070952",
    "request_type": "Roads/Drainage",
    "request_reason": "Culvert Issue",
    "date_created": "2024-02-27T15:30:41.000",
    "date_modified": "2024-02-27T15:30:41.000",
    "request_status": "Pending",
    "responsible_agency": "Department of Public Works",
    "final_address": "1401 Caton St",
    "address_councildis": "D",
    "status": "Pending",
    "contractor": "Legacy Professional Services",
    "rowid": "1070952",
    "final_x": "3678107.86914",
    "final_y": "546815.545617",
    "longitude": "-90.07825242855733",
    "latitude": "29.997655719650655",
    "geocoded_column": {
      "latitude": "29.997655719650655",
      "longitude": "-90.07825242855733"
    }
  },
  {
    "service_request": "2024-1070951",
    "request_type": "Trash/Recycling",
    "request_reason": "Request a Large Item Pick Up",
    "date_created": "2024-02-27T15:30:18.000",
    "date_modified": "2024-02-27T15:30:19.000",
    "request_status": "Pending",
    "responsible_agency": "Department of Sanitation",
    "final_address": "8010 Michigan St",
    "address_councildis": "E",
    "status": "Assigned to Contractor",
    "contractor": "Waste Pro",
    "rowid": "1070951",
    "final_x": "3710968.03685",
    "final_y": "567669.356004",
    "longitude": "-89.97366733352855",
    "latitude": "30.053964886715224",
    "geocoded_column": {
      "latitude": "30.053964886715224",
      "longitude": "-89.97366733352855"
    }
  },
  {
    "service_request": "2024-1070950",
    "request_type": "Traffic Signals/Signs/Striping/Streetlights",
    "request_reason": "Street Light Outage/Malfunction",
    "date_created": "2024-02-27T15:29:39.000",
    "date_modified": "2024-02-27T15:29:40.000",
    "request_status": "Pending",
    "responsible_agency": "Department of Public Works",
    "final_address": "1401 Caton St",
    "address_councildis": "D",
    "status": "Assigned to Contractor",
    "contractor": "Legacy Professional Services",
    "rowid": "1070950",
    "final_x": "3678107.86914",
    "final_y": "546815.545617",
    "longitude": "-90.07825242855733",
    "latitude": "29.997655719650655",
    "geocoded_column": {
      "latitude": "29.997655719650655",
      "longitude": "-90.07825242855733"
    }
  },
  {
    "service_request": "2024-1070949",
    "request_type": "Trash/Recycling",
    "request_reason": "Repair Trash Cart",
    "date_created": "2024-02-27T15:28:32.000",
    "date_modified": "2024-02-27T15:28:32.000",
    "request_status": "Pending",
    "responsible_agency": "Department of Sanitation",
    "final_address": "3605 Marigny St",
    "address_councildis": "D",
    "status": "Assigned to Contractor",
    "contractor": "IV Waste",
    "rowid": "1070949",
    "final_x": "3684716.51644",
    "final_y": "545967.96936",
    "longitude": "-90.057405729859",
    "latitude": "29.99512449473089",
    "geocoded_column": {
      "latitude": "29.99512449473089",
      "longitude": "-90.057405729859"
    }
  },
  {
    "service_request": "2024-1070948",
    "request_type": "Trash/Recycling",
    "request_reason": "Repair Trash Cart",
    "date_created": "2024-02-27T15:26:42.000",
    "date_modified": "2024-02-27T15:26:43.000",
    "request_status": "Pending",
    "responsible_agency": "Department of Sanitation",
    "final_address": "4217 LaSalle St",
    "address_councildis": "B",
    "status": "Assigned to Contractor",
    "contractor": "Richards Disposal",
    "rowid": "1070948",
    "final_x": "3671159.99828",
    "final_y": "523799.825979",
    "longitude": "-90.10098258387504",
    "latitude": "29.93457762272055",
    "geocoded_column": {
      "latitude": "29.93457762272055",
      "longitude": "-90.10098258387504"
    }
  },
  {
    "service_request": "2024-1070947",
    "request_type": "Traffic Signals/Signs/Striping/Streetlights",
    "request_reason": "Traffic Signal Malfunctioning/Damaged",
    "date_created": "2024-02-27T15:26:18.000",
    "date_modified": "2024-02-27T15:26:18.000",
    "request_status": "Pending",
    "responsible_agency": "Department of Public Works",
    "final_address": "3400 Tchoupitoulas St, New Orleans, Louisiana, 70115",
    "status": "Pending",
    "rowid": "1070947",
    "longitude": "0.0",
    "latitude": "0.0",
    "geocoded_column": {
      "latitude": "0.0",
      "longitude": "0.0"
    }
  },
  {
    "service_request": "2024-1070946",
    "request_type": "Trash/Recycling",
    "request_reason": "Request a Large Item Pick Up",
    "date_created": "2024-02-27T15:25:49.000",
    "date_modified": "2024-02-27T15:25:50.000",
    "request_status": "Pending",
    "responsible_agency": "Department of Sanitation",
    "final_address": "11409 S St Andrews Cir",
    "address_councildis": "E",
    "status": "Assigned to Contractor",
    "contractor": "Waste Pro",
    "rowid": "1070946",
    "final_x": "3719394.09842",
    "final_y": "559463.820829",
    "longitude": "-89.94734863775516",
    "latitude": "30.03112540886941",
    "geocoded_column": {
      "latitude": "30.03112540886941",
      "longitude": "-89.94734863775516"
    }
  },
  {
    "service_request": "2024-1070945",
    "request_type": "Trash/Recycling",
    "request_reason": "Replace Trash Cart",
    "date_created": "2024-02-27T15:23:47.000",
    "date_modified": "2024-02-27T15:23:48.000",
    "request_status": "Pending",
    "responsible_agency": "Department of Sanitation",
    "final_address": "4217 Lasalle St, New Orleans, Louisiana, 70115",
    "address_councildis": "B",
    "status": "Assigned to Contractor",
    "contractor": "Richards Disposal",
    "rowid": "1070945",
    "final_x": "3671159.99828",
    "final_y": "523799.825979",
    "longitude": "-90.10098258387504",
    "latitude": "29.93457762272055",
    "geocoded_column": {
      "latitude": "29.93457762272055",
      "longitude": "-90.10098258387504"
    }
  },
  {
    "service_request": "2024-1070944",
    "request_type": "Roads/Drainage",
    "request_reason": "Pothole",
    "date_created": "2024-02-27T15:19:11.000",
    "date_modified": "2024-02-27T15:19:11.000",
    "request_status": "Pending",
    "responsible_agency": "Department of Public Works",
    "final_address": "1312 Milan St",
    "address_councildis": "B",
    "status": "Pending",
    "rowid": "1070944",
    "final_x": "3671625.82823",
    "final_y": "520286.919608",
    "longitude": "-90.09963137110304",
    "latitude": "29.92490447494246",
    "geocoded_column": {
      "latitude": "29.92490447494246",
      "longitude": "-90.09963137110304"
    }
  },
  {
    "service_request": "2024-1070943",
    "request_type": "Abandoned Vehicles",
    "request_reason": "Abandoned/Junk Vehicles",
    "date_created": "2024-02-27T15:14:32.000",
    "date_modified": "2024-02-27T15:14:32.000",
    "request_status": "Pending",
    "responsible_agency": "Department of Public Works",
    "final_address": "Desire Parkway & Humanity Street",
    "address_councildis": "D",
    "status": "Pending",
    "rowid": "1070943",
    "final_x": "3692864.90115",
    "final_y": "544206.648655",
    "longitude": "-90.0317291532812",
    "latitude": "29.99002949831121",
    "geocoded_column": {
      "latitude": "29.99002949831121",
      "longitude": "-90.0317291532812"
    }
  },
  {
    "service_request": "2024-1070942",
    "request_type": "Abandoned Vehicles",
    "request_reason": "Abandoned/Junk Vehicles",
    "date_created": "2024-02-27T15:14:01.000",
    "date_modified": "2024-02-27T15:14:01.000",
    "request_status": "Pending",
    "responsible_agency": "Department of Public Works",
    "final_address": "2021 Josephine St",
    "address_councildis": "B",
    "status": "Pending",
    "rowid": "1070942",
    "final_x": "3676854.43323",
    "final_y": "525376.169981",
    "longitude": "-90.08295105912926",
    "latitude": "29.938742423355016",
    "geocoded_column": {
      "latitude": "29.938742423355016",
      "longitude": "-90.08295105912926"
    }
  },
  {
    "service_request": "2024-1070941",
    "request_type": "Parks & Parkways",
    "request_reason": "Request Tree Service (Right of Way/Public Property)",
    "date_created": "2024-02-27T15:13:08.000",
    "date_modified": "2024-02-27T15:13:08.000",
    "request_status": "Pending",
    "responsible_agency": "Department of Parks & Parkway",
    "final_address": "2903 Coliseum St",
    "address_councildis": "B",
    "status": "Pending",
    "rowid": "1070941",
    "final_x": "3675993.83048",
    "final_y": "521412.205241",
    "longitude": "-90.08580433226643",
    "latitude": "29.92786860810343",
    "geocoded_column": {
      "latitude": "29.92786860810343",
      "longitude": "-90.08580433226643"
    }
  },
  {
    "service_request": "2024-1070940",
    "request_type": "Trash/Recycling",
    "request_reason": "Request a Large Item Pick Up",
    "date_created": "2024-02-27T15:10:17.000",
    "date_modified": "2024-02-27T15:10:17.000",
    "request_status": "Pending",
    "responsible_agency": "Department of Sanitation",
    "final_address": "7450 Seven Oaks Rd",
    "address_councildis": "E",
    "status": "Assigned to Contractor",
    "contractor": "Waste Pro",
    "rowid": "1070940",
    "final_x": "3712355.66437",
    "final_y": "565476.035682",
    "longitude": "-89.96936394618264",
    "latitude": "30.04788879968247",
    "geocoded_column": {
      "latitude": "30.04788879968247",
      "longitude": "-89.96936394618264"
    }
  },
  {
    "service_request": "2024-1070938",
    "request_type": "Roads/Drainage",
    "request_reason": "Pothole",
    "date_created": "2024-02-27T15:06:44.000",
    "date_modified": "2024-02-27T15:06:44.000",
    "request_status": "Pending",
    "responsible_agency": "Department of Public Works",
    "final_address": "1301 Constantinople St",
    "address_councildis": "B",
    "status": "Pending",
    "rowid": "1070938",
    "final_x": "3672430.66305",
    "final_y": "520250.7726",
    "longitude": "-90.09709199725775",
    "latitude": "29.924781230435865",
    "geocoded_column": {
      "latitude": "29.924781230435865",
      "longitude": "-90.09709199725775"
    }
  },
  {
    "service_request": "2024-1070937",
    "request_type": "Trash/Recycling",
    "request_reason": "Request a Large Item Pick Up",
    "date_created": "2024-02-27T15:06:32.000",
    "date_modified": "2024-02-27T15:06:33.000",
    "request_status": "Pending",
    "responsible_agency": "Department of Sanitation",
    "final_address": "PINE ST & BIRCH ST",
    "address_councildis": "A",
    "status": "Assigned to Contractor",
    "contractor": "Richards Disposal",
    "rowid": "1070937",
    "final_x": "3664708.7",
    "final_y": "527836.88",
    "longitude": "-90.12121445815065",
    "latitude": "29.945867436942823",
    "geocoded_column": {
      "latitude": "29.945867436942823",
      "longitude": "-90.12121445815065"
    }
  },
  {
    "service_request": "2024-1070936",
    "request_type": "Traffic Signals/Signs/Striping/Streetlights",
    "request_reason": "Street Name Sign Damaged or Missing",
    "date_created": "2024-02-27T15:05:41.000",
    "date_modified": "2024-02-27T15:05:42.000",
    "request_status": "Pending",
    "responsible_agency": "Department of Public Works",
    "final_address": "MORRISON RD & MARQUIS ST",
    "address_councildis": "E",
    "status": "Pending",
    "rowid": "1070936",
    "final_x": "3711784.8",
    "final_y": "565472.58",
    "longitude": "-89.9711683120211",
    "latitude": "30.04789797025746",
    "geocoded_column": {
      "latitude": "30.04789797025746",
      "longitude": "-89.9711683120211"
    }
  },
  {
    "service_request": "2024-1070935",
    "request_type": "Traffic Signals/Signs/Striping/Streetlights",
    "request_reason": "Street Light Outage/Malfunction",
    "date_created": "2024-02-27T15:02:49.000",
    "date_modified": "2024-02-27T15:02:50.000",
    "request_status": "Pending",
    "responsible_agency": "Department of Public Works",
    "final_address": "900 BLK Valence St",
    "address_councildis": "B",
    "status": "Assigned to Contractor",
    "contractor": "Legacy Professional Services",
    "rowid": "1070935",
    "final_x": "3669930.77723",
    "final_y": "518856.43386",
    "longitude": "-90.10503051193147",
    "latitude": "29.92102116682591",
    "geocoded_column": {
      "latitude": "29.92102116682591",
      "longitude": "-90.10503051193147"
    }
  },
  {
    "service_request": "2024-1070934",
    "request_type": "Trash/Recycling",
    "request_reason": "Request a Large Item Pick Up",
    "date_created": "2024-02-27T15:01:05.000",
    "date_modified": "2024-02-27T15:01:05.000",
    "request_status": "Pending",
    "responsible_agency": "Department of Sanitation",
    "final_address": "2652 Wisteria St",
    "address_councildis": "D",
    "status": "Assigned to Contractor",
    "contractor": "IV Waste",
    "rowid": "1070934",
    "final_x": "3687473.7087",
    "final_y": "548334.501266",
    "longitude": "-90.04861225609395",
    "latitude": "30.001546894278377",
    "geocoded_column": {
      "latitude": "30.001546894278377",
      "longitude": "-90.04861225609395"
    }
  },
  {
    "service_request": "2024-1070933",
    "request_type": "Roads/Drainage",
    "request_reason": "Catch Basin - Broken/Damage",
    "date_created": "2024-02-27T15:00:17.000",
    "date_modified": "2024-02-27T15:03:50.000",
    "request_status": "Pending",
    "responsible_agency": "Department of Public Works",
    "final_address": "I 10 W & CITY PARK EXIT",
    "address_councildis": "A",
    "status": "Pending",
    "rowid": "1070933",
    "final_x": "3667263.8",
    "final_y": "539863.98",
    "longitude": "-90.11274261350016",
    "latitude": "29.978863424353104",
    "geocoded_column": {
      "latitude": "29.978863424353104",
      "longitude": "-90.11274261350016"
    }
  },
  {
    "service_request": "2024-1070932",
    "request_type": "Traffic Signals/Signs/Striping/Streetlights",
    "request_reason": "Traffic Signal Malfunctioning/Damaged",
    "date_created": "2024-02-27T14:59:22.000",
    "date_modified": "2024-02-27T14:59:22.000",
    "request_status": "Pending",
    "responsible_agency": "Department of Public Works",
    "final_address": "4521 St Charles Ave",
    "address_councildis": "B",
    "status": "Pending",
    "rowid": "1070932",
    "final_x": "3670275.03783",
    "final_y": "520872.905593",
    "longitude": "-90.10387553753148",
    "latitude": "29.926555670871306",
    "geocoded_column": {
      "latitude": "29.926555670871306",
      "longitude": "-90.10387553753148"
    }
  },
  {
    "service_request": "2024-1070931",
    "request_type": "Roads/Drainage",
    "request_reason": "Catch Basin - Clogged",
    "date_created": "2024-02-27T14:58:36.000",
    "date_modified": "2024-02-27T14:58:37.000",
    "request_status": "Pending",
    "responsible_agency": "Department of Public Works",
    "final_address": "4863 Montegut Dr",
    "address_councildis": "D",
    "status": "Pending",
    "rowid": "1070931",
    "final_x": "3689925.09321",
    "final_y": "551115.991381",
    "longitude": "-90.04076899693925",
    "latitude": "30.009119171368127",
    "geocoded_column": {
      "latitude": "30.009119171368127",
      "longitude": "-90.04076899693925"
    }
  },
  {
    "service_request": "2024-1070930",
    "request_type": "Traffic Signals/Signs/Striping/Streetlights",
    "request_reason": "Traffic Signal Malfunctioning/Damaged",
    "date_created": "2024-02-27T14:57:56.000",
    "date_modified": "2024-02-27T14:57:56.000",
    "request_status": "Pending",
    "responsible_agency": "Department of Public Works",
    "final_address": "1315 S Norman C Francis Prkwy",
    "address_councildis": "B",
    "status": "Pending",
    "rowid": "1070930",
    "final_x": "3669612.87777",
    "final_y": "532113.351107",
    "longitude": "-90.10558560603071",
    "latitude": "29.95748277082436",
    "geocoded_column": {
      "latitude": "29.95748277082436",
      "longitude": "-90.10558560603071"
    }
  },
  {
    "service_request": "2024-1070929",
    "request_type": "Abandoned Vehicles",
    "request_reason": "Abandoned/Junk Vehicles",
    "date_created": "2024-02-27T14:56:41.000",
    "date_modified": "2024-02-27T14:56:41.000",
    "request_status": "Pending",
    "responsible_agency": "Department of Public Works",
    "final_address": "822 Desire St",
    "address_councildis": "C",
    "status": "Pending",
    "rowid": "1070929",
    "final_x": "3689912.4447",
    "final_y": "534759.554502",
    "longitude": "-90.0413916014145",
    "latitude": "29.964145227861334",
    "geocoded_column": {
      "latitude": "29.964145227861334",
      "longitude": "-90.0413916014145"
    }
  },
  {
    "service_request": "2024-1070928",
    "request_type": "Traffic Signals/Signs/Striping/Streetlights",
    "request_reason": "Street Light Knocked Down/Leaning",
    "date_created": "2024-02-27T14:47:41.000",
    "date_modified": "2024-02-27T14:47:42.000",
    "request_status": "Pending",
    "responsible_agency": "Department of Public Works",
    "final_address": "1429 S Norman C Francis Prkwy",
    "address_councildis": "B",
    "status": "Pending",
    "contractor": "Legacy Professional Services",
    "rowid": "1070928",
    "final_x": "3669505.34279",
    "final_y": "531762.255491",
    "longitude": "-90.10593704617963",
    "latitude": "29.956520541437946",
    "geocoded_column": {
      "latitude": "29.956520541437946",
      "longitude": "-90.10593704617963"
    }
  },
  {
    "service_request": "2024-1070927",
    "request_type": "Traffic Signals/Signs/Striping/Streetlights",
    "request_reason": "Traffic Signal Malfunctioning/Damaged",
    "date_created": "2024-02-27T14:47:22.000",
    "date_modified": "2024-02-27T14:47:22.000",
    "request_status": "Pending",
    "responsible_agency": "Department of Public Works",
    "final_address": "1315 S Norman C Francis Prkwy",
    "address_councildis": "B",
    "status": "Pending",
    "rowid": "1070927",
    "final_x": "3669612.87777",
    "final_y": "532113.351107",
    "longitude": "-90.10558560603071",
    "latitude": "29.95748277082436",
    "geocoded_column": {
      "latitude": "29.95748277082436",
      "longitude": "-90.10558560603071"
    }
  },
  {
    "service_request": "2024-1070925",
    "request_type": "Trash/Recycling",
    "request_reason": "Request a Large Item Pick Up",
    "date_created": "2024-02-27T14:44:27.000",
    "date_modified": "2024-02-27T14:44:28.000",
    "request_status": "Pending",
    "responsible_agency": "Department of Sanitation",
    "final_address": "7921 Fig St",
    "address_councildis": "B",
    "status": "Assigned to Contractor",
    "contractor": "Richards Disposal",
    "rowid": "1070925",
    "final_x": "3666799.6121",
    "final_y": "532801.292932",
    "longitude": "-90.11444598763424",
    "latitude": "29.959456970144092",
    "geocoded_column": {
      "latitude": "29.959456970144092",
      "longitude": "-90.11444598763424"
    }
  },
  {
    "service_request": "2024-1070923",
    "request_type": "Traffic Signals/Signs/Striping/Streetlights",
    "request_reason": "Street Light Outage/Malfunction",
    "date_created": "2024-02-27T14:40:26.000",
    "date_modified": "2024-02-27T14:40:27.000",
    "request_status": "Pending",
    "responsible_agency": "Department of Public Works",
    "final_address": "1929 Wilton Dr",
    "address_councildis": "D",
    "status": "Assigned to Contractor",
    "contractor": "Legacy Professional Services",
    "rowid": "1070923",
    "final_x": "3681575.44168",
    "final_y": "550972.878549",
    "longitude": "-90.06715334186674",
    "latitude": "30.00898200349482",
    "geocoded_column": {
      "latitude": "30.00898200349482",
      "longitude": "-90.06715334186674"
    }
  },
  {
    "service_request": "2024-1070922",
    "request_type": "Trash/Recycling",
    "request_reason": "Request a Large Item Pick Up",
    "date_created": "2024-02-27T14:37:39.000",
    "date_modified": "2024-02-27T14:37:40.000",
    "request_status": "Pending",
    "responsible_agency": "Department of Sanitation",
    "final_address": "3218 Chippewa St",
    "address_councildis": "B",
    "status": "Assigned to Contractor",
    "contractor": "Richards Disposal",
    "rowid": "1070922",
    "final_x": "3676376.08405",
    "final_y": "518526.716407",
    "longitude": "-90.0846969060357",
    "latitude": "29.919922997164928",
    "geocoded_column": {
      "latitude": "29.919922997164928",
      "longitude": "-90.0846969060357"
    }
  },
  {
    "service_request": "2024-1070921",
    "request_type": "Traffic Signals/Signs/Striping/Streetlights",
    "request_reason": "Crosswalks and Signage",
    "date_created": "2024-02-27T14:37:05.000",
    "date_modified": "2024-02-27T14:37:05.000",
    "request_status": "Pending",
    "responsible_agency": "Department of Public Works",
    "final_address": "2919 Gravier St",
    "address_councildis": "B",
    "status": "Pending",
    "rowid": "1070921",
    "final_x": "3673024.69524",
    "final_y": "533875.532741",
    "longitude": "-90.09475193239253",
    "latitude": "29.962227221677264",
    "geocoded_column": {
      "latitude": "29.962227221677264",
      "longitude": "-90.09475193239253"
    }
  },
  {
    "service_request": "2024-1070920",
    "request_type": "Trash/Recycling",
    "request_reason": "Missed Trash Pick-Up",
    "date_created": "2024-02-27T14:36:38.000",
    "date_modified": "2024-02-27T14:36:38.000",
    "request_status": "Pending",
    "responsible_agency": "Department of Sanitation",
    "final_address": "8602 Dinkins St",
    "address_councildis": "E",
    "status": "Assigned to Contractor",
    "contractor": "Waste Pro",
    "rowid": "1070920",
    "final_x": "3703820.06378",
    "final_y": "562905.490464",
    "longitude": "-89.99643585872366",
    "latitude": "30.041097429375647",
    "geocoded_column": {
      "latitude": "30.041097429375647",
      "longitude": "-89.99643585872366"
    }
  },
  {
    "service_request": "2024-1070919",
    "request_type": "Traffic Signals/Signs/Striping/Streetlights",
    "request_reason": "Additional signage",
    "date_created": "2024-02-27T14:36:31.000",
    "date_modified": "2024-02-27T14:36:32.000",
    "request_status": "Pending",
    "responsible_agency": "Department of Public Works",
    "final_address": "ST ANTHONY ST & N DERBIGNY ST",
    "address_councildis": "D",
    "status": "Pending",
    "rowid": "1070919",
    "final_x": "3683340.7",
    "final_y": "538394.38",
    "longitude": "-90.06201722303665",
    "latitude": "29.974341844698337",
    "geocoded_column": {
      "latitude": "29.974341844698337",
      "longitude": "-90.06201722303665"
    }
  },
  {
    "service_request": "2024-1070918",
    "request_type": "Trash/Recycling",
    "request_reason": "Illegal Dumping",
    "date_created": "2024-02-27T14:34:30.000",
    "date_modified": "2024-02-27T14:35:01.000",
    "request_status": "Pending",
    "responsible_agency": "Department of Sanitation",
    "final_address": "5531 Baccich St",
    "address_councildis": "D",
    "contractor": "IV Waste",
    "rowid": "1070918",
    "final_x": "3687711.23158",
    "final_y": "553621.417367",
    "longitude": "-90.04767450132894",
    "latitude": "30.016076654003257",
    "geocoded_column": {
      "latitude": "30.016076654003257",
      "longitude": "-90.04767450132894"
    }
  },
  {
    "service_request": "2024-1070917",
    "request_type": "Traffic Signals/Signs/Striping/Streetlights",
    "request_reason": "Traffic Signal Malfunctioning/Damaged",
    "date_created": "2024-02-27T14:30:28.000",
    "date_modified": "2024-02-27T14:30:29.000",
    "request_status": "Pending",
    "responsible_agency": "Department of Public Works",
    "final_address": "MORRISON RD & READ BLVD",
    "address_councildis": "E",
    "status": "Pending",
    "rowid": "1070917",
    "final_x": "3709048.8",
    "final_y": "563671.38",
    "longitude": "-89.97988278292617",
    "latitude": "30.04303454057851",
    "geocoded_column": {
      "latitude": "30.04303454057851",
      "longitude": "-89.97988278292617"
    }
  },
  {
    "service_request": "2024-1070916",
    "request_type": "Traffic Signals/Signs/Striping/Streetlights",
    "request_reason": "Street Light Outage/Malfunction",
    "date_created": "2024-02-27T14:28:23.000",
    "date_modified": "2024-02-27T14:28:23.000",
    "request_status": "Pending",
    "responsible_agency": "Department of Public Works",
    "final_address": "1925 Wilton Dr",
    "address_councildis": "D",
    "status": "Assigned to Contractor",
    "contractor": "Legacy Professional Services",
    "rowid": "1070916",
    "final_x": "3681513.43644",
    "final_y": "550970.266197",
    "longitude": "-90.0673493281282",
    "latitude": "30.00897670430068",
    "geocoded_column": {
      "latitude": "30.00897670430068",
      "longitude": "-90.0673493281282"
    }
  },
  {
    "service_request": "2024-1070915",
    "request_type": "Trash/Recycling",
    "request_reason": "Request a Large Item Pick Up",
    "date_created": "2024-02-27T14:27:57.000",
    "date_modified": "2024-02-27T14:27:58.000",
    "request_status": "Pending",
    "responsible_agency": "Department of Sanitation",
    "final_address": "6216 Craigie Rd",
    "address_councildis": "E",
    "status": "Assigned to Contractor",
    "contractor": "Waste Pro",
    "rowid": "1070915",
    "final_x": "3696167.08534",
    "final_y": "558830.430108",
    "longitude": "-90.02076935339984",
    "latitude": "30.030135876331567",
    "geocoded_column": {
      "latitude": "30.030135876331567",
      "longitude": "-90.02076935339984"
    }
  },
  {
    "service_request": "2024-1070914",
    "request_type": "Abandoned Vehicles",
    "request_reason": "Abandoned/Junk Vehicles",
    "date_created": "2024-02-27T14:27:49.000",
    "date_modified": "2024-02-27T14:28:50.000",
    "request_status": "Pending",
    "responsible_agency": "Department of Public Works",
    "final_address": "4216 Mccoy St",
    "address_councildis": "E",
    "status": "Pending",
    "rowid": "1070914",
    "final_x": "3711967.34981",
    "final_y": "553752.011799",
    "longitude": "-89.97103177127718",
    "latitude": "30.015665096050245",
    "geocoded_column": {
      "latitude": "30.015665096050245",
      "longitude": "-89.97103177127718"
    }
  },
  {
    "service_request": "2024-1070913",
    "request_type": "Trash/Recycling",
    "request_reason": "Request a Large Item Pick Up",
    "date_created": "2024-02-27T14:26:47.000",
    "date_modified": "2024-02-27T14:26:47.000",
    "request_status": "Pending",
    "responsible_agency": "Department of Sanitation",
    "final_address": "4216 Mccoy St",
    "address_councildis": "E",
    "status": "Assigned to Contractor",
    "contractor": "Waste Pro",
    "rowid": "1070913",
    "final_x": "3711967.34981",
    "final_y": "553752.011799",
    "longitude": "-89.97103177127718",
    "latitude": "30.015665096050245",
    "geocoded_column": {
      "latitude": "30.015665096050245",
      "longitude": "-89.97103177127718"
    }
  },
  {
    "service_request": "2024-1070912",
    "request_type": "Roads/Drainage",
    "request_reason": "Pothole",
    "date_created": "2024-02-27T14:20:26.000",
    "date_modified": "2024-02-27T14:20:26.000",
    "request_status": "Pending",
    "responsible_agency": "Department of Public Works",
    "final_address": "1730 Seventh St",
    "address_councildis": "B",
    "status": "Pending",
    "rowid": "1070912",
    "final_x": "3674844.58043",
    "final_y": "522628.377786",
    "longitude": "-90.08939057180159",
    "latitude": "29.9312470436987",
    "geocoded_column": {
      "latitude": "29.9312470436987",
      "longitude": "-90.08939057180159"
    }
  },
  {
    "service_request": "2024-1070911",
    "request_type": "Trash/Recycling",
    "request_reason": "Request a Large Item Pick Up",
    "date_created": "2024-02-27T14:18:45.000",
    "date_modified": "2024-02-27T14:18:58.000",
    "request_status": "Pending",
    "responsible_agency": "Department of Sanitation",
    "final_address": "5011 Laurel St",
    "address_councildis": "B",
    "status": "Assigned to Contractor",
    "contractor": "Richards Disposal",
    "rowid": "1070911",
    "final_x": "3668518.18145",
    "final_y": "517888.565174",
    "longitude": "-90.10952208482236",
    "latitude": "29.91840139462672",
    "geocoded_column": {
      "latitude": "29.91840139462672",
      "longitude": "-90.10952208482236"
    }
  },
  {
    "service_request": "2024-1070910",
    "request_type": "Trash/Recycling",
    "request_reason": "Missed Trash Pick-Up",
    "date_created": "2024-02-27T14:16:25.000",
    "date_modified": "2024-02-27T14:16:26.000",
    "request_status": "Pending",
    "responsible_agency": "Department of Sanitation",
    "final_address": "4305 S Derbigny St",
    "address_councildis": "B",
    "status": "Assigned to Contractor",
    "contractor": "Richards Disposal",
    "rowid": "1070910",
    "final_x": "3670653.51393",
    "final_y": "526311.61267",
    "longitude": "-90.10249636927804",
    "latitude": "29.941499191773893",
    "geocoded_column": {
      "latitude": "29.941499191773893",
      "longitude": "-90.10249636927804"
    }
  },
  {
    "service_request": "2024-1070909",
    "request_type": "Traffic Signals/Signs/Striping/Streetlights",
    "request_reason": "Street Light Outage/Malfunction",
    "date_created": "2024-02-27T14:15:22.000",
    "date_modified": "2024-02-27T14:15:22.000",
    "request_status": "Pending",
    "responsible_agency": "Department of Public Works",
    "final_address": "7718 Sandy Cove Dr",
    "address_councildis": "E",
    "status": "Assigned to Contractor",
    "contractor": "Legacy Professional Services",
    "rowid": "1070909",
    "final_x": "3715234.64543",
    "final_y": "569734.994662",
    "longitude": "-89.96010352130575",
    "latitude": "30.059504645013728",
    "geocoded_column": {
      "latitude": "30.059504645013728",
      "longitude": "-89.96010352130575"
    }
  },
  {
    "service_request": "2024-1070908",
    "request_type": "Trash/Recycling",
    "request_reason": "Request a Large Item Pick Up",
    "date_created": "2024-02-27T14:14:36.000",
    "date_modified": "2024-02-27T14:14:37.000",
    "request_status": "Pending",
    "responsible_agency": "Department of Sanitation",
    "final_address": "13101 Laval St",
    "address_councildis": "E",
    "status": "Assigned to Contractor",
    "contractor": "Waste Pro",
    "rowid": "1070908",
    "final_x": "3724045.1751",
    "final_y": "562569.73776",
    "longitude": "-89.93253129851091",
    "latitude": "30.039509897896764",
    "geocoded_column": {
      "latitude": "30.039509897896764",
      "longitude": "-89.93253129851091"
    }
  },
  {
    "service_request": "2024-1070907",
    "request_type": "Traffic Signals/Signs/Striping/Streetlights",
    "request_reason": "Street Light Outage/Malfunction",
    "date_created": "2024-02-27T14:13:07.000",
    "date_modified": "2024-02-27T14:13:08.000",
    "request_status": "Pending",
    "responsible_agency": "Department of Public Works",
    "final_address": "7700 Sandy Cove Dr",
    "address_councildis": "E",
    "status": "Assigned to Contractor",
    "contractor": "Legacy Professional Services",
    "rowid": "1070907",
    "final_x": "3715335.48837",
    "final_y": "569596.912166",
    "longitude": "-89.95978999908155",
    "latitude": "30.059121651749937",
    "geocoded_column": {
      "latitude": "30.059121651749937",
      "longitude": "-89.95978999908155"
    }
  },
  {
    "service_request": "2024-1070906",
    "request_type": "Parks & Parkways",
    "request_reason": "Request Tree Service (Right of Way/Public Property)",
    "date_created": "2024-02-27T14:10:24.000",
    "date_modified": "2024-02-27T14:10:25.000",
    "request_status": "Pending",
    "responsible_agency": "Department of Parks & Parkway",
    "final_address": "400 Decatur St",
    "address_councildis": "C",
    "status": "Pending",
    "rowid": "1070906",
    "final_x": "3682527.94018",
    "final_y": "531132.159554",
    "longitude": "-90.06483801740818",
    "latitude": "29.95439800257623",
    "geocoded_column": {
      "latitude": "29.95439800257623",
      "longitude": "-90.06483801740818"
    }
  },
  {
    "service_request": "2024-1070905",
    "request_type": "Trash/Recycling",
    "request_reason": "Missed Trash Pick-Up",
    "date_created": "2024-02-27T14:08:33.000",
    "date_modified": "2024-02-27T14:08:34.000",
    "request_status": "Pending",
    "responsible_agency": "Department of Sanitation",
    "final_address": "11400 Curran Rd",
    "address_councildis": "E",
    "status": "Assigned to Contractor",
    "contractor": "Waste Pro",
    "rowid": "1070905",
    "final_x": "3711422.16146",
    "final_y": "566650.698403",
    "longitude": "-89.97227021459479",
    "latitude": "30.051149167532337",
    "geocoded_column": {
      "latitude": "30.051149167532337",
      "longitude": "-89.97227021459479"
    }
  },
  {
    "service_request": "2024-1070904",
    "request_type": "Property Maintenance",
    "request_reason": "Property Maintenance",
    "date_created": "2024-02-27T14:08:05.000",
    "date_modified": "2024-02-27T14:36:10.000",
    "case_close_date": "2024-02-27T08:36:10.000",
    "request_status": "Closed",
    "responsible_agency": "Department of Code Enforcement",
    "final_address": "1332 Fats Domino Ave",
    "address_councildis": "E",
    "status": "Resolved",
    "rowid": "1070904",
    "final_x": "3698187.80387",
    "final_y": "534792.488518",
    "longitude": "-90.01525768920763",
    "latitude": "29.96397663289957",
    "geocoded_column": {
      "latitude": "29.96397663289957",
      "longitude": "-90.01525768920763"
    }
  },
  {
    "service_request": "2024-1070903",
    "request_type": "Trash/Recycling",
    "request_reason": "Missed Trash Pick-Up",
    "date_created": "2024-02-27T14:06:47.000",
    "date_modified": "2024-02-27T14:06:48.000",
    "request_status": "Pending",
    "responsible_agency": "Department of Sanitation",
    "final_address": "7741 Symmes Ave",
    "address_councildis": "E",
    "status": "Assigned to Contractor",
    "contractor": "Waste Pro",
    "rowid": "1070903",
    "final_x": "3707678.11102",
    "final_y": "565012.959522",
    "longitude": "-89.98416476329626",
    "latitude": "30.0467677945899",
    "geocoded_column": {
      "latitude": "30.0467677945899",
      "longitude": "-89.98416476329626"
    }
  },
  {
    "service_request": "2024-1070902",
    "request_type": "Trash/Recycling",
    "request_reason": "Request a Large Item Pick Up",
    "date_created": "2024-02-27T14:03:56.000",
    "date_modified": "2024-02-27T14:03:57.000",
    "request_status": "Pending",
    "responsible_agency": "Department of Sanitation",
    "final_address": "7907 Panola St",
    "address_councildis": "A",
    "status": "Assigned to Contractor",
    "contractor": "Richards Disposal",
    "rowid": "1070902",
    "final_x": "3664636.48071",
    "final_y": "530265.654977",
    "longitude": "-90.1213613691587",
    "latitude": "29.95254788439034",
    "geocoded_column": {
      "latitude": "29.95254788439034",
      "longitude": "-90.1213613691587"
    }
  },
  {
    "service_request": "2024-1070901",
    "request_type": "Traffic Signals/Signs/Striping/Streetlights",
    "request_reason": "Traffic Sign Missing/Damaged",
    "date_created": "2024-02-27T14:01:30.000",
    "date_modified": "2024-02-27T14:01:31.000",
    "request_status": "Pending",
    "responsible_agency": "Department of Public Works",
    "final_address": "ST DENIS ST & ALFRED ST",
    "address_councildis": "D",
    "status": "Pending",
    "rowid": "1070901",
    "final_x": "3677773.5",
    "final_y": "545730.08",
    "longitude": "-90.07934621849714",
    "latitude": "29.99468113782345",
    "geocoded_column": {
      "latitude": "29.99468113782345",
      "longitude": "-90.07934621849714"
    }
  },
  {
    "service_request": "2024-1070900",
    "request_type": "Traffic Signals/Signs/Striping/Streetlights",
    "request_reason": "Street Name Sign Damaged or Missing",
    "date_created": "2024-02-27T14:00:47.000",
    "date_modified": "2024-02-27T14:00:47.000",
    "request_status": "Pending",
    "responsible_agency": "Department of Public Works",
    "final_address": "ST DENIS ST & ALFRED ST",
    "address_councildis": "D",
    "status": "Pending",
    "rowid": "1070900",
    "final_x": "3677773.5",
    "final_y": "545730.08",
    "longitude": "-90.07934621849714",
    "latitude": "29.99468113782345",
    "geocoded_column": {
      "latitude": "29.99468113782345",
      "longitude": "-90.07934621849714"
    }
  },
  {
    "service_request": "2024-1070899",
    "request_type": "Trash/Recycling",
    "request_reason": "Order Trash Cart",
    "date_created": "2024-02-27T13:59:57.000",
    "date_modified": "2024-02-27T13:59:58.000",
    "request_status": "Pending",
    "responsible_agency": "Department of Sanitation",
    "final_address": "9508 Hayne Blvd",
    "address_councildis": "E",
    "status": "Assigned to Contractor",
    "contractor": "Waste Pro",
    "rowid": "1070899",
    "final_x": "3705994.33764",
    "final_y": "564910.12765",
    "longitude": "-89.9894901474133",
    "latitude": "30.046539453149737",
    "geocoded_column": {
      "latitude": "30.046539453149737",
      "longitude": "-89.9894901474133"
    }
  },
  {
    "service_request": "2024-1070897",
    "request_type": "Trash/Recycling",
    "request_reason": "Missed Trash Pick-Up",
    "date_created": "2024-02-27T13:58:55.000",
    "date_modified": "2024-02-27T13:58:56.000",
    "request_status": "Pending",
    "responsible_agency": "Department of Sanitation",
    "final_address": "11400 Curran Rd",
    "address_councildis": "E",
    "status": "Assigned to Contractor",
    "contractor": "Waste Pro",
    "rowid": "1070897",
    "final_x": "3711422.16146",
    "final_y": "566650.698403",
    "longitude": "-89.97227021459479",
    "latitude": "30.051149167532337",
    "geocoded_column": {
      "latitude": "30.051149167532337",
      "longitude": "-89.97227021459479"
    }
  },
  {
    "service_request": "2024-1070896",
    "request_type": "Trash/Recycling",
    "request_reason": "Request a Large Item Pick Up",
    "date_created": "2024-02-27T13:56:17.000",
    "date_modified": "2024-02-27T14:33:37.000",
    "case_close_date": "2024-02-27T08:33:37.000",
    "request_status": "Closed",
    "responsible_agency": "Department of Sanitation",
    "final_address": "5801 Vicksburg St",
    "address_councildis": "A",
    "status": "Invalid Request",
    "contractor": "IV Waste",
    "contractor_action": "Invalid Request",
    "rowid": "1070896",
    "final_x": "3668844.42753",
    "final_y": "545978.685392",
    "longitude": "-90.1075437757926",
    "latitude": "29.99563038577434",
    "geocoded_column": {
      "latitude": "29.99563038577434",
      "longitude": "-90.1075437757926"
    }
  },
  {
    "service_request": "2024-1070895",
    "request_type": "Abandoned Vehicles",
    "request_reason": "Abandoned/Junk Vehicles",
    "date_created": "2024-02-27T13:53:07.000",
    "date_modified": "2024-02-27T13:53:07.000",
    "request_status": "Pending",
    "responsible_agency": "Department of Public Works",
    "final_address": "1804/1806 Desire Street",
    "address_councildis": "C",
    "status": "Pending",
    "rowid": "1070895",
    "final_x": "3686318.27759",
    "final_y": "534107.487347",
    "longitude": "-90.0527646589072",
    "latitude": "29.96246320776603",
    "geocoded_column": {
      "latitude": "29.96246320776603",
      "longitude": "-90.0527646589072"
    }
  },
  {
    "service_request": "2024-1070894",
    "request_type": "Trash/Recycling",
    "request_reason": "Missed Trash Pick-Up",
    "date_created": "2024-02-27T13:51:36.000",
    "date_modified": "2024-02-27T13:51:37.000",
    "request_status": "Pending",
    "responsible_agency": "Department of Sanitation",
    "final_address": "2801 Robert St",
    "address_councildis": "B",
    "status": "Assigned to Contractor",
    "contractor": "Richards Disposal",
    "rowid": "1070894",
    "final_x": "3668953.91386",
    "final_y": "525652.897597",
    "longitude": "-90.10788459996773",
    "latitude": "29.93973802876985",
    "geocoded_column": {
      "latitude": "29.93973802876985",
      "longitude": "-90.10788459996773"
    }
  },
  {
    "service_request": "2024-1070893",
    "request_type": "Trash/Recycling",
    "request_reason": "Request a Large Item Pick Up",
    "date_created": "2024-02-27T13:50:03.000",
    "date_modified": "2024-02-27T13:50:04.000",
    "request_status": "Pending",
    "responsible_agency": "Department of Sanitation",
    "final_address": "4256 Vendome Pl",
    "address_councildis": "B",
    "status": "Assigned to Contractor",
    "contractor": "Richards Disposal",
    "rowid": "1070893",
    "final_x": "3669057.08378",
    "final_y": "531486.060611",
    "longitude": "-90.1073618367837",
    "latitude": "29.955774291700784",
    "geocoded_column": {
      "latitude": "29.955774291700784",
      "longitude": "-90.1073618367837"
    }
  },
  {
    "service_request": "2024-1070892",
    "request_type": "Trash/Recycling",
    "request_reason": "Replace Trash Cart",
    "date_created": "2024-02-27T13:47:56.000",
    "date_modified": "2024-02-27T13:47:56.000",
    "request_status": "Pending",
    "responsible_agency": "Department of Sanitation",
    "final_address": "1218 Odeon St",
    "address_councildis": "C",
    "status": "Assigned to Contractor",
    "contractor": "Richards Disposal",
    "rowid": "1070892",
    "final_x": "3696060.17366",
    "final_y": "526831.336446",
    "longitude": "-90.02226417322797",
    "latitude": "29.942153380438533",
    "geocoded_column": {
      "latitude": "29.942153380438533",
      "longitude": "-90.02226417322797"
    }
  },
  {
    "service_request": "2024-1070891",
    "request_type": "Trash/Recycling",
    "request_reason": "Request a Large Item Pick Up",
    "date_created": "2024-02-27T13:47:34.000",
    "date_modified": "2024-02-27T13:47:35.000",
    "request_status": "Pending",
    "responsible_agency": "Department of Sanitation",
    "final_address": "7808 N Coronet Ct",
    "address_councildis": "E",
    "status": "Assigned to Contractor",
    "contractor": "Waste Pro",
    "rowid": "1070891",
    "final_x": "3702936.95038",
    "final_y": "557560.471195",
    "longitude": "-89.99942343256554",
    "latitude": "30.02642901306768",
    "geocoded_column": {
      "latitude": "30.02642901306768",
      "longitude": "-89.99942343256554"
    }
  },
  {
    "service_request": "2024-1070890",
    "request_type": "Roads/Drainage",
    "request_reason": "Debris in Roadway",
    "date_created": "2024-02-27T13:47:21.000",
    "date_modified": "2024-02-27T13:47:21.000",
    "request_status": "Pending",
    "responsible_agency": "Department of Public Works",
    "final_address": "5521 Annunciation St",
    "address_councildis": "A",
    "status": "Pending",
    "rowid": "1070890",
    "final_x": "3665978.34842",
    "final_y": "517595.74303",
    "longitude": "-90.11754882162737",
    "latitude": "29.917670570432005",
    "geocoded_column": {
      "latitude": "29.917670570432005",
      "longitude": "-90.11754882162737"
    }
  },
  {
    "service_request": "2024-1070889",
    "request_type": "Trash/Recycling",
    "request_reason": "Request a Large Item Pick Up",
    "date_created": "2024-02-27T13:46:07.000",
    "date_modified": "2024-02-27T13:46:07.000",
    "request_status": "Pending",
    "responsible_agency": "Department of Sanitation",
    "final_address": "2022 Valmont St",
    "address_councildis": "B",
    "status": "Assigned to Contractor",
    "contractor": "Richards Disposal",
    "rowid": "1070889",
    "final_x": "3668050.08109",
    "final_y": "523087.683131",
    "longitude": "-90.11082454375517",
    "latitude": "29.932711060034485",
    "geocoded_column": {
      "latitude": "29.932711060034485",
      "longitude": "-90.11082454375517"
    }
  },
  {
    "service_request": "2024-1070888",
    "request_type": "Trash/Recycling",
    "request_reason": "Request a Large Item Pick Up",
    "date_created": "2024-02-27T13:45:52.000",
    "date_modified": "2024-02-27T13:45:53.000",
    "request_status": "Pending",
    "responsible_agency": "Department of Sanitation",
    "final_address": "3318 Danneel St",
    "address_councildis": "B",
    "status": "Assigned to Contractor",
    "contractor": "Richards Disposal",
    "rowid": "1070888",
    "final_x": "3673878.06862",
    "final_y": "522868.784123",
    "longitude": "-90.09243351262032",
    "latitude": "29.931936899125702",
    "geocoded_column": {
      "latitude": "29.931936899125702",
      "longitude": "-90.09243351262032"
    }
  },
  {
    "service_request": "2024-1070887",
    "request_type": "Abandoned Vehicles",
    "request_reason": "Abandoned/Junk Vehicles",
    "date_created": "2024-02-27T13:45:41.000",
    "date_modified": "2024-02-27T13:45:42.000",
    "request_status": "Pending",
    "responsible_agency": "Department of Public Works",
    "final_address": "3408 Livingston St",
    "address_councildis": "A",
    "status": "Pending",
    "rowid": "1070887",
    "final_x": "3663621.93632",
    "final_y": "537587.395912",
    "longitude": "-90.12432092164505",
    "latitude": "29.972709743724412",
    "geocoded_column": {
      "latitude": "29.972709743724412",
      "longitude": "-90.12432092164505"
    }
  },
  {
    "service_request": "2024-1070886",
    "request_type": "Trash/Recycling",
    "request_reason": "Request a Large Item Pick Up",
    "date_created": "2024-02-27T13:44:43.000",
    "date_modified": "2024-02-27T13:44:43.000",
    "request_status": "Pending",
    "responsible_agency": "Department of Sanitation",
    "final_address": "7212 Bunker Hill Rd",
    "address_councildis": "E",
    "status": "Assigned to Contractor",
    "contractor": "Waste Pro",
    "rowid": "1070886",
    "final_x": "3705542.34302",
    "final_y": "561060.215262",
    "longitude": "-89.99106121134265",
    "latitude": "30.03596828587469",
    "geocoded_column": {
      "latitude": "30.03596828587469",
      "longitude": "-89.99106121134265"
    }
  },
  {
    "service_request": "2024-1070885",
    "request_type": "Traffic Signals/Signs/Striping/Streetlights",
    "request_reason": "Street Light Outage/Malfunction",
    "date_created": "2024-02-27T13:44:12.000",
    "date_modified": "2024-02-27T13:44:13.000",
    "request_status": "Pending",
    "responsible_agency": "Department of Public Works",
    "final_address": "4223 Stephen Girard Ave",
    "address_councildis": "D",
    "status": "Assigned to Contractor",
    "contractor": "Legacy Professional Services",
    "rowid": "1070885",
    "final_x": "3690076.62179",
    "final_y": "550010.109844",
    "longitude": "-90.04032969433759",
    "latitude": "30.006073702625734",
    "geocoded_column": {
      "latitude": "30.006073702625734",
      "longitude": "-90.04032969433759"
    }
  },
  {
    "service_request": "2024-1070884",
    "request_type": "Trash/Recycling",
    "request_reason": "Missed Trash Pick-Up",
    "date_created": "2024-02-27T13:43:21.000",
    "date_modified": "2024-02-27T13:43:21.000",
    "request_status": "Pending",
    "responsible_agency": "Department of Sanitation",
    "final_address": "1231 Webster St",
    "address_councildis": "A",
    "status": "Assigned to Contractor",
    "contractor": "Richards Disposal",
    "rowid": "1070884",
    "final_x": "3664747.8098",
    "final_y": "520952.845945",
    "longitude": "-90.12132087925374",
    "latitude": "29.92693739620935",
    "geocoded_column": {
      "latitude": "29.92693739620935",
      "longitude": "-90.12132087925374"
    }
  },
  {
    "service_request": "2024-1070882",
    "request_type": "Traffic Signals/Signs/Striping/Streetlights",
    "request_reason": "Traffic Signal Malfunctioning/Damaged",
    "date_created": "2024-02-27T13:41:43.000",
    "date_modified": "2024-02-27T13:41:44.000",
    "request_status": "Pending",
    "responsible_agency": "Department of Public Works",
    "final_address": "MORRISON RD & READ BLVD",
    "address_councildis": "E",
    "status": "Pending",
    "rowid": "1070882",
    "final_x": "3708986.9",
    "final_y": "563787.08",
    "longitude": "-89.9800740921111",
    "latitude": "30.043354679575092",
    "geocoded_column": {
      "latitude": "30.043354679575092",
      "longitude": "-89.9800740921111"
    }
  },
  {
    "service_request": "2024-1070881",
    "request_type": "Trash/Recycling",
    "request_reason": "MIssed Recycling Pick-Up",
    "date_created": "2024-02-27T13:40:08.000",
    "date_modified": "2024-02-27T13:40:09.000",
    "request_status": "Pending",
    "responsible_agency": "Department of Sanitation",
    "final_address": "3018 Gravier St",
    "address_councildis": "B",
    "status": "Assigned to Contractor",
    "contractor": "Richards Disposal",
    "rowid": "1070881",
    "final_x": "3672671.51758",
    "final_y": "533923.041413",
    "longitude": "-90.09586559745748",
    "latitude": "29.962368347099115",
    "geocoded_column": {
      "latitude": "29.962368347099115",
      "longitude": "-90.09586559745748"
    }
  },
  {
    "service_request": "2024-1070879",
    "request_type": "Trash/Recycling",
    "request_reason": "Missed Trash Pick-Up",
    "date_created": "2024-02-27T13:37:03.000",
    "date_modified": "2024-02-27T13:37:04.000",
    "request_status": "Pending",
    "responsible_agency": "Department of Sanitation",
    "final_address": "10701 Harrow Rd",
    "address_councildis": "E",
    "status": "Assigned to Contractor",
    "contractor": "Waste Pro",
    "rowid": "1070879",
    "final_x": "3711150.9411",
    "final_y": "563538.936544",
    "longitude": "-89.97324418589007",
    "latitude": "30.042601933158046",
    "geocoded_column": {
      "latitude": "30.042601933158046",
      "longitude": "-89.97324418589007"
    }
  },
  {
    "service_request": "2024-1070878",
    "request_type": "Property Maintenance",
    "request_reason": "Property Maintenance",
    "date_created": "2024-02-27T13:36:25.000",
    "date_modified": "2024-02-27T15:30:56.000",
    "case_close_date": "2024-02-27T09:30:56.000",
    "request_status": "Closed",
    "responsible_agency": "Department of Code Enforcement",
    "final_address": "1804/1806 Desire Street",
    "address_councildis": "D",
    "status": "Referred to External Agency",
    "rowid": "1070878",
    "final_x": "3690814.33148",
    "final_y": "538416.555657",
    "longitude": "-90.03841302109154",
    "latitude": "29.97417270115042",
    "geocoded_column": {
      "latitude": "29.97417270115042",
      "longitude": "-90.03841302109154"
    }
  },
  {
    "service_request": "2024-1070877",
    "request_type": "Trash/Recycling",
    "request_reason": "Order Recycling Cart",
    "date_created": "2024-02-27T13:36:05.000",
    "date_modified": "2024-02-27T13:36:05.000",
    "request_status": "Pending",
    "responsible_agency": "Department of Sanitation",
    "final_address": "6901 Breedlove St",
    "address_councildis": "B",
    "status": "Pending",
    "rowid": "1070877",
    "final_x": "3668530.10388",
    "final_y": "531672.697795",
    "longitude": "-90.10901956252931",
    "latitude": "29.95630297561735",
    "geocoded_column": {
      "latitude": "29.95630297561735",
      "longitude": "-90.10901956252931"
    }
  },
  {
    "service_request": "2024-1070876",
    "request_type": "Trash/Recycling",
    "request_reason": "Missed Trash Pick-Up",
    "date_created": "2024-02-27T13:35:33.000",
    "date_modified": "2024-02-27T13:35:33.000",
    "request_status": "Pending",
    "responsible_agency": "Department of Sanitation",
    "final_address": "4957 Chantilly Dr",
    "address_councildis": "E",
    "status": "Assigned to Contractor",
    "contractor": "Waste Pro",
    "rowid": "1070876",
    "final_x": "3700838.95633",
    "final_y": "555471.063897",
    "longitude": "-90.00612928265917",
    "latitude": "30.020750933229035",
    "geocoded_column": {
      "latitude": "30.020750933229035",
      "longitude": "-90.00612928265917"
    }
  },
  {
    "service_request": "2024-1070875",
    "request_type": "Trash/Recycling",
    "request_reason": "Order Trash Cart",
    "date_created": "2024-02-27T13:35:30.000",
    "date_modified": "2024-02-27T13:35:31.000",
    "request_status": "Pending",
    "responsible_agency": "Department of Sanitation",
    "final_address": "6901 Breedlove St",
    "address_councildis": "B",
    "status": "Assigned to Contractor",
    "contractor": "Richards Disposal",
    "rowid": "1070875",
    "final_x": "3668530.10388",
    "final_y": "531672.697795",
    "longitude": "-90.10901956252931",
    "latitude": "29.95630297561735",
    "geocoded_column": {
      "latitude": "29.95630297561735",
      "longitude": "-90.10901956252931"
    }
  },
  {
    "service_request": "2024-1070874",
    "request_type": "Trash/Recycling",
    "request_reason": "Repair Trash Cart",
    "date_created": "2024-02-27T13:34:26.000",
    "date_modified": "2024-02-27T13:35:28.000",
    "request_status": "Pending",
    "responsible_agency": "Department of Sanitation",
    "final_address": "2900 Mistletoe St",
    "address_councildis": "A",
    "status": "Assigned to Contractor",
    "contractor": "Richards Disposal",
    "rowid": "1070874",
    "final_x": "3663199.3289",
    "final_y": "535549.763526",
    "longitude": "-90.12572342163442",
    "latitude": "29.967119180676242",
    "geocoded_column": {
      "latitude": "29.967119180676242",
      "longitude": "-90.12572342163442"
    }
  },
  {
    "service_request": "2024-1070873",
    "request_type": "Traffic Signals/Signs/Striping/Streetlights",
    "request_reason": "Street Light Outage/Malfunction",
    "date_created": "2024-02-27T13:33:11.000",
    "date_modified": "2024-02-27T13:33:12.000",
    "request_status": "Pending",
    "responsible_agency": "Department of Public Works",
    "final_address": "3734 Preston Pl",
    "address_councildis": "C",
    "status": "Assigned to Contractor",
    "contractor": "Legacy Professional Services",
    "rowid": "1070873",
    "final_x": "3708378.44664",
    "final_y": "517253.907317",
    "longitude": "-89.983729207399",
    "latitude": "29.91542552421949",
    "geocoded_column": {
      "latitude": "29.91542552421949",
      "longitude": "-89.983729207399"
    }
  },
  {
    "service_request": "2024-1070872",
    "request_type": "Trash/Recycling",
    "request_reason": "Replace Trash Cart",
    "date_created": "2024-02-27T13:31:38.000",
    "date_modified": "2024-02-27T13:31:39.000",
    "request_status": "Pending",
    "responsible_agency": "Department of Sanitation",
    "final_address": "1861 N Tonti St",
    "address_councildis": "D",
    "status": "Assigned to Contractor",
    "contractor": "IV Waste",
    "rowid": "1070872",
    "final_x": "3681835.83912",
    "final_y": "540527.600971",
    "longitude": "-90.066695450822",
    "latitude": "29.98025328398529",
    "geocoded_column": {
      "latitude": "29.98025328398529",
      "longitude": "-90.066695450822"
    }
  },
  {
    "service_request": "2024-1070871",
    "request_type": "Trash/Recycling",
    "request_reason": "Request a Large Item Pick Up",
    "date_created": "2024-02-27T13:30:33.000",
    "date_modified": "2024-02-27T13:30:33.000",
    "request_status": "Pending",
    "responsible_agency": "Department of Sanitation",
    "final_address": "4974 Tynecastle Dr",
    "address_councildis": "E",
    "status": "Assigned to Contractor",
    "contractor": "Waste Pro",
    "rowid": "1070871",
    "final_x": "3718304.07884",
    "final_y": "558413.052764",
    "longitude": "-89.95083315718811",
    "latitude": "30.028272426936212",
    "geocoded_column": {
      "latitude": "30.028272426936212",
      "longitude": "-89.95083315718811"
    }
  },
  {
    "service_request": "2024-1070870",
    "request_type": "Trash/Recycling",
    "request_reason": "Request a Large Item Pick Up",
    "date_created": "2024-02-27T13:25:09.000",
    "date_modified": "2024-02-27T13:25:10.000",
    "request_status": "Pending",
    "responsible_agency": "Department of Sanitation",
    "final_address": "8740 Lomond Rd",
    "address_councildis": "E",
    "status": "Assigned to Contractor",
    "contractor": "Waste Pro",
    "rowid": "1070870",
    "final_x": "3704778.18238",
    "final_y": "562527.948128",
    "longitude": "-89.99342184457093",
    "latitude": "30.04002856488437",
    "geocoded_column": {
      "latitude": "30.04002856488437",
      "longitude": "-89.99342184457093"
    }
  },
  {
    "service_request": "2024-1070869",
    "request_type": "Trash/Recycling",
    "request_reason": "Repair Recycling Cart",
    "date_created": "2024-02-27T13:19:06.000",
    "date_modified": "2024-02-27T13:19:06.000",
    "request_status": "Pending",
    "responsible_agency": "Department of Sanitation",
    "final_address": "448 S Rendon St",
    "address_councildis": "B",
    "status": "Pending",
    "rowid": "1070869",
    "final_x": "3672669.51912",
    "final_y": "535182.603718",
    "longitude": "-90.09582895121304",
    "latitude": "29.965831780701556",
    "geocoded_column": {
      "latitude": "29.965831780701556",
      "longitude": "-90.09582895121304"
    }
  },
  {
    "service_request": "2024-1070868",
    "request_type": "Roads/Drainage",
    "request_reason": "Catch Basin - Clogged",
    "date_created": "2024-02-27T13:08:07.000",
    "date_modified": "2024-02-27T13:08:07.000",
    "request_status": "Pending",
    "responsible_agency": "Department of Public Works",
    "final_address": "415 S White St",
    "address_councildis": "B",
    "status": "Pending",
    "rowid": "1070868",
    "final_x": "3673990.91374",
    "final_y": "534409.835077",
    "longitude": "-90.09168246841519",
    "latitude": "29.963667620292068",
    "geocoded_column": {
      "latitude": "29.963667620292068",
      "longitude": "-90.09168246841519"
    }
  },
  {
    "service_request": "2024-1070867",
    "request_type": "Trash/Recycling",
    "request_reason": "Order Trash Cart",
    "date_created": "2024-02-27T13:08:02.000",
    "date_modified": "2024-02-27T13:08:03.000",
    "request_status": "Pending",
    "responsible_agency": "Department of Sanitation",
    "final_address": "7184 Virgilian St",
    "address_councildis": "D",
    "status": "Assigned to Contractor",
    "contractor": "Waste Pro",
    "rowid": "1070867",
    "final_x": "3696531.29104",
    "final_y": "557488.588123",
    "longitude": "-90.01966708094838",
    "latitude": "30.026434847065573",
    "geocoded_column": {
      "latitude": "30.026434847065573",
      "longitude": "-90.01966708094838"
    }
  },
  {
    "service_request": "2024-1070866",
    "request_type": "Traffic Signals/Signs/Striping/Streetlights",
    "request_reason": "Traffic Sign Missing/Damaged",
    "date_created": "2024-02-27T13:01:28.000",
    "date_modified": "2024-02-27T13:01:28.000",
    "request_status": "Pending",
    "responsible_agency": "Department of Public Works",
    "final_address": "URQUHART ST & GALLIER ST",
    "address_councildis": "C",
    "status": "Pending",
    "rowid": "1070866",
    "final_x": "3690642.5",
    "final_y": "536371.28",
    "longitude": "-90.0390286665179",
    "latitude": "29.968554253464152",
    "geocoded_column": {
      "latitude": "29.968554253464152",
      "longitude": "-90.0390286665179"
    }
  },
  {
    "service_request": "2024-1070865",
    "request_type": "Property Maintenance",
    "request_reason": "Property Maintenance",
    "date_created": "2024-02-27T13:00:24.000",
    "date_modified": "2024-02-27T13:33:29.000",
    "case_close_date": "2024-02-27T07:33:29.000",
    "request_status": "Closed",
    "responsible_agency": "Department of Code Enforcement",
    "final_address": "517 Amethyst St",
    "address_councildis": "D",
    "status": "Resolved",
    "rowid": "1070865",
    "final_x": "3668463.13281",
    "final_y": "556908.867738",
    "longitude": "-90.10837914114494",
    "latitude": "30.025695763249566",
    "geocoded_column": {
      "latitude": "30.025695763249566",
      "longitude": "-90.10837914114494"
    }
  },
  {
    "service_request": "2024-1070864",
    "request_type": "Trash/Recycling",
    "request_reason": "Request a Large Item Pick Up",
    "date_created": "2024-02-27T12:58:19.000",
    "date_modified": "2024-02-27T12:58:19.000",
    "request_status": "Pending",
    "responsible_agency": "Department of Sanitation",
    "final_address": "3800 Red Oak Ct",
    "address_councildis": "C",
    "status": "Assigned to Contractor",
    "contractor": "Richards Disposal",
    "rowid": "1070864",
    "final_x": "3703459.98334",
    "final_y": "513804.14917",
    "longitude": "-89.99938035577918",
    "latitude": "29.906098243201306",
    "geocoded_column": {
      "latitude": "29.906098243201306",
      "longitude": "-89.99938035577918"
    }
  },
  {
    "service_request": "2024-1070863",
    "request_type": "Trash/Recycling",
    "request_reason": "Order Trash Cart",
    "date_created": "2024-02-27T12:56:56.000",
    "date_modified": "2024-02-27T12:56:56.000",
    "request_status": "Pending",
    "responsible_agency": "Department of Sanitation",
    "final_address": "6647 Argonne Blvd",
    "address_councildis": "A",
    "status": "Assigned to Contractor",
    "contractor": "IV Waste",
    "rowid": "1070863",
    "final_x": "3670620.85659",
    "final_y": "551556.770709",
    "longitude": "-90.101742787885",
    "latitude": "30.010915798333624",
    "geocoded_column": {
      "latitude": "30.010915798333624",
      "longitude": "-90.101742787885"
    }
  },