[
  {
    "service_request": "2025-1191111",
    "request_type": "Street and Traffic Signs",
    "request_reason": "Street Name Sign Damaged or Missing",
    "date_created": "2025-05-10T23:19:03.000",
    "date_modified": "2025-05-10T23:19:04.000",
    "request_status": "Pending",
    "responsible_agency": "Department of Public Works",
    "final_address": "DORSIERE ST & CANAL ST",
    "address_councildis": "C",
    "status": "Pending",
    "rowid": "1191111",
    "final_x": "3681736.2",
    "final_y": "530323.48",
    "longitude": "-90.06736623028678",
    "latitude": "29.9521984842862",
    "geocoded_column": {
      "latitude": "29.9521984842862",
      "longitude": "-90.06736623028678"
    }
  },
  {
    "service_request": "2025-1191110",
    "request_type": "Streetlights",
    "request_reason": "Streetlight Outage/Malfunction",
    "date_created": "2025-05-10T23:13:35.000",
    "date_modified": "2025-05-10T23:13:37.000",
    "request_status": "Pending",
    "responsible_agency": "Department of Public Works",
    "final_address": "723 Ursulines Ave",
    "address_councildis": "C",
    "status": "Pending",
    "contractor": "Legacy Professional Services",
    "rowid": "1191110",
    "final_x": "3683314.43714",
    "final_y": "533756.270213",
    "longitude": "-90.06226265889158",
    "latitude": "29.961589446225986",
    "geocoded_column": {
      "latitude": "29.961589446225986",
      "longitude": "-90.06226265889158"
    }
  },
  {
    "service_request": "2025-1191109",
    "request_type": "Abandoned Vehicles",
    "request_reason": "Abandoned/Junk Vehicles",
    "date_created": "2025-05-10T22:50:32.000",
    "date_modified": "2025-05-10T22:50:34.000",
    "request_status": "Pending",
    "responsible_agency": "Department of Public Works",
    "final_address": "3300 Laurel St",
    "address_councildis": "B",
    "status": "Pending",
    "rowid": "1191109",
    "final_x": "3675592.04526",
    "final_y": "519033.938167",
    "longitude": "-90.08715432618528",
    "latitude": "29.921341163334084",
    "geocoded_column": {
      "latitude": "29.921341163334084",
      "longitude": "-90.08715432618528"
    }
  },
  {
    "service_request": "2025-1191108",
    "request_type": "Trash/Recycling",
    "request_reason": "Request a Large Item Pick Up",
    "date_created": "2025-05-10T22:35:37.000",
    "date_modified": "2025-05-10T22:35:39.000",
    "request_status": "Pending",
    "responsible_agency": "Department of Sanitation",
    "final_address": "5728 Alfred St",
    "address_councildis": "D",
    "status": "Assigned to Contractor",
    "contractor": "IV Waste",
    "rowid": "1191108",
    "final_x": "3677128.1179",
    "final_y": "553575.041559",
    "longitude": "-90.0811140847701",
    "latitude": "30.016271396751517",
    "geocoded_column": {
      "latitude": "30.016271396751517",
      "longitude": "-90.0811140847701"
    }
  },
  {
    "service_request": "2025-1191107",
    "request_type": "Street and Traffic Signs",
    "request_reason": "Street Name Sign Damaged or Missing",
    "date_created": "2025-05-10T22:30:58.000",
    "date_modified": "2025-05-10T22:31:00.000",
    "request_status": "Pending",
    "responsible_agency": "Department of Public Works",
    "final_address": "ELYSIAN FIELDS AVE & N CLAIBORNE AVE",
    "address_councildis": "D",
    "status": "Pending",
    "rowid": "1191107",
    "final_x": "3684815.6",
    "final_y": "538136.98",
    "longitude": "-90.05736820071654",
    "latitude": "29.973589006521028",
    "geocoded_column": {
      "latitude": "29.973589006521028",
      "longitude": "-90.05736820071654"
    }
  },
  {
    "service_request": "2025-1191106",
    "request_type": "Trash/Recycling",
    "request_reason": "Repair Recycling Cart",
    "date_created": "2025-05-10T22:30:33.000",
    "date_modified": "2025-05-10T22:30:34.000",
    "request_status": "Pending",
    "responsible_agency": "Department of Sanitation",
    "final_address": "5366 Tullis Dr",
    "address_councildis": "C",
    "status": "Pending",
    "rowid": "1191106",
    "final_x": "3703711.14135",
    "final_y": "511975.332272",
    "longitude": "-89.9986549185875",
    "latitude": "29.90106157525589",
    "geocoded_column": {
      "latitude": "29.90106157525589",
      "longitude": "-89.9986549185875"
    }
  },
  {
    "service_request": "2025-1191105",
    "request_type": "Street and Traffic Signs",
    "request_reason": "Street Name Sign Damaged or Missing",
    "date_created": "2025-05-10T22:29:49.000",
    "date_modified": "2025-05-10T22:29:50.000",
    "request_status": "Pending",
    "responsible_agency": "Department of Public Works",
    "final_address": "GOVERNOR NICHOLLS ST & N CLAIBORNE AVE",
    "address_councildis": "D",
    "status": "Pending",
    "rowid": "1191105",
    "final_x": "3680830.6",
    "final_y": "536104.28",
    "longitude": "-90.07002444970273",
    "latitude": "29.96812119731939",
    "geocoded_column": {
      "latitude": "29.96812119731939",
      "longitude": "-90.07002444970273"
    }
  },
  {
    "service_request": "2025-1191104",
    "request_type": "Street and Traffic Signs",
    "request_reason": "Street Name Sign Damaged or Missing",
    "date_created": "2025-05-10T22:28:37.000",
    "date_modified": "2025-05-10T22:28:39.000",
    "request_status": "Pending",
    "responsible_agency": "Department of Public Works",
    "final_address": "DUMAINE ST & N CLAIBORNE AVE",
    "address_councildis": "C",
    "status": "Pending",
    "rowid": "1191104",
    "final_x": "3680275.7",
    "final_y": "535139.88",
    "longitude": "-90.07181037616235",
    "latitude": "29.9654862379528",
    "geocoded_column": {
      "latitude": "29.9654862379528",
      "longitude": "-90.07181037616235"
    }
  },
  {
    "service_request": "2025-1191103",
    "request_type": "Street and Traffic Signs",
    "request_reason": "Street Name Sign Damaged or Missing",
    "date_created": "2025-05-10T22:26:44.000",
    "date_modified": "2025-05-10T22:26:46.000",
    "request_status": "Pending",
    "responsible_agency": "Department of Public Works",
    "final_address": "Basin Street & North Claiborne Avenue",
    "address_councildis": "C",
    "status": "Pending",
    "rowid": "1191103",
    "final_x": "3679891.86197",
    "final_y": "534642.273542",
    "longitude": "-90.07303980335469",
    "latitude": "29.964129604243837",
    "geocoded_column": {
      "latitude": "29.964129604243837",
      "longitude": "-90.07303980335469"
    }
  },
  {
    "service_request": "2025-1191102",
    "request_type": "Roads and Streets",
    "request_reason": "Pothole",
    "date_created": "2025-05-10T22:14:28.000",
    "date_modified": "2025-05-10T22:14:30.000",
    "request_status": "Pending",
    "responsible_agency": "Department of Public Works",
    "final_address": "1834 Broadway St",
    "address_councildis": "A",
    "status": "Pending",
    "rowid": "1191102",
    "final_x": "3665456.008",
    "final_y": "528520.851968",
    "longitude": "-90.118832057248",
    "latitude": "29.947726380948694",
    "geocoded_column": {
      "latitude": "29.947726380948694",
      "longitude": "-90.118832057248"
    }
  },
  {
    "service_request": "2025-1191101",
    "request_type": "Streetlights",
    "request_reason": "Streetlight Outage/Malfunction",
    "date_created": "2025-05-10T22:12:54.000",
    "date_modified": "2025-05-10T22:12:56.000",
    "request_status": "Pending",
    "responsible_agency": "Department of Public Works",
    "final_address": "1834 Broadway St",
    "address_councildis": "A",
    "status": "Pending",
    "contractor": "Legacy Professional Services",
    "rowid": "1191101",
    "final_x": "3665456.008",
    "final_y": "528520.851968",
    "longitude": "-90.118832057248",
    "latitude": "29.947726380948694",
    "geocoded_column": {
      "latitude": "29.947726380948694",
      "longitude": "-90.118832057248"
    }
  },
  {
    "service_request": "2025-1191100",
    "request_type": "Street and Traffic Signs",
    "request_reason": "Street Name Sign Damaged or Missing",
    "date_created": "2025-05-10T21:56:53.000",
    "date_modified": "2025-05-10T21:56:55.000",
    "request_status": "Pending",
    "responsible_agency": "Department of Public Works",
    "final_address": "JULIA ST & OKEEFE AVE",
    "address_councildis": "B",
    "status": "Pending",
    "rowid": "1191100",
    "final_x": "3679232.3",
    "final_y": "528318.58",
    "longitude": "-90.07534188516476",
    "latitude": "29.946761509976117",
    "geocoded_column": {
      "latitude": "29.946761509976117",
      "longitude": "-90.07534188516476"
    }
  },
  {
    "service_request": "2025-1191099",
    "request_type": "Trash/Recycling",
    "request_reason": "Request a Large Item Pick Up",
    "date_created": "2025-05-10T21:56:37.000",
    "date_modified": "2025-05-10T21:56:38.000",
    "request_status": "Pending",
    "responsible_agency": "Department of Sanitation",
    "final_address": "2608 DAbadie St",
    "address_councildis": "D",
    "status": "Assigned to Contractor",
    "contractor": "IV Waste",
    "rowid": "1191099",
    "final_x": "3679417.01685",
    "final_y": "540802.400267",
    "longitude": "-90.07432557879501",
    "latitude": "29.981082185683896",
    "geocoded_column": {
      "latitude": "29.981082185683896",
      "longitude": "-90.07432557879501"
    }
  },
  {
    "service_request": "2025-1191098",
    "request_type": "Trash/Recycling",
    "request_reason": "Request a Large Item Pick Up",
    "date_created": "2025-05-10T21:54:56.000",
    "date_modified": "2025-05-10T21:54:58.000",
    "request_status": "Pending",
    "responsible_agency": "Department of Sanitation",
    "final_address": "2501 N Derbigny St",
    "address_councildis": "D",
    "status": "Assigned to Contractor",
    "contractor": "IV Waste",
    "rowid": "1191098",
    "final_x": "3687064.48297",
    "final_y": "538727.122505",
    "longitude": "-90.05024489710529",
    "latitude": "29.975142640727455",
    "geocoded_column": {
      "latitude": "29.975142640727455",
      "longitude": "-90.05024489710529"
    }
  },
  {
    "service_request": "2025-1191097",
    "request_type": "Streetlights",
    "request_reason": "Streetlight Outage/Malfunction",
    "date_created": "2025-05-10T21:36:07.000",
    "date_modified": "2025-05-10T21:36:08.000",
    "request_status": "Pending",
    "responsible_agency": "Department of Public Works",
    "final_address": "1541 N Rocheblave St",
    "address_councildis": "D",
    "status": "Pending",
    "contractor": "Legacy Professional Services",
    "rowid": "1191097",
    "final_x": "3679663.54869",
    "final_y": "539195.932874",
    "longitude": "-90.07360270316711",
    "latitude": "29.976657506802617",
    "geocoded_column": {
      "latitude": "29.976657506802617",
      "longitude": "-90.07360270316711"
    }
  },
  {
    "service_request": "2025-1191096",
    "request_type": "General Services",
    "request_reason": "General Service Request",
    "date_created": "2025-05-10T21:34:52.000",
    "date_modified": "2025-05-10T21:34:54.000",
    "request_status": "Pending",
    "responsible_agency": "Orleans Parish Communication District",
    "final_address": "New Orleans,LA",
    "status": "Pending",
    "rowid": "1191096",
    "longitude": "0.0",
    "latitude": "0.0",
    "geocoded_column": {
      "latitude": "0.0",
      "longitude": "0.0"
    }
  },
  {
    "service_request": "2025-1191095",
    "request_type": "Drainage",
    "request_reason": "Street Flooding",
    "date_created": "2025-05-10T21:33:25.000",
    "date_modified": "2025-05-10T21:33:28.000",
    "request_status": "Pending",
    "responsible_agency": "Sewerage & Water Board",
    "final_address": "8700 Apricot St",
    "address_councildis": "A",
    "status": "Pending",
    "rowid": "1191095",
    "final_x": "3664170.33543",
    "final_y": "534074.321477",
    "longitude": "-90.1227061909471",
    "latitude": "29.963034025438528",
    "geocoded_column": {
      "latitude": "29.963034025438528",
      "longitude": "-90.1227061909471"
    }
  },
  {
    "service_request": "2025-1191094",
    "request_type": "Streetlights",
    "request_reason": "Streetlight Outage/Malfunction",
    "date_created": "2025-05-10T21:31:58.000",
    "date_modified": "2025-05-10T21:31:59.000",
    "request_status": "Pending",
    "responsible_agency": "Department of Public Works",
    "final_address": "1541 N Rocheblave St",
    "address_councildis": "D",
    "status": "Pending",
    "contractor": "Legacy Professional Services",
    "rowid": "1191094",
    "final_x": "3679663.54869",
    "final_y": "539195.932874",
    "longitude": "-90.07360270316711",
    "latitude": "29.976657506802617",
    "geocoded_column": {
      "latitude": "29.976657506802617",
      "longitude": "-90.07360270316711"
    }
  },
  {
    "service_request": "2025-1191093",
    "request_type": "Streetlights",
    "request_reason": "Streetlight Outage/Malfunction",
    "date_created": "2025-05-10T21:31:57.000",
    "date_modified": "2025-05-10T21:32:00.000",
    "request_status": "Pending",
    "responsible_agency": "Department of Public Works",
    "final_address": "1541 N Rocheblave St",
    "address_councildis": "D",
    "status": "Pending",
    "contractor": "Legacy Professional Services",
    "rowid": "1191093",
    "final_x": "3679663.54869",
    "final_y": "539195.932874",
    "longitude": "-90.07360270316711",
    "latitude": "29.976657506802617",
    "geocoded_column": {
      "latitude": "29.976657506802617",
      "longitude": "-90.07360270316711"
    }
  },
  {
    "service_request": "2025-1191092",
    "request_type": "Trash/Recycling",
    "request_reason": "Request a Large Item Pick Up",
    "date_created": "2025-05-10T21:22:40.000",
    "date_modified": "2025-05-10T21:22:42.000",
    "request_status": "Pending",
    "responsible_agency": "Department of Sanitation",
    "final_address": "1705 Rousselin Dr",
    "address_councildis": "D",
    "status": "Assigned to Contractor",
    "contractor": "IV Waste",
    "rowid": "1191092",
    "final_x": "3679770.18901",
    "final_y": "540650.012043",
    "longitude": "-90.07321539561194",
    "latitude": "29.980652496213974",
    "geocoded_column": {
      "latitude": "29.980652496213974",
      "longitude": "-90.07321539561194"
    }
  },
  {
    "service_request": "2025-1191091",
    "request_type": "Health Related Request",
    "request_reason": "Noise Ordinance Complaint",
    "date_created": "2025-05-10T21:10:38.000",
    "date_modified": "2025-05-10T21:10:40.000",
    "request_status": "Pending",
    "responsible_agency": "Health Department",
    "final_address": "5 Olympic Court, New Orleans, LA, 70131",
    "address_councildis": "C",
    "status": "Pending",
    "rowid": "1191091",
    "final_x": "3699804.01501",
    "final_y": "516354.771957",
    "longitude": "-90.01082589110612",
    "latitude": "29.91322811818056",
    "geocoded_column": {
      "latitude": "29.91322811818056",
      "longitude": "-90.01082589110612"
    }
  },
  {
    "service_request": "2025-1191090",
    "request_type": "Health Related Request",
    "request_reason": "Noise Ordinance Complaint",
    "date_created": "2025-05-10T21:03:04.000",
    "date_modified": "2025-05-10T21:03:05.000",
    "request_status": "Pending",
    "responsible_agency": "Health Department",
    "final_address": "3501 Washington Ave.",
    "address_councildis": "B",
    "status": "Pending",
    "rowid": "1191090",
    "final_x": "3672185.63105",
    "final_y": "528248.684736",
    "longitude": "-90.09759320793721",
    "latitude": "29.946780164302034",
    "geocoded_column": {
      "latitude": "29.946780164302034",
      "longitude": "-90.09759320793721"
    }
  },
  {
    "service_request": "2025-1191089",
    "request_type": "Healthy Homes",
    "request_reason": "Healthy Homes",
    "date_created": "2025-05-10T20:54:10.000",
    "date_modified": "2025-05-10T20:54:12.000",
    "request_status": "Pending",
    "responsible_agency": "Department of Code Enforcement",
    "final_address": "1300 BLK Saint Andrew St",
    "address_councildis": "B",
    "status": "Pending",
    "rowid": "1191089",
    "final_x": "3678940.69458",
    "final_y": "523263.2446",
    "longitude": "-90.0764376748678",
    "latitude": "29.932869810940254",
    "geocoded_column": {
      "latitude": "29.932869810940254",
      "longitude": "-90.0764376748678"
    }
  },
  {
    "service_request": "2025-1191087",
    "request_type": "Streetlights",
    "request_reason": "Streetlight Outage/Malfunction",
    "date_created": "2025-05-10T20:05:14.000",
    "date_modified": "2025-05-10T20:05:16.000",
    "request_status": "Pending",
    "responsible_agency": "Department of Public Works",
    "final_address": "800 BLK Metairie Rd",
    "address_councildis": "A",
    "status": "Pending",
    "contractor": "Legacy Professional Services",
    "rowid": "1191087",
    "final_x": "3663522.41012",
    "final_y": "539956.412329",
    "longitude": "-90.1245563177318",
    "latitude": "29.979226638556337",
    "geocoded_column": {
      "latitude": "29.979226638556337",
      "longitude": "-90.1245563177318"
    }
  },
  {
    "service_request": "2025-1191086",
    "request_type": "Abandoned Vehicles",
    "request_reason": "Abandoned/Junk Vehicles",
    "date_created": "2025-05-10T19:54:16.000",
    "date_modified": "2025-05-10T19:54:18.000",
    "request_status": "Pending",
    "responsible_agency": "Department of Public Works",
    "final_address": "2014 Foucher St",
    "address_councildis": "B",
    "status": "Pending",
    "rowid": "1191086",
    "final_x": "3672935.39169",
    "final_y": "522755.934074",
    "longitude": "-90.09541329882532",
    "latitude": "29.931654635210606",
    "geocoded_column": {
      "latitude": "29.931654635210606",
      "longitude": "-90.09541329882532"
    }
  },
  {
    "service_request": "2025-1191085",
    "request_type": "Abandoned Vehicles",
    "request_reason": "Abandoned/Junk Vehicles",
    "date_created": "2025-05-10T19:50:30.000",
    "date_modified": "2025-05-10T19:50:32.000",
    "request_status": "Pending",
    "responsible_agency": "Department of Public Works",
    "final_address": "2014 Foucher St",
    "address_councildis": "B",
    "status": "Pending",
    "rowid": "1191085",
    "final_x": "3672935.39169",
    "final_y": "522755.934074",
    "longitude": "-90.09541329882532",
    "latitude": "29.931654635210606",
    "geocoded_column": {
      "latitude": "29.931654635210606",
      "longitude": "-90.09541329882532"
    }
  },
  {
    "service_request": "2025-1191084",
    "request_type": "Trash/Recycling",
    "request_reason": "Missed Trash Pick-Up",
    "date_created": "2025-05-10T19:10:48.000",
    "date_modified": "2025-05-10T19:10:50.000",
    "request_status": "Pending",
    "responsible_agency": "Department of Sanitation",
    "final_address": "4652 Wright Rd",
    "address_councildis": "E",
    "status": "Assigned to Contractor",
    "contractor": "Waste Pro",
    "rowid": "1191084",
    "final_x": "3716653.44146",
    "final_y": "556491.348762",
    "longitude": "-89.95612200367641",
    "latitude": "30.023043164295903",
    "geocoded_column": {
      "latitude": "30.023043164295903",
      "longitude": "-89.95612200367641"
    }
  },
  {
    "service_request": "2025-1191083",
    "request_type": "Property Maintenance",
    "request_reason": "Property Maintenance",
    "date_created": "2025-05-10T18:37:46.000",
    "date_modified": "2025-05-10T18:37:47.000",
    "request_status": "Pending",
    "responsible_agency": "Department of Code Enforcement",
    "final_address": "1817 Napoleon Ave",
    "address_councildis": "B",
    "status": "Pending",
    "rowid": "1191083",
    "final_x": "3670897.6411",
    "final_y": "521755.326266",
    "longitude": "-90.10188020879816",
    "latitude": "29.928963661778372",
    "geocoded_column": {
      "latitude": "29.928963661778372",
      "longitude": "-90.10188020879816"
    }
  },
  {
    "service_request": "2025-1191082",
    "request_type": "Drainage",
    "request_reason": "Catch Basin Clogged",
    "date_created": "2025-05-10T18:37:18.000",
    "date_modified": "2025-05-10T18:37:20.000",
    "request_status": "Pending",
    "responsible_agency": "Sewerage & Water Board",
    "final_address": "3510 Rue Delphine",
    "address_councildis": "C",
    "status": "Pending",
    "rowid": "1191082",
    "final_x": "3703104.47633",
    "final_y": "517781.247094",
    "longitude": "-90.00035633548376",
    "latitude": "29.917045279159883",
    "geocoded_column": {
      "latitude": "29.917045279159883",
      "longitude": "-90.00035633548376"
    }
  },
  {
    "service_request": "2025-1191081",
    "request_type": "Drainage",
    "request_reason": "Catch Basin Clogged",
    "date_created": "2025-05-10T17:43:02.000",
    "date_modified": "2025-05-10T17:43:04.000",
    "request_status": "Pending",
    "responsible_agency": "Sewerage & Water Board",
    "final_address": "942 Burgundy St",
    "address_councildis": "C",
    "status": "Pending",
    "rowid": "1191081",
    "final_x": "3682349.72572",
    "final_y": "533933.049605",
    "longitude": "-90.06530287558301",
    "latitude": "29.96210491915522",
    "geocoded_column": {
      "latitude": "29.96210491915522",
      "longitude": "-90.06530287558301"
    }
  },
  {
    "service_request": "2025-1191080",
    "request_type": "Drainage",
    "request_reason": "Drainage Manhole Cover Missing or Damaged",
    "date_created": "2025-05-10T17:14:26.000",
    "date_modified": "2025-05-10T17:14:28.000",
    "request_status": "Pending",
    "responsible_agency": "Sewerage & Water Board",
    "final_address": "N CLAIBORNE AVE & ST BERNARD AVE",
    "address_councildis": "D",
    "status": "Pending",
    "rowid": "1191080",
    "final_x": "3682143.48",
    "final_y": "537838.4",
    "longitude": "-90.06581774710449",
    "latitude": "29.972849562408335",
    "geocoded_column": {
      "latitude": "29.972849562408335",
      "longitude": "-90.06581774710449"
    }
  },
  {
    "service_request": "2025-1191079",
    "request_type": "Roads and Streets",
    "request_reason": "Pothole",
    "date_created": "2025-05-10T17:07:07.000",
    "date_modified": "2025-05-10T17:07:09.000",
    "request_status": "Pending",
    "responsible_agency": "Department of Public Works",
    "final_address": "5023 S Saratoga St",
    "address_councildis": "B",
    "status": "Pending",
    "rowid": "1191079",
    "final_x": "3668568.53326",
    "final_y": "522592.267706",
    "longitude": "-90.1092045354398",
    "latitude": "29.93133360620586",
    "geocoded_column": {
      "latitude": "29.93133360620586",
      "longitude": "-90.1092045354398"
    }
  },
  {
    "service_request": "2025-1191078",
    "request_type": "Trash/Recycling",
    "request_reason": "Request a Large Item Pick Up",
    "date_created": "2025-05-10T17:00:15.000",
    "date_modified": "2025-05-10T17:00:17.000",
    "request_status": "Pending",
    "responsible_agency": "Department of Sanitation",
    "final_address": "7015 Lake Willow Dr",
    "address_councildis": "E",
    "status": "Assigned to Contractor",
    "contractor": "Waste Pro",
    "rowid": "1191078",
    "final_x": "3702522.84855",
    "final_y": "558959.186396",
    "longitude": "-90.00068053410376",
    "latitude": "30.030288186723276",
    "geocoded_column": {
      "latitude": "30.030288186723276",
      "longitude": "-90.00068053410376"
    }
  },
  {
    "service_request": "2025-1191077",
    "request_type": "Trash/Recycling",
    "request_reason": "Request a Large Item Pick Up",
    "date_created": "2025-05-10T16:56:30.000",
    "date_modified": "2025-05-10T16:56:31.000",
    "request_status": "Pending",
    "responsible_agency": "Department of Sanitation",
    "final_address": "2937 Orleans Ave",
    "address_councildis": "A",
    "status": "Assigned to Contractor",
    "contractor": "IV Waste",
    "rowid": "1191077",
    "final_x": "3675856.64718",
    "final_y": "537782.495048",
    "longitude": "-90.08567469656055",
    "latitude": "29.972885567859922",
    "geocoded_column": {
      "latitude": "29.972885567859922",
      "longitude": "-90.08567469656055"
    }
  },
  {
    "service_request": "2025-1191076",
    "request_type": "Property Maintenance",
    "request_reason": "Property Maintenance",
    "date_created": "2025-05-10T16:52:35.000",
    "date_modified": "2025-05-10T16:52:37.000",
    "request_status": "Pending",
    "responsible_agency": "Department of Code Enforcement",
    "final_address": "12100 Morrison Rd",
    "address_councildis": "E",
    "status": "Pending",
    "rowid": "1191076",
    "final_x": "3714199.2764",
    "final_y": "567018.298852",
    "longitude": "-89.96347887951954",
    "latitude": "30.052068923648648",
    "geocoded_column": {
      "latitude": "30.052068923648648",
      "longitude": "-89.96347887951954"
    }
  },
  {
    "service_request": "2025-1191075",
    "request_type": "Abandoned Vehicles",
    "request_reason": "Vehicle Blocking Your Driveway",
    "date_created": "2025-05-10T16:52:18.000",
    "date_modified": "2025-05-10T16:52:20.000",
    "request_status": "Pending",
    "responsible_agency": "Department of Public Works",
    "final_address": "4033 Tchoupitoulas Street",
    "address_councildis": "B",
    "status": "Pending",
    "rowid": "1191075",
    "final_x": "3672366.82497",
    "final_y": "517634.145206",
    "longitude": "-90.09738260725247",
    "latitude": "29.917588233163755",
    "geocoded_column": {
      "latitude": "29.917588233163755",
      "longitude": "-90.09738260725247"
    }
  },
  {
    "service_request": "2025-1191074",
    "request_type": "Trash/Recycling",
    "request_reason": "Replace Trash Cart",
    "date_created": "2025-05-10T16:23:22.000",
    "date_modified": "2025-05-10T16:23:27.000",
    "request_status": "Pending",
    "responsible_agency": "Department of Sanitation",
    "final_address": "4031 Vendome Pl",
    "address_councildis": "B",
    "status": "Assigned to Contractor",
    "contractor": "IV Waste",
    "rowid": "1191074",
    "final_x": "3668818.81428",
    "final_y": "530121.493953",
    "longitude": "-90.10816028199567",
    "latitude": "29.952029188642033",
    "geocoded_column": {
      "latitude": "29.952029188642033",
      "longitude": "-90.10816028199567"
    }
  },
  {
    "service_request": "2025-1191073",
    "request_type": "Trash/Recycling",
    "request_reason": "Replace Recycling Cart",
    "date_created": "2025-05-10T16:11:07.000",
    "date_modified": "2025-05-10T16:11:09.000",
    "request_status": "Pending",
    "responsible_agency": "Department of Sanitation",
    "final_address": "2537 General Pershing St",
    "address_councildis": "B",
    "status": "Pending",
    "rowid": "1191073",
    "final_x": "3670950.76065",
    "final_y": "524392.94278",
    "longitude": "-90.10162301632366",
    "latitude": "29.93621468850686",
    "geocoded_column": {
      "latitude": "29.93621468850686",
      "longitude": "-90.10162301632366"
    }
  },
  {
    "service_request": "2025-1191072",
    "request_type": "Abandoned Vehicles",
    "request_reason": "Abandoned/Junk Vehicles",
    "date_created": "2025-05-10T16:10:52.000",
    "date_modified": "2025-05-10T16:10:54.000",
    "request_status": "Pending",
    "responsible_agency": "Department of Public Works",
    "final_address": "1824 Third St",
    "address_councildis": "B",
    "status": "Pending",
    "rowid": "1191072",
    "final_x": "3675895.362",
    "final_y": "523639.675387",
    "longitude": "-90.0860386326061",
    "latitude": "29.93399637395838",
    "geocoded_column": {
      "latitude": "29.93399637395838",
      "longitude": "-90.0860386326061"
    }
  },
  {
    "service_request": "2025-1191071",
    "request_type": "Utility Poles",
    "request_reason": "Utility Pole Leaning",
    "date_created": "2025-05-10T16:06:40.000",
    "date_modified": "2025-05-10T16:06:42.000",
    "request_status": "Pending",
    "responsible_agency": "Utility Company Collective",
    "final_address": "5101 St Charles Ave",
    "address_councildis": "B",
    "status": "Pending",
    "rowid": "1191071",
    "final_x": "3668333.51687",
    "final_y": "521154.881721",
    "longitude": "-90.10999490088925",
    "latitude": "29.927388154204944",
    "geocoded_column": {
      "latitude": "29.927388154204944",
      "longitude": "-90.10999490088925"
    }
  },
  {
    "service_request": "2025-1191070",
    "request_type": "Utility Poles",
    "request_reason": "Utility Pole Leaning",
    "date_created": "2025-05-10T16:04:14.000",
    "date_modified": "2025-05-10T16:04:17.000",
    "request_status": "Pending",
    "responsible_agency": "Utility Company Collective",
    "final_address": "5101 St Charles Ave",
    "address_councildis": "B",
    "status": "Pending",
    "rowid": "1191070",
    "final_x": "3668333.51687",
    "final_y": "521154.881721",
    "longitude": "-90.10999490088925",
    "latitude": "29.927388154204944",
    "geocoded_column": {
      "latitude": "29.927388154204944",
      "longitude": "-90.10999490088925"
    }
  },
  {
    "service_request": "2025-1191069",
    "request_type": "Trash/Recycling",
    "request_reason": "Repair Trash Cart",
    "date_created": "2025-05-10T15:53:05.000",
    "date_modified": "2025-05-10T15:53:07.000",
    "request_status": "Pending",
    "responsible_agency": "Department of Sanitation",
    "final_address": "1625 Bordeaux St",
    "address_councildis": "B",
    "status": "Assigned to Contractor",
    "contractor": "IV Waste",
    "rowid": "1191069",
    "final_x": "3669398.33998",
    "final_y": "520940.763257",
    "longitude": "-90.10664074596716",
    "latitude": "29.926768094232536",
    "geocoded_column": {
      "latitude": "29.926768094232536",
      "longitude": "-90.10664074596716"
    }
  },
  {
    "service_request": "2025-1191068",
    "request_type": "Trash/Recycling",
    "request_reason": "Order Trash Cart",
    "date_created": "2025-05-10T15:49:33.000",
    "date_modified": "2025-05-10T15:49:34.000",
    "request_status": "Pending",
    "responsible_agency": "Department of Sanitation",
    "final_address": "4025 Vendome Pl",
    "address_councildis": "B",
    "status": "Assigned to Contractor",
    "contractor": "IV Waste",
    "rowid": "1191068",
    "final_x": "3668828.6139",
    "final_y": "530050.280577",
    "longitude": "-90.10813174362715",
    "latitude": "29.951833087048655",
    "geocoded_column": {
      "latitude": "29.951833087048655",
      "longitude": "-90.10813174362715"
    }
  },
  {
    "service_request": "2025-1191067",
    "request_type": "Roads and Streets",
    "request_reason": "Pothole",
    "date_created": "2025-05-10T15:33:33.000",
    "date_modified": "2025-05-10T15:33:35.000",
    "request_status": "Pending",
    "responsible_agency": "Department of Public Works",
    "final_address": "2300 Fats Domino Ave",
    "address_councildis": "E",
    "status": "Pending",
    "rowid": "1191067",
    "final_x": "3699192.72004",
    "final_y": "538305.073929",
    "longitude": "-90.0119563588932",
    "latitude": "29.97360315701651",
    "geocoded_column": {
      "latitude": "29.97360315701651",
      "longitude": "-90.0119563588932"
    }
  },
  {
    "service_request": "2025-1191066",
    "request_type": "Abandoned Vehicles",
    "request_reason": "Abandoned/Junk Vehicles",
    "date_created": "2025-05-10T15:32:59.000",
    "date_modified": "2025-05-10T15:33:01.000",
    "request_status": "Pending",
    "responsible_agency": "Department of Public Works",
    "final_address": "129 S Genois St",
    "address_councildis": "B",
    "status": "Pending",
    "rowid": "1191066",
    "final_x": "3672377.96411",
    "final_y": "536980.98804",
    "longitude": "-90.0966883811342",
    "latitude": "29.97078538727451",
    "geocoded_column": {
      "latitude": "29.97078538727451",
      "longitude": "-90.0966883811342"
    }
  },
  {
    "service_request": "2025-1191065",
    "request_type": "Roads and Streets",
    "request_reason": "Pothole",
    "date_created": "2025-05-10T15:30:45.000",
    "date_modified": "2025-05-10T15:30:47.000",
    "request_status": "Pending",
    "responsible_agency": "Department of Public Works",
    "final_address": "2300 Fats Domino Ave",
    "address_councildis": "E",
    "status": "Pending",
    "rowid": "1191065",
    "final_x": "3699192.72004",
    "final_y": "538305.073929",
    "longitude": "-90.0119563588932",
    "latitude": "29.97360315701651",
    "geocoded_column": {
      "latitude": "29.97360315701651",
      "longitude": "-90.0119563588932"
    }
  },
  {
    "service_request": "2025-1191064",
    "request_type": "Utility Poles",
    "request_reason": "Utility Pole Down",
    "date_created": "2025-05-10T15:29:54.000",
    "date_modified": "2025-05-10T15:29:58.000",
    "request_status": "Pending",
    "responsible_agency": "Utility Company Collective",
    "final_address": "6401 Milne Blvd",
    "address_councildis": "A",
    "status": "Pending",
    "rowid": "1191064",
    "final_x": "3667420.42285",
    "final_y": "550225.102036",
    "longitude": "-90.11189910440696",
    "latitude": "30.007348372441403",
    "geocoded_column": {
      "latitude": "30.007348372441403",
      "longitude": "-90.11189910440696"
    }
  },
  {
    "service_request": "2025-1191063",
    "request_type": "Abandoned Vehicles",
    "request_reason": "Abandoned/Junk Vehicles",
    "date_created": "2025-05-10T15:24:52.000",
    "date_modified": "2025-05-10T15:24:54.000",
    "request_status": "Pending",
    "responsible_agency": "Department of Public Works",
    "final_address": "857 Wilson Dr, New Orleans, Louisiana, 70119",
    "address_councildis": "A",
    "status": "Pending",
    "rowid": "1191063",
    "final_x": "3674033.71771",
    "final_y": "539692.351626",
    "longitude": "-90.09136648650885",
    "latitude": "29.97819147504569",
    "geocoded_column": {
      "latitude": "29.97819147504569",
      "longitude": "-90.09136648650885"
    }
  },
  {
    "service_request": "2025-1191062",
    "request_type": "Parks & Parkways",
    "request_reason": "Request Tree Service (Right of Way/Public Property)",
    "date_created": "2025-05-10T15:19:08.000",
    "date_modified": "2025-05-10T15:19:10.000",
    "request_status": "Pending",
    "responsible_agency": "Department of Parks & Parkway",
    "final_address": "1502 Conery St",
    "address_councildis": "B",
    "status": "Pending",
    "rowid": "1191062",
    "final_x": "3675938.78056",
    "final_y": "521977.203322",
    "longitude": "-90.08595869604144",
    "latitude": "29.92942381741005",
    "geocoded_column": {
      "latitude": "29.92942381741005",
      "longitude": "-90.08595869604144"
    }
  },
  {
    "service_request": "2025-1191061",
    "request_type": "Trash/Recycling",
    "request_reason": "Start Trash Service",
    "date_created": "2025-05-10T15:15:21.000",
    "date_modified": "2025-05-10T15:15:23.000",
    "request_status": "Pending",
    "responsible_agency": "Department of Sanitation",
    "final_address": "1820 Painters St",
    "address_councildis": "D",
    "status": "Assigned to Contractor",
    "contractor": "IV Waste",
    "rowid": "1191061",
    "final_x": "3687310.25935",
    "final_y": "539236.78529",
    "longitude": "-90.04945063725557",
    "latitude": "29.97653646425582",
    "geocoded_column": {
      "latitude": "29.97653646425582",
      "longitude": "-90.04945063725557"
    }
  },
  {
    "service_request": "2025-1191060",
    "request_type": "Trash/Recycling",
    "request_reason": "Start Trash Service",
    "date_created": "2025-05-10T15:12:57.000",
    "date_modified": "2025-05-10T15:13:00.000",
    "request_status": "Pending",
    "responsible_agency": "Department of Sanitation",
    "final_address": "1820 Painters St",
    "address_councildis": "D",
    "status": "Assigned to Contractor",
    "contractor": "IV Waste",
    "rowid": "1191060",
    "final_x": "3687310.25935",
    "final_y": "539236.78529",
    "longitude": "-90.04945063725557",
    "latitude": "29.97653646425582",
    "geocoded_column": {
      "latitude": "29.97653646425582",
      "longitude": "-90.04945063725557"
    }
  },
  {
    "service_request": "2025-1191059",
    "request_type": "Trash/Recycling",
    "request_reason": "Illegal Dumping",
    "date_created": "2025-05-10T14:41:44.000",
    "date_modified": "2025-05-10T14:41:46.000",
    "request_status": "Pending",
    "responsible_agency": "Department of Sanitation",
    "final_address": "1402 Magazine St",
    "address_councildis": "B",
    "status": "Pending",
    "rowid": "1191059",
    "final_x": "3680400.45883",
    "final_y": "524492.0039",
    "longitude": "-90.07178660344529",
    "latitude": "29.936204383459224",
    "geocoded_column": {
      "latitude": "29.936204383459224",
      "longitude": "-90.07178660344529"
    }
  },
  {
    "service_request": "2025-1191058",
    "request_type": "Roads and Streets",
    "request_reason": "Pothole",
    "date_created": "2025-05-10T14:36:44.000",
    "date_modified": "2025-05-10T14:36:46.000",
    "request_status": "Pending",
    "responsible_agency": "Department of Public Works",
    "final_address": "3133 Dauphine St",
    "address_councildis": "C",
    "status": "Pending",
    "rowid": "1191058",
    "final_x": "3688989.33628",
    "final_y": "534829.280326",
    "longitude": "-90.04430421228186",
    "latitude": "29.964365535972473",
    "geocoded_column": {
      "latitude": "29.964365535972473",
      "longitude": "-90.04430421228186"
    }
  },
  {
    "service_request": "2025-1191057",
    "request_type": "Trash/Recycling",
    "request_reason": "Replace Trash Cart",
    "date_created": "2025-05-10T14:22:06.000",
    "date_modified": "2025-05-10T14:22:09.000",
    "request_status": "Pending",
    "responsible_agency": "Department of Sanitation",
    "final_address": "454 Abalon Ct",
    "address_councildis": "C",
    "status": "Assigned to Contractor",
    "contractor": "Richards Disposal",
    "rowid": "1191057",
    "final_x": "3689133.76438",
    "final_y": "529978.628865",
    "longitude": "-90.04402048060025",
    "latitude": "29.95102345629149",
    "geocoded_column": {
      "latitude": "29.95102345629149",
      "longitude": "-90.04402048060025"
    }
  },
  {
    "service_request": "2025-1191056",
    "request_type": "Trash/Recycling",
    "request_reason": "Illegal Dumping",
    "date_created": "2025-05-10T14:15:56.000",
    "date_modified": "2025-05-10T14:15:58.000",
    "request_status": "Pending",
    "responsible_agency": "Department of Sanitation",
    "final_address": "2226 S Lopez St",
    "address_councildis": "A",
    "status": "Pending",
    "rowid": "1191056",
    "final_x": "3669039.50996",
    "final_y": "528986.917376",
    "longitude": "-90.10750175214972",
    "latitude": "29.948902983559847",
    "geocoded_column": {
      "latitude": "29.948902983559847",
      "longitude": "-90.10750175214972"
    }
  },
  {
    "service_request": "2025-1191055",
    "request_type": "Trash/Recycling",
    "request_reason": "Request a Large Item Pick Up",
    "date_created": "2025-05-10T14:15:34.000",
    "date_modified": "2025-05-10T14:15:36.000",
    "request_status": "Pending",
    "responsible_agency": "Department of Sanitation",
    "final_address": "8015 Brevard Ave",
    "address_councildis": "E",
    "status": "Assigned to Contractor",
    "contractor": "Waste Pro",
    "rowid": "1191055",
    "final_x": "3705743.76318",
    "final_y": "564628.829345",
    "longitude": "-89.99029250777906",
    "latitude": "30.04577407286116",
    "geocoded_column": {
      "latitude": "30.04577407286116",
      "longitude": "-89.99029250777906"
    }
  },
  {
    "service_request": "2025-1191054",
    "request_type": "Trash/Recycling",
    "request_reason": "Request a Large Item Pick Up",
    "date_created": "2025-05-10T13:48:00.000",
    "date_modified": "2025-05-10T13:48:03.000",
    "request_status": "Pending",
    "responsible_agency": "Department of Sanitation",
    "final_address": "13020 Ashland Dr",
    "address_councildis": "E",
    "status": "Assigned to Contractor",
    "contractor": "Waste Pro",
    "rowid": "1191054",
    "final_x": "3717576.75954",
    "final_y": "567553.200996",
    "longitude": "-89.95278343391202",
    "latitude": "30.053428228146448",
    "geocoded_column": {
      "latitude": "30.053428228146448",
      "longitude": "-89.95278343391202"
    }
  },
  {
    "service_request": "2025-1191053",
    "request_type": "Abandoned Vehicles",
    "request_reason": "Abandoned/Junk Vehicles",
    "date_created": "2025-05-10T13:30:46.000",
    "date_modified": "2025-05-10T13:30:48.000",
    "request_status": "Pending",
    "responsible_agency": "Department of Public Works",
    "final_address": "7121 Yorktown Dr",
    "address_councildis": "E",
    "status": "Pending",
    "rowid": "1191053",
    "final_x": "3706006.38155",
    "final_y": "560973.86627",
    "longitude": "-89.98959797462436",
    "latitude": "30.03571590534759",
    "geocoded_column": {
      "latitude": "30.03571590534759",
      "longitude": "-89.98959797462436"
    }
  },
  {
    "service_request": "2025-1191052",
    "request_type": "Trash/Recycling",
    "request_reason": "Request a Large Item Pick Up",
    "date_created": "2025-05-10T13:28:50.000",
    "date_modified": "2025-05-10T13:28:52.000",
    "request_status": "Pending",
    "responsible_agency": "Department of Sanitation",
    "final_address": "621 N Pierce St",
    "address_councildis": "A",
    "status": "Assigned to Contractor",
    "contractor": "IV Waste",
    "rowid": "1191052",
    "final_x": "3672654.93019",
    "final_y": "539638.471242",
    "longitude": "-90.09572303795275",
    "latitude": "29.978084342701408",
    "geocoded_column": {
      "latitude": "29.978084342701408",
      "longitude": "-90.09572303795275"
    }
  },
  {
    "service_request": "2025-1191051",
    "request_type": "Trash/Recycling",
    "request_reason": "Request a Large Item Pick Up",
    "date_created": "2025-05-10T13:04:51.000",
    "date_modified": "2025-05-10T13:04:52.000",
    "request_status": "Pending",
    "responsible_agency": "Department of Sanitation",
    "final_address": "500 Vallette St",
    "address_councildis": "C",
    "status": "Assigned to Contractor",
    "contractor": "Richards Disposal",
    "rowid": "1191051",
    "final_x": "3687569.26294",
    "final_y": "529890.663489",
    "longitude": "-90.0489634920634",
    "latitude": "29.950829893813854",
    "geocoded_column": {
      "latitude": "29.950829893813854",
      "longitude": "-90.0489634920634"
    }
  },
  {
    "service_request": "2025-1191050",
    "request_type": "Trash/Recycling",
    "request_reason": "Replace Recycling Cart",
    "date_created": "2025-05-10T13:03:21.000",
    "date_modified": "2025-05-10T13:03:23.000",
    "request_status": "Pending",
    "responsible_agency": "Department of Sanitation",
    "final_address": "1631 Marengo St",
    "address_councildis": "B",
    "status": "Pending",
    "rowid": "1191050",
    "final_x": "3671971.35342",
    "final_y": "521267.396217",
    "longitude": "-90.09850730490399",
    "latitude": "29.92759023765931",
    "geocoded_column": {
      "latitude": "29.92759023765931",
      "longitude": "-90.09850730490399"
    }
  },
  {
    "service_request": "2025-1191049",
    "request_type": "Property Maintenance",
    "request_reason": "Property Maintenance",
    "date_created": "2025-05-10T13:02:11.000",
    "date_modified": "2025-05-10T13:02:12.000",
    "request_status": "Pending",
    "responsible_agency": "Department of Code Enforcement",
    "final_address": "3023 N Claiborne Ave",
    "address_councildis": "D",
    "status": "Pending",
    "rowid": "1191049",
    "final_x": "3689120.35299",
    "final_y": "538024.451145",
    "longitude": "-90.04377691693051",
    "latitude": "29.97314708190466",
    "geocoded_column": {
      "latitude": "29.97314708190466",
      "longitude": "-90.04377691693051"
    }
  },
  {
    "service_request": "2025-1191048",
    "request_type": "Abandoned Vehicles",
    "request_reason": "Abandoned/Junk Vehicles",
    "date_created": "2025-05-10T13:00:14.000",
    "date_modified": "2025-05-10T13:00:16.000",
    "request_status": "Pending",
    "responsible_agency": "Department of Public Works",
    "final_address": "3013 N Claiborne Ave",
    "address_councildis": "D",
    "status": "Pending",
    "rowid": "1191048",
    "final_x": "3689019.96668",
    "final_y": "538037.919945",
    "longitude": "-90.04409347726653",
    "latitude": "29.973187222457472",
    "geocoded_column": {
      "latitude": "29.973187222457472",
      "longitude": "-90.04409347726653"
    }
  },
  {
    "service_request": "2025-1191047",
    "request_type": "Trash/Recycling",
    "request_reason": "Replace Recycling Cart",
    "date_created": "2025-05-10T12:51:24.000",
    "date_modified": "2025-05-10T12:51:26.000",
    "request_status": "Pending",
    "responsible_agency": "Department of Sanitation",
    "final_address": "6951 Argonne Blvd",
    "address_councildis": "A",
    "status": "Pending",
    "rowid": "1191047",
    "final_x": "3670809.56852",
    "final_y": "553581.212759",
    "longitude": "-90.10107778716032",
    "latitude": "30.016476718798373",
    "geocoded_column": {
      "latitude": "30.016476718798373",
      "longitude": "-90.10107778716032"
    }
  },
  {
    "service_request": "2025-1191046",
    "request_type": "Trash/Recycling",
    "request_reason": "Replace Trash Cart",
    "date_created": "2025-05-10T12:49:51.000",
    "date_modified": "2025-05-10T12:49:53.000",
    "request_status": "Pending",
    "responsible_agency": "Department of Sanitation",
    "final_address": "6951 Argonne Blvd",
    "address_councildis": "A",
    "status": "Assigned to Contractor",
    "contractor": "IV Waste",
    "rowid": "1191046",
    "final_x": "3670809.56852",
    "final_y": "553581.212759",
    "longitude": "-90.10107778716032",
    "latitude": "30.016476718798373",
    "geocoded_column": {
      "latitude": "30.016476718798373",
      "longitude": "-90.10107778716032"
    }
  },
  {
    "service_request": "2025-1191045",
    "request_type": "Trash/Recycling",
    "request_reason": "Replace Trash Cart",
    "date_created": "2025-05-10T12:49:48.000",
    "date_modified": "2025-05-10T12:49:51.000",
    "request_status": "Pending",
    "responsible_agency": "Department of Sanitation",
    "final_address": "1904 New Orleans St A",
    "address_councildis": "D",
    "status": "Assigned to Contractor",
    "contractor": "IV Waste",
    "rowid": "1191045",
    "final_x": "3682131.85224",
    "final_y": "539086.08705",
    "longitude": "-90.06581088090998",
    "latitude": "29.976280622427314",
    "geocoded_column": {
      "latitude": "29.976280622427314",
      "longitude": "-90.06581088090998"
    }
  },
  {
    "service_request": "2025-1191044",
    "request_type": "Abandoned Vehicles",
    "request_reason": "Abandoned/Junk Vehicles",
    "date_created": "2025-05-10T12:42:14.000",
    "date_modified": "2025-05-10T12:42:16.000",
    "request_status": "Pending",
    "responsible_agency": "Department of Public Works",
    "final_address": "3000 BLK Hollygrove St",
    "address_councildis": "A",
    "status": "Pending",
    "rowid": "1191044",
    "final_x": "3664069.85129",
    "final_y": "535410.777391",
    "longitude": "-90.1229789291704",
    "latitude": "29.96671175906743",
    "geocoded_column": {
      "latitude": "29.96671175906743",
      "longitude": "-90.1229789291704"
    }
  },
  {
    "service_request": "2025-1191043",
    "request_type": "Trash/Recycling",
    "request_reason": "Request a Large Item Pick Up",
    "date_created": "2025-05-10T12:30:48.000",
    "date_modified": "2025-05-10T12:30:51.000",
    "request_status": "Pending",
    "responsible_agency": "Department of Sanitation",
    "final_address": "7903 Freret St",
    "address_councildis": "A",
    "status": "Assigned to Contractor",
    "contractor": "IV Waste",
    "rowid": "1191043",
    "final_x": "3662051.56627",
    "final_y": "527406.042495",
    "longitude": "-90.12961825291639",
    "latitude": "29.944759792476848",
    "geocoded_column": {
      "latitude": "29.944759792476848",
      "longitude": "-90.12961825291639"
    }
  },
  {
    "service_request": "2025-1191042",
    "request_type": "Trash/Recycling",
    "request_reason": "Request a Large Item Pick Up",
    "date_created": "2025-05-10T12:20:40.000",
    "date_modified": "2025-05-10T12:20:43.000",
    "request_status": "Pending",
    "responsible_agency": "Department of Sanitation",
    "final_address": "428 Wagner St, New Orleans, Louisiana, 70114",
    "address_councildis": "C",
    "status": "Assigned to Contractor",
    "contractor": "Richards Disposal",
    "rowid": "1191042",
    "final_x": "3690647.55894",
    "final_y": "529952.327617",
    "longitude": "-90.03924163138679",
    "latitude": "29.95090421406172",
    "geocoded_column": {
      "latitude": "29.95090421406172",
      "longitude": "-90.03924163138679"
    }
  },
  {
    "service_request": "2025-1191041",
    "request_type": "Trash/Recycling",
    "request_reason": "Replace Trash Cart",
    "date_created": "2025-05-10T12:14:00.000",
    "date_modified": "2025-05-10T12:14:02.000",
    "request_status": "Pending",
    "responsible_agency": "Department of Sanitation",
    "final_address": "3247 Ponce De Leon St",
    "address_councildis": "A",
    "status": "Assigned to Contractor",
    "contractor": "IV Waste",
    "rowid": "1191041",
    "final_x": "3675594.29141",
    "final_y": "540609.532747",
    "longitude": "-90.08640610699837",
    "latitude": "29.98066680549844",
    "geocoded_column": {
      "latitude": "29.98066680549844",
      "longitude": "-90.08640610699837"
    }
  },
  {
    "service_request": "2025-1191040",
    "request_type": "Trash/Recycling",
    "request_reason": "Repair Trash Cart",
    "date_created": "2025-05-10T12:08:15.000",
    "date_modified": "2025-05-10T12:08:17.000",
    "request_status": "Pending",
    "responsible_agency": "Department of Sanitation",
    "final_address": "1016 Washington Ave",
    "address_councildis": "B",
    "status": "Assigned to Contractor",
    "contractor": "IV Waste",
    "rowid": "1191040",
    "final_x": "3677115.28654",
    "final_y": "520610.05132",
    "longitude": "-90.082291802655",
    "latitude": "29.925629324709064",
    "geocoded_column": {
      "latitude": "29.925629324709064",
      "longitude": "-90.082291802655"
    }
  },
  {
    "service_request": "2025-1191039",
    "request_type": "General Services",
    "request_reason": "General Service Request",
    "date_created": "2025-05-10T12:07:49.000",
    "date_modified": "2025-05-10T12:07:51.000",
    "request_status": "Pending",
    "responsible_agency": "Orleans Parish Communication District",
    "final_address": "803 Greenwood St",
    "address_councildis": "A",
    "status": "Pending",
    "rowid": "1191039",
    "final_x": "3668646.89703",
    "final_y": "542894.168653",
    "longitude": "-90.10827193272509",
    "latitude": "29.987154830981254",
    "geocoded_column": {
      "latitude": "29.987154830981254",
      "longitude": "-90.10827193272509"
    }
  },
  {
    "service_request": "2025-1191038",
    "request_type": "Trash/Recycling",
    "request_reason": "Request a Large Item Pick Up",
    "date_created": "2025-05-10T12:03:47.000",
    "date_modified": "2025-05-10T12:03:48.000",
    "request_status": "Pending",
    "responsible_agency": "Department of Sanitation",
    "final_address": "14748 Emory Rd",
    "address_councildis": "E",
    "status": "Assigned to Contractor",
    "contractor": "Waste Pro",
    "rowid": "1191038",
    "final_x": "3720554.94092",
    "final_y": "573686.240298",
    "longitude": "-89.94313510814372",
    "latitude": "30.07019251858571",
    "geocoded_column": {
      "latitude": "30.07019251858571",
      "longitude": "-89.94313510814372"
    }
  },
  {
    "service_request": "2025-1191037",
    "request_type": "Trash/Recycling",
    "request_reason": "Illegal Dumping",
    "date_created": "2025-05-10T11:51:08.000",
    "date_modified": "2025-05-10T11:51:10.000",
    "request_status": "Pending",
    "responsible_agency": "Department of Sanitation",
    "final_address": "2127 Carondelet St Apt 3",
    "address_councildis": "B",
    "status": "Pending",
    "rowid": "1191037",
    "final_x": "3677461.11189",
    "final_y": "524158.397884",
    "longitude": "-90.08107772386931",
    "latitude": "29.93537573291705",
    "geocoded_column": {
      "latitude": "29.93537573291705",
      "longitude": "-90.08107772386931"
    }
  },
  {
    "service_request": "2025-1191036",
    "request_type": "General Services",
    "request_reason": "General Service Request",
    "date_created": "2025-05-10T11:47:05.000",
    "date_modified": "2025-05-10T11:47:07.000",
    "request_status": "Pending",
    "responsible_agency": "Orleans Parish Communication District",
    "final_address": "2223 St Ann St",
    "address_councildis": "D",
    "status": "Pending",
    "rowid": "1191036",
    "final_x": "3678439.15822",
    "final_y": "536123.246983",
    "longitude": "-90.07757606246672",
    "latitude": "29.968245630982484",
    "geocoded_column": {
      "latitude": "29.968245630982484",
      "longitude": "-90.07757606246672"
    }
  },
  {
    "service_request": "2025-1191035",
    "request_type": "Drainage",
    "request_reason": "Street Flooding",
    "date_created": "2025-05-10T11:37:09.000",
    "date_modified": "2025-05-10T11:37:12.000",
    "request_status": "Pending",
    "responsible_agency": "Sewerage & Water Board",
    "final_address": "5406 Constance St",
    "address_councildis": "A",
    "status": "Pending",
    "rowid": "1191035",
    "final_x": "3666581.76557",
    "final_y": "518341.991158",
    "longitude": "-90.1156191298883",
    "latitude": "29.91970490034633",
    "geocoded_column": {
      "latitude": "29.91970490034633",
      "longitude": "-90.1156191298883"
    }
  },
  {
    "service_request": "2025-1191034",
    "request_type": "Safety & Permits",
    "request_reason": "Construction permit",
    "date_created": "2025-05-10T11:26:45.000",
    "date_modified": "2025-05-10T11:26:50.000",
    "request_status": "Pending",
    "responsible_agency": "Safety and Permits",
    "final_address": "2227 St Ann St",
    "address_councildis": "D",
    "status": "Pending",
    "rowid": "1191034",
    "final_x": "3678446.67746",
    "final_y": "536200.996999",
    "longitude": "-90.07754962540244",
    "latitude": "29.968459190383633",
    "geocoded_column": {
      "latitude": "29.968459190383633",
      "longitude": "-90.07754962540244"
    }
  },
  {
    "service_request": "2025-1191033",
    "request_type": "Abandoned Vehicles",
    "request_reason": "Abandoned/Junk Vehicles",
    "date_created": "2025-05-10T11:20:20.000",
    "date_modified": "2025-05-10T11:20:22.000",
    "request_status": "Pending",
    "responsible_agency": "Department of Public Works",
    "final_address": "7015 Pritchard Pl",
    "address_councildis": "B",
    "status": "Pending",
    "rowid": "1191033",
    "final_x": "3667939.76071",
    "final_y": "531221.117698",
    "longitude": "-90.11089888760296",
    "latitude": "29.95507860941571",
    "geocoded_column": {
      "latitude": "29.95507860941571",
      "longitude": "-90.11089888760296"
    }
  },
  {
    "service_request": "2025-1191032",
    "request_type": "Roads and Streets",
    "request_reason": "Street Subsidence (Sinking)",
    "date_created": "2025-05-10T11:09:14.000",
    "date_modified": "2025-05-10T11:09:16.000",
    "request_status": "Pending",
    "responsible_agency": "Department of Public Works",
    "final_address": "1814 Eagle St",
    "address_councildis": "A",
    "status": "Pending",
    "rowid": "1191032",
    "final_x": "3661599.30502",
    "final_y": "531721.206915",
    "longitude": "-90.13090321332488",
    "latitude": "29.956638165423772",
    "geocoded_column": {
      "latitude": "29.956638165423772",
      "longitude": "-90.13090321332488"
    }
  },
  {
    "service_request": "2025-1191031",
    "request_type": "Trash/Recycling",
    "request_reason": "Start Trash Service",
    "date_created": "2025-05-10T11:04:00.000",
    "date_modified": "2025-05-10T11:04:02.000",
    "request_status": "Pending",
    "responsible_agency": "Department of Sanitation",
    "final_address": "4608 Mirabeau Ave",
    "address_councildis": "D",
    "status": "Assigned to Contractor",
    "contractor": "IV Waste",
    "rowid": "1191031",
    "final_x": "3690956.54787",
    "final_y": "551459.820245",
    "longitude": "-90.0374980106279",
    "latitude": "30.010032540621236",
    "geocoded_column": {
      "latitude": "30.010032540621236",
      "longitude": "-90.0374980106279"
    }
  },
  {
    "service_request": "2025-1191030",
    "request_type": "General Services",
    "request_reason": "General Service Request",
    "date_created": "2025-05-10T10:49:22.000",
    "date_modified": "2025-05-10T10:49:23.000",
    "request_status": "Pending",
    "responsible_agency": "Orleans Parish Communication District",
    "final_address": "4808 Chantilly Dr",
    "address_councildis": "E",
    "status": "Pending",
    "rowid": "1191030",
    "final_x": "3700774.90052",
    "final_y": "554468.287832",
    "longitude": "-90.00636837197841",
    "latitude": "30.017995721848184",
    "geocoded_column": {
      "latitude": "30.017995721848184",
      "longitude": "-90.00636837197841"
    }
  },
  {
    "service_request": "2025-1191029",
    "request_type": "Parks & Parkways",
    "request_reason": "Request Tree Service (Right of Way/Public Property)",
    "date_created": "2025-05-10T10:48:38.000",
    "date_modified": "2025-05-10T10:48:40.000",
    "request_status": "Pending",
    "responsible_agency": "Department of Parks & Parkway",
    "final_address": "3600 St Claude Ave",
    "address_councildis": "C",
    "status": "Pending",
    "rowid": "1191029",
    "final_x": "3690742.54441",
    "final_y": "535528.452102",
    "longitude": "-90.03874279433494",
    "latitude": "29.96623366533982",
    "geocoded_column": {
      "latitude": "29.96623366533982",
      "longitude": "-90.03874279433494"
    }
  },
  {
    "service_request": "2025-1191028",
    "request_type": "Trash/Recycling",
    "request_reason": "Repair Trash Cart",
    "date_created": "2025-05-10T10:48:14.000",
    "date_modified": "2025-05-10T10:48:15.000",
    "request_status": "Pending",
    "responsible_agency": "Department of Sanitation",
    "final_address": "3621 White Oak Ave",
    "address_councildis": "C",
    "status": "Assigned to Contractor",
    "contractor": "Richards Disposal",
    "rowid": "1191028",
    "final_x": "3703595.02449",
    "final_y": "514269.956595",
    "longitude": "-89.99893703826794",
    "latitude": "29.90737473159547",
    "geocoded_column": {
      "latitude": "29.90737473159547",
      "longitude": "-89.99893703826794"
    }
  },
  {
    "service_request": "2025-1191027",
    "request_type": "Trash/Recycling",
    "request_reason": "Request a Large Item Pick Up",
    "date_created": "2025-05-10T10:46:16.000",
    "date_modified": "2025-05-10T10:46:18.000",
    "request_status": "Pending",
    "responsible_agency": "Department of Sanitation",
    "final_address": "1662 Abundance St",
    "address_councildis": "D",
    "status": "Assigned to Contractor",
    "contractor": "IV Waste",
    "rowid": "1191027",
    "final_x": "3680434.6525",
    "final_y": "543303.392334",
    "longitude": "-90.07102440727711",
    "latitude": "29.987928255139828",
    "geocoded_column": {
      "latitude": "29.987928255139828",
      "longitude": "-90.07102440727711"
    }
  },
  {
    "service_request": "2025-1191026",
    "request_type": "Trash/Recycling",
    "request_reason": "Illegal Dumping",
    "date_created": "2025-05-10T10:41:36.000",
    "date_modified": "2025-05-10T10:41:38.000",
    "request_status": "Pending",
    "responsible_agency": "Department of Sanitation",
    "final_address": "11600 Morrison Rd",
    "address_councildis": "E",
    "status": "Pending",
    "rowid": "1191026",
    "final_x": "3712842.9731",
    "final_y": "566029.157283",
    "longitude": "-89.96780295767543",
    "latitude": "30.049393700817774",
    "geocoded_column": {
      "latitude": "30.049393700817774",
      "longitude": "-89.96780295767543"
    }
  },
  {
    "service_request": "2025-1191025",
    "request_type": "Property Maintenance",
    "request_reason": "Property Maintenance",
    "date_created": "2025-05-10T10:28:46.000",
    "date_modified": "2025-05-10T10:28:48.000",
    "request_status": "Pending",
    "responsible_agency": "Department of Code Enforcement",
    "final_address": "2708 Aubry St",
    "address_councildis": "D",
    "status": "Pending",
    "rowid": "1191025",
    "final_x": "3679362.05429",
    "final_y": "541291.493964",
    "longitude": "-90.07448220392293",
    "latitude": "29.982428683741347",
    "geocoded_column": {
      "latitude": "29.982428683741347",
      "longitude": "-90.07448220392293"
    }
  },
  {
    "service_request": "2025-1191024",
    "request_type": "Drainage",
    "request_reason": "Street Flooding",
    "date_created": "2025-05-10T09:52:56.000",
    "date_modified": "2025-05-10T09:52:58.000",
    "request_status": "Pending",
    "responsible_agency": "Sewerage & Water Board",
    "final_address": "6658 Memphis St",
    "address_councildis": "A",
    "status": "Pending",
    "rowid": "1191024",
    "final_x": "3669508.71591",
    "final_y": "551760.703829",
    "longitude": "-90.10524958364348",
    "latitude": "30.01150936414639",
    "geocoded_column": {
      "latitude": "30.01150936414639",
      "longitude": "-90.10524958364348"
    }
  },
  {
    "service_request": "2025-1191023",
    "request_type": "Trash/Recycling",
    "request_reason": "Replace Recycling Cart",
    "date_created": "2025-05-10T09:39:59.000",
    "date_modified": "2025-05-10T09:40:01.000",
    "request_status": "Pending",
    "responsible_agency": "Department of Sanitation",
    "final_address": "17 Fairway Oaks Dr",
    "address_councildis": "C",
    "status": "Pending",
    "rowid": "1191023",
    "final_x": "3716130.39103",
    "final_y": "515422.866036",
    "longitude": "-89.95933077073782",
    "latitude": "29.91013747498058",
    "geocoded_column": {
      "latitude": "29.91013747498058",
      "longitude": "-89.95933077073782"
    }
  },
  {
    "service_request": "2025-1191022",
    "request_type": "Drainage",
    "request_reason": "Street Flooding",
    "date_created": "2025-05-10T09:34:00.000",
    "date_modified": "2025-05-10T09:34:02.000",
    "request_status": "Pending",
    "responsible_agency": "Sewerage & Water Board",
    "final_address": "6034 Cameron Blvd",
    "address_councildis": "D",
    "status": "Pending",
    "rowid": "1191022",
    "final_x": "3682259.89487",
    "final_y": "555125.889049",
    "longitude": "-90.06484567679664",
    "latitude": "30.020380456900412",
    "geocoded_column": {
      "latitude": "30.020380456900412",
      "longitude": "-90.06484567679664"
    }
  },
  {
    "service_request": "2025-1191021",
    "request_type": "Trash/Recycling",
    "request_reason": "Illegal Dumping",
    "date_created": "2025-05-10T09:31:19.000",
    "date_modified": "2025-05-10T09:31:21.000",
    "request_status": "Pending",
    "responsible_agency": "Department of Sanitation",
    "final_address": "1815 Painters St",
    "address_councildis": "D",
    "status": "Pending",
    "rowid": "1191021",
    "final_x": "3687382.76706",
    "final_y": "539226.189642",
    "longitude": "-90.04922201133215",
    "latitude": "29.976505095860176",
    "geocoded_column": {
      "latitude": "29.976505095860176",
      "longitude": "-90.04922201133215"
    }
  },
  {
    "service_request": "2025-1191020",
    "request_type": "Trash/Recycling",
    "request_reason": "Illegal Dumping",
    "date_created": "2025-05-10T08:57:29.000",
    "date_modified": "2025-05-10T08:57:30.000",
    "request_status": "Pending",
    "responsible_agency": "Department of Sanitation",
    "final_address": "1815 Painters St",
    "address_councildis": "D",
    "status": "Pending",
    "rowid": "1191020",
    "final_x": "3687382.76706",
    "final_y": "539226.189642",
    "longitude": "-90.04922201133215",
    "latitude": "29.976505095860176",
    "geocoded_column": {
      "latitude": "29.976505095860176",
      "longitude": "-90.04922201133215"
    }
  },
  {
    "service_request": "2025-1191019",
    "request_type": "Trash/Recycling",
    "request_reason": "Order Recycling Cart",
    "date_created": "2025-05-10T08:48:21.000",
    "date_modified": "2025-05-10T08:48:23.000",
    "request_status": "Pending",
    "responsible_agency": "Department of Sanitation",
    "final_address": "4423 Venus St",
    "address_councildis": "D",
    "status": "Pending",
    "rowid": "1191019",
    "final_x": "3686695.28585",
    "final_y": "549085.556627",
    "longitude": "-90.0510448123428",
    "latitude": "30.003635999411983",
    "geocoded_column": {
      "latitude": "30.003635999411983",
      "longitude": "-90.0510448123428"
    }
  },
  {
    "service_request": "2025-1191018",
    "request_type": "Abandoned Vehicles",
    "request_reason": "Abandoned/Junk Vehicles",
    "date_created": "2025-05-10T08:13:44.000",
    "date_modified": "2025-05-10T08:13:46.000",
    "request_status": "Pending",
    "responsible_agency": "Department of Public Works",
    "final_address": "2611 Lapeyrouse St",
    "address_councildis": "D",
    "status": "Pending",
    "rowid": "1191018",
    "final_x": "3679013.6715",
    "final_y": "540257.884427",
    "longitude": "-90.07561840228577",
    "latitude": "29.97959713573465",
    "geocoded_column": {
      "latitude": "29.97959713573465",
      "longitude": "-90.07561840228577"
    }
  },
  {
    "service_request": "2025-1191017",
    "request_type": "Trash/Recycling",
    "request_reason": "Request a Large Item Pick Up",
    "date_created": "2025-05-10T08:09:36.000",
    "date_modified": "2025-05-10T08:09:38.000",
    "request_status": "Pending",
    "responsible_agency": "Department of Sanitation",
    "final_address": "1808 Hillary St",
    "address_councildis": "A",
    "status": "Assigned to Contractor",
    "contractor": "IV Waste",
    "rowid": "1191017",
    "final_x": "3664739.05888",
    "final_y": "528800.660352",
    "longitude": "-90.12108641121492",
    "latitude": "29.948516639292844",
    "geocoded_column": {
      "latitude": "29.948516639292844",
      "longitude": "-90.12108641121492"
    }
  },
  {
    "service_request": "2025-1191016",
    "request_type": "Trash/Recycling",
    "request_reason": "Request a Large Item Pick Up",
    "date_created": "2025-05-10T05:49:06.000",
    "date_modified": "2025-05-10T05:49:07.000",
    "request_status": "Pending",
    "responsible_agency": "Department of Sanitation",
    "final_address": "7530 Farwood Dr",
    "address_councildis": "E",
    "status": "Assigned to Contractor",
    "contractor": "Waste Pro",
    "rowid": "1191016",
    "final_x": "3702039.60189",
    "final_y": "556954.479578",
    "longitude": "-90.00228117499506",
    "latitude": "30.02479146280455",
    "geocoded_column": {
      "latitude": "30.02479146280455",
      "longitude": "-90.00228117499506"
    }
  },
  {
    "service_request": "2025-1191015",
    "request_type": "Trash/Recycling",
    "request_reason": "Request a Large Item Pick Up",
    "date_created": "2025-05-10T05:48:16.000",
    "date_modified": "2025-05-10T05:48:18.000",
    "request_status": "Pending",
    "responsible_agency": "Department of Sanitation",
    "final_address": "4819 Reynes St",
    "address_councildis": "E",
    "status": "Assigned to Contractor",
    "contractor": "Waste Pro",
    "rowid": "1191015",
    "final_x": "3699152.85284",
    "final_y": "555368.487833",
    "longitude": "-90.01146058000722",
    "latitude": "30.02052248007719",
    "geocoded_column": {
      "latitude": "30.02052248007719",
      "longitude": "-90.01146058000722"
    }
  },
  {
    "service_request": "2025-1191014",
    "request_type": "Streetlights",
    "request_reason": "Streetlight Outage/Malfunction",
    "date_created": "2025-05-10T04:48:06.000",
    "date_modified": "2025-05-10T04:48:08.000",
    "request_status": "Pending",
    "responsible_agency": "Department of Public Works",
    "final_address": "1121 Eighth St",
    "address_councildis": "B",
    "status": "Pending",
    "contractor": "Legacy Professional Services",
    "rowid": "1191014",
    "final_x": "3676038.46581",
    "final_y": "520394.83852",
    "longitude": "-90.085698397856",
    "latitude": "29.925069842697454",
    "geocoded_column": {
      "latitude": "29.925069842697454",
      "longitude": "-90.085698397856"
    }
  },
  {
    "service_request": "2025-1191013",
    "request_type": "Trash/Recycling",
    "request_reason": "Request a Large Item Pick Up",
    "date_created": "2025-05-10T03:53:54.000",
    "date_modified": "2025-05-10T03:53:56.000",
    "request_status": "Pending",
    "responsible_agency": "Department of Sanitation",
    "final_address": "1712 Cambronne St",
    "address_councildis": "A",
    "status": "Assigned to Contractor",
    "contractor": "IV Waste",
    "rowid": "1191013",
    "final_x": "3662400.06951",
    "final_y": "530521.705986",
    "longitude": "-90.12841447516294",
    "latitude": "29.95331679556777",
    "geocoded_column": {
      "latitude": "29.95331679556777",
      "longitude": "-90.12841447516294"
    }
  },
  {
    "service_request": "2025-1191012",
    "request_type": "General Services",
    "request_reason": "General Service Request",
    "date_created": "2025-05-10T03:17:27.000",
    "date_modified": "2025-05-10T03:17:29.000",
    "request_status": "Pending",
    "responsible_agency": "Orleans Parish Communication District",
    "final_address": "623 Royal St",
    "address_councildis": "C",
    "status": "Pending",
    "rowid": "1191012",
    "final_x": "3682417.57058",
    "final_y": "532326.460291",
    "longitude": "-90.06514478274211",
    "latitude": "29.9576852826533",
    "geocoded_column": {
      "latitude": "29.9576852826533",
      "longitude": "-90.06514478274211"
    }
  },
  {
    "service_request": "2025-1191011",
    "request_type": "Street and Traffic Signs",
    "request_reason": "Additional Signage Request",
    "date_created": "2025-05-10T01:33:57.000",
    "date_modified": "2025-05-10T01:33:59.000",
    "request_status": "Pending",
    "responsible_agency": "Department of Public Works",
    "final_address": "2318 Touro St",
    "address_councildis": "D",
    "status": "Pending",
    "rowid": "1191011",
    "final_x": "3683829.88751",
    "final_y": "540834.154187",
    "longitude": "-90.06038665420785",
    "latitude": "29.981035437419283",
    "geocoded_column": {
      "latitude": "29.981035437419283",
      "longitude": "-90.06038665420785"
    }
  },
  {
    "service_request": "2025-1191010",
    "request_type": "Property Maintenance",
    "request_reason": "Property Maintenance",
    "date_created": "2025-05-10T01:29:32.000",
    "date_modified": "2025-05-10T01:29:34.000",
    "request_status": "Pending",
    "responsible_agency": "Department of Code Enforcement",
    "final_address": "2318 Touro St",
    "address_councildis": "D",
    "status": "Pending",
    "rowid": "1191010",
    "final_x": "3683829.88751",
    "final_y": "540834.154187",
    "longitude": "-90.06038665420785",
    "latitude": "29.981035437419283",
    "geocoded_column": {
      "latitude": "29.981035437419283",
      "longitude": "-90.06038665420785"
    }
  },
  {
    "service_request": "2025-1191009",
    "request_type": "Streetlights",
    "request_reason": "Streetlight Outage/Malfunction",
    "date_created": "2025-05-09T23:28:06.000",
    "date_modified": "2025-05-09T23:28:08.000",
    "request_status": "Pending",
    "responsible_agency": "Department of Public Works",
    "final_address": "60 Fontainebleau Dr",
    "address_councildis": "A",
    "status": "Pending",
    "contractor": "Legacy Professional Services",
    "rowid": "1191009",
    "final_x": "3666501.05255",
    "final_y": "530931.71949",
    "longitude": "-90.11545152075792",
    "latitude": "29.954324984450697",
    "geocoded_column": {
      "latitude": "29.954324984450697",
      "longitude": "-90.11545152075792"
    }
  },
  {
    "service_request": "2025-1191008",
    "request_type": "Abandoned Vehicles",
    "request_reason": "Abandoned/Junk Vehicles",
    "date_created": "2025-05-09T22:33:31.000",
    "date_modified": "2025-05-09T22:33:33.000",
    "request_status": "Pending",
    "responsible_agency": "Department of Public Works",
    "final_address": "3200 LaSalle St",
    "address_councildis": "B",
    "status": "Pending",
    "rowid": "1191008",
    "final_x": "3673527.10235",
    "final_y": "524323.854588",
    "longitude": "-90.09349177461225",
    "latitude": "29.935948317217232",
    "geocoded_column": {
      "latitude": "29.935948317217232",
      "longitude": "-90.09349177461225"
    }
  },
  {
    "service_request": "2025-1191007",
    "request_type": "Abandoned Vehicles",
    "request_reason": "Abandoned/Junk Vehicles",
    "date_created": "2025-05-09T22:32:45.000",
    "date_modified": "2025-05-09T22:32:48.000",
    "request_status": "Pending",
    "responsible_agency": "Department of Public Works",
    "final_address": "3200 LaSalle St",
    "address_councildis": "B",
    "status": "Pending",
    "rowid": "1191007",
    "final_x": "3673527.10235",
    "final_y": "524323.854588",
    "longitude": "-90.09349177461225",
    "latitude": "29.935948317217232",
    "geocoded_column": {
      "latitude": "29.935948317217232",
      "longitude": "-90.09349177461225"
    }
  },
  {
    "service_request": "2025-1191006",
    "request_type": "Abandoned Vehicles",
    "request_reason": "Abandoned/Junk Vehicles",
    "date_created": "2025-05-09T22:31:43.000",
    "date_modified": "2025-05-09T22:31:45.000",
    "request_status": "Pending",
    "responsible_agency": "Department of Public Works",
    "final_address": "3200 LaSalle St",
    "address_councildis": "B",
    "status": "Pending",
    "rowid": "1191006",
    "final_x": "3673527.10235",
    "final_y": "524323.854588",
    "longitude": "-90.09349177461225",
    "latitude": "29.935948317217232",
    "geocoded_column": {
      "latitude": "29.935948317217232",
      "longitude": "-90.09349177461225"
    }
  },
  {
    "service_request": "2025-1191005",
    "request_type": "Drainage",
    "request_reason": "Catch Basin Clogged",
    "date_created": "2025-05-09T22:22:03.000",
    "date_modified": "2025-05-09T22:22:05.000",
    "request_status": "Pending",
    "responsible_agency": "Sewerage & Water Board",
    "final_address": "3510 Rue Delphine",
    "address_councildis": "C",
    "status": "Pending",
    "rowid": "1191005",
    "final_x": "3703104.47633",
    "final_y": "517781.247094",
    "longitude": "-90.00035633548376",
    "latitude": "29.917045279159883",
    "geocoded_column": {
      "latitude": "29.917045279159883",
      "longitude": "-90.00035633548376"
    }
  },
  {
    "service_request": "2025-1191004",
    "request_type": "Street and Traffic Signs",
    "request_reason": "Street Name Sign Damaged or Missing",
    "date_created": "2025-05-09T22:13:38.000",
    "date_modified": "2025-05-09T22:13:40.000",
    "request_status": "Pending",
    "responsible_agency": "Department of Public Works",
    "final_address": "S RAMPART ST & UNION ST",
    "address_councildis": "B",
    "status": "Pending",
    "rowid": "1191004",
    "final_x": "3679498.1",
    "final_y": "530373.68",
    "longitude": "-90.07443136855467",
    "latitude": "29.95240431956007",
    "geocoded_column": {
      "latitude": "29.95240431956007",
      "longitude": "-90.07443136855467"
    }
  },
  {
    "service_request": "2025-1191003",
    "request_type": "Street and Traffic Signs",
    "request_reason": "Street Name Sign Damaged or Missing",
    "date_created": "2025-05-09T22:13:04.000",
    "date_modified": "2025-05-09T22:13:06.000",
    "request_status": "Pending",
    "responsible_agency": "Department of Public Works",
    "final_address": "UNION ST & OKEEFE AVE",
    "address_councildis": "B",
    "status": "Pending",
    "rowid": "1191003",
    "final_x": "3679719.6",
    "final_y": "530287.58",
    "longitude": "-90.07373496163822",
    "latitude": "29.95216088019926",
    "geocoded_column": {
      "latitude": "29.95216088019926",
      "longitude": "-90.07373496163822"
    }
  },
  {
    "service_request": "2025-1191002",
    "request_type": "Street and Traffic Signs",
    "request_reason": "One Way Sign Missing or Damaged",
    "date_created": "2025-05-09T22:12:11.000",
    "date_modified": "2025-05-09T22:12:18.000",
    "request_status": "Pending",
    "responsible_agency": "Department of Public Works",
    "final_address": "UNION ST & OKEEFE AVE",
    "address_councildis": "B",
    "status": "Pending",
    "rowid": "1191002",
    "final_x": "3679719.6",
    "final_y": "530287.58",
    "longitude": "-90.07373496163822",
    "latitude": "29.95216088019926",
    "geocoded_column": {
      "latitude": "29.95216088019926",
      "longitude": "-90.07373496163822"
    }
  },
  {
    "service_request": "2025-1191001",
    "request_type": "General Services",
    "request_reason": "General Service Request",
    "date_created": "2025-05-09T21:58:54.000",
    "date_modified": "2025-05-09T21:58:55.000",
    "request_status": "Pending",
    "responsible_agency": "Orleans Parish Communication District",
    "final_address": "4615 Annette St",
    "address_councildis": "D",
    "status": "Pending",
    "rowid": "1191001",
    "final_x": "3682111.43023",
    "final_y": "549555.031635",
    "longitude": "-90.06550954015076",
    "latitude": "30.005067139102298",
    "geocoded_column": {
      "latitude": "30.005067139102298",
      "longitude": "-90.06550954015076"
    }
  },
  {
    "service_request": "2025-1191000",
    "request_type": "Trash/Recycling",
    "request_reason": "Order Trash Cart",
    "date_created": "2025-05-09T21:48:22.000",
    "date_modified": "2025-05-09T21:48:24.000",
    "request_status": "Pending",
    "responsible_agency": "Department of Sanitation",
    "final_address": "1211 N Gayoso St",
    "address_councildis": "A",
    "status": "Assigned to Contractor",
    "contractor": "IV Waste",
    "rowid": "1191000",
    "final_x": "3676604.65518",
    "final_y": "539443.928522",
    "longitude": "-90.08325509857656",
    "latitude": "29.977431524059778",
    "geocoded_column": {
      "latitude": "29.977431524059778",
      "longitude": "-90.08325509857656"
    }
  },
  {
    "service_request": "2025-1190999",
    "request_type": "Trash/Recycling",
    "request_reason": "Request a Large Item Pick Up",
    "date_created": "2025-05-09T21:26:10.000",
    "date_modified": "2025-05-09T21:26:13.000",
    "request_status": "Pending",
    "responsible_agency": "Department of Sanitation",
    "final_address": "3135 Sullen Pl",
    "address_councildis": "C",
    "status": "Assigned to Contractor",
    "contractor": "Richards Disposal",
    "rowid": "1190999",
    "final_x": "3707720.68881",
    "final_y": "519112.882423",
    "longitude": "-89.9857363100851",
    "latitude": "29.920558344960202",
    "geocoded_column": {
      "latitude": "29.920558344960202",
      "longitude": "-89.9857363100851"
    }
  },
  {
    "service_request": "2025-1190998",
    "request_type": "Trash/Recycling",
    "request_reason": "Request a Large Item Pick Up",
    "date_created": "2025-05-09T21:20:18.000",
    "date_modified": "2025-05-09T21:20:20.000",
    "request_status": "Pending",
    "responsible_agency": "Department of Sanitation",
    "final_address": "501 Amethyst St",
    "address_councildis": "D",
    "status": "Assigned to Contractor",
    "contractor": "IV Waste",
    "rowid": "1190998",
    "final_x": "3668379.70446",
    "final_y": "556908.384218",
    "longitude": "-90.10864278045791",
    "latitude": "30.025696885841125",
    "geocoded_column": {
      "latitude": "30.025696885841125",
      "longitude": "-90.10864278045791"
    }
  },
  {
    "service_request": "2025-1190997",
    "request_type": "Drainage",
    "request_reason": "Street Flooding",
    "date_created": "2025-05-09T21:14:22.000",
    "date_modified": "2025-05-09T21:14:25.000",
    "request_status": "Pending",
    "responsible_agency": "Sewerage & Water Board",
    "final_address": "5901 Memphis St",
    "address_councildis": "A",
    "status": "Pending",
    "rowid": "1190997",
    "final_x": "3669218.9515",
    "final_y": "546618.354769",
    "longitude": "-90.10633904689776",
    "latitude": "29.99737823368896",
    "geocoded_column": {
      "latitude": "29.99737823368896",
      "longitude": "-90.10633904689776"
    }
  },
  {
    "service_request": "2025-1190996",
    "request_type": "Trash/Recycling",
    "request_reason": "Order Recycling Cart",
    "date_created": "2025-05-09T20:14:44.000",
    "date_modified": "2025-05-09T20:14:46.000",
    "request_status": "Pending",
    "responsible_agency": "Department of Sanitation",
    "final_address": "2325 Chippewa St",
    "address_councildis": "B",
    "status": "Pending",
    "rowid": "1190996",
    "final_x": "3679224.1677",
    "final_y": "520566.398776",
    "longitude": "-90.0756362201884",
    "latitude": "29.925445814747032",
    "geocoded_column": {
      "latitude": "29.925445814747032",
      "longitude": "-90.0756362201884"
    }
  },
  {
    "service_request": "2025-1190995",
    "request_type": "Roads and Streets",
    "request_reason": "Push-up/Pavement Expansion",
    "date_created": "2025-05-09T20:09:55.000",
    "date_modified": "2025-05-09T20:09:58.000",
    "request_status": "Pending",
    "responsible_agency": "Department of Public Works",
    "final_address": "2616 Elder St",
    "address_councildis": "D",
    "status": "Pending",
    "rowid": "1190995",
    "final_x": "3687367.11977",
    "final_y": "545756.55688",
    "longitude": "-90.04904026022633",
    "latitude": "29.99446176368377",
    "geocoded_column": {
      "latitude": "29.99446176368377",
      "longitude": "-90.04904026022633"
    }
  },
  {
    "service_request": "2025-1190994",
    "request_type": "Drainage",
    "request_reason": "Catch Basin Damaged",
    "date_created": "2025-05-09T19:50:31.000",
    "date_modified": "2025-05-09T19:50:32.000",
    "request_status": "Pending",
    "responsible_agency": "Sewerage & Water Board",
    "final_address": "2503 Jasmine St",
    "address_councildis": "D",
    "status": "Pending",
    "rowid": "1190994",
    "final_x": "3686305.16022",
    "final_y": "548082.35349",
    "longitude": "-90.05231271222033",
    "latitude": "30.000889552598764",
    "geocoded_column": {
      "latitude": "30.000889552598764",
      "longitude": "-90.05231271222033"
    }
  },
  {
    "service_request": "2025-1190993",
    "request_type": "Trash/Recycling",
    "request_reason": "Request a Large Item Pick Up",
    "date_created": "2025-05-09T19:32:57.000",
    "date_modified": "2025-05-09T19:33:00.000",
    "request_status": "Pending",
    "responsible_agency": "Department of Sanitation",
    "final_address": "704 Piety St",
    "address_councildis": "C",
    "status": "Assigned to Contractor",
    "contractor": "IV Waste",
    "rowid": "1190993",
    "final_x": "3689447.34819",
    "final_y": "534369.036613",
    "longitude": "-90.04287422007788",
    "latitude": "29.963085850909483",
    "geocoded_column": {
      "latitude": "29.963085850909483",
      "longitude": "-90.04287422007788"
    }
  },
  {
    "service_request": "2025-1190992",
    "request_type": "Trash/Recycling",
    "request_reason": "Replace Trash Cart",
    "date_created": "2025-05-09T19:25:08.000",
    "date_modified": "2025-05-09T19:25:09.000",
    "request_status": "Pending",
    "responsible_agency": "Department of Sanitation",
    "final_address": "1627 Jefferson Ave",
    "address_councildis": "B",
    "status": "Assigned to Contractor",
    "contractor": "IV Waste",
    "rowid": "1190992",
    "final_x": "3667479.41933",
    "final_y": "521777.618042",
    "longitude": "-90.11267014146743",
    "latitude": "29.929125527077346",
    "geocoded_column": {
      "latitude": "29.929125527077346",
      "longitude": "-90.11267014146743"
    }
  },
  {
    "service_request": "2025-1190991",
    "request_type": "Abandoned Vehicles",
    "request_reason": "Abandoned/Junk Vehicles",
    "date_created": "2025-05-09T19:01:15.000",
    "date_modified": "2025-05-09T19:01:16.000",
    "request_status": "Pending",
    "responsible_agency": "Department of Public Works",
    "final_address": "2105 Governor Nicholls St",
    "address_councildis": "D",
    "status": "Pending",
    "rowid": "1190991",
    "final_x": "3679682.78133",
    "final_y": "537027.884744",
    "longitude": "-90.073617239247",
    "latitude": "29.970695540301413",
    "geocoded_column": {
      "latitude": "29.970695540301413",
      "longitude": "-90.073617239247"
    }
  },
  {
    "service_request": "2025-1190990",
    "request_type": "Drainage",
    "request_reason": "Catch Basin Clogged",
    "date_created": "2025-05-09T18:32:28.000",
    "date_modified": "2025-05-09T18:32:30.000",
    "request_status": "Pending",
    "responsible_agency": "Sewerage & Water Board",
    "final_address": "4113 DHemecourt St",
    "address_councildis": "A",
    "status": "Pending",
    "rowid": "1190990",
    "final_x": "3669705.81486",
    "final_y": "536953.853128",
    "longitude": "-90.10512830170478",
    "latitude": "29.970789802470545",
    "geocoded_column": {
      "latitude": "29.970789802470545",
      "longitude": "-90.10512830170478"
    }
  },
  {
    "service_request": "2025-1190989",
    "request_type": "Mosquito, Termite & Rodent Control",
    "request_reason": "Rodent Complaint (Mice)",
    "date_created": "2025-05-09T18:22:26.000",
    "date_modified": "2025-05-09T18:22:28.000",
    "request_status": "Pending",
    "responsible_agency": "Mosquito, Termite & Rodent Control Board",
    "final_address": "4940 Lafon Dr",
    "address_councildis": "E",
    "status": "Pending",
    "rowid": "1190989",
    "final_x": "3700965.68548",
    "final_y": "555371.271193",
    "longitude": "-90.00573251183532",
    "latitude": "30.020472504735146",
    "geocoded_column": {
      "latitude": "30.020472504735146",
      "longitude": "-90.00573251183532"
    }
  },
  {
    "service_request": "2025-1190988",
    "request_type": "Drainage",
    "request_reason": "Ditch and Culvert Maintenance",
    "date_created": "2025-05-09T18:17:28.000",
    "date_modified": "2025-05-09T18:17:29.000",
    "request_status": "Pending",
    "responsible_agency": "Department of Public Works",
    "final_address": "2430 Republic St",
    "address_councildis": "D",
    "status": "Pending",
    "rowid": "1190988",
    "final_x": "3680792.77544",
    "final_y": "541045.404811",
    "longitude": "-90.06997185422424",
    "latitude": "29.981708727053125",
    "geocoded_column": {
      "latitude": "29.981708727053125",
      "longitude": "-90.06997185422424"
    }
  },
  {
    "service_request": "2025-1190987",
    "request_type": "Trash/Recycling",
    "request_reason": "Repair Recycling Cart",
    "date_created": "2025-05-09T18:15:00.000",
    "date_modified": "2025-05-09T18:15:02.000",
    "request_status": "Pending",
    "responsible_agency": "Department of Sanitation",
    "final_address": "218 Warrington Dr",
    "address_councildis": "D",
    "status": "Pending",
    "rowid": "1190987",
    "final_x": "3682299.72418",
    "final_y": "547252.571857",
    "longitude": "-90.0649951965483",
    "latitude": "29.99873047008268",
    "geocoded_column": {
      "latitude": "29.99873047008268",
      "longitude": "-90.0649951965483"
    }
  },
  {
    "service_request": "2025-1190986",
    "request_type": "Street and Traffic Signs",
    "request_reason": "Additional Signage Request",
    "date_created": "2025-05-09T18:13:52.000",
    "date_modified": "2025-05-09T18:13:53.000",
    "request_status": "Pending",
    "responsible_agency": "Department of Public Works",
    "final_address": "4305 Coliseum St",
    "address_councildis": "B",
    "status": "Pending",
    "rowid": "1190986",
    "final_x": "3671279.36852",
    "final_y": "519924.775864",
    "longitude": "-90.10073733068843",
    "latitude": "29.92391894767519",
    "geocoded_column": {
      "latitude": "29.92391894767519",
      "longitude": "-90.10073733068843"
    }
  },
  {
    "service_request": "2025-1190985",
    "request_type": "Property Maintenance",
    "request_reason": "Property Maintenance",
    "date_created": "2025-05-09T18:12:31.000",
    "date_modified": "2025-05-09T18:12:40.000",
    "request_status": "Pending",
    "responsible_agency": "Department of Code Enforcement",
    "final_address": "46 Yellowstone Dr",
    "address_councildis": "C",
    "status": "Pending",
    "rowid": "1190985",
    "final_x": "3700274.67754",
    "final_y": "517198.349685",
    "longitude": "-90.00930958098856",
    "latitude": "29.91553272460472",
    "geocoded_column": {
      "latitude": "29.91553272460472",
      "longitude": "-90.00930958098856"
    }
  },
  {
    "service_request": "2025-1190984",
    "request_type": "Trash/Recycling",
    "request_reason": "Request a Large Item Pick Up",
    "date_created": "2025-05-09T18:09:00.000",
    "date_modified": "2025-05-09T18:09:02.000",
    "request_status": "Pending",
    "responsible_agency": "Department of Sanitation",
    "final_address": "8224 Freret St",
    "address_councildis": "A",
    "status": "Assigned to Contractor",
    "contractor": "IV Waste",
    "rowid": "1190984",
    "final_x": "3661047.79533",
    "final_y": "528207.534528",
    "longitude": "-90.13276096185935",
    "latitude": "29.946992596368695",
    "geocoded_column": {
      "latitude": "29.946992596368695",
      "longitude": "-90.13276096185935"
    }
  },
  {
    "service_request": "2025-1190983",
    "request_type": "Drainage",
    "request_reason": "Catch Basin Clogged",
    "date_created": "2025-05-09T17:59:47.000",
    "date_modified": "2025-05-09T17:59:49.000",
    "request_status": "Pending",
    "responsible_agency": "Sewerage & Water Board",
    "final_address": "4940 Lafon Dr",
    "address_councildis": "E",
    "status": "Pending",
    "rowid": "1190983",
    "final_x": "3700965.68548",
    "final_y": "555371.271193",
    "longitude": "-90.00573251183532",
    "latitude": "30.020472504735146",
    "geocoded_column": {
      "latitude": "30.020472504735146",
      "longitude": "-90.00573251183532"
    }
  },
  {
    "service_request": "2025-1190982",
    "request_type": "Drainage",
    "request_reason": "Street Flooding",
    "date_created": "2025-05-09T17:49:30.000",
    "date_modified": "2025-05-09T17:49:32.000",
    "request_status": "Pending",
    "responsible_agency": "Sewerage & Water Board",
    "final_address": "1550 Dufossat St",
    "address_councildis": "B",
    "status": "Pending",
    "rowid": "1190982",
    "final_x": "3668072.38305",
    "final_y": "520956.683705",
    "longitude": "-90.11082591326957",
    "latitude": "29.926850835977472",
    "geocoded_column": {
      "latitude": "29.926850835977472",
      "longitude": "-90.11082591326957"
    }
  },
  {
    "service_request": "2025-1190981",
    "request_type": "Street and Traffic Signs",
    "request_reason": "Street Name Sign Damaged or Missing",
    "date_created": "2025-05-09T17:31:17.000",
    "date_modified": "2025-05-09T17:31:19.000",
    "request_status": "Pending",
    "responsible_agency": "Department of Public Works",
    "final_address": "3000 Royal St",
    "address_councildis": "C",
    "status": "Pending",
    "rowid": "1190981",
    "final_x": "3688135.98633",
    "final_y": "534573.426053",
    "longitude": "-90.04700808655522",
    "latitude": "29.96368839453506",
    "geocoded_column": {
      "latitude": "29.96368839453506",
      "longitude": "-90.04700808655522"
    }
  },
  {
    "service_request": "2025-1190980",
    "request_type": "Trash/Recycling",
    "request_reason": "Repair Trash Cart",
    "date_created": "2025-05-09T17:29:43.000",
    "date_modified": "2025-05-09T17:29:45.000",
    "request_status": "Pending",
    "responsible_agency": "Department of Sanitation",
    "final_address": "3105 Baudin St",
    "address_councildis": "B",
    "status": "Assigned to Contractor",
    "contractor": "IV Waste",
    "rowid": "1190980",
    "final_x": "3673069.01179",
    "final_y": "534862.36039",
    "longitude": "-90.09457829747443",
    "latitude": "29.964939349645178",
    "geocoded_column": {
      "latitude": "29.964939349645178",
      "longitude": "-90.09457829747443"
    }
  },
  {
    "service_request": "2025-1190979",
    "request_type": "Drainage",
    "request_reason": "Drainage Manhole Cover Missing or Damaged",
    "date_created": "2025-05-09T17:28:21.000",
    "date_modified": "2025-05-09T17:28:23.000",
    "request_status": "Pending",
    "responsible_agency": "Sewerage & Water Board",
    "final_address": "3200 BLK Saint Claude Ave",
    "address_councildis": "C",
    "status": "Pending",
    "rowid": "1190979",
    "final_x": "3689714.67467",
    "final_y": "535892.124854",
    "longitude": "-90.04197583243466",
    "latitude": "29.96726552983684",
    "geocoded_column": {
      "latitude": "29.96726552983684",
      "longitude": "-90.04197583243466"
    }
  },
  {
    "service_request": "2025-1190978",
    "request_type": "Trash/Recycling",
    "request_reason": "Missed Trash Pick-Up",
    "date_created": "2025-05-09T16:54:16.000",
    "date_modified": "2025-05-09T17:35:58.000",
    "case_close_date": "2025-05-09T12:35:57.000",
    "request_status": "Closed",
    "responsible_agency": "Department of Sanitation",
    "final_address": "5118 Frenchmen St",
    "address_councildis": "D",
    "status": "Invalid Request",
    "contractor": "IV Waste",
    "contractor_action": "Invalid Request",
    "rowid": "1190978",
    "final_x": "3683307.12879",
    "final_y": "551624.407701",
    "longitude": "-90.06165952771217",
    "latitude": "30.010720742853394",
    "geocoded_column": {
      "latitude": "30.010720742853394",
      "longitude": "-90.06165952771217"
    }
  },
  {
    "service_request": "2025-1190977",
    "request_type": "Drainage",
    "request_reason": "Drainage Manhole Cover Missing or Damaged",
    "date_created": "2025-05-09T16:43:54.000",
    "date_modified": "2025-05-09T16:43:56.000",
    "request_status": "Pending",
    "responsible_agency": "Sewerage & Water Board",
    "final_address": "POYDRAS ST & CAMP ST",
    "address_councildis": "B",
    "status": "Pending",
    "rowid": "1190977",
    "final_x": "3681111.4",
    "final_y": "529242.58",
    "longitude": "-90.0693767053642",
    "latitude": "29.94924533968395",
    "geocoded_column": {
      "latitude": "29.94924533968395",
      "longitude": "-90.0693767053642"
    }
  },
  {
    "service_request": "2025-1190976",
    "request_type": "Trash/Recycling",
    "request_reason": "Request a Large Item Pick Up",
    "date_created": "2025-05-09T16:42:17.000",
    "date_modified": "2025-05-09T16:42:20.000",
    "request_status": "Pending",
    "responsible_agency": "Department of Sanitation",
    "final_address": "2430 Nashville Ave",
    "address_councildis": "A",
    "status": "Assigned to Contractor",
    "contractor": "IV Waste",
    "rowid": "1190976",
    "final_x": "3667045.37844",
    "final_y": "525087.888893",
    "longitude": "-90.11392912134139",
    "latitude": "29.938240422670205",
    "geocoded_column": {
      "latitude": "29.938240422670205",
      "longitude": "-90.11392912134139"
    }
  },
  {
    "service_request": "2025-1190975",
    "request_type": "Drainage",
    "request_reason": "Catch Basin Clogged",
    "date_created": "2025-05-09T16:32:19.000",
    "date_modified": "2025-05-09T16:32:21.000",
    "request_status": "Pending",
    "responsible_agency": "Sewerage & Water Board",
    "final_address": "S NORMAN C FRANCIS PKWY & EDEN ST",
    "address_councildis": "B",
    "status": "Pending",
    "rowid": "1190975",
    "final_x": "3669353.9",
    "final_y": "531015.88",
    "longitude": "-90.10644048952992",
    "latitude": "29.95447271413749",
    "geocoded_column": {
      "latitude": "29.95447271413749",
      "longitude": "-90.10644048952992"
    }
  },
  {
    "service_request": "2025-1190974",
    "request_type": "Trash/Recycling",
    "request_reason": "Request a Large Item Pick Up",
    "date_created": "2025-05-09T16:31:13.000",
    "date_modified": "2025-05-09T16:31:14.000",
    "request_status": "Pending",
    "responsible_agency": "Department of Sanitation",
    "final_address": "4615 Willow St",
    "address_councildis": "B",
    "status": "Assigned to Contractor",
    "contractor": "IV Waste",
    "rowid": "1190974",
    "final_x": "3669506.18337",
    "final_y": "525384.313085",
    "longitude": "-90.10615008354877",
    "latitude": "29.938983255963823",
    "geocoded_column": {
      "latitude": "29.938983255963823",
      "longitude": "-90.10615008354877"
    }
  },
  {
    "service_request": "2025-1190973",
    "request_type": "Trash/Recycling",
    "request_reason": "Order Trash Cart",
    "date_created": "2025-05-09T16:30:31.000",
    "date_modified": "2025-05-09T16:30:34.000",
    "request_status": "Pending",
    "responsible_agency": "Department of Sanitation",
    "final_address": "4968 Louisa Dr",
    "address_councildis": "D",
    "status": "Assigned to Contractor",
    "contractor": "IV Waste",
    "rowid": "1190973",
    "final_x": "3690636.31312",
    "final_y": "552033.00399",
    "longitude": "-90.03848928218133",
    "latitude": "30.011618538287202",
    "geocoded_column": {
      "latitude": "30.011618538287202",
      "longitude": "-90.03848928218133"
    }
  },
  {
    "service_request": "2025-1190972",
    "request_type": "Property Maintenance",
    "request_reason": "Property Maintenance",
    "date_created": "2025-05-09T16:26:59.000",
    "date_modified": "2025-05-09T16:27:01.000",
    "request_status": "Pending",
    "responsible_agency": "Department of Code Enforcement",
    "final_address": "8843 Apple St",
    "address_councildis": "A",
    "status": "Pending",
    "rowid": "1190972",
    "final_x": "3663318.40967",
    "final_y": "534007.156677",
    "longitude": "-90.12539871753907",
    "latitude": "29.962874066277806",
    "geocoded_column": {
      "latitude": "29.962874066277806",
      "longitude": "-90.12539871753907"
    }
  },
  {
    "service_request": "2025-1190971",
    "request_type": "Parks & Parkways",
    "request_reason": "Request Tree Service (Right of Way/Public Property)",
    "date_created": "2025-05-09T16:15:59.000",
    "date_modified": "2025-05-09T16:16:02.000",
    "request_status": "Pending",
    "responsible_agency": "Department of Parks & Parkway",
    "final_address": "3100 BLK Martin Luther King, Jr. Blvd",
    "address_councildis": "B",
    "status": "Pending",
    "rowid": "1190971",
    "final_x": "3674632.70844",
    "final_y": "528457.080997",
    "longitude": "-90.08985974239276",
    "latitude": "29.947280392741625",
    "geocoded_column": {
      "latitude": "29.947280392741625",
      "longitude": "-90.08985974239276"
    }
  },