[
  {
    "service_request": "2022-931129",
    "request_type": "Traffic Signals/Signs/Striping/Streetlights",
    "request_reason": "Street Light Outage/Malfunction",
    "date_created": "2022-10-24T23:38:49.000",
    "date_modified": "2022-10-24T23:38:49.000",
    "request_status": "Pending",
    "responsible_agency": "Department of Public Works",
    "final_address": "1134 Camp St",
    "address_councildis": "B",
    "status": "Pending",
    "contractor": "Legacy Professional Services",
    "rowid": "931129",
    "final_x": "3680491.17211",
    "final_y": "525878.857981",
    "longitude": "-90.07145200165375",
    "latitude": "29.94001502565708",
    "geocoded_column": {
      "latitude": "29.94001502565708",
      "longitude": "-90.07145200165375"
    }
  },
  {
    "service_request": "2022-931128",
    "request_type": "Trash/Recycling",
    "request_reason": "Illegal Dumping",
    "date_created": "2022-10-24T23:26:37.000",
    "date_modified": "2022-10-24T23:26:37.000",
    "request_status": "Pending",
    "responsible_agency": "Department of Sanitation",
    "final_address": "2336 Bienville Ave",
    "address_councildis": "B",
    "status": "Pending",
    "rowid": "931128",
    "final_x": "3676884.49678",
    "final_y": "534832.795206",
    "longitude": "-90.0825302403337",
    "latitude": "29.964744083686856",
    "geocoded_column": {
      "latitude": "29.964744083686856",
      "longitude": "-90.0825302403337"
    }
  },
  {
    "service_request": "2022-931127",
    "request_type": "Trash/Recycling",
    "request_reason": "Request a Large Item Pick Up",
    "date_created": "2022-10-24T22:59:48.000",
    "date_modified": "2022-10-24T22:59:49.000",
    "request_status": "Pending",
    "responsible_agency": "Department of Sanitation",
    "final_address": "5408 Macarthur Blvd",
    "address_councildis": "C",
    "status": "Assigned to Contractor",
    "contractor": "Richards Disposal",
    "rowid": "931127",
    "final_x": "3704025.681",
    "final_y": "519677.55404",
    "longitude": "-89.99737885937522",
    "latitude": "29.922229969489777",
    "geocoded_column": {
      "latitude": "29.922229969489777",
      "longitude": "-89.99737885937522"
    }
  },
  {
    "service_request": "2022-931125",
    "request_type": "Property Maintenance",
    "request_reason": "Property Maintenance",
    "date_created": "2022-10-24T22:49:46.000",
    "date_modified": "2022-10-24T22:49:46.000",
    "request_status": "Pending",
    "responsible_agency": "Department of Code Enforcement",
    "final_address": "2837 Milan St",
    "address_councildis": "B",
    "status": "Pending",
    "rowid": "931125",
    "final_x": "3671183.03867",
    "final_y": "525465.503805",
    "longitude": "-90.10085328448618",
    "latitude": "29.93915701639153",
    "geocoded_column": {
      "latitude": "29.93915701639153",
      "longitude": "-90.10085328448618"
    }
  },
  {
    "service_request": "2022-931124",
    "request_type": "Property Maintenance",
    "request_reason": "Property Maintenance",
    "date_created": "2022-10-24T21:58:21.000",
    "date_modified": "2022-10-24T21:58:21.000",
    "request_status": "Pending",
    "responsible_agency": "Department of Code Enforcement",
    "final_address": "2306 Esplanade Ave",
    "address_councildis": "D",
    "status": "Pending",
    "rowid": "931124",
    "final_x": "3679158.27259",
    "final_y": "538070.858377",
    "longitude": "-90.07523753602261",
    "latitude": "29.973579204469257",
    "geocoded_column": {
      "latitude": "29.973579204469257",
      "longitude": "-90.07523753602261"
    }
  },
  {
    "service_request": "2022-931123",
    "request_type": "Traffic Signals/Signs/Striping/Streetlights",
    "request_reason": "Striping/Road Surface Markings",
    "date_created": "2022-10-24T21:56:28.000",
    "date_modified": "2022-10-24T21:56:28.000",
    "request_status": "Pending",
    "responsible_agency": "Department of Public Works",
    "final_address": "2815 DAbadie St",
    "address_councildis": "D",
    "status": "Pending",
    "rowid": "931123",
    "final_x": "3678864.80853",
    "final_y": "541319.096972",
    "longitude": "-90.07605179436885",
    "latitude": "29.982519594058523",
    "geocoded_column": {
      "latitude": "29.982519594058523",
      "longitude": "-90.07605179436885"
    }
  },
  {
    "service_request": "2022-931122",
    "request_type": "Trash/Recycling",
    "request_reason": "Order Recycling Cart",
    "date_created": "2022-10-24T21:45:59.000",
    "date_modified": "2022-10-24T21:45:59.000",
    "request_status": "Pending",
    "responsible_agency": "Department of Sanitation",
    "final_address": "41 Fairway Oaks Dr",
    "address_councildis": "C",
    "status": "Pending",
    "rowid": "931122",
    "final_x": "3717166.22104",
    "final_y": "515523.21234",
    "longitude": "-89.9560577109869",
    "latitude": "29.910379197925593",
    "geocoded_column": {
      "latitude": "29.910379197925593",
      "longitude": "-89.9560577109869"
    }
  },
  {
    "service_request": "2022-931120",
    "request_type": "Trash/Recycling",
    "request_reason": "Request a Large Item Pick Up",
    "date_created": "2022-10-24T20:34:52.000",
    "date_modified": "2022-10-24T20:34:52.000",
    "request_status": "Pending",
    "responsible_agency": "Department of Sanitation",
    "final_address": "1316 Short St",
    "address_councildis": "A",
    "status": "Assigned to Contractor",
    "contractor": "Richards Disposal",
    "rowid": "931120",
    "final_x": "3662637.69498",
    "final_y": "528514.161152",
    "longitude": "-90.12773084808003",
    "latitude": "29.94778982034247",
    "geocoded_column": {
      "latitude": "29.94778982034247",
      "longitude": "-90.12773084808003"
    }
  },
  {
    "service_request": "2022-931119",
    "request_type": "Trash/Recycling",
    "request_reason": "Missed Trash Pick-Up",
    "date_created": "2022-10-24T20:11:50.000",
    "date_modified": "2022-10-24T20:11:50.000",
    "request_status": "Pending",
    "responsible_agency": "Department of Sanitation",
    "final_address": "1709 Prytania St",
    "address_councildis": "B",
    "status": "Assigned to Contractor",
    "contractor": "Richards Disposal",
    "rowid": "931119",
    "final_x": "3679224.59707",
    "final_y": "524657.101948",
    "longitude": "-90.07549311217129",
    "latitude": "29.936693893441053",
    "geocoded_column": {
      "latitude": "29.936693893441053",
      "longitude": "-90.07549311217129"
    }
  },
  {
    "service_request": "2022-931118",
    "request_type": "Trash/Recycling",
    "request_reason": "Repair Recycling Cart",
    "date_created": "2022-10-24T20:06:52.000",
    "date_modified": "2022-10-24T20:06:52.000",
    "request_status": "Pending",
    "responsible_agency": "Department of Sanitation",
    "final_address": "6025 Constance St",
    "address_councildis": "A",
    "status": "Pending",
    "rowid": "931118",
    "final_x": "3664395.1984",
    "final_y": "519062.125047",
    "longitude": "-90.12249705614619",
    "latitude": "29.921748757473562",
    "geocoded_column": {
      "latitude": "29.921748757473562",
      "longitude": "-90.12249705614619"
    }
  },
  {
    "service_request": "2022-931116",
    "request_type": "Property Maintenance",
    "request_reason": "Property Maintenance",
    "date_created": "2022-10-24T19:48:58.000",
    "date_modified": "2022-10-24T19:48:58.000",
    "request_status": "Pending",
    "responsible_agency": "Department of Code Enforcement",
    "final_address": "3401 Feliciana St",
    "address_councildis": "D",
    "status": "Pending",
    "rowid": "931116",
    "final_x": "3691047.92745",
    "final_y": "545141.880719",
    "longitude": "-90.03743505695228",
    "latitude": "29.99265767517886",
    "geocoded_column": {
      "latitude": "29.99265767517886",
      "longitude": "-90.03743505695228"
    }
  },
  {
    "service_request": "2022-931115",
    "request_type": "Property Maintenance",
    "request_reason": "Property Maintenance",
    "date_created": "2022-10-24T19:47:05.000",
    "date_modified": "2022-10-24T19:47:05.000",
    "request_status": "Pending",
    "responsible_agency": "Department of Code Enforcement",
    "final_address": "3014 Pleasure St",
    "address_councildis": "D",
    "status": "Pending",
    "rowid": "931115",
    "final_x": "3690840.03113",
    "final_y": "545091.296655",
    "longitude": "-90.03809356705692",
    "latitude": "29.99252505068975",
    "geocoded_column": {
      "latitude": "29.99252505068975",
      "longitude": "-90.03809356705692"
    }
  },
  {
    "service_request": "2022-931114",
    "request_type": "Trash/Recycling",
    "request_reason": "Missed Trash Pick-Up",
    "date_created": "2022-10-24T19:34:17.000",
    "date_modified": "2022-10-24T19:34:18.000",
    "request_status": "Pending",
    "responsible_agency": "Department of Sanitation",
    "final_address": "424 N Galvez St",
    "address_councildis": "B",
    "status": "Assigned to Contractor",
    "contractor": "Richards Disposal",
    "rowid": "931114",
    "final_x": "3677911.24667",
    "final_y": "534904.664326",
    "longitude": "-90.07928534825292",
    "latitude": "29.964910841127196",
    "geocoded_column": {
      "latitude": "29.964910841127196",
      "longitude": "-90.07928534825292"
    }
  },
  {
    "service_request": "2022-931113",
    "request_type": "Traffic Signals/Signs/Striping/Streetlights",
    "request_reason": "Street Light Outage/Malfunction",
    "date_created": "2022-10-24T19:33:53.000",
    "date_modified": "2022-10-24T19:33:54.000",
    "request_status": "Pending",
    "responsible_agency": "Department of Public Works",
    "final_address": "1927 Milan St",
    "address_councildis": "B",
    "status": "Pending",
    "contractor": "Legacy Professional Services",
    "rowid": "931113",
    "final_x": "3671518.6978",
    "final_y": "522242.092346",
    "longitude": "-90.09990311124528",
    "latitude": "29.930283744570684",
    "geocoded_column": {
      "latitude": "29.930283744570684",
      "longitude": "-90.09990311124528"
    }
  },
  {
    "service_request": "2022-931112",
    "request_type": "Trash/Recycling",
    "request_reason": "Replace Trash Cart",
    "date_created": "2022-10-24T19:29:56.000",
    "date_modified": "2022-10-24T19:29:56.000",
    "request_status": "Pending",
    "responsible_agency": "Department of Sanitation",
    "final_address": "424 N Galvez St",
    "address_councildis": "B",
    "status": "Assigned to Contractor",
    "contractor": "Richards Disposal",
    "rowid": "931112",
    "final_x": "3677911.24667",
    "final_y": "534904.664326",
    "longitude": "-90.07928534825292",
    "latitude": "29.964910841127196",
    "geocoded_column": {
      "latitude": "29.964910841127196",
      "longitude": "-90.07928534825292"
    }
  },
  {
    "service_request": "2022-931111",
    "request_type": "Trash/Recycling",
    "request_reason": "Request a Large Item Pick Up",
    "date_created": "2022-10-24T19:29:18.000",
    "date_modified": "2022-10-24T19:29:19.000",
    "request_status": "Pending",
    "responsible_agency": "Department of Sanitation",
    "final_address": "1032 Bourbon St",
    "address_councildis": "C",
    "status": "Assigned to Contractor",
    "contractor": "Empire Services",
    "rowid": "931111",
    "final_x": "3683117.50517",
    "final_y": "533759.093893",
    "longitude": "-90.06288443750766",
    "latitude": "29.961603215673943",
    "geocoded_column": {
      "latitude": "29.961603215673943",
      "longitude": "-90.06288443750766"
    }
  },
  {
    "service_request": "2022-931110",
    "request_type": "Traffic Signals/Signs/Striping/Streetlights",
    "request_reason": "Street Light Outage/Malfunction",
    "date_created": "2022-10-24T19:28:55.000",
    "date_modified": "2022-10-24T19:28:56.000",
    "request_status": "Pending",
    "responsible_agency": "Department of Public Works",
    "final_address": "325 Polk St",
    "address_councildis": "A",
    "status": "Pending",
    "contractor": "Legacy Professional Services",
    "rowid": "931110",
    "final_x": "3667295.1426",
    "final_y": "547451.521617",
    "longitude": "-90.11238827014232",
    "latitude": "29.999725659537958",
    "geocoded_column": {
      "latitude": "29.999725659537958",
      "longitude": "-90.11238827014232"
    }
  },
  {
    "service_request": "2022-931109",
    "request_type": "Traffic Signals/Signs/Striping/Streetlights",
    "request_reason": "Street Light Outage/Malfunction",
    "date_created": "2022-10-24T19:27:14.000",
    "date_modified": "2022-10-24T19:27:15.000",
    "request_status": "Pending",
    "responsible_agency": "Department of Public Works",
    "final_address": "6369 Argonne Blvd",
    "address_councildis": "A",
    "status": "Pending",
    "contractor": "Legacy Professional Services",
    "rowid": "931109",
    "final_x": "3670471.89191",
    "final_y": "549721.086036",
    "longitude": "-90.10227573712734",
    "latitude": "30.005872712267987",
    "geocoded_column": {
      "latitude": "30.005872712267987",
      "longitude": "-90.10227573712734"
    }
  },
  {
    "service_request": "2022-931108",
    "request_type": "Trash/Recycling",
    "request_reason": "Missed Trash Pick-Up",
    "date_created": "2022-10-24T19:23:11.000",
    "date_modified": "2022-10-24T19:23:12.000",
    "request_status": "Pending",
    "responsible_agency": "Department of Sanitation",
    "final_address": "749 S Genois St",
    "address_councildis": "B",
    "status": "Assigned to Contractor",
    "contractor": "Richards Disposal",
    "rowid": "931108",
    "final_x": "3670881.31438",
    "final_y": "535010.131846",
    "longitude": "-90.10148191227124",
    "latitude": "29.96541052252787",
    "geocoded_column": {
      "latitude": "29.96541052252787",
      "longitude": "-90.10148191227124"
    }
  },
  {
    "service_request": "2022-931107",
    "request_type": "Trash/Recycling",
    "request_reason": "Missed Trash Pick-Up",
    "date_created": "2022-10-24T19:22:49.000",
    "date_modified": "2022-10-24T19:22:50.000",
    "request_status": "Pending",
    "responsible_agency": "Department of Sanitation",
    "final_address": "221 S Genois St",
    "address_councildis": "B",
    "status": "Assigned to Contractor",
    "contractor": "Richards Disposal",
    "rowid": "931107",
    "final_x": "3672170.85627",
    "final_y": "536748.918728",
    "longitude": "-90.09735036031731",
    "latitude": "29.970153419346236",
    "geocoded_column": {
      "latitude": "29.970153419346236",
      "longitude": "-90.09735036031731"
    }
  },
  {
    "service_request": "2022-931106",
    "request_type": "Trash/Recycling",
    "request_reason": "Missed Trash Pick-Up",
    "date_created": "2022-10-24T19:21:01.000",
    "date_modified": "2022-10-24T19:21:02.000",
    "request_status": "Pending",
    "responsible_agency": "Department of Sanitation",
    "final_address": "751 S Genois St",
    "address_councildis": "B",
    "status": "Assigned to Contractor",
    "contractor": "Richards Disposal",
    "rowid": "931106",
    "final_x": "3670876.03803",
    "final_y": "534999.29383",
    "longitude": "-90.10149894272753",
    "latitude": "29.96538087757639",
    "geocoded_column": {
      "latitude": "29.96538087757639",
      "longitude": "-90.10149894272753"
    }
  },
  {
    "service_request": "2022-931105",
    "request_type": "Trash/Recycling",
    "request_reason": "Replace Trash Cart",
    "date_created": "2022-10-24T19:11:15.000",
    "date_modified": "2022-10-24T19:11:16.000",
    "request_status": "Pending",
    "responsible_agency": "Department of Sanitation",
    "final_address": "2228 Cadiz St",
    "address_councildis": "B",
    "status": "Assigned to Contractor",
    "contractor": "Richards Disposal",
    "rowid": "931105",
    "final_x": "3669782.83489",
    "final_y": "523140.807419",
    "longitude": "-90.10535256740471",
    "latitude": "29.932806188029595",
    "geocoded_column": {
      "latitude": "29.932806188029595",
      "longitude": "-90.10535256740471"
    }
  },
  {
    "service_request": "2022-931104",
    "request_type": "Traffic Signals/Signs/Striping/Streetlights",
    "request_reason": "Street Light Outage/Malfunction",
    "date_created": "2022-10-24T19:02:43.000",
    "date_modified": "2022-10-24T19:02:44.000",
    "request_status": "Pending",
    "responsible_agency": "Department of Public Works",
    "final_address": "7500 Scottwood Dr",
    "address_councildis": "E",
    "status": "Pending",
    "contractor": "Legacy Professional Services",
    "rowid": "931104",
    "final_x": "3717688.27673",
    "final_y": "570038.038503",
    "longitude": "-89.95233630395649",
    "latitude": "30.060256807824853",
    "geocoded_column": {
      "latitude": "30.060256807824853",
      "longitude": "-89.95233630395649"
    }
  },
  {
    "service_request": "2022-931103",
    "request_type": "Trash/Recycling",
    "request_reason": "MIssed Recycling Pick-Up",
    "date_created": "2022-10-24T18:51:21.000",
    "date_modified": "2022-10-24T18:51:22.000",
    "request_status": "Pending",
    "responsible_agency": "Department of Sanitation",
    "final_address": "6065 General Meyer Ave",
    "address_councildis": "C",
    "status": "Assigned to Contractor",
    "contractor": "Richards Disposal",
    "rowid": "931103",
    "final_x": "3706429.86993",
    "final_y": "520953.953593",
    "longitude": "-89.98974264689541",
    "latitude": "29.925662328529434",
    "geocoded_column": {
      "latitude": "29.925662328529434",
      "longitude": "-89.98974264689541"
    }
  },
  {
    "service_request": "2022-931101",
    "request_type": "Trash/Recycling",
    "request_reason": "Request a Large Item Pick Up",
    "date_created": "2022-10-24T18:17:14.000",
    "date_modified": "2022-10-24T18:17:15.000",
    "request_status": "Pending",
    "responsible_agency": "Department of Sanitation",
    "final_address": "2726 Mexico St",
    "address_councildis": "D",
    "status": "Assigned to Contractor",
    "contractor": "Metro Disposal",
    "rowid": "931101",
    "final_x": "3687292.18953",
    "final_y": "556411.97065",
    "longitude": "-90.04889965224743",
    "latitude": "30.023762563313603",
    "geocoded_column": {
      "latitude": "30.023762563313603",
      "longitude": "-90.04889965224743"
    }
  },
  {
    "service_request": "2022-931100",
    "request_type": "Trash/Recycling",
    "request_reason": "Missed Trash Pick-Up",
    "date_created": "2022-10-24T18:04:03.000",
    "date_modified": "2022-10-24T18:04:04.000",
    "request_status": "Pending",
    "responsible_agency": "Department of Sanitation",
    "final_address": "2319 Rousseau St",
    "address_councildis": "B",
    "status": "Assigned to Contractor",
    "contractor": "Richards Disposal",
    "rowid": "931100",
    "final_x": "3679744.74856",
    "final_y": "519977.8622",
    "longitude": "-90.07401332657119",
    "latitude": "29.923811809239165",
    "geocoded_column": {
      "latitude": "29.923811809239165",
      "longitude": "-90.07401332657119"
    }
  },
  {
    "service_request": "2022-931099",
    "request_type": "Trash/Recycling",
    "request_reason": "Missed Trash Pick-Up",
    "date_created": "2022-10-24T17:57:55.000",
    "date_modified": "2022-10-24T17:57:56.000",
    "request_status": "Pending",
    "responsible_agency": "Department of Sanitation",
    "final_address": "2319 Rousseau St",
    "address_councildis": "B",
    "status": "Assigned to Contractor",
    "contractor": "Richards Disposal",
    "rowid": "931099",
    "final_x": "3679744.74856",
    "final_y": "519977.8622",
    "longitude": "-90.07401332657119",
    "latitude": "29.923811809239165",
    "geocoded_column": {
      "latitude": "29.923811809239165",
      "longitude": "-90.07401332657119"
    }
  },
  {
    "service_request": "2022-931098",
    "request_type": "Trash/Recycling",
    "request_reason": "Illegal Dumping",
    "date_created": "2022-10-24T17:56:17.000",
    "date_modified": "2022-10-24T17:56:18.000",
    "request_status": "Pending",
    "responsible_agency": "Department of Sanitation",
    "final_address": "3000 BLK N Johnson St",
    "address_councildis": "D",
    "status": "Pending",
    "rowid": "931098",
    "final_x": "3689431.97149",
    "final_y": "539484.288273",
    "longitude": "-90.0427408381298",
    "latitude": "29.97715147118872",
    "geocoded_column": {
      "latitude": "29.97715147118872",
      "longitude": "-90.0427408381298"
    }
  },
  {
    "service_request": "2022-931097",
    "request_type": "Parks & Parkways",
    "request_reason": "Request Tree Service (Right of Way/Public Property)",
    "date_created": "2022-10-24T17:55:40.000",
    "date_modified": "2022-10-24T17:55:41.000",
    "request_status": "Pending",
    "responsible_agency": "Department of Parks & Parkway",
    "final_address": "6961 Memphis St",
    "address_councildis": "A",
    "status": "Pending",
    "rowid": "931097",
    "final_x": "3669875.59348",
    "final_y": "553768.547991",
    "longitude": "-90.10402240530419",
    "latitude": "30.017019408917793",
    "geocoded_column": {
      "latitude": "30.017019408917793",
      "longitude": "-90.10402240530419"
    }
  },
  {
    "service_request": "2022-931096",
    "request_type": "Trash/Recycling",
    "request_reason": "Order Recycling Cart",
    "date_created": "2022-10-24T17:38:58.000",
    "date_modified": "2022-10-24T17:38:59.000",
    "request_status": "Pending",
    "responsible_agency": "Department of Sanitation",
    "final_address": "229 English Turn Dr",
    "address_councildis": "C",
    "status": "Pending",
    "rowid": "931096",
    "final_x": "3718729.88018",
    "final_y": "512222.755953",
    "longitude": "-89.95124817761682",
    "latitude": "29.90125233786484",
    "geocoded_column": {
      "latitude": "29.90125233786484",
      "longitude": "-89.95124817761682"
    }
  },
  {
    "service_request": "2022-931095",
    "request_type": "Trash/Recycling",
    "request_reason": "Missed Trash Pick-Up",
    "date_created": "2022-10-24T17:37:34.000",
    "date_modified": "2022-10-24T17:37:35.000",
    "request_status": "Pending",
    "responsible_agency": "Department of Sanitation",
    "final_address": "8305 Panola St",
    "address_councildis": "A",
    "status": "Assigned to Contractor",
    "contractor": "Richards Disposal",
    "rowid": "931095",
    "final_x": "3663529.30983",
    "final_y": "531269.934018",
    "longitude": "-90.12482388412229",
    "latitude": "29.9553414806851",
    "geocoded_column": {
      "latitude": "29.9553414806851",
      "longitude": "-90.12482388412229"
    }
  },
  {
    "service_request": "2022-931094",
    "request_type": "Property Maintenance",
    "request_reason": "Property Maintenance",
    "date_created": "2022-10-24T17:27:21.000",
    "date_modified": "2022-10-24T17:27:22.000",
    "request_status": "Pending",
    "responsible_agency": "Department of Code Enforcement",
    "final_address": "7300 Camberley Dr",
    "address_councildis": "E",
    "status": "Pending",
    "rowid": "931094",
    "final_x": "3712916.98373",
    "final_y": "565174.780514",
    "longitude": "-89.96760122668434",
    "latitude": "30.047042085860138",
    "geocoded_column": {
      "latitude": "30.047042085860138",
      "longitude": "-89.96760122668434"
    }
  },
  {
    "service_request": "2022-931093",
    "request_type": "Trash/Recycling",
    "request_reason": "Missed Trash Pick-Up",
    "date_created": "2022-10-24T17:25:56.000",
    "date_modified": "2022-10-24T17:25:56.000",
    "request_status": "Pending",
    "responsible_agency": "Department of Sanitation",
    "final_address": "3314 Grand Route St John St",
    "address_councildis": "A",
    "status": "Assigned to Contractor",
    "contractor": "Richards Disposal",
    "rowid": "931093",
    "final_x": "3675653.0811",
    "final_y": "540300.513931",
    "longitude": "-90.086231046",
    "latitude": "29.97981535079162",
    "geocoded_column": {
      "latitude": "29.97981535079162",
      "longitude": "-90.086231046"
    }
  },
  {
    "service_request": "2022-931092",
    "request_type": "Traffic Signals/Signs/Striping/Streetlights",
    "request_reason": "Street Light Knocked Down/Leaning",
    "date_created": "2022-10-24T17:18:19.000",
    "date_modified": "2022-10-24T17:18:20.000",
    "request_status": "Pending",
    "responsible_agency": "Department of Public Works",
    "final_address": "200 N Peters St",
    "address_councildis": "C",
    "status": "Pending",
    "contractor": "Legacy Professional Services",
    "rowid": "931092",
    "final_x": "3682365.96751",
    "final_y": "530365.441858",
    "longitude": "-90.06537625271132",
    "latitude": "29.95229471826645",
    "geocoded_column": {
      "latitude": "29.95229471826645",
      "longitude": "-90.06537625271132"
    }
  },
  {
    "service_request": "2022-931091",
    "request_type": "Trash/Recycling",
    "request_reason": "Request a Large Item Pick Up",
    "date_created": "2022-10-24T17:14:58.000",
    "date_modified": "2022-10-24T17:14:59.000",
    "request_status": "Pending",
    "responsible_agency": "Department of Sanitation",
    "final_address": "1819 Eighth St",
    "address_councildis": "B",
    "status": "Assigned to Contractor",
    "contractor": "Richards Disposal",
    "rowid": "931091",
    "final_x": "3674537.31393",
    "final_y": "522666.073274",
    "longitude": "-90.09035928355364",
    "latitude": "29.931359862669304",
    "geocoded_column": {
      "latitude": "29.931359862669304",
      "longitude": "-90.09035928355364"
    }
  },
  {
    "service_request": "2022-931090",
    "request_type": "Abandoned Vehicles",
    "request_reason": "Abandoned/Junk Vehicles",
    "date_created": "2022-10-24T17:10:52.000",
    "date_modified": "2022-10-24T17:10:52.000",
    "request_status": "Pending",
    "responsible_agency": "Department of Public Works",
    "final_address": "414 Warrington Dr",
    "address_councildis": "D",
    "status": "Pending",
    "rowid": "931090",
    "final_x": "3681488.56239",
    "final_y": "548201.365906",
    "longitude": "-90.06752455118277",
    "latitude": "30.00136397858688",
    "geocoded_column": {
      "latitude": "30.00136397858688",
      "longitude": "-90.06752455118277"
    }
  },
  {
    "service_request": "2022-931089",
    "request_type": "Trash/Recycling",
    "request_reason": "Dead Animal Pick Up",
    "date_created": "2022-10-24T17:06:31.000",
    "date_modified": "2022-10-24T17:06:32.000",
    "request_status": "Pending",
    "responsible_agency": "Department of Sanitation",
    "final_address": "3305 Marais St",
    "address_councildis": "C",
    "status": "Assigned to Contractor",
    "contractor": "Metro Disposal",
    "rowid": "931089",
    "final_x": "3689997.82928",
    "final_y": "536165.836295",
    "longitude": "-90.04107188125678",
    "latitude": "29.96800936265638",
    "geocoded_column": {
      "latitude": "29.96800936265638",
      "longitude": "-90.04107188125678"
    }
  },
  {
    "service_request": "2022-931088",
    "request_type": "Trash/Recycling",
    "request_reason": "MIssed Recycling Pick-Up",
    "date_created": "2022-10-24T16:59:23.000",
    "date_modified": "2022-10-24T16:59:23.000",
    "request_status": "Pending",
    "responsible_agency": "Department of Sanitation",
    "final_address": "3131 Dickens Dr",
    "address_councildis": "C",
    "status": "Assigned to Contractor",
    "contractor": "Richards Disposal",
    "rowid": "931088",
    "final_x": "3708272.32113",
    "final_y": "518685.824119",
    "longitude": "-89.98401095336939",
    "latitude": "29.919366233392076",
    "geocoded_column": {
      "latitude": "29.919366233392076",
      "longitude": "-89.98401095336939"
    }
  },
  {
    "service_request": "2022-931087",
    "request_type": "Trash/Recycling",
    "request_reason": "Illegal Dumping",
    "date_created": "2022-10-24T16:54:11.000",
    "date_modified": "2022-10-24T16:54:11.000",
    "request_status": "Pending",
    "responsible_agency": "Department of Sanitation",
    "final_address": "2525 Magnolia St",
    "address_councildis": "B",
    "status": "Pending",
    "rowid": "931087",
    "final_x": "3674314.38299",
    "final_y": "526271.770238",
    "longitude": "-90.09093963098508",
    "latitude": "29.94128100171863",
    "geocoded_column": {
      "latitude": "29.94128100171863",
      "longitude": "-90.09093963098508"
    }
  },
  {
    "service_request": "2022-931086",
    "request_type": "Traffic Signals/Signs/Striping/Streetlights",
    "request_reason": "Street Light Outage/Malfunction",
    "date_created": "2022-10-24T16:52:36.000",
    "date_modified": "2022-10-24T16:52:37.000",
    "request_status": "Pending",
    "responsible_agency": "Department of Public Works",
    "final_address": "4611 Owens Blvd",
    "address_councildis": "D",
    "status": "Pending",
    "contractor": "Legacy Professional Services",
    "rowid": "931086",
    "final_x": "3676496.32251",
    "final_y": "549254.572051",
    "longitude": "-90.08325921023265",
    "latitude": "30.0044106186866",
    "geocoded_column": {
      "latitude": "30.0044106186866",
      "longitude": "-90.08325921023265"
    }
  },
  {
    "service_request": "2022-931085",
    "request_type": "Trash/Recycling",
    "request_reason": "MIssed Recycling Pick-Up",
    "date_created": "2022-10-24T16:47:06.000",
    "date_modified": "2022-10-24T16:47:07.000",
    "request_status": "Pending",
    "responsible_agency": "Department of Sanitation",
    "final_address": "301 Berkley Dr",
    "address_councildis": "C",
    "status": "Assigned to Contractor",
    "contractor": "Richards Disposal",
    "rowid": "931085",
    "final_x": "3707029.91672",
    "final_y": "517945.866038",
    "longitude": "-89.98795998914827",
    "latitude": "29.917371775909338",
    "geocoded_column": {
      "latitude": "29.917371775909338",
      "longitude": "-89.98795998914827"
    }
  },
  {
    "service_request": "2022-931084",
    "request_type": "Trash/Recycling",
    "request_reason": "Repair Trash Cart",
    "date_created": "2022-10-24T16:40:51.000",
    "date_modified": "2022-10-24T16:40:52.000",
    "request_status": "Pending",
    "responsible_agency": "Department of Sanitation",
    "final_address": "5339 Pasteur Blvd",
    "address_councildis": "D",
    "status": "Assigned to Contractor",
    "contractor": "Metro Disposal",
    "rowid": "931084",
    "final_x": "3683005.63042",
    "final_y": "552532.30831",
    "longitude": "-90.0625802659555",
    "latitude": "30.013226336729012",
    "geocoded_column": {
      "latitude": "30.013226336729012",
      "longitude": "-90.0625802659555"
    }
  },
  {
    "service_request": "2022-931083",
    "request_type": "Trash/Recycling",
    "request_reason": "Request a Large Item Pick Up",
    "date_created": "2022-10-24T16:40:39.000",
    "date_modified": "2022-10-24T16:40:40.000",
    "request_status": "Pending",
    "responsible_agency": "Department of Sanitation",
    "final_address": "3256 St Thomas St",
    "address_councildis": "B",
    "status": "Assigned to Contractor",
    "contractor": "Richards Disposal",
    "rowid": "931083",
    "final_x": "3676177.05685",
    "final_y": "518207.59839",
    "longitude": "-90.08533610996444",
    "latitude": "29.919051487248876",
    "geocoded_column": {
      "latitude": "29.919051487248876",
      "longitude": "-90.08533610996444"
    }
  },
  {
    "service_request": "2022-931082",
    "request_type": "Property Maintenance",
    "request_reason": "Property Maintenance",
    "date_created": "2022-10-24T16:40:10.000",
    "date_modified": "2022-10-24T16:40:10.000",
    "request_status": "Pending",
    "responsible_agency": "Department of Code Enforcement",
    "final_address": "1499 Athis St",
    "address_councildis": "D",
    "status": "Pending",
    "rowid": "931082",
    "final_x": "3678333.34075",
    "final_y": "553765.839191",
    "longitude": "-90.07729949681413",
    "latitude": "30.016759750330863",
    "geocoded_column": {
      "latitude": "30.016759750330863",
      "longitude": "-90.07729949681413"
    }
  },
  {
    "service_request": "2022-931081",
    "request_type": "Property Maintenance",
    "request_reason": "Property Maintenance",
    "date_created": "2022-10-24T16:40:08.000",
    "date_modified": "2022-10-24T16:40:08.000",
    "request_status": "Pending",
    "responsible_agency": "Department of Code Enforcement",
    "final_address": "2642 St Nick Dr",
    "address_councildis": "C",
    "status": "Pending",
    "rowid": "931081",
    "final_x": "3699381.25584",
    "final_y": "521120.871353",
    "longitude": "-90.01198676518176",
    "latitude": "29.926346675199014",
    "geocoded_column": {
      "latitude": "29.926346675199014",
      "longitude": "-90.01198676518176"
    }
  },
  {
    "service_request": "2022-931080",
    "request_type": "Property Maintenance",
    "request_reason": "Property Maintenance",
    "date_created": "2022-10-24T16:36:53.000",
    "date_modified": "2022-10-24T16:36:53.000",
    "request_status": "Pending",
    "responsible_agency": "Department of Code Enforcement",
    "final_address": "1876 N Roman St",
    "address_councildis": "D",
    "status": "Pending",
    "rowid": "931080",
    "final_x": "3683560.73135",
    "final_y": "538748.622345",
    "longitude": "-90.06130989311943",
    "latitude": "29.975309173283534",
    "geocoded_column": {
      "latitude": "29.975309173283534",
      "longitude": "-90.06130989311943"
    }
  },
  {
    "service_request": "2022-931079",
    "request_type": "Trash/Recycling",
    "request_reason": "Order Trash Cart",
    "date_created": "2022-10-24T16:34:40.000",
    "date_modified": "2022-10-24T16:34:41.000",
    "request_status": "Pending",
    "responsible_agency": "Department of Sanitation",
    "final_address": "2128 St Roch Ave",
    "address_councildis": "D",
    "status": "Assigned to Contractor",
    "contractor": "Metro Disposal",
    "rowid": "931079",
    "final_x": "3686102.28764",
    "final_y": "540355.548939",
    "longitude": "-90.05322629896865",
    "latitude": "29.97964983189053",
    "geocoded_column": {
      "latitude": "29.97964983189053",
      "longitude": "-90.05322629896865"
    }
  },
  {
    "service_request": "2022-931077",
    "request_type": "Trash/Recycling",
    "request_reason": "Replace Trash Cart",
    "date_created": "2022-10-24T16:30:35.000",
    "date_modified": "2022-10-24T16:30:36.000",
    "request_status": "Pending",
    "responsible_agency": "Department of Sanitation",
    "final_address": "3051 Hyman Pl",
    "address_councildis": "C",
    "status": "Assigned to Contractor",
    "contractor": "Richards Disposal",
    "rowid": "931077",
    "final_x": "3700932.96247",
    "final_y": "519718.824824",
    "longitude": "-90.00713972294184",
    "latitude": "29.92244223668073",
    "geocoded_column": {
      "latitude": "29.92244223668073",
      "longitude": "-90.00713972294184"
    }
  },
  {
    "service_request": "2022-931076",
    "request_type": "Trash/Recycling",
    "request_reason": "Illegal Dumping",
    "date_created": "2022-10-24T16:30:32.000",
    "date_modified": "2022-10-24T16:30:32.000",
    "request_status": "Pending",
    "responsible_agency": "Department of Sanitation",
    "final_address": "2520 Second St",
    "address_councildis": "B",
    "status": "Pending",
    "rowid": "931076",
    "final_x": "3674753.24859",
    "final_y": "525918.317053",
    "longitude": "-90.08956615984746",
    "latitude": "29.940296029876027",
    "geocoded_column": {
      "latitude": "29.940296029876027",
      "longitude": "-90.08956615984746"
    }
  },
  {
    "service_request": "2022-931075",
    "request_type": "Trash/Recycling",
    "request_reason": "Order Trash Cart",
    "date_created": "2022-10-24T16:29:17.000",
    "date_modified": "2022-10-24T16:29:18.000",
    "request_status": "Pending",
    "responsible_agency": "Department of Sanitation",
    "final_address": "2128 St Roch Ave",
    "address_councildis": "D",
    "status": "Assigned to Contractor",
    "contractor": "Metro Disposal",
    "rowid": "931075",
    "final_x": "3686102.28764",
    "final_y": "540355.548939",
    "longitude": "-90.05322629896865",
    "latitude": "29.97964983189053",
    "geocoded_column": {
      "latitude": "29.97964983189053",
      "longitude": "-90.05322629896865"
    }
  },
  {
    "service_request": "2022-931074",
    "request_type": "Property Maintenance",
    "request_reason": "Property Maintenance",
    "date_created": "2022-10-24T16:27:03.000",
    "date_modified": "2022-10-24T16:27:03.000",
    "request_status": "Pending",
    "responsible_agency": "Department of Code Enforcement",
    "final_address": "1660 N Tonti St",
    "address_councildis": "D",
    "status": "Pending",
    "rowid": "931074",
    "final_x": "3680561.82703",
    "final_y": "539688.439626",
    "longitude": "-90.07074852350748",
    "latitude": "29.977984544417247",
    "geocoded_column": {
      "latitude": "29.977984544417247",
      "longitude": "-90.07074852350748"
    }
  },
  {
    "service_request": "2022-931073",
    "request_type": "Trash/Recycling",
    "request_reason": "Repair Recycling Cart",
    "date_created": "2022-10-24T16:26:11.000",
    "date_modified": "2022-10-24T16:26:12.000",
    "request_status": "Pending",
    "responsible_agency": "Department of Sanitation",
    "final_address": "5159 Press Dr",
    "address_councildis": "D",
    "status": "Pending",
    "rowid": "931073",
    "final_x": "3689433.3414",
    "final_y": "552553.241238",
    "longitude": "-90.04227143962011",
    "latitude": "30.013086322611276",
    "geocoded_column": {
      "latitude": "30.013086322611276",
      "longitude": "-90.04227143962011"
    }
  },
  {
    "service_request": "2022-931072",
    "request_type": "Roads/Drainage",
    "request_reason": "Pothole",
    "date_created": "2022-10-24T16:25:06.000",
    "date_modified": "2022-10-24T16:25:06.000",
    "request_status": "Pending",
    "responsible_agency": "Department of Public Works",
    "final_address": "3702 Pauger St",
    "address_councildis": "D",
    "status": "Pending",
    "rowid": "931072",
    "final_x": "3683201.9997",
    "final_y": "543618.689294",
    "longitude": "-90.06227224363757",
    "latitude": "29.98871109336009",
    "geocoded_column": {
      "latitude": "29.98871109336009",
      "longitude": "-90.06227224363757"
    }
  },
  {
    "service_request": "2022-931070",
    "request_type": "Trash/Recycling",
    "request_reason": "Missed Trash Pick-Up",
    "date_created": "2022-10-24T16:24:08.000",
    "date_modified": "2022-10-24T16:24:09.000",
    "request_status": "Pending",
    "responsible_agency": "Department of Sanitation",
    "final_address": "2900 BLK Touro St",
    "address_councildis": "D",
    "status": "Assigned to Contractor",
    "contractor": "Metro Disposal",
    "rowid": "931070",
    "final_x": "3683655.11494",
    "final_y": "543423.85979",
    "longitude": "-90.06084782868534",
    "latitude": "29.988161552767462",
    "geocoded_column": {
      "latitude": "29.988161552767462",
      "longitude": "-90.06084782868534"
    }
  },
  {
    "service_request": "2022-931069",
    "request_type": "Trash/Recycling",
    "request_reason": "Order Recycling Cart",
    "date_created": "2022-10-24T16:20:51.000",
    "date_modified": "2022-10-24T16:20:51.000",
    "request_status": "Pending",
    "responsible_agency": "Department of Sanitation",
    "final_address": "7924 Hayne Blvd",
    "address_councildis": "E",
    "status": "Pending",
    "rowid": "931069",
    "final_x": "3701465.73898",
    "final_y": "562536.499616",
    "longitude": "-90.00388982928091",
    "latitude": "30.04015816786884",
    "geocoded_column": {
      "latitude": "30.04015816786884",
      "longitude": "-90.00388982928091"
    }
  },
  {
    "service_request": "2022-931068",
    "request_type": "Property Maintenance",
    "request_reason": "Property Maintenance",
    "date_created": "2022-10-24T16:19:20.000",
    "date_modified": "2022-10-24T16:19:20.000",
    "request_status": "Pending",
    "responsible_agency": "Department of Code Enforcement",
    "final_address": "3516 Piety St",
    "address_councildis": "D",
    "status": "Pending",
    "rowid": "931068",
    "final_x": "3692198.87158",
    "final_y": "545362.703376",
    "longitude": "-90.03379153950236",
    "latitude": "29.993229015793144",
    "geocoded_column": {
      "latitude": "29.993229015793144",
      "longitude": "-90.03379153950236"
    }
  },
  {
    "service_request": "2022-931066",
    "request_type": "Trash/Recycling",
    "request_reason": "Return Recycling Cart",
    "date_created": "2022-10-24T16:15:51.000",
    "date_modified": "2022-10-24T16:15:51.000",
    "request_status": "Pending",
    "responsible_agency": "Department of Sanitation",
    "final_address": "3606 Dumaine St",
    "address_councildis": "A",
    "status": "Pending",
    "rowid": "931066",
    "final_x": "3674378.74011",
    "final_y": "539581.260042",
    "longitude": "-90.09028058694967",
    "latitude": "29.97787572387413",
    "geocoded_column": {
      "latitude": "29.97787572387413",
      "longitude": "-90.09028058694967"
    }
  },
  {
    "service_request": "2022-931065",
    "request_type": "Trash/Recycling",
    "request_reason": "Order Trash Cart",
    "date_created": "2022-10-24T16:15:05.000",
    "date_modified": "2022-10-24T16:15:06.000",
    "request_status": "Pending",
    "responsible_agency": "Department of Sanitation",
    "final_address": "2228 Hyman Pl",
    "address_councildis": "C",
    "status": "Assigned to Contractor",
    "contractor": "Richards Disposal",
    "rowid": "931065",
    "final_x": "3701147.28209",
    "final_y": "522589.548666",
    "longitude": "-90.00635826581887",
    "latitude": "29.930328914133444",
    "geocoded_column": {
      "latitude": "29.930328914133444",
      "longitude": "-90.00635826581887"
    }
  },
  {
    "service_request": "2022-931064",
    "request_type": "Tax and Revenue",
    "request_reason": "Sales Tax Question",
    "date_created": "2022-10-24T16:14:34.000",
    "date_modified": "2022-10-24T16:19:22.000",
    "request_status": "Pending",
    "responsible_agency": "Bureau of Revenue",
    "final_address": "5340 Pasteur Blvd A",
    "address_councildis": "D",
    "status": "Pending",
    "rowid": "931064",
    "final_x": "3682771.39119",
    "final_y": "552715.534166",
    "longitude": "-90.06331392008586",
    "latitude": "30.013737281959248",
    "geocoded_column": {
      "latitude": "30.013737281959248",
      "longitude": "-90.06331392008586"
    }
  },
  {
    "service_request": "2022-931063",
    "request_type": "Property Maintenance",
    "request_reason": "Property Maintenance",
    "date_created": "2022-10-24T16:13:24.000",
    "date_modified": "2022-10-24T16:13:24.000",
    "request_status": "Pending",
    "responsible_agency": "Department of Code Enforcement",
    "final_address": "2739 Milan St",
    "address_councildis": "B",
    "status": "Pending",
    "rowid": "931063",
    "final_x": "3671310.49435",
    "final_y": "525127.997757",
    "longitude": "-90.10046235508419",
    "latitude": "29.938225214008632",
    "geocoded_column": {
      "latitude": "29.938225214008632",
      "longitude": "-90.10046235508419"
    }
  },
  {
    "service_request": "2022-931062",
    "request_type": "Property Maintenance",
    "request_reason": "Property Maintenance",
    "date_created": "2022-10-24T16:09:36.000",
    "date_modified": "2022-10-24T16:09:36.000",
    "request_status": "Pending",
    "responsible_agency": "Department of Code Enforcement",
    "final_address": "3200 Piety St",
    "address_councildis": "D",
    "status": "Pending",
    "rowid": "931062",
    "final_x": "3691896.0456",
    "final_y": "544139.907982",
    "longitude": "-90.0347918864062",
    "latitude": "29.989876211522926",
    "geocoded_column": {
      "latitude": "29.989876211522926",
      "longitude": "-90.0347918864062"
    }
  },
  {
    "service_request": "2022-931061",
    "request_type": "Abandoned Vehicles",
    "request_reason": "Abandoned/Junk Vehicles",
    "date_created": "2022-10-24T16:07:46.000",
    "date_modified": "2022-10-24T16:07:46.000",
    "request_status": "Pending",
    "responsible_agency": "Department of Public Works",
    "final_address": "2814 Milan St",
    "address_councildis": "B",
    "status": "Pending",
    "rowid": "931061",
    "final_x": "3671113.47892",
    "final_y": "525286.454781",
    "longitude": "-90.10107897281598",
    "latitude": "29.938666746737002",
    "geocoded_column": {
      "latitude": "29.938666746737002",
      "longitude": "-90.10107897281598"
    }
  },
  {
    "service_request": "2022-931060",
    "request_type": "Trash/Recycling",
    "request_reason": "MIssed Recycling Pick-Up",
    "date_created": "2022-10-24T16:05:39.000",
    "date_modified": "2022-10-24T16:05:40.000",
    "request_status": "Pending",
    "responsible_agency": "Department of Sanitation",
    "final_address": "3921 S Pin Oak Ave",
    "address_councildis": "C",
    "status": "Assigned to Contractor",
    "contractor": "Richards Disposal",
    "rowid": "931060",
    "final_x": "3704817.5146",
    "final_y": "513590.156018",
    "longitude": "-89.99510380363346",
    "latitude": "29.905466309486183",
    "geocoded_column": {
      "latitude": "29.905466309486183",
      "longitude": "-89.99510380363346"
    }
  },
  {
    "service_request": "2022-931059",
    "request_type": "Property Maintenance",
    "request_reason": "Property Maintenance",
    "date_created": "2022-10-24T16:04:34.000",
    "date_modified": "2022-10-24T16:04:35.000",
    "request_status": "Pending",
    "responsible_agency": "Department of Code Enforcement",
    "final_address": "6202 Pasteur Blvd",
    "address_councildis": "D",
    "status": "Pending",
    "rowid": "931059",
    "final_x": "3682712.08853",
    "final_y": "555754.601689",
    "longitude": "-90.06339486773315",
    "latitude": "30.022095413562912",
    "geocoded_column": {
      "latitude": "30.022095413562912",
      "longitude": "-90.06339486773315"
    }
  },
  {
    "service_request": "2022-931058",
    "request_type": "Trash/Recycling",
    "request_reason": "Request a Large Item Pick Up",
    "date_created": "2022-10-24T16:04:19.000",
    "date_modified": "2022-10-24T16:04:19.000",
    "request_status": "Pending",
    "responsible_agency": "Department of Sanitation",
    "final_address": "2416 S Robertson St",
    "address_councildis": "B",
    "status": "Assigned to Contractor",
    "contractor": "Richards Disposal",
    "rowid": "931058",
    "final_x": "3674832.26331",
    "final_y": "526106.779582",
    "longitude": "-90.08931023757958",
    "latitude": "29.940811881470168",
    "geocoded_column": {
      "latitude": "29.940811881470168",
      "longitude": "-90.08931023757958"
    }
  },
  {
    "service_request": "2022-931057",
    "request_type": "Property Maintenance",
    "request_reason": "Property Maintenance",
    "date_created": "2022-10-24T16:03:34.000",
    "date_modified": "2022-10-24T16:03:34.000",
    "request_status": "Pending",
    "responsible_agency": "Department of Code Enforcement",
    "final_address": "3344 Piety St",
    "address_councildis": "D",
    "status": "Pending",
    "rowid": "931057",
    "final_x": "3692061.20246",
    "final_y": "544813.859919",
    "longitude": "-90.03424606743802",
    "latitude": "29.991724187863777",
    "geocoded_column": {
      "latitude": "29.991724187863777",
      "longitude": "-90.03424606743802"
    }
  },
  {
    "service_request": "2022-931056",
    "request_type": "Traffic Signals/Signs/Striping/Streetlights",
    "request_reason": "Street Light Outage/Malfunction",
    "date_created": "2022-10-24T16:02:52.000",
    "date_modified": "2022-10-24T16:03:14.000",
    "request_status": "Pending",
    "responsible_agency": "Department of Public Works",
    "final_address": "7200 Camberley Dr",
    "address_councildis": "E",
    "status": "Pending",
    "contractor": "Legacy Professional Services",
    "rowid": "931056",
    "final_x": "3713098.63077",
    "final_y": "564931.394786",
    "longitude": "-89.9670363024877",
    "latitude": "30.046366919367927",
    "geocoded_column": {
      "latitude": "30.046366919367927",
      "longitude": "-89.9670363024877"
    }
  },
  {
    "service_request": "2022-931055",
    "request_type": "Trash/Recycling",
    "request_reason": "Replace Trash Cart",
    "date_created": "2022-10-24T16:02:08.000",
    "date_modified": "2022-10-24T16:02:09.000",
    "request_status": "Pending",
    "responsible_agency": "Department of Sanitation",
    "final_address": "3201 Orleans Ave",
    "address_councildis": "A",
    "status": "Assigned to Contractor",
    "contractor": "Richards Disposal",
    "rowid": "931055",
    "final_x": "3675032.93006",
    "final_y": "538402.268425",
    "longitude": "-90.08825488633983",
    "latitude": "29.97461436968197",
    "geocoded_column": {
      "latitude": "29.97461436968197",
      "longitude": "-90.08825488633983"
    }
  },
  {
    "service_request": "2022-931054",
    "request_type": "Trash/Recycling",
    "request_reason": "Missed Trash Pick-Up",
    "date_created": "2022-10-24T16:01:26.000",
    "date_modified": "2022-10-24T16:01:26.000",
    "request_status": "Pending",
    "responsible_agency": "Department of Sanitation",
    "final_address": "721 Bordeaux St",
    "address_councildis": "B",
    "status": "Assigned to Contractor",
    "contractor": "Richards Disposal",
    "rowid": "931054",
    "final_x": "3669677.8363",
    "final_y": "518091.630198",
    "longitude": "-90.10585479620438",
    "latitude": "29.91892565180334",
    "geocoded_column": {
      "latitude": "29.91892565180334",
      "longitude": "-90.10585479620438"
    }
  },
  {
    "service_request": "2022-931053",
    "request_type": "Property Maintenance",
    "request_reason": "Property Maintenance",
    "date_created": "2022-10-24T16:01:08.000",
    "date_modified": "2022-10-24T16:01:08.000",
    "request_status": "Pending",
    "responsible_agency": "Department of Code Enforcement",
    "final_address": "629 Reynes St",
    "address_councildis": "E",
    "status": "Pending",
    "rowid": "931053",
    "final_x": "3695541.36931",
    "final_y": "532663.836676",
    "longitude": "-90.02369167486165",
    "latitude": "29.958207032621935",
    "geocoded_column": {
      "latitude": "29.958207032621935",
      "longitude": "-90.02369167486165"
    }
  },
  {
    "service_request": "2022-931052",
    "request_type": "Traffic Signals/Signs/Striping/Streetlights",
    "request_reason": "Street Light Knocked Down/Leaning",
    "date_created": "2022-10-24T16:00:28.000",
    "date_modified": "2022-10-24T16:00:29.000",
    "request_status": "Pending",
    "responsible_agency": "Department of Public Works",
    "final_address": "240 Decatur St",
    "address_councildis": "C",
    "status": "Pending",
    "contractor": "Legacy Professional Services",
    "rowid": "931052",
    "final_x": "3682286.45756",
    "final_y": "530787.225666",
    "longitude": "-90.06561257362986",
    "latitude": "29.953456899877665",
    "geocoded_column": {
      "latitude": "29.953456899877665",
      "longitude": "-90.06561257362986"
    }
  },
  {
    "service_request": "2022-931050",
    "request_type": "Abandoned Vehicles",
    "request_reason": "Abandoned/Junk Vehicles",
    "date_created": "2022-10-24T15:59:46.000",
    "date_modified": "2022-10-24T15:59:46.000",
    "request_status": "Pending",
    "responsible_agency": "Department of Public Works",
    "final_address": "4675 Spain St",
    "address_councildis": "D",
    "status": "Pending",
    "rowid": "931050",
    "final_x": "3685110.04873",
    "final_y": "550066.831316",
    "longitude": "-90.056018270088",
    "latitude": "30.006382833088804",
    "geocoded_column": {
      "latitude": "30.006382833088804",
      "longitude": "-90.056018270088"
    }
  },
  {
    "service_request": "2022-931049",
    "request_type": "Abandoned Vehicles",
    "request_reason": "Abandoned/Junk Vehicles",
    "date_created": "2022-10-24T15:58:30.000",
    "date_modified": "2022-10-24T15:58:30.000",
    "request_status": "Pending",
    "responsible_agency": "Department of Public Works",
    "final_address": "4675 Spain St",
    "address_councildis": "D",
    "status": "Pending",
    "rowid": "931049",
    "final_x": "3685110.04873",
    "final_y": "550066.831316",
    "longitude": "-90.056018270088",
    "latitude": "30.006382833088804",
    "geocoded_column": {
      "latitude": "30.006382833088804",
      "longitude": "-90.056018270088"
    }
  },
  {
    "service_request": "2022-931048",
    "request_type": "Roads/Drainage",
    "request_reason": "Street Subsidence (Sinking)",
    "date_created": "2022-10-24T15:55:33.000",
    "date_modified": "2022-10-24T15:55:33.000",
    "request_status": "Pending",
    "responsible_agency": "Department of Public Works",
    "final_address": "MAYO RD & CLEMENTIS DR",
    "address_councildis": "E",
    "status": "Pending",
    "rowid": "931048",
    "final_x": "3702585.6",
    "final_y": "556475.78",
    "longitude": "-90.00057351773529",
    "latitude": "30.023457772620873",
    "geocoded_column": {
      "latitude": "30.023457772620873",
      "longitude": "-90.00057351773529"
    }
  },
  {
    "service_request": "2022-931047",
    "request_type": "Trash/Recycling",
    "request_reason": "Missed Trash Pick-Up",
    "date_created": "2022-10-24T15:53:27.000",
    "date_modified": "2022-10-24T15:53:27.000",
    "request_status": "Pending",
    "responsible_agency": "Department of Sanitation",
    "final_address": "128 S Scott St",
    "address_councildis": "A",
    "status": "Assigned to Contractor",
    "contractor": "Richards Disposal",
    "rowid": "931047",
    "final_x": "3671627.00603",
    "final_y": "537557.52404",
    "longitude": "-90.09904039180304",
    "latitude": "29.972392930638364",
    "geocoded_column": {
      "latitude": "29.972392930638364",
      "longitude": "-90.09904039180304"
    }
  },
  {
    "service_request": "2022-931046",
    "request_type": "Property Maintenance",
    "request_reason": "Property Maintenance",
    "date_created": "2022-10-24T15:53:05.000",
    "date_modified": "2022-10-24T15:53:05.000",
    "request_status": "Pending",
    "responsible_agency": "Department of Code Enforcement",
    "final_address": "3326 Piety St",
    "address_councildis": "D",
    "status": "Pending",
    "rowid": "931046",
    "final_x": "3692029.51043",
    "final_y": "544688.604687",
    "longitude": "-90.03435066073796",
    "latitude": "29.991380769291055",
    "geocoded_column": {
      "latitude": "29.991380769291055",
      "longitude": "-90.03435066073796"
    }
  },
  {
    "service_request": "2022-931045",
    "request_type": "Property Maintenance",
    "request_reason": "Property Maintenance",
    "date_created": "2022-10-24T15:45:23.000",
    "date_modified": "2022-10-24T15:45:23.000",
    "request_status": "Pending",
    "responsible_agency": "Department of Code Enforcement",
    "final_address": "13627 N Lemans St",
    "address_councildis": "E",
    "status": "Pending",
    "rowid": "931045",
    "final_x": "3725970.13235",
    "final_y": "563300.261536",
    "longitude": "-89.926419599738",
    "latitude": "30.041453689187748",
    "geocoded_column": {
      "latitude": "30.041453689187748",
      "longitude": "-89.926419599738"
    }
  },
  {
    "service_request": "2022-931044",
    "request_type": "Traffic Signals/Signs/Striping/Streetlights",
    "request_reason": "Street Light Outage/Malfunction",
    "date_created": "2022-10-24T15:43:28.000",
    "date_modified": "2022-10-24T15:43:28.000",
    "request_status": "Pending",
    "responsible_agency": "Department of Public Works",
    "final_address": "2618 Soniat St",
    "address_councildis": "B",
    "status": "Pending",
    "contractor": "Legacy Professional Services",
    "rowid": "931044",
    "final_x": "3668515.33658",
    "final_y": "525081.772221",
    "longitude": "-90.10928851677042",
    "latitude": "29.93818050797677",
    "geocoded_column": {
      "latitude": "29.93818050797677",
      "longitude": "-90.10928851677042"
    }
  },
  {
    "service_request": "2022-931043",
    "request_type": "Abandoned Vehicles",
    "request_reason": "Abandoned/Junk Vehicles",
    "date_created": "2022-10-24T15:42:39.000",
    "date_modified": "2022-10-24T15:42:39.000",
    "request_status": "Pending",
    "responsible_agency": "Department of Public Works",
    "final_address": "3400 Piety St",
    "address_councildis": "D",
    "status": "Pending",
    "rowid": "931043",
    "final_x": "3692086.55299",
    "final_y": "544888.222479",
    "longitude": "-90.03416332756592",
    "latitude": "29.99192786764568",
    "geocoded_column": {
      "latitude": "29.99192786764568",
      "longitude": "-90.03416332756592"
    }
  },
  {
    "service_request": "2022-931042",
    "request_type": "Roads/Drainage",
    "request_reason": "Street Subsidence (Sinking)",
    "date_created": "2022-10-24T15:40:47.000",
    "date_modified": "2022-10-24T15:40:48.000",
    "request_status": "Pending",
    "responsible_agency": "Department of Public Works",
    "final_address": "2646 Governor Nicholls St",
    "address_councildis": "D",
    "status": "Pending",
    "rowid": "931042",
    "final_x": "3677932.75374",
    "final_y": "538275.533577",
    "longitude": "-90.07910091052415",
    "latitude": "29.974178932914562",
    "geocoded_column": {
      "latitude": "29.974178932914562",
      "longitude": "-90.07910091052415"
    }
  },
  {
    "service_request": "2022-931041",
    "request_type": "EMS",
    "request_reason": "EMS Lost & Found",
    "date_created": "2022-10-24T15:36:03.000",
    "date_modified": "2022-10-24T15:36:04.000",
    "request_status": "Pending",
    "responsible_agency": "Emergency Medical Services",
    "status": "Pending",
    "rowid": "931041",
    "longitude": "0.0",
    "latitude": "0.0",
    "geocoded_column": {
      "latitude": "0.0",
      "longitude": "0.0"
    }
  },
  {
    "service_request": "2022-931040",
    "request_type": "Property Maintenance",
    "request_reason": "Property Maintenance",
    "date_created": "2022-10-24T15:34:36.000",
    "date_modified": "2022-10-24T15:34:36.000",
    "request_status": "Pending",
    "responsible_agency": "Department of Code Enforcement",
    "final_address": "3320 Piety St",
    "address_councildis": "D",
    "status": "Pending",
    "rowid": "931040",
    "final_x": "3692017.83235",
    "final_y": "544645.392847",
    "longitude": "-90.03438909637423",
    "latitude": "29.991262316402135",
    "geocoded_column": {
      "latitude": "29.991262316402135",
      "longitude": "-90.03438909637423"
    }
  },
  {
    "service_request": "2022-931039",
    "request_type": "Mosquito, Termite & Rodent Control",
    "request_reason": "Rodent Complaint (Rats)",
    "date_created": "2022-10-24T15:34:10.000",
    "date_modified": "2022-10-24T15:34:10.000",
    "request_status": "Pending",
    "responsible_agency": "Mosquito, Termite & Rodent Control Board",
    "final_address": "5143 St Ferdinand Dr",
    "address_councildis": "D",
    "status": "Pending",
    "rowid": "931039",
    "final_x": "3689108.85385",
    "final_y": "552387.758422",
    "longitude": "-90.04330252926833",
    "latitude": "30.012641354933873",
    "geocoded_column": {
      "latitude": "30.012641354933873",
      "longitude": "-90.04330252926833"
    }
  },
  {
    "service_request": "2022-931038",
    "request_type": "Trash/Recycling",
    "request_reason": "Repair Trash Cart",
    "date_created": "2022-10-24T15:33:44.000",
    "date_modified": "2022-10-24T15:33:45.000",
    "request_status": "Pending",
    "responsible_agency": "Department of Sanitation",
    "final_address": "8631 Apricot St",
    "address_councildis": "A",
    "status": "Assigned to Contractor",
    "contractor": "Richards Disposal",
    "rowid": "931038",
    "final_x": "3664333.97069",
    "final_y": "534031.865861",
    "longitude": "-90.12219086551094",
    "latitude": "29.96291253158125",
    "geocoded_column": {
      "latitude": "29.96291253158125",
      "longitude": "-90.12219086551094"
    }
  },
  {
    "service_request": "2022-931037",
    "request_type": "Property Maintenance",
    "request_reason": "Property Maintenance",
    "date_created": "2022-10-24T15:31:54.000",
    "date_modified": "2022-10-24T15:31:54.000",
    "request_status": "Pending",
    "responsible_agency": "Department of Code Enforcement",
    "final_address": "3232 Piety St",
    "address_councildis": "D",
    "status": "Pending",
    "rowid": "931037",
    "final_x": "3691950.22416",
    "final_y": "544353.418767",
    "longitude": "-90.03461310769643",
    "latitude": "29.990461600588603",
    "geocoded_column": {
      "latitude": "29.990461600588603",
      "longitude": "-90.03461310769643"
    }
  },
  {
    "service_request": "2022-931036",
    "request_type": "Trash/Recycling",
    "request_reason": "Request a Large Item Pick Up",
    "date_created": "2022-10-24T15:30:00.000",
    "date_modified": "2022-10-24T15:30:01.000",
    "request_status": "Pending",
    "responsible_agency": "Department of Sanitation",
    "final_address": "724 Evelina St",
    "address_councildis": "C",
    "status": "Assigned to Contractor",
    "contractor": "Richards Disposal",
    "rowid": "931036",
    "final_x": "3687712.863",
    "final_y": "529546.164929",
    "longitude": "-90.04852227392078",
    "latitude": "29.94987821405223",
    "geocoded_column": {
      "latitude": "29.94987821405223",
      "longitude": "-90.04852227392078"
    }
  },
  {
    "service_request": "2022-931035",
    "request_type": "Property Maintenance",
    "request_reason": "Property Maintenance",
    "date_created": "2022-10-24T15:28:16.000",
    "date_modified": "2022-10-24T15:28:16.000",
    "request_status": "Pending",
    "responsible_agency": "Department of Code Enforcement",
    "final_address": "3209 Piety St",
    "address_councildis": "D",
    "status": "Pending",
    "rowid": "931035",
    "final_x": "3691972.63497",
    "final_y": "544157.512014",
    "longitude": "-90.03454933207546",
    "latitude": "29.989922229437266",
    "geocoded_column": {
      "latitude": "29.989922229437266",
      "longitude": "-90.03454933207546"
    }
  },
  {
    "service_request": "2022-931034",
    "request_type": "Traffic Signals/Signs/Striping/Streetlights",
    "request_reason": "Street Light Outage/Malfunction",
    "date_created": "2022-10-24T15:26:45.000",
    "date_modified": "2022-10-24T15:26:45.000",
    "request_status": "Pending",
    "responsible_agency": "Department of Public Works",
    "final_address": "1228 N Dorgenois St",
    "address_councildis": "D",
    "status": "Pending",
    "contractor": "Legacy Professional Services",
    "rowid": "931034",
    "final_x": "3678433.30325",
    "final_y": "538251.124169",
    "longitude": "-90.07752090398269",
    "latitude": "29.974096740589733",
    "geocoded_column": {
      "latitude": "29.974096740589733",
      "longitude": "-90.07752090398269"
    }
  },
  {
    "service_request": "2022-931033",
    "request_type": "Property Maintenance",
    "request_reason": "Property Maintenance",
    "date_created": "2022-10-24T15:25:18.000",
    "date_modified": "2022-10-24T15:25:18.000",
    "request_status": "Pending",
    "responsible_agency": "Department of Code Enforcement",
    "final_address": "3009 Piety St",
    "address_councildis": "D",
    "status": "Pending",
    "rowid": "931033",
    "final_x": "3691784.33161",
    "final_y": "543409.787982",
    "longitude": "-90.03517088744354",
    "latitude": "29.98787212576631",
    "geocoded_column": {
      "latitude": "29.98787212576631",
      "longitude": "-90.03517088744354"
    }
  },
  {
    "service_request": "2022-931032",
    "request_type": "Trash/Recycling",
    "request_reason": "Missed Trash Pick-Up",
    "date_created": "2022-10-24T15:23:43.000",
    "date_modified": "2022-10-24T15:23:44.000",
    "request_status": "Pending",
    "responsible_agency": "Department of Sanitation",
    "final_address": "1533 Washington Ave",
    "address_councildis": "B",
    "status": "Assigned to Contractor",
    "contractor": "Richards Disposal",
    "rowid": "931032",
    "final_x": "3676110.31809",
    "final_y": "522374.93049",
    "longitude": "-90.08540350910295",
    "latitude": "29.930512302033204",
    "geocoded_column": {
      "latitude": "29.930512302033204",
      "longitude": "-90.08540350910295"
    }
  },
  {
    "service_request": "2022-931031",
    "request_type": "Trash/Recycling",
    "request_reason": "Dead Animal Pick Up",
    "date_created": "2022-10-24T15:21:04.000",
    "date_modified": "2022-10-24T15:21:05.000",
    "request_status": "Pending",
    "responsible_agency": "Department of Sanitation",
    "final_address": "2900 BLK Toledano St",
    "address_councildis": "B",
    "status": "Assigned to Contractor",
    "contractor": "Richards Disposal",
    "rowid": "931031",
    "final_x": "3672643.72554",
    "final_y": "526138.800857",
    "longitude": "-90.09621875720251",
    "latitude": "29.940965082033497",
    "geocoded_column": {
      "latitude": "29.940965082033497",
      "longitude": "-90.09621875720251"
    }
  },
  {
    "service_request": "2022-931030",
    "request_type": "Trash/Recycling",
    "request_reason": "Request a Large Item Pick Up",
    "date_created": "2022-10-24T15:20:09.000",
    "date_modified": "2022-10-24T15:20:09.000",
    "request_status": "Pending",
    "responsible_agency": "Department of Sanitation",
    "final_address": "3217 Homer St",
    "address_councildis": "C",
    "status": "Assigned to Contractor",
    "contractor": "Richards Disposal",
    "rowid": "931030",
    "final_x": "3696332.39338",
    "final_y": "528122.595775",
    "longitude": "-90.02135804213815",
    "latitude": "29.945695327809755",
    "geocoded_column": {
      "latitude": "29.945695327809755",
      "longitude": "-90.02135804213815"
    }
  },
  {
    "service_request": "2022-931029",
    "request_type": "Property Maintenance",
    "request_reason": "Property Maintenance",
    "date_created": "2022-10-24T15:18:28.000",
    "date_modified": "2022-10-24T15:18:28.000",
    "request_status": "Pending",
    "responsible_agency": "Department of Code Enforcement",
    "final_address": "2939 Piety St",
    "address_councildis": "D",
    "status": "Pending",
    "rowid": "931029",
    "final_x": "3691736.33424",
    "final_y": "543237.58811",
    "longitude": "-90.03532865597644",
    "latitude": "29.987400133311212",
    "geocoded_column": {
      "latitude": "29.987400133311212",
      "longitude": "-90.03532865597644"
    }
  },
  {
    "service_request": "2022-931028",
    "request_type": "Property Maintenance",
    "request_reason": "Property Maintenance",
    "date_created": "2022-10-24T15:13:53.000",
    "date_modified": "2022-10-24T15:13:53.000",
    "request_status": "Pending",
    "responsible_agency": "Department of Code Enforcement",
    "final_address": "1405 Arts St",
    "address_councildis": "C",
    "status": "Pending",
    "rowid": "931028",
    "final_x": "3687146.95196",
    "final_y": "537643.741064",
    "longitude": "-90.05002276008075",
    "latitude": "29.97216118248314",
    "geocoded_column": {
      "latitude": "29.97216118248314",
      "longitude": "-90.05002276008075"
    }
  },
  {
    "service_request": "2022-931027",
    "request_type": "Property Maintenance",
    "request_reason": "Property Maintenance",
    "date_created": "2022-10-24T15:11:49.000",
    "date_modified": "2022-10-24T15:11:49.000",
    "request_status": "Pending",
    "responsible_agency": "Department of Code Enforcement",
    "final_address": "2838 Piety St",
    "address_councildis": "D",
    "status": "Pending",
    "rowid": "931027",
    "final_x": "3691560.97136",
    "final_y": "542874.840653",
    "longitude": "-90.03589553759922",
    "latitude": "29.986408169439787",
    "geocoded_column": {
      "latitude": "29.986408169439787",
      "longitude": "-90.03589553759922"
    }
  },
  {
    "service_request": "2022-931026",
    "request_type": "Abandoned Vehicles",
    "request_reason": "Abandoned/Junk Vehicles",
    "date_created": "2022-10-24T15:10:45.000",
    "date_modified": "2022-10-24T15:10:45.000",
    "request_status": "Pending",
    "responsible_agency": "Department of Public Works",
    "final_address": "829 N Rocheblave St",
    "address_councildis": "D",
    "status": "Pending",
    "rowid": "931026",
    "final_x": "3677838.00046",
    "final_y": "536820.659528",
    "longitude": "-90.07945044421399",
    "latitude": "29.970181379144364",
    "geocoded_column": {
      "latitude": "29.970181379144364",
      "longitude": "-90.07945044421399"
    }
  },
  {
    "service_request": "2022-931023",
    "request_type": "Trash/Recycling",
    "request_reason": "Order Recycling Cart",
    "date_created": "2022-10-24T15:09:03.000",
    "date_modified": "2022-10-24T15:09:04.000",
    "request_status": "Pending",
    "responsible_agency": "Department of Sanitation",
    "final_address": "2519 Behrman Hwy",
    "address_councildis": "C",
    "status": "Pending",
    "rowid": "931023",
    "final_x": "3692509.61846",
    "final_y": "520884.599673",
    "longitude": "-90.03368695663757",
    "latitude": "29.925913107315914",
    "geocoded_column": {
      "latitude": "29.925913107315914",
      "longitude": "-90.03368695663757"
    }
  },
  {
    "service_request": "2022-931022",
    "request_type": "Traffic Signals/Signs/Striping/Streetlights",
    "request_reason": "Street Light Outage/Malfunction",
    "date_created": "2022-10-24T15:08:25.000",
    "date_modified": "2022-10-24T15:08:26.000",
    "request_status": "Pending",
    "responsible_agency": "Department of Public Works",
    "final_address": "1421 Verna St",
    "address_councildis": "A",
    "status": "Pending",
    "contractor": "Legacy Professional Services",
    "rowid": "931022",
    "final_x": "3675727.67336",
    "final_y": "541045.092107",
    "longitude": "-90.08596985238353",
    "latitude": "29.981860451946368",
    "geocoded_column": {
      "latitude": "29.981860451946368",
      "longitude": "-90.08596985238353"
    }
  },
  {
    "service_request": "2022-931021",
    "request_type": "Trash/Recycling",
    "request_reason": "Order Recycling Cart",
    "date_created": "2022-10-24T15:05:36.000",
    "date_modified": "2022-10-24T15:05:39.000",
    "request_status": "Pending",
    "responsible_agency": "Department of Sanitation",
    "final_address": "4936 Haik Dr",
    "address_councildis": "D",
    "status": "Pending",
    "rowid": "931021",
    "final_x": "3681889.43752",
    "final_y": "550940.039061",
    "longitude": "-90.0661624725675",
    "latitude": "30.00888216252399",
    "geocoded_column": {
      "latitude": "30.00888216252399",
      "longitude": "-90.0661624725675"
    }
  },
  {
    "service_request": "2022-931020",
    "request_type": "Trash/Recycling",
    "request_reason": "Repair Trash Cart",
    "date_created": "2022-10-24T15:04:45.000",
    "date_modified": "2022-10-24T15:04:45.000",
    "request_status": "Pending",
    "responsible_agency": "Department of Sanitation",
    "final_address": "74 Egret St",
    "address_councildis": "D",
    "status": "Assigned to Contractor",
    "contractor": "Metro Disposal",
    "rowid": "931020",
    "final_x": "3673875.03758",
    "final_y": "555481.432537",
    "longitude": "-90.09132712812765",
    "latitude": "30.02161063901403",
    "geocoded_column": {
      "latitude": "30.02161063901403",
      "longitude": "-90.09132712812765"
    }
  },
  {
    "service_request": "2022-931019",
    "request_type": "Trash/Recycling",
    "request_reason": "Illegal Dumping",
    "date_created": "2022-10-24T15:01:49.000",
    "date_modified": "2022-10-24T15:01:50.000",
    "request_status": "Pending",
    "responsible_agency": "Department of Sanitation",
    "final_address": "FRANKLIN AVE & N GALVEZ ST",
    "address_councildis": "D",
    "status": "Pending",
    "rowid": "931019",
    "final_x": "3687667.3",
    "final_y": "540216.38",
    "longitude": "-90.04828829942392",
    "latitude": "29.97921899891152",
    "geocoded_column": {
      "latitude": "29.97921899891152",
      "longitude": "-90.04828829942392"
    }
  },
  {
    "service_request": "2022-931018",
    "request_type": "Traffic Signals/Signs/Striping/Streetlights",
    "request_reason": "Street Light Outage/Malfunction",
    "date_created": "2022-10-24T14:59:27.000",
    "date_modified": "2022-10-24T15:12:35.000",
    "request_status": "Pending",
    "responsible_agency": "Department of Public Works",
    "final_address": "New Orleans,LA",
    "address_councildis": "A",
    "status": "Pending",
    "contractor": "Legacy Professional Services",
    "rowid": "931018",
    "final_x": "3675727.67336",
    "final_y": "541045.092107",
    "longitude": "-90.08596985238353",
    "latitude": "29.981860451946368",
    "geocoded_column": {
      "latitude": "29.981860451946368",
      "longitude": "-90.08596985238353"
    }
  },
  {
    "service_request": "2022-931017",
    "request_type": "Trash/Recycling",
    "request_reason": "Order Recycling Cart",
    "date_created": "2022-10-24T14:54:27.000",
    "date_modified": "2022-10-24T14:54:28.000",
    "request_status": "Pending",
    "responsible_agency": "Department of Sanitation",
    "final_address": "6048 Laurel St",
    "address_councildis": "A",
    "status": "Pending",
    "contractor": "Richards Disposal",
    "rowid": "931017",
    "final_x": "3663985.97517",
    "final_y": "518276.39455",
    "longitude": "-90.12381498528698",
    "latitude": "29.919600127947245",
    "geocoded_column": {
      "latitude": "29.919600127947245",
      "longitude": "-90.12381498528698"
    }
  },
  {
    "service_request": "2022-931016",
    "request_type": "Trash/Recycling",
    "request_reason": "Return Trash Cart",
    "date_created": "2022-10-24T14:54:03.000",
    "date_modified": "2022-10-24T14:54:04.000",
    "request_status": "Pending",
    "responsible_agency": "Department of Sanitation",
    "final_address": "7809 Read Blvd",
    "address_councildis": "E",
    "status": "Assigned to Contractor",
    "contractor": "Metro Disposal",
    "rowid": "931016",
    "final_x": "3708422.51659",
    "final_y": "564946.288034",
    "longitude": "-89.98181455377943",
    "latitude": "30.04656035333661",
    "geocoded_column": {
      "latitude": "30.04656035333661",
      "longitude": "-89.98181455377943"
    }
  },
  {
    "service_request": "2022-931015",
    "request_type": "Trash/Recycling",
    "request_reason": "Order Trash Cart",
    "date_created": "2022-10-24T14:54:02.000",
    "date_modified": "2022-10-24T14:54:02.000",
    "request_status": "Pending",
    "responsible_agency": "Department of Sanitation",
    "final_address": "6048 Laurel St",
    "address_councildis": "A",
    "status": "Assigned to Contractor",
    "contractor": "Richards Disposal",
    "rowid": "931015",
    "final_x": "3663985.97517",
    "final_y": "518276.39455",
    "longitude": "-90.12381498528698",
    "latitude": "29.919600127947245",
    "geocoded_column": {
      "latitude": "29.919600127947245",
      "longitude": "-90.12381498528698"
    }
  },
  {
    "service_request": "2022-931014",
    "request_type": "Trash/Recycling",
    "request_reason": "Return Trash Cart",
    "date_created": "2022-10-24T14:52:44.000",
    "date_modified": "2022-10-24T14:52:45.000",
    "request_status": "Pending",
    "responsible_agency": "Department of Sanitation",
    "final_address": "7811 Read Blvd",
    "address_councildis": "E",
    "status": "Assigned to Contractor",
    "contractor": "Metro Disposal",
    "rowid": "931014",
    "final_x": "3708436.45912",
    "final_y": "564953.789858",
    "longitude": "-89.98177020882018",
    "latitude": "30.046580528158117",
    "geocoded_column": {
      "latitude": "30.046580528158117",
      "longitude": "-89.98177020882018"
    }
  },
  {
    "service_request": "2022-931013",
    "request_type": "Trash/Recycling",
    "request_reason": "Replace Recycling Cart",
    "date_created": "2022-10-24T14:51:02.000",
    "date_modified": "2022-10-24T14:51:03.000",
    "case_close_date": "2022-10-16T19:00:00.000",
    "request_status": "Pending",
    "responsible_agency": "Department of Sanitation",
    "final_address": "2719 S Robertson St",
    "address_councildis": "B",
    "status": "Pending",
    "contractor": "Richards Disposal",
    "rowid": "931013",
    "final_x": "3674035.50312",
    "final_y": "525661.724733",
    "longitude": "-90.09184097725526",
    "latitude": "29.939611887690873",
    "geocoded_column": {
      "latitude": "29.939611887690873",
      "longitude": "-90.09184097725526"
    }
  },
  {
    "service_request": "2022-931012",
    "request_type": "Trash/Recycling",
    "request_reason": "Order Recycling Cart",
    "date_created": "2022-10-24T14:50:03.000",
    "date_modified": "2022-10-24T14:50:03.000",
    "request_status": "Pending",
    "responsible_agency": "Department of Sanitation",
    "final_address": "7330 Sycamore St",
    "address_councildis": "A",
    "status": "Pending",
    "rowid": "931012",
    "final_x": "3665645.58426",
    "final_y": "529674.000961",
    "longitude": "-90.11819487639724",
    "latitude": "29.950891640940704",
    "geocoded_column": {
      "latitude": "29.950891640940704",
      "longitude": "-90.11819487639724"
    }
  },
  {
    "service_request": "2022-931011",
    "request_type": "Property Maintenance",
    "request_reason": "Property Maintenance",
    "date_created": "2022-10-24T14:49:33.000",
    "date_modified": "2022-10-24T14:49:33.000",
    "request_status": "Pending",
    "responsible_agency": "Department of Code Enforcement",
    "final_address": "629 S Claiborne Ave",
    "address_councildis": "B",
    "status": "Pending",
    "rowid": "931011",
    "final_x": "3676587.10645",
    "final_y": "530597.707266",
    "longitude": "-90.08361524543467",
    "latitude": "29.953107939133528",
    "geocoded_column": {
      "latitude": "29.953107939133528",
      "longitude": "-90.08361524543467"
    }
  },
  {
    "service_request": "2022-931010",
    "request_type": "Trash/Recycling",
    "request_reason": "Replace Trash Cart",
    "date_created": "2022-10-24T14:48:46.000",
    "date_modified": "2022-10-24T14:48:46.000",
    "request_status": "Pending",
    "responsible_agency": "Department of Sanitation",
    "final_address": "933 Toulouse St",
    "address_councildis": "C",
    "status": "Assigned to Contractor",
    "contractor": "Empire Services",
    "rowid": "931010",
    "final_x": "3681547.13282",
    "final_y": "532771.2585",
    "longitude": "-90.06787785845185",
    "latitude": "29.958934787370296",
    "geocoded_column": {
      "latitude": "29.958934787370296",
      "longitude": "-90.06787785845185"
    }
  },
  {
    "service_request": "2022-931009",
    "request_type": "Trash/Recycling",
    "request_reason": "Replace Trash Cart",
    "date_created": "2022-10-24T14:48:34.000",
    "date_modified": "2022-10-24T14:48:34.000",
    "request_status": "Pending",
    "responsible_agency": "Department of Sanitation",
    "final_address": "931 Toulouse St",
    "address_councildis": "C",
    "status": "Assigned to Contractor",
    "contractor": "Empire Services",
    "rowid": "931009",
    "final_x": "3681557.31727",
    "final_y": "532764.937092",
    "longitude": "-90.06784591899837",
    "latitude": "29.958917096375348",
    "geocoded_column": {
      "latitude": "29.958917096375348",
      "longitude": "-90.06784591899837"
    }
  },
  {
    "service_request": "2022-931008",
    "request_type": "Trash/Recycling",
    "request_reason": "Missed Trash Pick-Up",
    "date_created": "2022-10-24T14:48:21.000",
    "date_modified": "2022-10-24T14:48:22.000",
    "request_status": "Pending",
    "responsible_agency": "Department of Sanitation",
    "final_address": "1515 Laharpe St",
    "address_councildis": "C",
    "status": "Assigned to Contractor",
    "contractor": "Metro Disposal",
    "rowid": "931008",
    "final_x": "3682198.3981",
    "final_y": "537328.325",
    "longitude": "-90.06566212743832",
    "latitude": "29.971445362204577",
    "geocoded_column": {
      "latitude": "29.971445362204577",
      "longitude": "-90.06566212743832"
    }
  },
  {
    "service_request": "2022-931007",
    "request_type": "Trash/Recycling",
    "request_reason": "Missed Trash Pick-Up",
    "date_created": "2022-10-24T14:48:08.000",
    "date_modified": "2022-10-24T14:48:09.000",
    "request_status": "Pending",
    "responsible_agency": "Department of Sanitation",
    "final_address": "7330 Sycamore St",
    "address_councildis": "A",
    "status": "Assigned to Contractor",
    "contractor": "Richards Disposal",
    "rowid": "931007",
    "final_x": "3665645.58426",
    "final_y": "529674.000961",
    "longitude": "-90.11819487639724",
    "latitude": "29.950891640940704",
    "geocoded_column": {
      "latitude": "29.950891640940704",
      "longitude": "-90.11819487639724"
    }
  },
  {
    "service_request": "2022-931006",
    "request_type": "Trash/Recycling",
    "request_reason": "Request a Large Item Pick Up",
    "date_created": "2022-10-24T14:43:58.000",
    "date_modified": "2022-10-24T14:43:59.000",
    "request_status": "Pending",
    "responsible_agency": "Department of Sanitation",
    "final_address": "5709 Chartres St",
    "address_councildis": "E",
    "status": "Assigned to Contractor",
    "contractor": "Metro Disposal",
    "rowid": "931006",
    "final_x": "3697973.87107",
    "final_y": "531844.446211",
    "longitude": "-90.01604029177389",
    "latitude": "29.955877327584247",
    "geocoded_column": {
      "latitude": "29.955877327584247",
      "longitude": "-90.01604029177389"
    }
  },
  {
    "service_request": "2022-931005",
    "request_type": "Trash/Recycling",
    "request_reason": "Order Trash Cart",
    "date_created": "2022-10-24T14:42:15.000",
    "date_modified": "2022-10-24T14:42:16.000",
    "request_status": "Pending",
    "responsible_agency": "Department of Sanitation",
    "final_address": "1441 N Claiborne Ave",
    "address_councildis": "D",
    "status": "Assigned to Contractor",
    "contractor": "Metro Disposal",
    "rowid": "931005",
    "final_x": "3681406.80924",
    "final_y": "536919.708872",
    "longitude": "-90.06817632634565",
    "latitude": "29.97034586530749",
    "geocoded_column": {
      "latitude": "29.97034586530749",
      "longitude": "-90.06817632634565"
    }
  },
  {
    "service_request": "2022-931004",
    "request_type": "Trash/Recycling",
    "request_reason": "Order Recycling Cart",
    "date_created": "2022-10-24T14:37:32.000",
    "date_modified": "2022-10-24T14:37:33.000",
    "case_close_date": "2022-07-24T19:00:00.000",
    "request_status": "Pending",
    "responsible_agency": "Department of Sanitation",
    "final_address": "413 Pelican Ave",
    "address_councildis": "C",
    "status": "Pending",
    "rowid": "931004",
    "final_x": "3686631.75542",
    "final_y": "530526.838018",
    "longitude": "-90.0519011939635",
    "latitude": "29.95260801774559",
    "geocoded_column": {
      "latitude": "29.95260801774559",
      "longitude": "-90.0519011939635"
    }
  },
  {
    "service_request": "2022-931003",
    "request_type": "Traffic Signals/Signs/Striping/Streetlights",
    "request_reason": "Request for Stop Sign",
    "date_created": "2022-10-24T14:34:34.000",
    "date_modified": "2022-10-24T16:35:54.000",
    "request_status": "Pending",
    "responsible_agency": "Department of Public Works",
    "final_address": "WRIGHT RD & DWYER RD",
    "address_councildis": "E",
    "status": "Pending",
    "rowid": "931003",
    "final_x": "3716400.6",
    "final_y": "558451.58",
    "longitude": "-89.95684651090933",
    "latitude": "30.02844137241977",
    "geocoded_column": {
      "latitude": "30.02844137241977",
      "longitude": "-89.95684651090933"
    }
  },
  {
    "service_request": "2022-931002",
    "request_type": "Roads/Drainage",
    "request_reason": "Pothole",
    "date_created": "2022-10-24T14:34:06.000",
    "date_modified": "2022-10-24T14:34:06.000",
    "request_status": "Pending",
    "responsible_agency": "Department of Public Works",
    "final_address": "9015 Airline Hwy",
    "address_councildis": "A",
    "status": "Pending",
    "rowid": "931002",
    "final_x": "3665442.65856",
    "final_y": "537310.151688",
    "longitude": "-90.1185800035264",
    "latitude": "29.971894464901805",
    "geocoded_column": {
      "latitude": "29.971894464901805",
      "longitude": "-90.1185800035264"
    }
  },
  {
    "service_request": "2022-931001",
    "request_type": "Trash/Recycling",
    "request_reason": "Missed Trash Pick-Up",
    "date_created": "2022-10-24T14:33:43.000",
    "date_modified": "2022-10-24T14:33:44.000",
    "request_status": "Pending",
    "responsible_agency": "Department of Sanitation",
    "final_address": "2917 Banks St",
    "address_councildis": "B",
    "status": "Assigned to Contractor",
    "contractor": "Richards Disposal",
    "rowid": "931001",
    "final_x": "3673797.27188",
    "final_y": "534851.56007",
    "longitude": "-90.09227886239506",
    "latitude": "29.964887983847092",
    "geocoded_column": {
      "latitude": "29.964887983847092",
      "longitude": "-90.09227886239506"
    }
  },
  {
    "service_request": "2022-931000",
    "request_type": "Mosquito, Termite & Rodent Control",
    "request_reason": "Rodent Complaint (Rats)",
    "date_created": "2022-10-24T14:26:34.000",
    "date_modified": "2022-10-24T14:26:35.000",
    "request_status": "Pending",
    "responsible_agency": "Mosquito, Termite & Rodent Control Board",
    "final_address": "219 Loyola Ave",
    "address_councildis": "B",
    "status": "Pending",
    "rowid": "931000",
    "final_x": "3679187.08405",
    "final_y": "531134.900674",
    "longitude": "-90.07538702704547",
    "latitude": "29.95450681241384",
    "geocoded_column": {
      "latitude": "29.95450681241384",
      "longitude": "-90.07538702704547"
    }
  },
  {
    "service_request": "2022-930999",
    "request_type": "Trash/Recycling",
    "request_reason": "Repair Recycling Cart",
    "date_created": "2022-10-24T14:23:24.000",
    "date_modified": "2022-10-24T14:23:24.000",
    "request_status": "Pending",
    "responsible_agency": "Department of Sanitation",
    "final_address": "4142 Vendome Pl",
    "address_councildis": "B",
    "status": "Pending",
    "rowid": "930999",
    "final_x": "3668805.4914",
    "final_y": "530745.389506",
    "longitude": "-90.1081812862577",
    "latitude": "29.953745088696618",
    "geocoded_column": {
      "latitude": "29.953745088696618",
      "longitude": "-90.1081812862577"
    }
  },
  {
    "service_request": "2022-930998",
    "request_type": "Abandoned Vehicles",
    "request_reason": "Abandoned/Junk Vehicles",
    "date_created": "2022-10-24T14:23:17.000",
    "date_modified": "2022-10-24T14:23:18.000",
    "request_status": "Pending",
    "responsible_agency": "Department of Public Works",
    "final_address": "TIMBER RIDGE CT & MEADOW PARK LN",
    "address_councildis": "C",
    "status": "Pending",
    "rowid": "930998",
    "final_x": "3704264.6",
    "final_y": "511665.08",
    "longitude": "-89.99691968158713",
    "latitude": "29.900190748709324",
    "geocoded_column": {
      "latitude": "29.900190748709324",
      "longitude": "-89.99691968158713"
    }
  },
  {
    "service_request": "2022-930997",
    "request_type": "Trash/Recycling",
    "request_reason": "Illegal Dumping",
    "date_created": "2022-10-24T14:23:11.000",
    "date_modified": "2022-10-24T14:23:12.000",
    "request_status": "Pending",
    "responsible_agency": "Department of Sanitation",
    "final_address": "3100 BLK Industry St",
    "address_councildis": "D",
    "status": "Pending",
    "rowid": "930997",
    "final_x": "3690574.05287",
    "final_y": "542818.720909",
    "longitude": "-90.03901482783291",
    "latitude": "29.98628455041302",
    "geocoded_column": {
      "latitude": "29.98628455041302",
      "longitude": "-90.03901482783291"
    }
  },
  {
    "service_request": "2022-930996",
    "request_type": "Trash/Recycling",
    "request_reason": "Request a Large Item Pick Up",
    "date_created": "2022-10-24T14:15:24.000",
    "date_modified": "2022-10-24T14:15:25.000",
    "request_status": "Pending",
    "responsible_agency": "Department of Sanitation",
    "final_address": "3826 Orleans Ave",
    "address_councildis": "A",
    "status": "Assigned to Contractor",
    "contractor": "Richards Disposal",
    "rowid": "930996",
    "final_x": "3673281.81652",
    "final_y": "539543.211466",
    "longitude": "-90.09374635977672",
    "latitude": "29.977803778180164",
    "geocoded_column": {
      "latitude": "29.977803778180164",
      "longitude": "-90.09374635977672"
    }
  },
  {
    "service_request": "2022-930994",
    "request_type": "Roads/Drainage",
    "request_reason": "Damaged Sidewalk",
    "date_created": "2022-10-24T14:12:14.000",
    "date_modified": "2022-10-24T15:10:19.000",
    "case_close_date": "2022-10-24T10:10:19.000",
    "request_status": "Closed",
    "responsible_agency": "Department of Public Works",
    "final_address": "6200 St Charles Ave",
    "address_councildis": "A",
    "status": "Duplicate Request",
    "rowid": "930994",
    "final_x": "3665015.65242",
    "final_y": "522892.342139",
    "longitude": "-90.1204105578782",
    "latitude": "29.932262605146033",
    "geocoded_column": {
      "latitude": "29.932262605146033",
      "longitude": "-90.1204105578782"
    }
  },
  {
    "service_request": "2022-930993",
    "request_type": "Trash/Recycling",
    "request_reason": "MIssed Recycling Pick-Up",
    "date_created": "2022-10-24T14:11:21.000",
    "date_modified": "2022-10-24T14:11:21.000",
    "request_status": "Pending",
    "responsible_agency": "Department of Sanitation",
    "final_address": "2659 Iberville St",
    "address_councildis": "B",
    "status": "Assigned to Contractor",
    "contractor": "Richards Disposal",
    "rowid": "930993",
    "final_x": "3675732.35176",
    "final_y": "535453.225798",
    "longitude": "-90.08614731470516",
    "latitude": "29.966484589744436",
    "geocoded_column": {
      "latitude": "29.966484589744436",
      "longitude": "-90.08614731470516"
    }
  },
  {
    "service_request": "2022-930992",
    "request_type": "Trash/Recycling",
    "request_reason": "Repair Trash Cart",
    "date_created": "2022-10-24T14:10:18.000",
    "date_modified": "2022-10-24T14:10:19.000",
    "request_status": "Pending",
    "responsible_agency": "Department of Sanitation",
    "final_address": "4320 Hamilton St",
    "address_councildis": "A",
    "status": "Assigned to Contractor",
    "contractor": "Richards Disposal",
    "rowid": "930992",
    "final_x": "3666851.80807",
    "final_y": "539038.506954",
    "longitude": "-90.11407158731917",
    "latitude": "29.976605711602843",
    "geocoded_column": {
      "latitude": "29.976605711602843",
      "longitude": "-90.11407158731917"
    }
  },
  {
    "service_request": "2022-930991",
    "request_type": "Roads/Drainage",
    "request_reason": "Damaged Sidewalk",
    "date_created": "2022-10-24T13:58:04.000",
    "date_modified": "2022-10-24T13:58:36.000",
    "request_status": "Pending",
    "responsible_agency": "Department of Public Works",
    "final_address": "6200 St Charles Ave",
    "address_councildis": "A",
    "status": "Pending",
    "rowid": "930991",
    "final_x": "3665015.65242",
    "final_y": "522892.342139",
    "longitude": "-90.1204105578782",
    "latitude": "29.932262605146033",
    "geocoded_column": {
      "latitude": "29.932262605146033",
      "longitude": "-90.1204105578782"
    }
  },
  {
    "service_request": "2022-930989",
    "request_type": "Traffic Signals/Signs/Striping/Streetlights",
    "request_reason": "Street Light Outage/Malfunction",
    "date_created": "2022-10-24T13:55:12.000",
    "date_modified": "2022-10-24T13:55:13.000",
    "request_status": "Pending",
    "responsible_agency": "Department of Public Works",
    "final_address": "5816 Macarthur Blvd",
    "address_councildis": "C",
    "status": "Pending",
    "contractor": "Legacy Professional Services",
    "rowid": "930989",
    "final_x": "3704761.17246",
    "final_y": "519389.893815",
    "longitude": "-89.99506783969632",
    "latitude": "29.921415404105673",
    "geocoded_column": {
      "latitude": "29.921415404105673",
      "longitude": "-89.99506783969632"
    }
  },
  {
    "service_request": "2022-930988",
    "request_type": "Trash/Recycling",
    "request_reason": "Dead Animal Pick Up",
    "date_created": "2022-10-24T13:52:26.000",
    "date_modified": "2022-10-24T13:52:27.000",
    "request_status": "Pending",
    "responsible_agency": "Department of Sanitation",
    "final_address": "DINKINS ST & SHUBRICK ST",
    "address_councildis": "E",
    "status": "Assigned to Contractor",
    "contractor": "Metro Disposal",
    "rowid": "930988",
    "final_x": "3706424.4",
    "final_y": "564352.98",
    "longitude": "-89.98815160902296",
    "latitude": "30.044993643749685",
    "geocoded_column": {
      "latitude": "30.044993643749685",
      "longitude": "-89.98815160902296"
    }
  },
  {
    "service_request": "2022-930987",
    "request_type": "Trash/Recycling",
    "request_reason": "MIssed Recycling Pick-Up",
    "date_created": "2022-10-24T13:48:57.000",
    "date_modified": "2022-10-24T13:48:58.000",
    "request_status": "Pending",
    "responsible_agency": "Department of Sanitation",
    "final_address": "526 S Cortez St",
    "address_councildis": "B",
    "status": "Assigned to Contractor",
    "contractor": "Richards Disposal",
    "rowid": "930987",
    "final_x": "3671010.66708",
    "final_y": "536091.075591",
    "longitude": "-90.1010367100934",
    "latitude": "29.968378931505082",
    "geocoded_column": {
      "latitude": "29.968378931505082",
      "longitude": "-90.1010367100934"
    }
  },
  {
    "service_request": "2022-930986",
    "request_type": "Trash/Recycling",
    "request_reason": "Missed Trash Pick-Up",
    "date_created": "2022-10-24T13:46:27.000",
    "date_modified": "2022-10-24T13:46:28.000",
    "request_status": "Pending",
    "responsible_agency": "Department of Sanitation",
    "final_address": "2831 Octavia St",
    "address_councildis": "A",
    "status": "Assigned to Contractor",
    "contractor": "Richards Disposal",
    "rowid": "930986",
    "final_x": "3668043.33524",
    "final_y": "525943.196093",
    "longitude": "-90.11074965600237",
    "latitude": "29.940563002133423",
    "geocoded_column": {
      "latitude": "29.940563002133423",
      "longitude": "-90.11074965600237"
    }
  },
  {
    "service_request": "2022-930985",
    "request_type": "Trash/Recycling",
    "request_reason": "Order Trash Cart",
    "date_created": "2022-10-24T13:43:34.000",
    "date_modified": "2022-10-24T13:43:34.000",
    "request_status": "Pending",
    "responsible_agency": "Department of Sanitation",
    "final_address": "1901 Hope St",
    "address_councildis": "D",
    "status": "Assigned to Contractor",
    "contractor": "Metro Disposal",
    "rowid": "930985",
    "final_x": "3681160.38779",
    "final_y": "541969.871692",
    "longitude": "-90.06877853836042",
    "latitude": "29.984239537845472",
    "geocoded_column": {
      "latitude": "29.984239537845472",
      "longitude": "-90.06877853836042"
    }
  },
  {
    "service_request": "2022-930984",
    "request_type": "Trash/Recycling",
    "request_reason": "Request a Large Item Pick Up",
    "date_created": "2022-10-24T13:42:57.000",
    "date_modified": "2022-10-24T13:42:58.000",
    "request_status": "Pending",
    "responsible_agency": "Department of Sanitation",
    "final_address": "4659 Clara St",
    "address_councildis": "B",
    "status": "Assigned to Contractor",
    "contractor": "Richards Disposal",
    "rowid": "930984",
    "final_x": "3669237.82855",
    "final_y": "525005.648701",
    "longitude": "-90.10701010836664",
    "latitude": "29.93794995102898",
    "geocoded_column": {
      "latitude": "29.93794995102898",
      "longitude": "-90.10701010836664"
    }
  },
  {
    "service_request": "2022-930982",
    "request_type": "Traffic Signals/Signs/Striping/Streetlights",
    "request_reason": "Street Light Outage/Malfunction",
    "date_created": "2022-10-24T13:39:38.000",
    "date_modified": "2022-10-24T13:39:38.000",
    "request_status": "Pending",
    "responsible_agency": "Department of Public Works",
    "final_address": "200 Julia St",
    "address_councildis": "B",
    "status": "Pending",
    "contractor": "Legacy Professional Services",
    "rowid": "930982",
    "final_x": "3682372.599",
    "final_y": "527488.154111",
    "longitude": "-90.06545584106426",
    "latitude": "29.944382945097644",
    "geocoded_column": {
      "latitude": "29.944382945097644",
      "longitude": "-90.06545584106426"
    }
  },
  {
    "service_request": "2022-930981",
    "request_type": "Traffic Signals/Signs/Striping/Streetlights",
    "request_reason": "Street Light Outage/Malfunction",
    "date_created": "2022-10-24T13:37:03.000",
    "date_modified": "2022-10-24T13:37:03.000",
    "request_status": "Pending",
    "responsible_agency": "Department of Public Works",
    "final_address": "200 Julia St",
    "address_councildis": "B",
    "status": "Pending",
    "contractor": "Legacy Professional Services",
    "rowid": "930981",
    "final_x": "3682372.599",
    "final_y": "527488.154111",
    "longitude": "-90.06545584106426",
    "latitude": "29.944382945097644",
    "geocoded_column": {
      "latitude": "29.944382945097644",
      "longitude": "-90.06545584106426"
    }
  },
  {
    "service_request": "2022-930980",
    "request_type": "Trash/Recycling",
    "request_reason": "Order Recycling Cart",
    "date_created": "2022-10-24T13:36:37.000",
    "date_modified": "2022-10-24T13:37:18.000",
    "request_status": "Pending",
    "responsible_agency": "Department of Sanitation",
    "final_address": "2023 Simon Bolivar Ave",
    "address_councildis": "B",
    "status": "Pending",
    "rowid": "930980",
    "final_x": "3676595.76213",
    "final_y": "525857.591293",
    "longitude": "-90.08375113777481",
    "latitude": "29.94007393259109",
    "geocoded_column": {
      "latitude": "29.94007393259109",
      "longitude": "-90.08375113777481"
    }
  },
  {
    "service_request": "2022-930979",
    "request_type": "Trash/Recycling",
    "request_reason": "Missed Trash Pick-Up",
    "date_created": "2022-10-24T13:33:41.000",
    "date_modified": "2022-10-24T13:33:42.000",
    "request_status": "Pending",
    "responsible_agency": "Department of Sanitation",
    "final_address": "6325 S Robertson St",
    "address_councildis": "A",
    "status": "Assigned to Contractor",
    "contractor": "Richards Disposal",
    "rowid": "930979",
    "final_x": "3665587.74471",
    "final_y": "525193.649533",
    "longitude": "-90.11852748677317",
    "latitude": "29.93857380347427",
    "geocoded_column": {
      "latitude": "29.93857380347427",
      "longitude": "-90.11852748677317"
    }
  },