[
  {
    "service_request": "2026-1276155",
    "request_type": "Trash/Recycling",
    "request_reason": "Repair Recycling Cart",
    "date_created": "2026-04-23T22:54:24.000",
    "date_modified": "2026-04-23T22:54:27.000",
    "request_status": "Pending",
    "responsible_agency": "Department of Sanitation",
    "final_address": "2227 Iberville St",
    "address_councildis": "B",
    "status": "Pending",
    "rowid": "1276155",
    "final_x": "3677053.51342",
    "final_y": "534396.271813",
    "longitude": "-90.08201155095402",
    "latitude": "29.963538718037114",
    "geocoded_column": {
      "latitude": "29.963538718037114",
      "longitude": "-90.08201155095402"
    }
  },
  {
    "service_request": "2026-1276154",
    "request_type": "Property Maintenance",
    "request_reason": "Property Maintenance",
    "date_created": "2026-04-23T22:01:40.000",
    "date_modified": "2026-04-23T22:01:41.000",
    "request_status": "Pending",
    "responsible_agency": "Department of Code Enforcement",
    "final_address": "812 Thayer St",
    "address_councildis": "C",
    "status": "Pending",
    "rowid": "1276154",
    "final_x": "3689505.64483",
    "final_y": "528523.854784",
    "longitude": "-90.04289800330895",
    "latitude": "29.947011816070788",
    "geocoded_column": {
      "latitude": "29.947011816070788",
      "longitude": "-90.04289800330895"
    }
  },
  {
    "service_request": "2026-1276153",
    "request_type": "Health Related Request",
    "request_reason": "Noise Ordinance Complaint",
    "date_created": "2026-04-23T21:56:45.000",
    "date_modified": "2026-04-23T21:56:47.000",
    "request_status": "Pending",
    "responsible_agency": "Health Department",
    "final_address": "801 Bourbon St, New Orleans, Louisiana, 70116",
    "address_councildis": "C",
    "status": "Pending",
    "rowid": "1276153",
    "final_x": "3682490.98735",
    "final_y": "533018.672772",
    "longitude": "-90.06488875731978",
    "latitude": "29.959586396383013",
    "geocoded_column": {
      "latitude": "29.959586396383013",
      "longitude": "-90.06488875731978"
    }
  },
  {
    "service_request": "2026-1276152",
    "request_type": "Trash/Recycling",
    "request_reason": "Request a Large Item Pick Up",
    "date_created": "2026-04-23T21:54:09.000",
    "date_modified": "2026-04-23T21:54:11.000",
    "request_status": "Pending",
    "responsible_agency": "Department of Sanitation",
    "final_address": "COVE DR & SPRINGLAKE DR",
    "address_councildis": "E",
    "status": "Assigned to Contractor",
    "contractor": "Waste Pro",
    "rowid": "1276152",
    "final_x": "3700149.1",
    "final_y": "558891.78",
    "longitude": "-90.00818401351903",
    "latitude": "30.03017854189874",
    "geocoded_column": {
      "latitude": "30.03017854189874",
      "longitude": "-90.00818401351903"
    }
  },
  {
    "service_request": "2026-1276151",
    "request_type": "Trash/Recycling",
    "request_reason": "Order Recycling Cart",
    "date_created": "2026-04-23T21:49:14.000",
    "date_modified": "2026-04-23T21:49:19.000",
    "request_status": "Pending",
    "responsible_agency": "Department of Sanitation",
    "final_address": "5134 Gallier Dr",
    "address_councildis": "D",
    "status": "Pending",
    "rowid": "1276151",
    "final_x": "3691625.24112",
    "final_y": "552822.619798",
    "longitude": "-90.03533659852478",
    "latitude": "30.013758923840555",
    "geocoded_column": {
      "latitude": "30.013758923840555",
      "longitude": "-90.03533659852478"
    }
  },
  {
    "service_request": "2026-1276150",
    "request_type": "Streetlights",
    "request_reason": "Streetlight Outage/Malfunction",
    "date_created": "2026-04-23T21:47:54.000",
    "date_modified": "2026-04-23T21:47:55.000",
    "request_status": "Pending",
    "responsible_agency": "Department of Public Works",
    "final_address": "900 BLK Homer Plessy Way",
    "address_councildis": "C",
    "status": "Pending",
    "rowid": "1276150",
    "final_x": "3687917.94532",
    "final_y": "535617.87409",
    "longitude": "-90.04765962860381",
    "latitude": "29.966566991568396",
    "geocoded_column": {
      "latitude": "29.966566991568396",
      "longitude": "-90.04765962860381"
    }
  },
  {
    "service_request": "2026-1276149",
    "request_type": "Roads and Streets",
    "request_reason": "Pothole",
    "date_created": "2026-04-23T21:46:23.000",
    "date_modified": "2026-04-23T21:46:26.000",
    "request_status": "Pending",
    "responsible_agency": "Department of Public Works",
    "final_address": "1000 Race St",
    "address_councildis": "B",
    "status": "Pending",
    "rowid": "1276149",
    "final_x": "3680508.50728",
    "final_y": "523719.305275",
    "longitude": "-90.0714723557563",
    "latitude": "29.934076446289726",
    "geocoded_column": {
      "latitude": "29.934076446289726",
      "longitude": "-90.0714723557563"
    }
  },
  {
    "service_request": "2026-1276148",
    "request_type": "General Services",
    "request_reason": "General Service Request",
    "date_created": "2026-04-23T21:43:38.000",
    "date_modified": "2026-04-23T21:43:39.000",
    "request_status": "Pending",
    "responsible_agency": "Orleans Parish Communication District",
    "final_address": "900 BLK Homer Plessy Way",
    "address_councildis": "C",
    "status": "Pending",
    "rowid": "1276148",
    "final_x": "3687917.94532",
    "final_y": "535617.87409",
    "longitude": "-90.04765962860381",
    "latitude": "29.966566991568396",
    "geocoded_column": {
      "latitude": "29.966566991568396",
      "longitude": "-90.04765962860381"
    }
  },
  {
    "service_request": "2026-1276147",
    "request_type": "Roads and Streets",
    "request_reason": "Pothole",
    "date_created": "2026-04-23T21:43:06.000",
    "date_modified": "2026-04-23T21:43:08.000",
    "request_status": "Pending",
    "responsible_agency": "Department of Public Works",
    "final_address": "6616 Elysian Fields Ave",
    "address_councildis": "D",
    "status": "Pending",
    "rowid": "1276147",
    "final_x": "3683129.99036",
    "final_y": "557804.392539",
    "longitude": "-90.06200254308439",
    "latitude": "30.02771883998972",
    "geocoded_column": {
      "latitude": "30.02771883998972",
      "longitude": "-90.06200254308439"
    }
  },
  {
    "service_request": "2026-1276146",
    "request_type": "Trash/Recycling",
    "request_reason": "Order Recycling Cart",
    "date_created": "2026-04-23T21:40:19.000",
    "date_modified": "2026-04-23T21:40:21.000",
    "request_status": "Pending",
    "responsible_agency": "Department of Sanitation",
    "final_address": "2212 Columbus St",
    "address_councildis": "D",
    "status": "Pending",
    "rowid": "1276146",
    "final_x": "3679908.25007",
    "final_y": "538520.490313",
    "longitude": "-90.07285332746149",
    "latitude": "29.97479287376245",
    "geocoded_column": {
      "latitude": "29.97479287376245",
      "longitude": "-90.07285332746149"
    }
  },
  {
    "service_request": "2026-1276145",
    "request_type": "Trash/Recycling",
    "request_reason": "Repair Trash Cart",
    "date_created": "2026-04-23T21:35:20.000",
    "date_modified": "2026-04-23T21:35:22.000",
    "request_status": "Pending",
    "responsible_agency": "Department of Sanitation",
    "final_address": "4554 Bonita Dr",
    "address_councildis": "E",
    "status": "Assigned to Contractor",
    "contractor": "Waste Pro",
    "rowid": "1276145",
    "final_x": "3704548.06372",
    "final_y": "554070.687",
    "longitude": "-89.99446138827408",
    "latitude": "30.01678178498326",
    "geocoded_column": {
      "latitude": "30.01678178498326",
      "longitude": "-89.99446138827408"
    }
  },
  {
    "service_request": "2026-1276144",
    "request_type": "Trash/Recycling",
    "request_reason": "Request a Large Item Pick Up",
    "date_created": "2026-04-23T21:28:09.000",
    "date_modified": "2026-04-23T21:28:11.000",
    "request_status": "Pending",
    "responsible_agency": "Department of Sanitation",
    "final_address": "2701 Hudson Pl",
    "address_councildis": "C",
    "status": "Assigned to Contractor",
    "contractor": "Richards Disposal",
    "rowid": "1276144",
    "final_x": "3703326.9882",
    "final_y": "520894.817849",
    "longitude": "-89.99953960127331",
    "latitude": "29.925599404395772",
    "geocoded_column": {
      "latitude": "29.925599404395772",
      "longitude": "-89.99953960127331"
    }
  },
  {
    "service_request": "2026-1276143",
    "request_type": "Abandoned Vehicles",
    "request_reason": "Abandoned/Junk Vehicles",
    "date_created": "2026-04-23T21:18:03.000",
    "date_modified": "2026-04-23T21:18:06.000",
    "request_status": "Pending",
    "responsible_agency": "Department of Public Works",
    "final_address": "11958 Lincoln Beach Blvd",
    "address_councildis": "E",
    "status": "Pending",
    "rowid": "1276143",
    "final_x": "3712326.16901",
    "final_y": "568853.843685",
    "longitude": "-89.9693300836147",
    "latitude": "30.057177362032537",
    "geocoded_column": {
      "latitude": "30.057177362032537",
      "longitude": "-89.9693300836147"
    }
  },
  {
    "service_request": "2026-1276142",
    "request_type": "Property Maintenance",
    "request_reason": "Property Maintenance",
    "date_created": "2026-04-23T20:44:26.000",
    "date_modified": "2026-04-23T20:44:28.000",
    "request_status": "Pending",
    "responsible_agency": "Department of Code Enforcement",
    "final_address": "7442 Spring Lake Dr",
    "address_councildis": "E",
    "status": "Pending",
    "rowid": "1276142",
    "final_x": "3701082.86289",
    "final_y": "559136.32598",
    "longitude": "-90.0052243815867",
    "latitude": "30.03082122286488",
    "geocoded_column": {
      "latitude": "30.03082122286488",
      "longitude": "-90.0052243815867"
    }
  },
  {
    "service_request": "2026-1276141",
    "request_type": "Trash/Recycling",
    "request_reason": "Request a Large Item Pick Up",
    "date_created": "2026-04-23T20:37:52.000",
    "date_modified": "2026-04-23T20:37:55.000",
    "request_status": "Pending",
    "responsible_agency": "Department of Sanitation",
    "final_address": "5810 Norland Ave",
    "address_councildis": "C",
    "status": "Assigned to Contractor",
    "contractor": "Richards Disposal",
    "rowid": "1276141",
    "final_x": "3705155.36542",
    "final_y": "520460.416632",
    "longitude": "-89.99378405106106",
    "latitude": "29.924346304846654",
    "geocoded_column": {
      "latitude": "29.924346304846654",
      "longitude": "-89.99378405106106"
    }
  },
  {
    "service_request": "2026-1276140",
    "request_type": "Trash/Recycling",
    "request_reason": "Order Recycling Cart",
    "date_created": "2026-04-23T20:26:43.000",
    "date_modified": "2026-04-23T20:26:45.000",
    "request_status": "Pending",
    "responsible_agency": "Department of Sanitation",
    "final_address": "65 Yosemite Dr",
    "address_councildis": "C",
    "status": "Pending",
    "rowid": "1276140",
    "final_x": "3699578.57252",
    "final_y": "516511.424757",
    "longitude": "-90.01153174771811",
    "latitude": "29.913666013012058",
    "geocoded_column": {
      "latitude": "29.913666013012058",
      "longitude": "-90.01153174771811"
    }
  },
  {
    "service_request": "2026-1276139",
    "request_type": "Trash/Recycling",
    "request_reason": "Missed Trash Pick-Up",
    "date_created": "2026-04-23T20:24:10.000",
    "date_modified": "2026-04-23T20:24:11.000",
    "request_status": "Pending",
    "responsible_agency": "Department of Sanitation",
    "final_address": "1242 Frenchmen St",
    "address_councildis": "C",
    "status": "Assigned to Contractor",
    "contractor": "IV Waste",
    "rowid": "1276139",
    "final_x": "3684503.75113",
    "final_y": "536971.994888",
    "longitude": "-90.058394022151",
    "latitude": "29.97039524778264",
    "geocoded_column": {
      "latitude": "29.97039524778264",
      "longitude": "-90.058394022151"
    }
  },
  {
    "service_request": "2026-1276138",
    "request_type": "Trash/Recycling",
    "request_reason": "Replace Trash Cart",
    "date_created": "2026-04-23T20:16:03.000",
    "date_modified": "2026-04-23T20:16:06.000",
    "request_status": "Pending",
    "responsible_agency": "Department of Sanitation",
    "final_address": "1540 Jefferson Ave",
    "address_councildis": "A",
    "status": "Assigned to Contractor",
    "contractor": "IV Waste",
    "rowid": "1276138",
    "final_x": "3667178.51028",
    "final_y": "520904.758073",
    "longitude": "-90.1136493865619",
    "latitude": "29.92673424980759",
    "geocoded_column": {
      "latitude": "29.92673424980759",
      "longitude": "-90.1136493865619"
    }
  },
  {
    "service_request": "2026-1276137",
    "request_type": "Trash/Recycling",
    "request_reason": "Request a Large Item Pick Up",
    "date_created": "2026-04-23T20:03:36.000",
    "date_modified": "2026-04-23T20:03:40.000",
    "request_status": "Pending",
    "responsible_agency": "Department of Sanitation",
    "final_address": "1439 Alvar St",
    "address_councildis": "D",
    "status": "Assigned to Contractor",
    "contractor": "IV Waste",
    "rowid": "1276137",
    "final_x": "3691886.03574",
    "final_y": "536776.363336",
    "longitude": "-90.03508703561715",
    "latitude": "29.969629407737468",
    "geocoded_column": {
      "latitude": "29.969629407737468",
      "longitude": "-90.03508703561715"
    }
  },
  {
    "service_request": "2026-1276136",
    "request_type": "Safety & Permits",
    "request_reason": "Zoning Enforcement",
    "date_created": "2026-04-23T19:59:44.000",
    "date_modified": "2026-04-23T19:59:46.000",
    "request_status": "Pending",
    "responsible_agency": "Safety and Permits",
    "final_address": "1771 Nashville Ave",
    "address_councildis": "A",
    "status": "Pending",
    "rowid": "1276136",
    "final_x": "3666628.01588",
    "final_y": "523113.076155",
    "longitude": "-90.11531305330129",
    "latitude": "29.93282252466052",
    "geocoded_column": {
      "latitude": "29.93282252466052",
      "longitude": "-90.11531305330129"
    }
  },
  {
    "service_request": "2026-1276135",
    "request_type": "Roads and Streets",
    "request_reason": "Pothole",
    "date_created": "2026-04-23T19:57:50.000",
    "date_modified": "2026-04-23T19:57:52.000",
    "request_status": "Pending",
    "responsible_agency": "Department of Public Works",
    "final_address": "4505 Dale St",
    "address_councildis": "E",
    "status": "Pending",
    "rowid": "1276135",
    "final_x": "3699597.24029",
    "final_y": "553710.358167",
    "longitude": "-90.01011696045066",
    "latitude": "30.015949150384692",
    "geocoded_column": {
      "latitude": "30.015949150384692",
      "longitude": "-90.01011696045066"
    }
  },
  {
    "service_request": "2026-1276134",
    "request_type": "Abandoned Vehicles",
    "request_reason": "Abandoned/Junk Vehicles",
    "date_created": "2026-04-23T19:47:54.000",
    "date_modified": "2026-04-23T19:47:55.000",
    "request_status": "Pending",
    "responsible_agency": "Department of Public Works",
    "final_address": "6928 Virgilian St",
    "address_councildis": "D",
    "status": "Pending",
    "rowid": "1276134",
    "final_x": "3696819.3064",
    "final_y": "556592.494938",
    "longitude": "-90.01878947456987",
    "latitude": "30.023961849738008",
    "geocoded_column": {
      "latitude": "30.023961849738008",
      "longitude": "-90.01878947456987"
    }
  },
  {
    "service_request": "2026-1276133",
    "request_type": "Property Maintenance",
    "request_reason": "Property Maintenance",
    "date_created": "2026-04-23T19:46:40.000",
    "date_modified": "2026-04-23T19:46:42.000",
    "request_status": "Pending",
    "responsible_agency": "Department of Code Enforcement",
    "final_address": "2300 BLK S Carrollton Ave",
    "address_councildis": "A",
    "status": "Pending",
    "rowid": "1276133",
    "final_x": "3664788.20451",
    "final_y": "531303.62222",
    "longitude": "-90.12084761154154",
    "latitude": "29.955397543618968",
    "geocoded_column": {
      "latitude": "29.955397543618968",
      "longitude": "-90.12084761154154"
    }
  },
  {
    "service_request": "2026-1276132",
    "request_type": "Abandoned Vehicles",
    "request_reason": "Abandoned/Junk Vehicles",
    "date_created": "2026-04-23T19:38:30.000",
    "date_modified": "2026-04-23T19:38:31.000",
    "request_status": "Pending",
    "responsible_agency": "Department of Public Works",
    "final_address": "2027 Burdette St",
    "address_councildis": "A",
    "status": "Pending",
    "rowid": "1276132",
    "final_x": "3664876.99789",
    "final_y": "529824.426945",
    "longitude": "-90.12061666684512",
    "latitude": "29.951327652999986",
    "geocoded_column": {
      "latitude": "29.951327652999986",
      "longitude": "-90.12061666684512"
    }
  },
  {
    "service_request": "2026-1276131",
    "request_type": "Abandoned Vehicles",
    "request_reason": "Abandoned/Junk Vehicles",
    "date_created": "2026-04-23T19:38:29.000",
    "date_modified": "2026-04-23T19:38:30.000",
    "request_status": "Pending",
    "responsible_agency": "Department of Public Works",
    "final_address": "2027 Burdette St",
    "address_councildis": "A",
    "status": "Pending",
    "rowid": "1276131",
    "final_x": "3664876.99789",
    "final_y": "529824.426945",
    "longitude": "-90.12061666684512",
    "latitude": "29.951327652999986",
    "geocoded_column": {
      "latitude": "29.951327652999986",
      "longitude": "-90.12061666684512"
    }
  },
  {
    "service_request": "2026-1276130",
    "request_type": "Safety & Permits",
    "request_reason": "Zoning Enforcement",
    "date_created": "2026-04-23T19:37:45.000",
    "date_modified": "2026-04-23T19:37:47.000",
    "request_status": "Pending",
    "responsible_agency": "Safety and Permits",
    "final_address": "4923 Perrault Walk",
    "address_councildis": "E",
    "status": "Pending",
    "rowid": "1276130",
    "final_x": "3709754.65861",
    "final_y": "556780.875482",
    "longitude": "-89.97790959925578",
    "latitude": "30.024065438518235",
    "geocoded_column": {
      "latitude": "30.024065438518235",
      "longitude": "-89.97790959925578"
    }
  },
  {
    "service_request": "2026-1276129",
    "request_type": "Safety & Permits",
    "request_reason": "Zoning Enforcement",
    "date_created": "2026-04-23T19:31:55.000",
    "date_modified": "2026-04-23T19:31:59.000",
    "request_status": "Pending",
    "responsible_agency": "Safety and Permits",
    "final_address": "4742 Sandalwood St",
    "address_councildis": "E",
    "status": "Pending",
    "rowid": "1276129",
    "final_x": "3712154.43198",
    "final_y": "556141.808922",
    "longitude": "-89.97035086764139",
    "latitude": "30.022229984754258",
    "geocoded_column": {
      "latitude": "30.022229984754258",
      "longitude": "-89.97035086764139"
    }
  },
  {
    "service_request": "2026-1276128",
    "request_type": "Property Maintenance",
    "request_reason": "Property Maintenance",
    "date_created": "2026-04-23T19:24:35.000",
    "date_modified": "2026-04-23T19:24:37.000",
    "request_status": "Pending",
    "responsible_agency": "Department of Code Enforcement",
    "final_address": "4779 Donna Dr",
    "address_councildis": "E",
    "status": "Pending",
    "rowid": "1276128",
    "final_x": "3711034.86193",
    "final_y": "556088.150874",
    "longitude": "-89.97389040836046",
    "latitude": "30.02211901634389",
    "geocoded_column": {
      "latitude": "30.02211901634389",
      "longitude": "-89.97389040836046"
    }
  },
  {
    "service_request": "2026-1276127",
    "request_type": "Property Maintenance",
    "request_reason": "Property Maintenance",
    "date_created": "2026-04-23T19:21:03.000",
    "date_modified": "2026-04-23T19:21:04.000",
    "request_status": "Pending",
    "responsible_agency": "Department of Code Enforcement",
    "final_address": "4696 Perrault Walk",
    "address_councildis": "E",
    "status": "Pending",
    "rowid": "1276127",
    "final_x": "3709892.50693",
    "final_y": "555433.236697",
    "longitude": "-89.97752441454935",
    "latitude": "30.020355474682884",
    "geocoded_column": {
      "latitude": "30.020355474682884",
      "longitude": "-89.97752441454935"
    }
  },
  {
    "service_request": "2026-1276126",
    "request_type": "Property Maintenance",
    "request_reason": "Property Maintenance",
    "date_created": "2026-04-23T19:18:15.000",
    "date_modified": "2026-04-23T19:18:17.000",
    "request_status": "Pending",
    "responsible_agency": "Department of Code Enforcement",
    "final_address": "4758 Bundy Rd",
    "address_councildis": "E",
    "status": "Pending",
    "rowid": "1276126",
    "final_x": "3709251.28817",
    "final_y": "555931.779801",
    "longitude": "-89.97953183882387",
    "latitude": "30.021747120089312",
    "geocoded_column": {
      "latitude": "30.021747120089312",
      "longitude": "-89.97953183882387"
    }
  },
  {
    "service_request": "2026-1276125",
    "request_type": "General Services",
    "request_reason": "General Service Request",
    "date_created": "2026-04-23T19:16:23.000",
    "date_modified": "2026-04-23T19:16:26.000",
    "request_status": "Pending",
    "responsible_agency": "Orleans Parish Communication District",
    "final_address": "4702 Perrier St",
    "address_councildis": "B",
    "status": "Pending",
    "rowid": "1276125",
    "final_x": "3669764.67463",
    "final_y": "519926.11404",
    "longitude": "-90.10551864389504",
    "latitude": "29.923967342927465",
    "geocoded_column": {
      "latitude": "29.923967342927465",
      "longitude": "-90.10551864389504"
    }
  },
  {
    "service_request": "2026-1276124",
    "request_type": "Trash/Recycling",
    "request_reason": "Request a Large Item Pick Up",
    "date_created": "2026-04-23T19:10:41.000",
    "date_modified": "2026-04-23T19:10:43.000",
    "request_status": "Pending",
    "responsible_agency": "Department of Sanitation",
    "final_address": "4443 Reynes St",
    "address_councildis": "E",
    "status": "Assigned to Contractor",
    "contractor": "Waste Pro",
    "rowid": "1276124",
    "final_x": "3699382.7777",
    "final_y": "553406.159895",
    "longitude": "-90.01080565565152",
    "latitude": "30.015119528438756",
    "geocoded_column": {
      "latitude": "30.015119528438756",
      "longitude": "-90.01080565565152"
    }
  },
  {
    "service_request": "2026-1276123",
    "request_type": "Trash/Recycling",
    "request_reason": "Repair Trash Cart",
    "date_created": "2026-04-23T19:09:17.000",
    "date_modified": "2026-04-23T19:09:20.000",
    "request_status": "Pending",
    "responsible_agency": "Department of Sanitation",
    "final_address": "3830 Utah St",
    "address_councildis": "C",
    "status": "Assigned to Contractor",
    "contractor": "Richards Disposal",
    "rowid": "1276123",
    "final_x": "3695025.65469",
    "final_y": "517538.61471",
    "longitude": "-90.025865134655",
    "latitude": "29.91663407061089",
    "geocoded_column": {
      "latitude": "29.91663407061089",
      "longitude": "-90.025865134655"
    }
  },
  {
    "service_request": "2026-1276122",
    "request_type": "Health Related Request",
    "request_reason": "Noise Ordinance Complaint",
    "date_created": "2026-04-23T19:04:25.000",
    "date_modified": "2026-04-23T19:04:27.000",
    "request_status": "Pending",
    "responsible_agency": "Health Department",
    "final_address": "734 Dumaine St",
    "address_councildis": "C",
    "status": "Pending",
    "rowid": "1276122",
    "final_x": "3682752.65698",
    "final_y": "533195.813636",
    "longitude": "-90.06405626959247",
    "latitude": "29.960065505729947",
    "geocoded_column": {
      "latitude": "29.960065505729947",
      "longitude": "-90.06405626959247"
    }
  },
  {
    "service_request": "2026-1276121",
    "request_type": "Trash/Recycling",
    "request_reason": "Order Trash Cart",
    "date_created": "2026-04-23T18:59:02.000",
    "date_modified": "2026-04-23T18:59:04.000",
    "request_status": "Pending",
    "responsible_agency": "Department of Sanitation",
    "final_address": "6201 Dorothea St",
    "address_councildis": "D",
    "status": "Assigned to Contractor",
    "contractor": "Waste Pro",
    "rowid": "1276121",
    "final_x": "3696323.69098",
    "final_y": "557561.837275",
    "longitude": "-90.02032041774478",
    "latitude": "30.026642796973817",
    "geocoded_column": {
      "latitude": "30.026642796973817",
      "longitude": "-90.02032041774478"
    }
  },
  {
    "service_request": "2026-1276120",
    "request_type": "Abandoned Vehicles",
    "request_reason": "Abandoned/Junk Vehicles",
    "date_created": "2026-04-23T18:39:52.000",
    "date_modified": "2026-04-23T18:39:54.000",
    "request_status": "Pending",
    "responsible_agency": "Department of Public Works",
    "final_address": "2348 St Thomas St",
    "address_councildis": "B",
    "status": "Pending",
    "rowid": "1276120",
    "final_x": "3679335.10031",
    "final_y": "520100.722744",
    "longitude": "-90.07530217964539",
    "latitude": "29.924162008908024",
    "geocoded_column": {
      "latitude": "29.924162008908024",
      "longitude": "-90.07530217964539"
    }
  },
  {
    "service_request": "2026-1276119",
    "request_type": "Drainage",
    "request_reason": "Catch Basin Frame and Cover Missing or Damaged",
    "date_created": "2026-04-23T18:24:10.000",
    "date_modified": "2026-04-23T18:24:11.000",
    "request_status": "Pending",
    "responsible_agency": "Sewerage & Water Board",
    "final_address": "5300 BLK Saint Anthony Ave",
    "address_councildis": "D",
    "status": "Pending",
    "rowid": "1276119",
    "final_x": "3682255.8323",
    "final_y": "552230.765733",
    "longitude": "-90.06495977259252",
    "latitude": "30.012420047061962",
    "geocoded_column": {
      "latitude": "30.012420047061962",
      "longitude": "-90.06495977259252"
    }
  },
  {
    "service_request": "2026-1276118",
    "request_type": "Trash/Recycling",
    "request_reason": "Replace Trash Cart",
    "date_created": "2026-04-23T18:24:08.000",
    "date_modified": "2026-04-23T18:24:10.000",
    "request_status": "Pending",
    "responsible_agency": "Department of Sanitation",
    "final_address": "519 Nashville Ave",
    "address_councildis": "A",
    "status": "Assigned to Contractor",
    "contractor": "IV Waste",
    "rowid": "1276118",
    "final_x": "3665397.81069",
    "final_y": "518142.297334",
    "longitude": "-90.11936298624256",
    "latitude": "29.919190348670774",
    "geocoded_column": {
      "latitude": "29.919190348670774",
      "longitude": "-90.11936298624256"
    }
  },
  {
    "service_request": "2026-1276117",
    "request_type": "Trash/Recycling",
    "request_reason": "Illegal Dumping",
    "date_created": "2026-04-23T18:21:10.000",
    "date_modified": "2026-04-23T18:21:13.000",
    "request_status": "Pending",
    "responsible_agency": "Department of Sanitation",
    "final_address": "2200 BLK Florida Ave",
    "address_councildis": "D",
    "status": "Pending",
    "rowid": "1276117",
    "final_x": "3685187.96128",
    "final_y": "542250.49009",
    "longitude": "-90.05604739046906",
    "latitude": "29.984888306651253",
    "geocoded_column": {
      "latitude": "29.984888306651253",
      "longitude": "-90.05604739046906"
    }
  },
  {
    "service_request": "2026-1276116",
    "request_type": "Streetlights",
    "request_reason": "Streetlight Outage/Malfunction",
    "date_created": "2026-04-23T18:07:33.000",
    "date_modified": "2026-04-23T18:07:35.000",
    "request_status": "Pending",
    "responsible_agency": "Department of Public Works",
    "final_address": "540 S Broad St",
    "address_councildis": "B",
    "status": "Pending",
    "rowid": "1276116",
    "final_x": "3674171.78241",
    "final_y": "533407.733636",
    "longitude": "-90.09114560889088",
    "latitude": "29.96090678730102",
    "geocoded_column": {
      "latitude": "29.96090678730102",
      "longitude": "-90.09114560889088"
    }
  },
  {
    "service_request": "2026-1276115",
    "request_type": "Property Maintenance",
    "request_reason": "Property Maintenance",
    "date_created": "2026-04-23T17:40:32.000",
    "date_modified": "2026-04-23T17:40:33.000",
    "request_status": "Pending",
    "responsible_agency": "Department of Code Enforcement",
    "final_address": "7900 BLK Tarpon St",
    "address_councildis": "E",
    "status": "Pending",
    "rowid": "1276115",
    "final_x": "3698306.67094",
    "final_y": "560969.529095",
    "longitude": "-90.01393046152083",
    "latitude": "30.035950009264784",
    "geocoded_column": {
      "latitude": "30.035950009264784",
      "longitude": "-90.01393046152083"
    }
  },
  {
    "service_request": "2026-1276114",
    "request_type": "Trash/Recycling",
    "request_reason": "Illegal Dumping",
    "date_created": "2026-04-23T17:39:48.000",
    "date_modified": "2026-04-23T17:39:49.000",
    "request_status": "Pending",
    "responsible_agency": "Department of Sanitation",
    "final_address": "1435 Marigny St",
    "address_councildis": "C",
    "status": "Pending",
    "rowid": "1276114",
    "final_x": "3685344.78204",
    "final_y": "537737.578248",
    "longitude": "-90.05571099917586",
    "latitude": "29.972474577458346",
    "geocoded_column": {
      "latitude": "29.972474577458346",
      "longitude": "-90.05571099917586"
    }
  },
  {
    "service_request": "2026-1276113",
    "request_type": "Abandoned Vehicles",
    "request_reason": "Abandoned/Junk Vehicles",
    "date_created": "2026-04-23T17:31:39.000",
    "date_modified": "2026-04-23T17:31:41.000",
    "request_status": "Pending",
    "responsible_agency": "Department of Public Works",
    "final_address": "8009 Tarpon St",
    "address_councildis": "E",
    "status": "Pending",
    "rowid": "1276113",
    "final_x": "3698330.98723",
    "final_y": "561105.800798",
    "longitude": "-90.01384865889453",
    "latitude": "30.03632393378979",
    "geocoded_column": {
      "latitude": "30.03632393378979",
      "longitude": "-90.01384865889453"
    }
  },
  {
    "service_request": "2026-1276112",
    "request_type": "Safety & Permits",
    "request_reason": "Zoning Enforcement",
    "date_created": "2026-04-23T17:22:22.000",
    "date_modified": "2026-04-23T17:22:24.000",
    "request_status": "Pending",
    "responsible_agency": "Safety and Permits",
    "final_address": "8009 Tarpon St",
    "address_councildis": "E",
    "status": "Pending",
    "rowid": "1276112",
    "final_x": "3698330.98723",
    "final_y": "561105.800798",
    "longitude": "-90.01384865889453",
    "latitude": "30.03632393378979",
    "geocoded_column": {
      "latitude": "30.03632393378979",
      "longitude": "-90.01384865889453"
    }
  },
  {
    "service_request": "2026-1276111",
    "request_type": "Trash/Recycling",
    "request_reason": "Replace Recycling Cart",
    "date_created": "2026-04-23T17:17:11.000",
    "date_modified": "2026-04-23T17:17:13.000",
    "request_status": "Pending",
    "responsible_agency": "Department of Sanitation",
    "final_address": "5414 General Diaz St",
    "address_councildis": "A",
    "status": "Pending",
    "rowid": "1276111",
    "final_x": "3668926.5538",
    "final_y": "542958.937485",
    "longitude": "-90.10738640556369",
    "latitude": "29.987324698966198",
    "geocoded_column": {
      "latitude": "29.987324698966198",
      "longitude": "-90.10738640556369"
    }
  },
  {
    "service_request": "2026-1276110",
    "request_type": "Roads and Streets",
    "request_reason": "Pothole",
    "date_created": "2026-04-23T17:15:50.000",
    "date_modified": "2026-04-23T17:15:52.000",
    "request_status": "Pending",
    "responsible_agency": "Department of Public Works",
    "final_address": "1684 N Dupre St",
    "address_councildis": "D",
    "status": "Pending",
    "rowid": "1276110",
    "final_x": "3678970.67707",
    "final_y": "541149.697804",
    "longitude": "-90.07572328143864",
    "latitude": "29.98205061066083",
    "geocoded_column": {
      "latitude": "29.98205061066083",
      "longitude": "-90.07572328143864"
    }
  },
  {
    "service_request": "2026-1276109",
    "request_type": "Roads and Streets",
    "request_reason": "Street Subsidence (Sinking)",
    "date_created": "2026-04-23T17:14:46.000",
    "date_modified": "2026-04-23T17:14:48.000",
    "request_status": "Pending",
    "responsible_agency": "Sewerage & Water Board",
    "final_address": "2100 Bartholomew St",
    "address_councildis": "D",
    "status": "Pending",
    "rowid": "1276109",
    "final_x": "3692705.19606",
    "final_y": "539116.151114",
    "longitude": "-90.03241617373884",
    "latitude": "29.976037447283932",
    "geocoded_column": {
      "latitude": "29.976037447283932",
      "longitude": "-90.03241617373884"
    }
  },
  {
    "service_request": "2026-1276108",
    "request_type": "Trash/Recycling",
    "request_reason": "Illegal Dumping",
    "date_created": "2026-04-23T16:58:24.000",
    "date_modified": "2026-04-23T16:58:25.000",
    "request_status": "Pending",
    "responsible_agency": "Department of Sanitation",
    "final_address": "2553 N Rocheblave St",
    "address_councildis": "D",
    "status": "Pending",
    "rowid": "1276108",
    "final_x": "3686303.8415",
    "final_y": "541263.991628",
    "longitude": "-90.05255764066068",
    "latitude": "29.98214153551677",
    "geocoded_column": {
      "latitude": "29.98214153551677",
      "longitude": "-90.05255764066068"
    }
  },
  {
    "service_request": "2026-1276107",
    "request_type": "Traffic Signals",
    "request_reason": "Traffic Signal Malfunctioning or Damaged",
    "date_created": "2026-04-23T16:50:34.000",
    "date_modified": "2026-04-23T16:50:35.000",
    "request_status": "Pending",
    "responsible_agency": "Department of Public Works",
    "final_address": "EARHART BLVD & WASHINGTON AVE",
    "address_councildis": "B",
    "status": "Pending",
    "rowid": "1276107",
    "final_x": "3670169.7",
    "final_y": "531931.18",
    "longitude": "-90.10383349459518",
    "latitude": "29.95696544353101",
    "geocoded_column": {
      "latitude": "29.95696544353101",
      "longitude": "-90.10383349459518"
    }
  },
  {
    "service_request": "2026-1276106",
    "request_type": "Trash/Recycling",
    "request_reason": "Illegal Dumping",
    "date_created": "2026-04-23T16:44:49.000",
    "date_modified": "2026-04-23T16:45:20.000",
    "request_status": "Pending",
    "responsible_agency": "Department of Sanitation",
    "final_address": "1865 Humanity St",
    "address_councildis": "D",
    "status": "Pending",
    "rowid": "1276106",
    "final_x": "3681910.12866",
    "final_y": "544658.236047",
    "longitude": "-90.06631655340708",
    "latitude": "29.99160882033668",
    "geocoded_column": {
      "latitude": "29.99160882033668",
      "longitude": "-90.06631655340708"
    }
  },
  {
    "service_request": "2026-1276105",
    "request_type": "Roads and Streets",
    "request_reason": "Abandoned Service Cut",
    "date_created": "2026-04-23T16:41:58.000",
    "date_modified": "2026-04-23T16:41:59.000",
    "request_status": "Pending",
    "responsible_agency": "Department of Public Works",
    "final_address": "1103 Monroe St",
    "address_councildis": "A",
    "status": "Pending",
    "rowid": "1276105",
    "final_x": "3660200.99667",
    "final_y": "529553.036225",
    "longitude": "-90.13539021999439",
    "latitude": "29.95071666573139",
    "geocoded_column": {
      "latitude": "29.95071666573139",
      "longitude": "-90.13539021999439"
    }
  },
  {
    "service_request": "2026-1276104",
    "request_type": "Trash/Recycling",
    "request_reason": "Request a Large Item Pick Up",
    "date_created": "2026-04-23T16:41:13.000",
    "date_modified": "2026-04-23T16:41:15.000",
    "request_status": "Pending",
    "responsible_agency": "Department of Sanitation",
    "final_address": "5500 Samovar Dr",
    "address_councildis": "E",
    "status": "Assigned to Contractor",
    "contractor": "Waste Pro",
    "rowid": "1276104",
    "final_x": "3703738.17066",
    "final_y": "556309.091034",
    "longitude": "-89.99693780526998",
    "latitude": "30.02296253077885",
    "geocoded_column": {
      "latitude": "30.02296253077885",
      "longitude": "-89.99693780526998"
    }
  },
  {
    "service_request": "2026-1276103",
    "request_type": "Trash/Recycling",
    "request_reason": "Replace Trash Cart",
    "date_created": "2026-04-23T16:38:19.000",
    "date_modified": "2026-04-23T16:38:20.000",
    "request_status": "Pending",
    "responsible_agency": "Department of Sanitation",
    "final_address": "1318 Henriette Delille St",
    "address_councildis": "C",
    "status": "Assigned to Contractor",
    "contractor": "IV Waste",
    "rowid": "1276103",
    "final_x": "3682515.06978",
    "final_y": "535445.976454",
    "longitude": "-90.06472784990058",
    "latitude": "29.966259916361082",
    "geocoded_column": {
      "latitude": "29.966259916361082",
      "longitude": "-90.06472784990058"
    }
  },
  {
    "service_request": "2026-1276102",
    "request_type": "Trash/Recycling",
    "request_reason": "Request a Large Item Pick Up",
    "date_created": "2026-04-23T16:36:11.000",
    "date_modified": "2026-04-23T16:36:12.000",
    "request_status": "Pending",
    "responsible_agency": "Department of Sanitation",
    "final_address": "322 S Telemachus St",
    "address_councildis": "B",
    "status": "Assigned to Contractor",
    "contractor": "IV Waste",
    "rowid": "1276102",
    "final_x": "3671778.94555",
    "final_y": "536568.658247",
    "longitude": "-90.09859419227907",
    "latitude": "29.96966938185562",
    "geocoded_column": {
      "latitude": "29.96966938185562",
      "longitude": "-90.09859419227907"
    }
  },
  {
    "service_request": "2026-1276101",
    "request_type": "Trash/Recycling",
    "request_reason": "Order Recycling Cart",
    "date_created": "2026-04-23T16:35:14.000",
    "date_modified": "2026-04-23T16:35:16.000",
    "request_status": "Pending",
    "responsible_agency": "Department of Sanitation",
    "final_address": "1121 Dufossat St",
    "address_councildis": "B",
    "status": "Pending",
    "rowid": "1276101",
    "final_x": "3668113.97383",
    "final_y": "519546.602295",
    "longitude": "-90.11074211592107",
    "latitude": "29.922972338543524",
    "geocoded_column": {
      "latitude": "29.922972338543524",
      "longitude": "-90.11074211592107"
    }
  },
  {
    "service_request": "2026-1276100",
    "request_type": "Trash/Recycling",
    "request_reason": "Order Recycling Cart",
    "date_created": "2026-04-23T16:29:34.000",
    "date_modified": "2026-04-23T16:29:36.000",
    "request_status": "Pending",
    "responsible_agency": "Department of Sanitation",
    "final_address": "5324 Dryades St",
    "address_councildis": "B",
    "status": "Pending",
    "rowid": "1276100",
    "final_x": "3667670.50599",
    "final_y": "521780.03385",
    "longitude": "-90.11206683464569",
    "latitude": "29.929126571034345",
    "geocoded_column": {
      "latitude": "29.929126571034345",
      "longitude": "-90.11206683464569"
    }
  },
  {
    "service_request": "2026-1276099",
    "request_type": "Trash/Recycling",
    "request_reason": "Request a Large Item Pick Up",
    "date_created": "2026-04-23T16:29:28.000",
    "date_modified": "2026-04-23T16:29:30.000",
    "request_status": "Pending",
    "responsible_agency": "Department of Sanitation",
    "final_address": "5801 Fontainebleau Dr",
    "address_councildis": "B",
    "status": "Assigned to Contractor",
    "contractor": "IV Waste",
    "rowid": "1276099",
    "final_x": "3668532.03482",
    "final_y": "529851.562945",
    "longitude": "-90.10907490615558",
    "latitude": "29.951295394940505",
    "geocoded_column": {
      "latitude": "29.951295394940505",
      "longitude": "-90.10907490615558"
    }
  },
  {
    "service_request": "2026-1276098",
    "request_type": "Trash/Recycling",
    "request_reason": "Replace Trash Cart",
    "date_created": "2026-04-23T16:27:13.000",
    "date_modified": "2026-04-23T16:27:15.000",
    "request_status": "Pending",
    "responsible_agency": "Department of Sanitation",
    "final_address": "2713 Valence St",
    "address_councildis": "B",
    "status": "Assigned to Contractor",
    "contractor": "IV Waste",
    "rowid": "1276098",
    "final_x": "3669389.95386",
    "final_y": "524753.834044",
    "longitude": "-90.10653834613342",
    "latitude": "29.937253064272305",
    "geocoded_column": {
      "latitude": "29.937253064272305",
      "longitude": "-90.10653834613342"
    }
  },
  {
    "service_request": "2026-1276097",
    "request_type": "Abandoned Vehicles",
    "request_reason": "Abandoned/Junk Vehicles",
    "date_created": "2026-04-23T16:26:17.000",
    "date_modified": "2026-04-23T16:26:18.000",
    "request_status": "Pending",
    "responsible_agency": "Department of Public Works",
    "final_address": "7703 Berg Rd",
    "address_councildis": "E",
    "status": "Pending",
    "rowid": "1276097",
    "final_x": "3711766.37208",
    "final_y": "567061.684196",
    "longitude": "-89.97116684755179",
    "latitude": "30.05226796486996",
    "geocoded_column": {
      "latitude": "30.05226796486996",
      "longitude": "-89.97116684755179"
    }
  },
  {
    "service_request": "2026-1276096",
    "request_type": "Trash/Recycling",
    "request_reason": "Request a Large Item Pick Up",
    "date_created": "2026-04-23T16:20:28.000",
    "date_modified": "2026-04-23T16:20:31.000",
    "request_status": "Pending",
    "responsible_agency": "Department of Sanitation",
    "final_address": "4573 Francisco Verrett Dr",
    "address_councildis": "E",
    "status": "Assigned to Contractor",
    "contractor": "Waste Pro",
    "rowid": "1276096",
    "final_x": "3704378.12938",
    "final_y": "554068.224216",
    "longitude": "-89.99499839612224",
    "latitude": "30.016780471898205",
    "geocoded_column": {
      "latitude": "30.016780471898205",
      "longitude": "-89.99499839612224"
    }
  },
  {
    "service_request": "2026-1276095",
    "request_type": "Trash/Recycling",
    "request_reason": "Replace Recycling Cart",
    "date_created": "2026-04-23T16:12:27.000",
    "date_modified": "2026-04-23T16:12:28.000",
    "request_status": "Pending",
    "responsible_agency": "Department of Sanitation",
    "final_address": "5129 St Roch Ave",
    "address_councildis": "D",
    "status": "Pending",
    "rowid": "1276095",
    "final_x": "3685331.41845",
    "final_y": "551675.595733",
    "longitude": "-90.05526221882903",
    "latitude": "30.0107995627609",
    "geocoded_column": {
      "latitude": "30.0107995627609",
      "longitude": "-90.05526221882903"
    }
  },
  {
    "service_request": "2026-1276094",
    "request_type": "Roads and Streets",
    "request_reason": "Pothole",
    "date_created": "2026-04-23T16:10:33.000",
    "date_modified": "2026-04-23T16:10:35.000",
    "request_status": "Pending",
    "responsible_agency": "Department of Public Works",
    "final_address": "3RD ST & S CLAIBORNE AVE",
    "address_councildis": "B",
    "status": "Pending",
    "rowid": "1276094",
    "final_x": "3673716.3",
    "final_y": "526998.68",
    "longitude": "-90.09280304937765",
    "latitude": "29.943297582897983",
    "geocoded_column": {
      "latitude": "29.943297582897983",
      "longitude": "-90.09280304937765"
    }
  },
  {
    "service_request": "2026-1276093",
    "request_type": "Street and Traffic Signs",
    "request_reason": "Traffic or Parking Sign Damaged or Missing",
    "date_created": "2026-04-23T16:03:40.000",
    "date_modified": "2026-04-23T16:03:42.000",
    "request_status": "Pending",
    "responsible_agency": "Department of Public Works",
    "final_address": "101 Magazine St",
    "address_councildis": "B",
    "status": "Pending",
    "rowid": "1276093",
    "final_x": "3681694.06056",
    "final_y": "530136.289473",
    "longitude": "-90.06750581650434",
    "latitude": "29.951685053685758",
    "geocoded_column": {
      "latitude": "29.951685053685758",
      "longitude": "-90.06750581650434"
    }
  },
  {
    "service_request": "2026-1276092",
    "request_type": "Trash/Recycling",
    "request_reason": "Order Recycling Cart",
    "date_created": "2026-04-23T16:03:10.000",
    "date_modified": "2026-04-23T16:03:11.000",
    "request_status": "Pending",
    "responsible_agency": "Department of Sanitation",
    "final_address": "1829 Mandeville St",
    "address_councildis": "D",
    "status": "Pending",
    "rowid": "1276092",
    "final_x": "3685580.71778",
    "final_y": "539181.724938",
    "longitude": "-90.05491498797653",
    "latitude": "29.97643823986549",
    "geocoded_column": {
      "latitude": "29.97643823986549",
      "longitude": "-90.05491498797653"
    }
  },
  {
    "service_request": "2026-1276091",
    "request_type": "Trash/Recycling",
    "request_reason": "Replace Recycling Cart",
    "date_created": "2026-04-23T16:02:49.000",
    "date_modified": "2026-04-23T16:02:51.000",
    "request_status": "Pending",
    "responsible_agency": "Department of Sanitation",
    "final_address": "5129 St Roch Ave",
    "address_councildis": "D",
    "status": "Pending",
    "rowid": "1276091",
    "final_x": "3685331.41845",
    "final_y": "551675.595733",
    "longitude": "-90.05526221882903",
    "latitude": "30.0107995627609",
    "geocoded_column": {
      "latitude": "30.0107995627609",
      "longitude": "-90.05526221882903"
    }
  },
  {
    "service_request": "2026-1276090",
    "request_type": "Trash/Recycling",
    "request_reason": "Repair Trash Cart",
    "date_created": "2026-04-23T15:57:28.000",
    "date_modified": "2026-04-23T15:57:30.000",
    "request_status": "Pending",
    "responsible_agency": "Department of Sanitation",
    "final_address": "56 Spanish Fort Blvd",
    "address_councildis": "D",
    "status": "Assigned to Contractor",
    "contractor": "IV Waste",
    "rowid": "1276090",
    "final_x": "3674298.37825",
    "final_y": "555405.431641",
    "longitude": "-90.08999208832702",
    "latitude": "30.02138903987478",
    "geocoded_column": {
      "latitude": "30.02138903987478",
      "longitude": "-90.08999208832702"
    }
  },
  {
    "service_request": "2026-1276089",
    "request_type": "Trash/Recycling",
    "request_reason": "Request a Large Item Pick Up",
    "date_created": "2026-04-23T15:54:33.000",
    "date_modified": "2026-04-23T15:54:34.000",
    "request_status": "Pending",
    "responsible_agency": "Department of Sanitation",
    "final_address": "4666 Lurline St",
    "address_councildis": "E",
    "status": "Assigned to Contractor",
    "contractor": "Waste Pro",
    "rowid": "1276089",
    "final_x": "3711940.13611",
    "final_y": "555689.569049",
    "longitude": "-89.97104497154652",
    "latitude": "30.02099350993239",
    "geocoded_column": {
      "latitude": "30.02099350993239",
      "longitude": "-89.97104497154652"
    }
  },
  {
    "service_request": "2026-1276088",
    "request_type": "Streetlights",
    "request_reason": "Streetlight Outage/Malfunction",
    "date_created": "2026-04-23T15:53:57.000",
    "date_modified": "2026-04-23T15:53:59.000",
    "request_status": "Pending",
    "responsible_agency": "Department of Public Works",
    "final_address": "5945 General Diaz St",
    "address_councildis": "A",
    "status": "Pending",
    "rowid": "1276088",
    "final_x": "3669562.52935",
    "final_y": "546863.227153",
    "longitude": "-90.10524540244793",
    "latitude": "29.998041427227555",
    "geocoded_column": {
      "latitude": "29.998041427227555",
      "longitude": "-90.10524540244793"
    }
  },
  {
    "service_request": "2026-1276087",
    "request_type": "Trash/Recycling",
    "request_reason": "Request a Large Item Pick Up",
    "date_created": "2026-04-23T15:46:22.000",
    "date_modified": "2026-04-23T16:12:56.000",
    "request_status": "Pending",
    "responsible_agency": "Department of Sanitation",
    "final_address": "1919 Montegut St",
    "address_councildis": "D",
    "status": "Assigned to Contractor",
    "contractor": "IV Waste",
    "rowid": "1276087",
    "final_x": "3689329.92342",
    "final_y": "539278.073802",
    "longitude": "-90.04307047193626",
    "latitude": "29.976587614455298",
    "geocoded_column": {
      "latitude": "29.976587614455298",
      "longitude": "-90.04307047193626"
    }
  },
  {
    "service_request": "2026-1276086",
    "request_type": "Safety & Permits",
    "request_reason": "Licenses & Permits",
    "date_created": "2026-04-23T15:44:55.000",
    "date_modified": "2026-04-23T15:47:23.000",
    "request_status": "Pending",
    "responsible_agency": "Safety and Permits",
    "final_address": "CLEVELAND AVE & S BROAD ST",
    "address_councildis": "B",
    "status": "Pending",
    "rowid": "1276086",
    "final_x": "3675125.0",
    "final_y": "534748.98",
    "longitude": "-90.08808949577593",
    "latitude": "29.9645663148029",
    "geocoded_column": {
      "latitude": "29.9645663148029",
      "longitude": "-90.08808949577593"
    }
  },
  {
    "service_request": "2026-1276085",
    "request_type": "Drainage",
    "request_reason": "Illegal Dumping (Sewer Odor)",
    "date_created": "2026-04-23T15:40:23.000",
    "date_modified": "2026-04-23T15:40:40.000",
    "request_status": "Pending",
    "responsible_agency": "Sewerage & Water Board",
    "final_address": "1209 Charbonnet St",
    "address_councildis": "E",
    "status": "Pending",
    "rowid": "1276085",
    "final_x": "3698791.80996",
    "final_y": "534109.939845",
    "longitude": "-90.01337513447697",
    "latitude": "29.962080749245455",
    "geocoded_column": {
      "latitude": "29.962080749245455",
      "longitude": "-90.01337513447697"
    }
  },
  {
    "service_request": "2026-1276084",
    "request_type": "Parks & Grass Service",
    "request_reason": "Request Grass Cutting Service (City Owned Property)",
    "date_created": "2026-04-23T15:36:47.000",
    "date_modified": "2026-04-23T15:36:49.000",
    "request_status": "Pending",
    "responsible_agency": "Department of Parks & Parkways",
    "final_address": "1209 Charbonnet St",
    "address_councildis": "E",
    "status": "Pending",
    "rowid": "1276084",
    "final_x": "3698791.80996",
    "final_y": "534109.939845",
    "longitude": "-90.01337513447697",
    "latitude": "29.962080749245455",
    "geocoded_column": {
      "latitude": "29.962080749245455",
      "longitude": "-90.01337513447697"
    }
  },
  {
    "service_request": "2026-1276083",
    "request_type": "Street and Traffic Signs",
    "request_reason": "Street Name Sign Damaged or Missing",
    "date_created": "2026-04-23T15:36:07.000",
    "date_modified": "2026-04-23T15:36:08.000",
    "request_status": "Pending",
    "responsible_agency": "Department of Public Works",
    "final_address": "ST FERDINAND DR & DEMENT ST",
    "address_councildis": "D",
    "status": "Pending",
    "rowid": "1276083",
    "final_x": "3689467.0",
    "final_y": "549932.68",
    "longitude": "-90.0422583867134",
    "latitude": "30.005879700064696",
    "geocoded_column": {
      "latitude": "30.005879700064696",
      "longitude": "-90.0422583867134"
    }
  },
  {
    "service_request": "2026-1276082",
    "request_type": "Street and Traffic Signs",
    "request_reason": "Traffic or Parking Sign Damaged or Missing",
    "date_created": "2026-04-23T15:33:01.000",
    "date_modified": "2026-04-23T15:33:02.000",
    "request_status": "Pending",
    "responsible_agency": "Department of Public Works",
    "final_address": "2740 OReilly St",
    "address_councildis": "D",
    "status": "Pending",
    "rowid": "1276082",
    "final_x": "3679418.03349",
    "final_y": "541730.505996",
    "longitude": "-90.0742901579997",
    "latitude": "29.983634122797206",
    "geocoded_column": {
      "latitude": "29.983634122797206",
      "longitude": "-90.0742901579997"
    }
  },
  {
    "service_request": "2026-1276081",
    "request_type": "Street and Traffic Signs",
    "request_reason": "Street Name Sign Damaged or Missing",
    "date_created": "2026-04-23T15:32:59.000",
    "date_modified": "2026-04-23T15:33:00.000",
    "request_status": "Pending",
    "responsible_agency": "Department of Public Works",
    "final_address": "DREUX AVE & PIETY DR",
    "address_councildis": "D",
    "status": "Pending",
    "rowid": "1276081",
    "final_x": "3691121.1",
    "final_y": "553111.88",
    "longitude": "-90.03691907865851",
    "latitude": "30.014569975182088",
    "geocoded_column": {
      "latitude": "30.014569975182088",
      "longitude": "-90.03691907865851"
    }
  },
  {
    "service_request": "2026-1276080",
    "request_type": "Trash/Recycling",
    "request_reason": "Replace Trash Cart",
    "date_created": "2026-04-23T15:32:28.000",
    "date_modified": "2026-04-23T15:33:44.000",
    "request_status": "Pending",
    "responsible_agency": "Department of Sanitation",
    "final_address": "1629 N Villere St",
    "address_councildis": "C",
    "status": "Assigned to Contractor",
    "contractor": "IV Waste",
    "rowid": "1276080",
    "final_x": "3682764.48047",
    "final_y": "537338.187592",
    "longitude": "-90.06387401428734",
    "latitude": "29.971455248485473",
    "geocoded_column": {
      "latitude": "29.971455248485473",
      "longitude": "-90.06387401428734"
    }
  },
  {
    "service_request": "2026-1276079",
    "request_type": "Street and Traffic Signs",
    "request_reason": "Street Name Sign Damaged or Missing",
    "date_created": "2026-04-23T15:31:12.000",
    "date_modified": "2026-04-23T15:31:14.000",
    "request_status": "Pending",
    "responsible_agency": "Department of Public Works",
    "final_address": "PIETY DR & PINEDA ST",
    "address_councildis": "D",
    "status": "Pending",
    "rowid": "1276079",
    "final_x": "3691228.0",
    "final_y": "552599.98",
    "longitude": "-90.03659963163521",
    "latitude": "30.01315911411273",
    "geocoded_column": {
      "latitude": "30.01315911411273",
      "longitude": "-90.03659963163521"
    }
  },
  {
    "service_request": "2026-1276078",
    "request_type": "Street and Traffic Signs",
    "request_reason": "Street Name Sign Damaged or Missing",
    "date_created": "2026-04-23T15:29:27.000",
    "date_modified": "2026-04-23T15:29:28.000",
    "request_status": "Pending",
    "responsible_agency": "Department of Public Works",
    "final_address": "DREUX AVE & ST FERDINAND DR",
    "address_councildis": "D",
    "status": "Pending",
    "rowid": "1276078",
    "final_x": "3689023.0",
    "final_y": "552607.98",
    "longitude": "-90.04356594758418",
    "latitude": "30.013249540496517",
    "geocoded_column": {
      "latitude": "30.013249540496517",
      "longitude": "-90.04356594758418"
    }
  },
  {
    "service_request": "2026-1276077",
    "request_type": "Trash/Recycling",
    "request_reason": "Illegal Dumping",
    "date_created": "2026-04-23T15:28:37.000",
    "date_modified": "2026-04-23T15:31:09.000",
    "request_status": "Pending",
    "responsible_agency": "Department of Sanitation",
    "final_address": "1800 BLK N Roman St",
    "address_councildis": "D",
    "status": "Pending",
    "rowid": "1276077",
    "final_x": "3683487.5116",
    "final_y": "538774.490152",
    "longitude": "-90.06154023355722",
    "latitude": "29.975382535532614",
    "geocoded_column": {
      "latitude": "29.975382535532614",
      "longitude": "-90.06154023355722"
    }
  },
  {
    "service_request": "2026-1276076",
    "request_type": "Street and Traffic Signs",
    "request_reason": "Street Name Sign Damaged or Missing",
    "date_created": "2026-04-23T15:25:28.000",
    "date_modified": "2026-04-23T15:25:29.000",
    "request_status": "Pending",
    "responsible_agency": "Department of Public Works",
    "final_address": "GALLIER DR & MIRABEAU AVE",
    "address_councildis": "D",
    "status": "Pending",
    "rowid": "1276076",
    "final_x": "3691945.6",
    "final_y": "551989.68",
    "longitude": "-90.03435426728672",
    "latitude": "30.011458666286405",
    "geocoded_column": {
      "latitude": "30.011458666286405",
      "longitude": "-90.03435426728672"
    }
  },
  {
    "service_request": "2026-1276075",
    "request_type": "Street and Traffic Signs",
    "request_reason": "Street Name Sign Damaged or Missing",
    "date_created": "2026-04-23T15:24:14.000",
    "date_modified": "2026-04-23T15:24:16.000",
    "request_status": "Pending",
    "responsible_agency": "Department of Public Works",
    "final_address": "LOUISA DR & STEPHEN GIRARD AVE",
    "address_councildis": "D",
    "status": "Pending",
    "rowid": "1276075",
    "final_x": "3691059.6",
    "final_y": "550370.98",
    "longitude": "-90.03721134453387",
    "latitude": "30.007035426510587",
    "geocoded_column": {
      "latitude": "30.007035426510587",
      "longitude": "-90.03721134453387"
    }
  },
  {
    "service_request": "2026-1276074",
    "request_type": "Street and Traffic Signs",
    "request_reason": "Street Name Sign Damaged or Missing",
    "date_created": "2026-04-23T15:22:38.000",
    "date_modified": "2026-04-23T15:22:39.000",
    "request_status": "Pending",
    "responsible_agency": "Department of Public Works",
    "final_address": "METROPOLITAN DR & MIRABEAU AVE",
    "address_councildis": "D",
    "status": "Pending",
    "rowid": "1276074",
    "final_x": "3690550.0",
    "final_y": "551444.88",
    "longitude": "-90.03878297313156",
    "latitude": "30.01000409610655",
    "geocoded_column": {
      "latitude": "30.01000409610655",
      "longitude": "-90.03878297313156"
    }
  },
  {
    "service_request": "2026-1276073",
    "request_type": "Streetlights",
    "request_reason": "New Streetlight Request",
    "date_created": "2026-04-23T15:22:25.000",
    "date_modified": "2026-04-23T15:22:27.000",
    "request_status": "Pending",
    "responsible_agency": "Department of Public Works",
    "final_address": "1816 Camp St",
    "address_councildis": "B",
    "status": "Pending",
    "rowid": "1276073",
    "final_x": "3679540.67573",
    "final_y": "523182.903675",
    "longitude": "-90.07454636638079",
    "latitude": "29.93263078973642",
    "geocoded_column": {
      "latitude": "29.93263078973642",
      "longitude": "-90.07454636638079"
    }
  },
  {
    "service_request": "2026-1276072",
    "request_type": "Trash/Recycling",
    "request_reason": "Request a Large Item Pick Up",
    "date_created": "2026-04-23T15:20:23.000",
    "date_modified": "2026-04-23T15:24:41.000",
    "request_status": "Pending",
    "responsible_agency": "Department of Sanitation",
    "final_address": "2019 Lamanche St",
    "address_councildis": "E",
    "status": "Assigned to Contractor",
    "contractor": "Waste Pro",
    "rowid": "1276072",
    "final_x": "3699388.48349",
    "final_y": "537185.089928",
    "longitude": "-90.01137890803949",
    "latitude": "29.970517396283107",
    "geocoded_column": {
      "latitude": "29.970517396283107",
      "longitude": "-90.01137890803949"
    }
  },
  {
    "service_request": "2026-1276071",
    "request_type": "Street and Traffic Signs",
    "request_reason": "Street Name Sign Damaged or Missing",
    "date_created": "2026-04-23T15:20:19.000",
    "date_modified": "2026-04-23T15:20:21.000",
    "request_status": "Pending",
    "responsible_agency": "Department of Public Works",
    "final_address": "MIRABEAU AVE & MONTEGUT DR",
    "address_councildis": "D",
    "status": "Pending",
    "rowid": "1276071",
    "final_x": "3689812.6",
    "final_y": "551326.08",
    "longitude": "-90.041116914502",
    "latitude": "30.009700326509662",
    "geocoded_column": {
      "latitude": "30.009700326509662",
      "longitude": "-90.041116914502"
    }
  },
  {
    "service_request": "2026-1276070",
    "request_type": "Property Maintenance",
    "request_reason": "Property Maintenance",
    "date_created": "2026-04-23T15:19:20.000",
    "date_modified": "2026-04-23T15:19:22.000",
    "request_status": "Pending",
    "responsible_agency": "Department of Code Enforcement",
    "final_address": "9 Lincoln Beach Blvd",
    "address_councildis": "E",
    "status": "Pending",
    "rowid": "1276070",
    "final_x": "3698963.86698",
    "final_y": "561495.277151",
    "longitude": "-90.01183444984581",
    "latitude": "30.037374788521717",
    "geocoded_column": {
      "latitude": "30.037374788521717",
      "longitude": "-90.01183444984581"
    }
  },
  {
    "service_request": "2026-1276069",
    "request_type": "Abandoned Vehicles",
    "request_reason": "Abandoned/Junk Vehicles",
    "date_created": "2026-04-23T15:18:10.000",
    "date_modified": "2026-04-23T15:18:13.000",
    "request_status": "Pending",
    "responsible_agency": "Department of Public Works",
    "final_address": "920 Picheloup Pl",
    "address_councildis": "A",
    "status": "Pending",
    "rowid": "1276069",
    "final_x": "3673643.58542",
    "final_y": "540391.204363",
    "longitude": "-90.09257476538848",
    "latitude": "29.980124702607736",
    "geocoded_column": {
      "latitude": "29.980124702607736",
      "longitude": "-90.09257476538848"
    }
  },
  {
    "service_request": "2026-1276068",
    "request_type": "Trash/Recycling",
    "request_reason": "MIssed Recycling Pick-Up",
    "date_created": "2026-04-23T15:17:53.000",
    "date_modified": "2026-04-23T15:17:54.000",
    "request_status": "Pending",
    "responsible_agency": "Department of Sanitation",
    "final_address": "4520 Knight Dr",
    "address_councildis": "E",
    "status": "Assigned to Contractor",
    "contractor": "Waste Pro",
    "rowid": "1276068",
    "final_x": "3708195.50084",
    "final_y": "554194.185304",
    "longitude": "-89.98293252420224",
    "latitude": "30.017003666816976",
    "geocoded_column": {
      "latitude": "30.017003666816976",
      "longitude": "-89.98293252420224"
    }
  },
  {
    "service_request": "2026-1276067",
    "request_type": "Trash/Recycling",
    "request_reason": "MIssed Recycling Pick-Up",
    "date_created": "2026-04-23T15:17:36.000",
    "date_modified": "2026-04-23T15:17:38.000",
    "request_status": "Pending",
    "responsible_agency": "Department of Sanitation",
    "final_address": "7515 Michigan St",
    "address_councildis": "E",
    "status": "Assigned to Contractor",
    "contractor": "Waste Pro",
    "rowid": "1276067",
    "final_x": "3712231.3877",
    "final_y": "565922.436899",
    "longitude": "-89.9697399367572",
    "latitude": "30.04912028923194",
    "geocoded_column": {
      "latitude": "30.04912028923194",
      "longitude": "-89.9697399367572"
    }
  },
  {
    "service_request": "2026-1276066",
    "request_type": "Streetlights",
    "request_reason": "Streetlight Outage/Malfunction",
    "date_created": "2026-04-23T15:17:09.000",
    "date_modified": "2026-04-23T15:17:10.000",
    "request_status": "Pending",
    "responsible_agency": "Department of Public Works",
    "final_address": "1816 Camp St",
    "address_councildis": "B",
    "status": "Pending",
    "rowid": "1276066",
    "final_x": "3679540.67573",
    "final_y": "523182.903675",
    "longitude": "-90.07454636638079",
    "latitude": "29.93263078973642",
    "geocoded_column": {
      "latitude": "29.93263078973642",
      "longitude": "-90.07454636638079"
    }
  },
  {
    "service_request": "2026-1276065",
    "request_type": "Street and Traffic Signs",
    "request_reason": "Street Name Sign Damaged or Missing",
    "date_created": "2026-04-23T15:11:15.000",
    "date_modified": "2026-04-23T15:11:18.000",
    "request_status": "Pending",
    "responsible_agency": "Department of Public Works",
    "final_address": "4200 Walmsley Ave",
    "address_councildis": "B",
    "status": "Pending",
    "rowid": "1276065",
    "final_x": "3670072.11674",
    "final_y": "529733.924481",
    "longitude": "-90.10421605782085",
    "latitude": "29.95092659264893",
    "geocoded_column": {
      "latitude": "29.95092659264893",
      "longitude": "-90.10421605782085"
    }
  },
  {
    "service_request": "2026-1276064",
    "request_type": "Streetlights",
    "request_reason": "Streetlight Outage/Malfunction",
    "date_created": "2026-04-23T15:10:49.000",
    "date_modified": "2026-04-23T15:10:50.000",
    "request_status": "Pending",
    "responsible_agency": "Department of Public Works",
    "final_address": "9110 Tilford Rd",
    "address_councildis": "E",
    "status": "Pending",
    "rowid": "1276064",
    "final_x": "3708438.24721",
    "final_y": "557245.333595",
    "longitude": "-89.98205186506385",
    "latitude": "30.02538526803743",
    "geocoded_column": {
      "latitude": "30.02538526803743",
      "longitude": "-89.98205186506385"
    }
  },
  {
    "service_request": "2026-1276063",
    "request_type": "Trash/Recycling",
    "request_reason": "Request a Large Item Pick Up",
    "date_created": "2026-04-23T15:10:36.000",
    "date_modified": "2026-04-23T15:10:37.000",
    "request_status": "Pending",
    "responsible_agency": "Department of Sanitation",
    "final_address": "7348 Canterbury St",
    "address_councildis": "E",
    "status": "Assigned to Contractor",
    "contractor": "Waste Pro",
    "rowid": "1276063",
    "final_x": "3698783.00983",
    "final_y": "559296.323612",
    "longitude": "-90.01248610264079",
    "latitude": "30.031334250668035",
    "geocoded_column": {
      "latitude": "30.031334250668035",
      "longitude": "-90.01248610264079"
    }
  },
  {
    "service_request": "2026-1276062",
    "request_type": "Property Maintenance",
    "request_reason": "Property Maintenance",
    "date_created": "2026-04-23T15:04:30.000",
    "date_modified": "2026-04-23T16:10:12.000",
    "request_status": "Pending",
    "responsible_agency": "Department of Code Enforcement",
    "final_address": "3221 Toledano St",
    "address_councildis": "B",
    "status": "Pending",
    "rowid": "1276062",
    "final_x": "3672208.06087",
    "final_y": "527568.147263",
    "longitude": "-90.09754556245213",
    "latitude": "29.944908244136414",
    "geocoded_column": {
      "latitude": "29.944908244136414",
      "longitude": "-90.09754556245213"
    }
  },
  {
    "service_request": "2026-1276061",
    "request_type": "Trash/Recycling",
    "request_reason": "Request a Large Item Pick Up",
    "date_created": "2026-04-23T15:01:41.000",
    "date_modified": "2026-04-23T15:01:42.000",
    "request_status": "Pending",
    "responsible_agency": "Department of Sanitation",
    "final_address": "4560 Francisco Verrett Dr",
    "address_councildis": "E",
    "status": "Assigned to Contractor",
    "contractor": "Waste Pro",
    "rowid": "1276061",
    "final_x": "3704299.35614",
    "final_y": "554026.151256",
    "longitude": "-89.9952488368954",
    "latitude": "30.016667317013255",
    "geocoded_column": {
      "latitude": "30.016667317013255",
      "longitude": "-89.9952488368954"
    }
  },
  {
    "service_request": "2026-1276060",
    "request_type": "Trash/Recycling",
    "request_reason": "Order Trash Cart",
    "date_created": "2026-04-23T14:54:06.000",
    "date_modified": "2026-04-23T14:54:09.000",
    "request_status": "Pending",
    "responsible_agency": "Department of Sanitation",
    "final_address": "3400 River Oaks Dr",
    "address_councildis": "C",
    "status": "Assigned to Contractor",
    "contractor": "Richards Disposal",
    "rowid": "1276060",
    "final_x": "3701480.47652",
    "final_y": "518659.012343",
    "longitude": "-90.00545022392761",
    "latitude": "29.919510680600247",
    "geocoded_column": {
      "latitude": "29.919510680600247",
      "longitude": "-90.00545022392761"
    }
  },
  {
    "service_request": "2026-1276059",
    "request_type": "Trash/Recycling",
    "request_reason": "Request a Large Item Pick Up",
    "date_created": "2026-04-23T14:51:12.000",
    "date_modified": "2026-04-23T14:51:13.000",
    "request_status": "Pending",
    "responsible_agency": "Department of Sanitation",
    "final_address": "11030 Guildford Rd",
    "address_councildis": "E",
    "status": "Assigned to Contractor",
    "contractor": "Waste Pro",
    "rowid": "1276059",
    "final_x": "3711806.23915",
    "final_y": "564157.847713",
    "longitude": "-89.9711499511847",
    "latitude": "30.044282286320033",
    "geocoded_column": {
      "latitude": "30.044282286320033",
      "longitude": "-89.9711499511847"
    }
  },
  {
    "service_request": "2026-1276058",
    "request_type": "Roads and Streets",
    "request_reason": "Sidewalk Damaged or Missing",
    "date_created": "2026-04-23T14:47:49.000",
    "date_modified": "2026-04-23T14:47:53.000",
    "request_status": "Pending",
    "responsible_agency": "Department of Public Works",
    "final_address": "5528 Hurst St",
    "address_councildis": "A",
    "status": "Pending",
    "rowid": "1276058",
    "final_x": "3666735.20481",
    "final_y": "521383.583673",
    "longitude": "-90.11503271638271",
    "latitude": "29.928063836218175",
    "geocoded_column": {
      "latitude": "29.928063836218175",
      "longitude": "-90.11503271638271"
    }
  },
  {
    "service_request": "2026-1276057",
    "request_type": "Trash/Recycling",
    "request_reason": "MIssed Recycling Pick-Up",
    "date_created": "2026-04-23T14:46:46.000",
    "date_modified": "2026-04-23T14:46:47.000",
    "request_status": "Pending",
    "responsible_agency": "Department of Sanitation",
    "final_address": "5501 Burgundy St",
    "address_councildis": "E",
    "status": "Assigned to Contractor",
    "contractor": "Waste Pro",
    "rowid": "1276057",
    "final_x": "3697557.99178",
    "final_y": "533087.43738",
    "longitude": "-90.0173084076639",
    "latitude": "29.95930825354646",
    "geocoded_column": {
      "latitude": "29.95930825354646",
      "longitude": "-90.0173084076639"
    }
  },
  {
    "service_request": "2026-1276056",
    "request_type": "Trash/Recycling",
    "request_reason": "Request a Large Item Pick Up",
    "date_created": "2026-04-23T14:45:42.000",
    "date_modified": "2026-04-23T14:45:44.000",
    "request_status": "Pending",
    "responsible_agency": "Department of Sanitation",
    "final_address": "7801 Primrose Dr",
    "address_councildis": "E",
    "status": "Assigned to Contractor",
    "contractor": "Waste Pro",
    "rowid": "1276056",
    "final_x": "3701636.30583",
    "final_y": "561736.926111",
    "longitude": "-90.00338011628854",
    "latitude": "30.037954211103454",
    "geocoded_column": {
      "latitude": "30.037954211103454",
      "longitude": "-90.00338011628854"
    }
  },
  {
    "service_request": "2026-1276055",
    "request_type": "Roads and Streets",
    "request_reason": "Abandoned Service Cut",
    "date_created": "2026-04-23T14:42:06.000",
    "date_modified": "2026-04-23T14:43:08.000",
    "request_status": "Pending",
    "responsible_agency": "Department of Public Works",
    "final_address": "3229 DHemecourt St",
    "address_councildis": "B",
    "status": "Pending",
    "rowid": "1276055",
    "final_x": "3672509.56865",
    "final_y": "534843.636742",
    "longitude": "-90.09634562650379",
    "latitude": "29.964904484190324",
    "geocoded_column": {
      "latitude": "29.964904484190324",
      "longitude": "-90.09634562650379"
    }
  },
  {
    "service_request": "2026-1276054",
    "request_type": "Roads and Streets",
    "request_reason": "Abandoned Service Cut",
    "date_created": "2026-04-23T14:37:20.000",
    "date_modified": "2026-04-23T14:37:22.000",
    "request_status": "Pending",
    "responsible_agency": "Department of Public Works",
    "final_address": "821 Poland Ave",
    "address_councildis": "C",
    "status": "Pending",
    "rowid": "1276054",
    "final_x": "3692853.24765",
    "final_y": "534005.285765",
    "longitude": "-90.03213188742626",
    "latitude": "29.96197975403568",
    "geocoded_column": {
      "latitude": "29.96197975403568",
      "longitude": "-90.03213188742626"
    }
  },
  {
    "service_request": "2026-1276053",
    "request_type": "Trash/Recycling",
    "request_reason": "Request a Large Item Pick Up",
    "date_created": "2026-04-23T14:37:16.000",
    "date_modified": "2026-04-23T14:37:18.000",
    "request_status": "Pending",
    "responsible_agency": "Department of Sanitation",
    "final_address": "4427 Dodt Ave",
    "address_councildis": "E",
    "status": "Assigned to Contractor",
    "contractor": "Waste Pro",
    "rowid": "1276053",
    "final_x": "3705639.18763",
    "final_y": "553654.908951",
    "longitude": "-89.99102931243888",
    "latitude": "30.01560345409785",
    "geocoded_column": {
      "latitude": "30.01560345409785",
      "longitude": "-89.99102931243888"
    }
  },
  {
    "service_request": "2026-1276052",
    "request_type": "Trash/Recycling",
    "request_reason": "Replace Trash Cart",
    "date_created": "2026-04-23T14:31:07.000",
    "date_modified": "2026-04-23T14:31:10.000",
    "request_status": "Pending",
    "responsible_agency": "Department of Sanitation",
    "final_address": "5637 Oxford Pl",
    "address_councildis": "C",
    "status": "Assigned to Contractor",
    "contractor": "Richards Disposal",
    "rowid": "1276052",
    "final_x": "3704439.65201",
    "final_y": "520012.125624",
    "longitude": "-89.99605980844571",
    "latitude": "29.923136647434454",
    "geocoded_column": {
      "latitude": "29.923136647434454",
      "longitude": "-89.99605980844571"
    }
  },
  {
    "service_request": "2026-1276051",
    "request_type": "Trash/Recycling",
    "request_reason": "Order Trash Cart",
    "date_created": "2026-04-23T14:27:04.000",
    "date_modified": "2026-04-23T14:27:05.000",
    "request_status": "Pending",
    "responsible_agency": "Department of Sanitation",
    "final_address": "7032 Boston Dr",
    "address_councildis": "E",
    "status": "Assigned to Contractor",
    "contractor": "Waste Pro",
    "rowid": "1276051",
    "final_x": "3706355.10686",
    "final_y": "560669.409566",
    "longitude": "-89.98850724136396",
    "latitude": "30.034867520048817",
    "geocoded_column": {
      "latitude": "30.034867520048817",
      "longitude": "-89.98850724136396"
    }
  },
  {
    "service_request": "2026-1276050",
    "request_type": "Trash/Recycling",
    "request_reason": "Order Trash Cart",
    "date_created": "2026-04-23T14:24:20.000",
    "date_modified": "2026-04-23T14:24:21.000",
    "request_status": "Pending",
    "responsible_agency": "Department of Sanitation",
    "final_address": "7030 Boston Dr",
    "address_councildis": "E",
    "status": "Assigned to Contractor",
    "contractor": "Waste Pro",
    "rowid": "1276050",
    "final_x": "3706367.73963",
    "final_y": "560652.00067",
    "longitude": "-89.98846796591668",
    "latitude": "30.034819244756914",
    "geocoded_column": {
      "latitude": "30.034819244756914",
      "longitude": "-89.98846796591668"
    }
  },
  {
    "service_request": "2026-1276049",
    "request_type": "Property Maintenance",
    "request_reason": "Property Maintenance",
    "date_created": "2026-04-23T14:23:10.000",
    "date_modified": "2026-04-23T14:23:12.000",
    "request_status": "Pending",
    "responsible_agency": "Department of Code Enforcement",
    "final_address": "2001 Gentilly Blvd",
    "address_councildis": "D",
    "status": "Pending",
    "rowid": "1276049",
    "final_x": "3679615.44315",
    "final_y": "543819.759694",
    "longitude": "-90.07359408443236",
    "latitude": "29.98937287383697",
    "geocoded_column": {
      "latitude": "29.98937287383697",
      "longitude": "-90.07359408443236"
    }
  },
  {
    "service_request": "2026-1276048",
    "request_type": "Property Maintenance",
    "request_reason": "Property Maintenance",
    "date_created": "2026-04-23T14:21:30.000",
    "date_modified": "2026-04-23T14:48:10.000",
    "case_close_date": "2026-04-23T09:48:10.000",
    "request_status": "Closed",
    "responsible_agency": "Department of Code Enforcement",
    "final_address": "3443 Esplanade Ave",
    "address_councildis": "A",
    "status": "Referred to Code Enforcement",
    "rowid": "1276048",
    "final_x": "3674984.858",
    "final_y": "541532.608716",
    "longitude": "-90.08829928752895",
    "latitude": "29.98322316835311",
    "geocoded_column": {
      "latitude": "29.98322316835311",
      "longitude": "-90.08829928752895"
    }
  },
  {
    "service_request": "2026-1276047",
    "request_type": "Streetlights",
    "request_reason": "New Streetlight Request",
    "date_created": "2026-04-23T14:17:36.000",
    "date_modified": "2026-04-23T15:04:53.000",
    "request_status": "Pending",
    "responsible_agency": "Department of Public Works",
    "final_address": "608 Second St",
    "address_councildis": "B",
    "status": "Pending",
    "rowid": "1276047",
    "final_x": "3678737.4987",
    "final_y": "519861.50668",
    "longitude": "-90.07719687638145",
    "latitude": "29.923522269954404",
    "geocoded_column": {
      "latitude": "29.923522269954404",
      "longitude": "-90.07719687638145"
    }
  },
  {
    "service_request": "2026-1276046",
    "request_type": "Trash/Recycling",
    "request_reason": "Request a Large Item Pick Up",
    "date_created": "2026-04-23T14:14:58.000",
    "date_modified": "2026-04-23T14:15:00.000",
    "request_status": "Pending",
    "responsible_agency": "Department of Sanitation",
    "final_address": "4930 Francisco Verrett Dr",
    "address_councildis": "E",
    "status": "Assigned to Contractor",
    "contractor": "Waste Pro",
    "rowid": "1276046",
    "final_x": "3704078.56561",
    "final_y": "556127.994586",
    "longitude": "-89.99586892098765",
    "latitude": "30.022453664981143",
    "geocoded_column": {
      "latitude": "30.022453664981143",
      "longitude": "-89.99586892098765"
    }
  },
  {
    "service_request": "2026-1276045",
    "request_type": "Streetlights",
    "request_reason": "Streetlight Outage/Malfunction",
    "date_created": "2026-04-23T14:08:49.000",
    "date_modified": "2026-04-23T14:09:51.000",
    "request_status": "Pending",
    "responsible_agency": "Department of Public Works",
    "final_address": "3626 Lang St",
    "address_councildis": "C",
    "status": "Pending",
    "rowid": "1276045",
    "final_x": "3702013.25476",
    "final_y": "517698.524214",
    "longitude": "-90.00380369840268",
    "latitude": "29.916852679832257",
    "geocoded_column": {
      "latitude": "29.916852679832257",
      "longitude": "-90.00380369840268"
    }
  },
  {
    "service_request": "2026-1276044",
    "request_type": "Healthy Homes",
    "request_reason": "Healthy Homes",
    "date_created": "2026-04-23T14:06:44.000",
    "date_modified": "2026-04-23T14:06:45.000",
    "request_status": "Pending",
    "responsible_agency": "Department of Code Enforcement",
    "final_address": "3443 Esplanade Ave",
    "address_councildis": "A",
    "status": "Pending",
    "rowid": "1276044",
    "final_x": "3674984.858",
    "final_y": "541532.608716",
    "longitude": "-90.08829928752895",
    "latitude": "29.98322316835311",
    "geocoded_column": {
      "latitude": "29.98322316835311",
      "longitude": "-90.08829928752895"
    }
  },
  {
    "service_request": "2026-1276043",
    "request_type": "Trash/Recycling",
    "request_reason": "Request a Large Item Pick Up",
    "date_created": "2026-04-23T14:04:17.000",
    "date_modified": "2026-04-23T15:21:30.000",
    "request_status": "Pending",
    "responsible_agency": "Department of Sanitation",
    "final_address": "1461 Constance St",
    "address_councildis": "B",
    "status": "Assigned to Contractor",
    "contractor": "IV Waste",
    "rowid": "1276043",
    "final_x": "3680567.04885",
    "final_y": "523927.700156",
    "longitude": "-90.07128029611026",
    "latitude": "29.934647690542807",
    "geocoded_column": {
      "latitude": "29.934647690542807",
      "longitude": "-90.07128029611026"
    }
  },
  {
    "service_request": "2026-1276042",
    "request_type": "Property Maintenance",
    "request_reason": "Property Maintenance",
    "date_created": "2026-04-23T13:44:13.000",
    "date_modified": "2026-04-23T13:55:25.000",
    "case_close_date": "2026-04-23T08:55:24.000",
    "request_status": "Closed",
    "responsible_agency": "Department of Code Enforcement",
    "final_address": "3323 Frenchmen St",
    "address_councildis": "D",
    "status": "Referred to Code Enforcement",
    "rowid": "1276042",
    "final_x": "3683937.26114",
    "final_y": "544948.994063",
    "longitude": "-90.05990308396906",
    "latitude": "29.99234651215273",
    "geocoded_column": {
      "latitude": "29.99234651215273",
      "longitude": "-90.05990308396906"
    }
  },
  {
    "service_request": "2026-1276041",
    "request_type": "Trash/Recycling",
    "request_reason": "Replace Trash Cart",
    "date_created": "2026-04-23T13:43:05.000",
    "date_modified": "2026-04-23T13:43:06.000",
    "request_status": "Pending",
    "responsible_agency": "Department of Sanitation",
    "final_address": "3112 N Roman St",
    "address_councildis": "D",
    "status": "Assigned to Contractor",
    "contractor": "IV Waste",
    "rowid": "1276041",
    "final_x": "3689792.76656",
    "final_y": "538551.650185",
    "longitude": "-90.04163453888279",
    "latitude": "29.974575867876485",
    "geocoded_column": {
      "latitude": "29.974575867876485",
      "longitude": "-90.04163453888279"
    }
  },
  {
    "service_request": "2026-1276040",
    "request_type": "Trash/Recycling",
    "request_reason": "Illegal Dumping",
    "date_created": "2026-04-23T13:41:42.000",
    "date_modified": "2026-04-23T13:43:29.000",
    "request_status": "Pending",
    "responsible_agency": "Department of Sanitation",
    "final_address": "2313 Jackson Ave",
    "address_councildis": "B",
    "status": "Pending",
    "rowid": "1276040",
    "final_x": "3675773.29973",
    "final_y": "526227.247422",
    "longitude": "-90.0863350783582",
    "latitude": "29.941115002317265",
    "geocoded_column": {
      "latitude": "29.941115002317265",
      "longitude": "-90.0863350783582"
    }
  },
  {
    "service_request": "2026-1276039",
    "request_type": "Trash/Recycling",
    "request_reason": "Replace Trash Cart",
    "date_created": "2026-04-23T13:40:31.000",
    "date_modified": "2026-04-23T13:40:33.000",
    "request_status": "Pending",
    "responsible_agency": "Department of Sanitation",
    "final_address": "1033 Audubon St",
    "address_councildis": "A",
    "status": "Assigned to Contractor",
    "contractor": "IV Waste",
    "rowid": "1276039",
    "final_x": "3664173.68954",
    "final_y": "525910.059197",
    "longitude": "-90.12296793521392",
    "latitude": "29.940584847933092",
    "geocoded_column": {
      "latitude": "29.940584847933092",
      "longitude": "-90.12296793521392"
    }
  },
  {
    "service_request": "2026-1276038",
    "request_type": "Trash/Recycling",
    "request_reason": "Request a Large Item Pick Up",
    "date_created": "2026-04-23T13:39:01.000",
    "date_modified": "2026-04-23T15:20:59.000",
    "request_status": "Pending",
    "responsible_agency": "Department of Sanitation",
    "final_address": "2016 St Andrew St",
    "address_councildis": "B",
    "status": "Assigned to Contractor",
    "contractor": "IV Waste",
    "rowid": "1276038",
    "final_x": "3677099.55829",
    "final_y": "525524.993533",
    "longitude": "-90.08217204149207",
    "latitude": "29.939144281784138",
    "geocoded_column": {
      "latitude": "29.939144281784138",
      "longitude": "-90.08217204149207"
    }
  },
  {
    "service_request": "2026-1276037",
    "request_type": "Trash/Recycling",
    "request_reason": "Replace Trash Cart",
    "date_created": "2026-04-23T13:38:02.000",
    "date_modified": "2026-04-23T13:45:00.000",
    "request_status": "Pending",
    "responsible_agency": "Department of Sanitation",
    "final_address": "1303 Napoleon Ave",
    "address_councildis": "B",
    "status": "Pending",
    "contractor": "IV Waste",
    "rowid": "1276037",
    "final_x": "3671052.28609",
    "final_y": "520172.281528",
    "longitude": "-90.10144575058698",
    "latitude": "29.92460622415831",
    "geocoded_column": {
      "latitude": "29.92460622415831",
      "longitude": "-90.10144575058698"
    }
  },
  {
    "service_request": "2026-1276036",
    "request_type": "Trash/Recycling",
    "request_reason": "Order Trash Cart",
    "date_created": "2026-04-23T13:37:27.000",
    "date_modified": "2026-04-23T13:37:29.000",
    "request_status": "Pending",
    "responsible_agency": "Department of Sanitation",
    "final_address": "3134 N Prieur St",
    "address_councildis": "D",
    "status": "Assigned to Contractor",
    "contractor": "IV Waste",
    "rowid": "1276036",
    "final_x": "3690009.42832",
    "final_y": "538891.474633",
    "longitude": "-90.0409381653336",
    "latitude": "29.9755035472649",
    "geocoded_column": {
      "latitude": "29.9755035472649",
      "longitude": "-90.0409381653336"
    }
  },
  {
    "service_request": "2026-1276035",
    "request_type": "Trash/Recycling",
    "request_reason": "Request a Large Item Pick Up",
    "date_created": "2026-04-23T13:35:36.000",
    "date_modified": "2026-04-23T13:35:38.000",
    "request_status": "Pending",
    "responsible_agency": "Department of Sanitation",
    "final_address": "5043 Toulon St",
    "address_councildis": "E",
    "status": "Assigned to Contractor",
    "contractor": "Waste Pro",
    "rowid": "1276035",
    "final_x": "3723748.3175",
    "final_y": "561613.810783",
    "longitude": "-89.93350635071508",
    "latitude": "30.036891466862983",
    "geocoded_column": {
      "latitude": "30.036891466862983",
      "longitude": "-89.93350635071508"
    }
  },
  {
    "service_request": "2026-1276034",
    "request_type": "Streetlights",
    "request_reason": "Streetlight Outage/Malfunction",
    "date_created": "2026-04-23T13:28:35.000",
    "date_modified": "2026-04-23T13:28:36.000",
    "request_status": "Pending",
    "responsible_agency": "Department of Public Works",
    "final_address": "27 Finch St",
    "address_councildis": "D",
    "status": "Pending",
    "rowid": "1276034",
    "final_x": "3672511.04097",
    "final_y": "555084.185113",
    "longitude": "-90.09565056028526",
    "latitude": "30.02055893311357",
    "geocoded_column": {
      "latitude": "30.02055893311357",
      "longitude": "-90.09565056028526"
    }
  },
  {
    "service_request": "2026-1276033",
    "request_type": "Abandoned Vehicles",
    "request_reason": "Abandoned/Junk Vehicles",
    "date_created": "2026-04-23T13:27:52.000",
    "date_modified": "2026-04-23T13:29:37.000",
    "request_status": "Pending",
    "responsible_agency": "Department of Public Works",
    "final_address": "1545 Octavia St",
    "address_councildis": "A",
    "status": "Pending",
    "rowid": "1276033",
    "final_x": "3667090.73025",
    "final_y": "521495.768697",
    "longitude": "-90.11390663065872",
    "latitude": "29.92836191067604",
    "geocoded_column": {
      "latitude": "29.92836191067604",
      "longitude": "-90.11390663065872"
    }
  },
  {
    "service_request": "2026-1276032",
    "request_type": "Trash/Recycling",
    "request_reason": "Repair Trash Cart",
    "date_created": "2026-04-23T13:27:46.000",
    "date_modified": "2026-04-23T13:27:47.000",
    "request_status": "Pending",
    "responsible_agency": "Department of Sanitation",
    "final_address": "4016 S Derbigny St",
    "address_councildis": "B",
    "status": "Assigned to Contractor",
    "contractor": "IV Waste",
    "rowid": "1276032",
    "final_x": "3671624.94894",
    "final_y": "526357.477886",
    "longitude": "-90.0994277911681",
    "latitude": "29.9415965777776",
    "geocoded_column": {
      "latitude": "29.9415965777776",
      "longitude": "-90.0994277911681"
    }
  },
  {
    "service_request": "2026-1276031",
    "request_type": "Trash/Recycling",
    "request_reason": "Request a Large Item Pick Up",
    "date_created": "2026-04-23T13:26:33.000",
    "date_modified": "2026-04-23T13:26:36.000",
    "request_status": "Pending",
    "responsible_agency": "Department of Sanitation",
    "final_address": "97 Morrison Ct",
    "address_councildis": "E",
    "status": "Assigned to Contractor",
    "contractor": "Waste Pro",
    "rowid": "1276031",
    "final_x": "3704072.28932",
    "final_y": "561611.715999",
    "longitude": "-89.99568647578359",
    "latitude": "30.03753196480607",
    "geocoded_column": {
      "latitude": "30.03753196480607",
      "longitude": "-89.99568647578359"
    }
  },
  {
    "service_request": "2026-1276030",
    "request_type": "Trash/Recycling",
    "request_reason": "Missed Trash Pick-Up",
    "date_created": "2026-04-23T13:23:59.000",
    "date_modified": "2026-04-23T13:32:02.000",
    "case_close_date": "2026-04-23T08:32:01.000",
    "request_status": "Closed",
    "responsible_agency": "Department of Sanitation",
    "final_address": "30 Fontainebleau Dr",
    "address_councildis": "A",
    "status": "Invalid Request",
    "contractor": "IV Waste",
    "contractor_action": "Invalid Request",
    "rowid": "1276030",
    "final_x": "3665910.03008",
    "final_y": "531464.350083",
    "longitude": "-90.11729989372104",
    "latitude": "29.955806804533115",
    "geocoded_column": {
      "latitude": "29.955806804533115",
      "longitude": "-90.11729989372104"
    }
  },
  {
    "service_request": "2026-1276029",
    "request_type": "Trash/Recycling",
    "request_reason": "Repair Trash Cart",
    "date_created": "2026-04-23T13:23:37.000",
    "date_modified": "2026-04-23T13:23:39.000",
    "request_status": "Pending",
    "responsible_agency": "Department of Sanitation",
    "final_address": "4014 S Derbigny St",
    "address_councildis": "B",
    "status": "Assigned to Contractor",
    "contractor": "IV Waste",
    "rowid": "1276029",
    "final_x": "3671624.94894",
    "final_y": "526357.477886",
    "longitude": "-90.0994277911681",
    "latitude": "29.9415965777776",
    "geocoded_column": {
      "latitude": "29.9415965777776",
      "longitude": "-90.0994277911681"
    }
  },
  {
    "service_request": "2026-1276028",
    "request_type": "Roads and Streets",
    "request_reason": "Debris in Driving Lanes",
    "date_created": "2026-04-23T13:22:57.000",
    "date_modified": "2026-04-23T13:22:59.000",
    "request_status": "Pending",
    "responsible_agency": "Department of Public Works",
    "final_address": "INDIANA ST & AMAZON ST",
    "address_councildis": "C",
    "status": "Pending",
    "rowid": "1276028",
    "final_x": "3694101.1",
    "final_y": "521269.98",
    "longitude": "-90.02864929157823",
    "latitude": "29.9269230421972",
    "geocoded_column": {
      "latitude": "29.9269230421972",
      "longitude": "-90.02864929157823"
    }
  },
  {
    "service_request": "2026-1276027",
    "request_type": "Trash/Recycling",
    "request_reason": "Missed Trash Pick-Up",
    "date_created": "2026-04-23T13:22:56.000",
    "date_modified": "2026-04-23T14:02:14.000",
    "case_close_date": "2026-04-23T09:02:12.000",
    "request_status": "Closed",
    "responsible_agency": "Department of Sanitation",
    "final_address": "222 Arabella St",
    "address_councildis": "A",
    "status": "Invalid Request",
    "contractor": "IV Waste",
    "contractor_action": "Invalid Request",
    "rowid": "1276027",
    "final_x": "3665372.11783",
    "final_y": "517061.585269",
    "longitude": "-90.1194802232968",
    "latitude": "29.91621947611089",
    "geocoded_column": {
      "latitude": "29.91621947611089",
      "longitude": "-90.1194802232968"
    }
  },
  {
    "service_request": "2026-1276026",
    "request_type": "Trash/Recycling",
    "request_reason": "Request a Large Item Pick Up",
    "date_created": "2026-04-23T13:21:46.000",
    "date_modified": "2026-04-23T13:21:48.000",
    "request_status": "Pending",
    "responsible_agency": "Department of Sanitation",
    "final_address": "4235 St Ann St",
    "address_councildis": "A",
    "status": "Assigned to Contractor",
    "contractor": "IV Waste",
    "rowid": "1276026",
    "final_x": "3671936.7938",
    "final_y": "541048.427852",
    "longitude": "-90.0979431607106",
    "latitude": "29.981982551026054",
    "geocoded_column": {
      "latitude": "29.981982551026054",
      "longitude": "-90.0979431607106"
    }
  },
  {
    "service_request": "2026-1276025",
    "request_type": "Trash/Recycling",
    "request_reason": "Replace Trash Cart",
    "date_created": "2026-04-23T13:20:34.000",
    "date_modified": "2026-04-23T13:20:36.000",
    "request_status": "Pending",
    "responsible_agency": "Department of Sanitation",
    "final_address": "2935 St Ann St",
    "address_councildis": "A",
    "status": "Assigned to Contractor",
    "contractor": "IV Waste",
    "rowid": "1276025",
    "final_x": "3676011.23649",
    "final_y": "537956.924041",
    "longitude": "-90.08518047295817",
    "latitude": "29.9733605587481",
    "geocoded_column": {
      "latitude": "29.9733605587481",
      "longitude": "-90.08518047295817"
    }
  },
  {
    "service_request": "2026-1276024",
    "request_type": "Trash/Recycling",
    "request_reason": "Return Trash Cart",
    "date_created": "2026-04-23T13:17:58.000",
    "date_modified": "2026-04-23T13:22:05.000",
    "request_status": "Pending",
    "responsible_agency": "Department of Sanitation",
    "final_address": "2500 BLK Peniston St",
    "address_councildis": "B",
    "status": "Assigned to Contractor",
    "contractor": "IV Waste",
    "rowid": "1276024",
    "final_x": "3672088.31294",
    "final_y": "524397.856832",
    "longitude": "-90.09803155476428",
    "latitude": "29.93619452852128",
    "geocoded_column": {
      "latitude": "29.93619452852128",
      "longitude": "-90.09803155476428"
    }
  },
  {
    "service_request": "2026-1276023",
    "request_type": "Trash/Recycling",
    "request_reason": "Request a Large Item Pick Up",
    "date_created": "2026-04-23T13:15:39.000",
    "date_modified": "2026-04-23T13:15:40.000",
    "request_status": "Pending",
    "responsible_agency": "Department of Sanitation",
    "final_address": "4858 Ken Ct",
    "address_councildis": "C",
    "status": "Assigned to Contractor",
    "contractor": "Richards Disposal",
    "rowid": "1276023",
    "final_x": "3702215.20765",
    "final_y": "518558.344887",
    "longitude": "-90.00313474927131",
    "latitude": "29.919210446905453",
    "geocoded_column": {
      "latitude": "29.919210446905453",
      "longitude": "-90.00313474927131"
    }
  },
  {
    "service_request": "2026-1276022",
    "request_type": "Trash/Recycling",
    "request_reason": "Request a Large Item Pick Up",
    "date_created": "2026-04-23T13:13:57.000",
    "date_modified": "2026-04-23T13:13:59.000",
    "request_status": "Pending",
    "responsible_agency": "Department of Sanitation",
    "final_address": "7744 St Charles Ave",
    "address_councildis": "A",
    "status": "Assigned to Contractor",
    "contractor": "IV Waste",
    "rowid": "1276022",
    "final_x": "3661392.67366",
    "final_y": "525997.454014",
    "longitude": "-90.13174522285735",
    "latitude": "29.940905637962846",
    "geocoded_column": {
      "latitude": "29.940905637962846",
      "longitude": "-90.13174522285735"
    }
  },
  {
    "service_request": "2026-1276021",
    "request_type": "Traffic Signals",
    "request_reason": "Traffic Signal Malfunctioning or Damaged",
    "date_created": "2026-04-23T13:12:28.000",
    "date_modified": "2026-04-23T13:12:29.000",
    "request_status": "Pending",
    "responsible_agency": "Department of Public Works",
    "final_address": "4400 BLK Earhart Blvd",
    "address_councildis": "B",
    "status": "Pending",
    "rowid": "1276021",
    "final_x": "3670693.99256",
    "final_y": "532121.483117",
    "longitude": "-90.10217148225267",
    "latitude": "29.95747323489208",
    "geocoded_column": {
      "latitude": "29.95747323489208",
      "longitude": "-90.10217148225267"
    }
  },
  {
    "service_request": "2026-1276020",
    "request_type": "Trash/Recycling",
    "request_reason": "Replace Recycling Cart",
    "date_created": "2026-04-23T13:11:33.000",
    "date_modified": "2026-04-23T13:11:35.000",
    "request_status": "Pending",
    "responsible_agency": "Department of Sanitation",
    "final_address": "142 26Th St",
    "address_councildis": "A",
    "status": "Pending",
    "rowid": "1276020",
    "final_x": "3665811.72967",
    "final_y": "549851.082516",
    "longitude": "-90.11699398254419",
    "latitude": "30.00636700198417",
    "geocoded_column": {
      "latitude": "30.00636700198417",
      "longitude": "-90.11699398254419"
    }
  },
  {
    "service_request": "2026-1276019",
    "request_type": "Trash/Recycling",
    "request_reason": "Repair Recycling Cart",
    "date_created": "2026-04-23T13:05:43.000",
    "date_modified": "2026-04-23T13:05:44.000",
    "request_status": "Pending",
    "responsible_agency": "Department of Sanitation",
    "final_address": "4037 Vincennes Pl",
    "address_councildis": "B",
    "status": "Pending",
    "rowid": "1276019",
    "final_x": "3668559.24673",
    "final_y": "530417.239874",
    "longitude": "-90.10896989876645",
    "latitude": "29.952850021977994",
    "geocoded_column": {
      "latitude": "29.952850021977994",
      "longitude": "-90.10896989876645"
    }
  },
  {
    "service_request": "2026-1276018",
    "request_type": "Trash/Recycling",
    "request_reason": "MIssed Recycling Pick-Up",
    "date_created": "2026-04-23T13:03:44.000",
    "date_modified": "2026-04-23T14:45:35.000",
    "case_close_date": "2026-04-23T09:45:35.000",
    "request_status": "Closed",
    "responsible_agency": "Department of Sanitation",
    "final_address": "847 Weiblen Pl",
    "address_councildis": "A",
    "status": "Invalid Request",
    "contractor": "IV Waste",
    "contractor_action": "Invalid Request",
    "rowid": "1276018",
    "final_x": "3668927.46266",
    "final_y": "542576.820813",
    "longitude": "-90.10739644821436",
    "latitude": "29.98627398173156",
    "geocoded_column": {
      "latitude": "29.98627398173156",
      "longitude": "-90.10739644821436"
    }
  },
  {
    "service_request": "2026-1276017",
    "request_type": "Trash/Recycling",
    "request_reason": "Request a Large Item Pick Up",
    "date_created": "2026-04-23T13:00:22.000",
    "date_modified": "2026-04-23T13:00:24.000",
    "request_status": "Pending",
    "responsible_agency": "Department of Sanitation",
    "final_address": "4519 Palmyra St",
    "address_councildis": "A",
    "status": "Assigned to Contractor",
    "contractor": "IV Waste",
    "rowid": "1276017",
    "final_x": "3669110.117",
    "final_y": "538903.04481",
    "longitude": "-90.10694370972644",
    "latitude": "29.976166968466533",
    "geocoded_column": {
      "latitude": "29.976166968466533",
      "longitude": "-90.10694370972644"
    }
  },
  {
    "service_request": "2026-1276016",
    "request_type": "Abandoned Vehicles",
    "request_reason": "Abandoned/Junk Vehicles",
    "date_created": "2026-04-23T12:54:22.000",
    "date_modified": "2026-04-23T12:55:42.000",
    "request_status": "Pending",
    "responsible_agency": "Department of Public Works",
    "final_address": "2539 St Philip St",
    "address_councildis": "C",
    "status": "Pending",
    "rowid": "1276016",
    "final_x": "3677974.81922",
    "final_y": "537453.813704",
    "longitude": "-90.07899646708518",
    "latitude": "29.971918218975688",
    "geocoded_column": {
      "latitude": "29.971918218975688",
      "longitude": "-90.07899646708518"
    }
  },