[
  {
    "service_request": "2025-1174803",
    "request_type": "Streetlights",
    "request_reason": "Streetlight Outage/Malfunction",
    "date_created": "2025-03-11T23:36:57.000",
    "date_modified": "2025-03-11T23:36:58.000",
    "request_status": "Pending",
    "responsible_agency": "Department of Public Works",
    "final_address": "1121 Valence St",
    "address_councildis": "B",
    "status": "Pending",
    "contractor": "Legacy Professional Services",
    "rowid": "1174803",
    "final_x": "3669909.31137",
    "final_y": "519621.00172",
    "longitude": "-90.10507240022332",
    "latitude": "29.923124118629712",
    "geocoded_column": {
      "latitude": "29.923124118629712",
      "longitude": "-90.10507240022332"
    }
  },
  {
    "service_request": "2025-1174802",
    "request_type": "Abandoned Vehicles",
    "request_reason": "Abandoned/Junk Vehicles",
    "date_created": "2025-03-11T23:13:40.000",
    "date_modified": "2025-03-11T23:13:41.000",
    "request_status": "Pending",
    "responsible_agency": "Department of Public Works",
    "final_address": "100 BLK N Clark St",
    "address_councildis": "B",
    "status": "Pending",
    "rowid": "1174802",
    "final_x": "3673007.67495",
    "final_y": "537190.655721",
    "longitude": "-90.09469251482616",
    "latitude": "29.971343200426443",
    "geocoded_column": {
      "latitude": "29.971343200426443",
      "longitude": "-90.09469251482616"
    }
  },
  {
    "service_request": "2025-1174801",
    "request_type": "Trash/Recycling",
    "request_reason": "Request a Large Item Pick Up",
    "date_created": "2025-03-11T23:10:25.000",
    "date_modified": "2025-03-11T23:10:26.000",
    "request_status": "Pending",
    "responsible_agency": "Department of Sanitation",
    "final_address": "1904 Pauline St",
    "address_councildis": "D",
    "status": "Assigned to Contractor",
    "contractor": "IV Waste",
    "rowid": "1174801",
    "final_x": "3691929.47715",
    "final_y": "538524.538505",
    "longitude": "-90.03488728273699",
    "latitude": "29.974434916501085",
    "geocoded_column": {
      "latitude": "29.974434916501085",
      "longitude": "-90.03488728273699"
    }
  },
  {
    "service_request": "2025-1174800",
    "request_type": "Trash/Recycling",
    "request_reason": "Missed Trash Pick-Up",
    "date_created": "2025-03-11T22:55:26.000",
    "date_modified": "2025-03-11T22:55:28.000",
    "request_status": "Pending",
    "responsible_agency": "Department of Sanitation",
    "final_address": "3017 Hollygrove St",
    "address_councildis": "A",
    "status": "Assigned to Contractor",
    "contractor": "IV Waste",
    "rowid": "1174800",
    "final_x": "3664086.72653",
    "final_y": "535376.002182",
    "longitude": "-90.1229267970931",
    "latitude": "29.966615648541083",
    "geocoded_column": {
      "latitude": "29.966615648541083",
      "longitude": "-90.1229267970931"
    }
  },
  {
    "service_request": "2025-1174799",
    "request_type": "Roads and Streets",
    "request_reason": "Push-up/Pavement Expansion",
    "date_created": "2025-03-11T22:38:28.000",
    "date_modified": "2025-03-11T22:38:29.000",
    "request_status": "Pending",
    "responsible_agency": "Department of Public Works",
    "final_address": "618 Chartres St",
    "address_councildis": "C",
    "status": "Pending",
    "rowid": "1174799",
    "final_x": "3682716.34031",
    "final_y": "532050.023299",
    "longitude": "-90.06421102406831",
    "latitude": "29.95691607941587",
    "geocoded_column": {
      "latitude": "29.95691607941587",
      "longitude": "-90.06421102406831"
    }
  },
  {
    "service_request": "2025-1174798",
    "request_type": "Trash/Recycling",
    "request_reason": "Request a Large Item Pick Up",
    "date_created": "2025-03-11T22:36:07.000",
    "date_modified": "2025-03-11T22:36:09.000",
    "request_status": "Pending",
    "responsible_agency": "Department of Sanitation",
    "final_address": "5314 Florida Ave",
    "address_councildis": "E",
    "status": "Assigned to Contractor",
    "contractor": "Waste Pro",
    "rowid": "1174798",
    "final_x": "3698624.35504",
    "final_y": "539979.629387",
    "longitude": "-90.01369045805612",
    "latitude": "29.978225588732805",
    "geocoded_column": {
      "latitude": "29.978225588732805",
      "longitude": "-90.01369045805612"
    }
  },
  {
    "service_request": "2025-1174797",
    "request_type": "Trash/Recycling",
    "request_reason": "Repair Trash Cart",
    "date_created": "2025-03-11T22:35:20.000",
    "date_modified": "2025-03-11T22:35:21.000",
    "request_status": "Pending",
    "responsible_agency": "Department of Sanitation",
    "final_address": "4326 Joycelyn Dr",
    "address_councildis": "C",
    "status": "Assigned to Contractor",
    "contractor": "Richards Disposal",
    "rowid": "1174797",
    "final_x": "3708234.04651",
    "final_y": "514622.842995",
    "longitude": "-89.98428275765816",
    "latitude": "29.90819568412872",
    "geocoded_column": {
      "latitude": "29.90819568412872",
      "longitude": "-89.98428275765816"
    }
  },
  {
    "service_request": "2025-1174796",
    "request_type": "Trash/Recycling",
    "request_reason": "Request a Large Item Pick Up",
    "date_created": "2025-03-11T22:35:15.000",
    "date_modified": "2025-03-11T22:35:17.000",
    "request_status": "Pending",
    "responsible_agency": "Department of Sanitation",
    "final_address": "5264 Laurel St",
    "address_councildis": "B",
    "status": "Assigned to Contractor",
    "contractor": "IV Waste",
    "rowid": "1174796",
    "final_x": "3667445.89031",
    "final_y": "517846.126006",
    "longitude": "-90.1129081746618",
    "latitude": "29.91831614758881",
    "geocoded_column": {
      "latitude": "29.91831614758881",
      "longitude": "-90.1129081746618"
    }
  },
  {
    "service_request": "2025-1174795",
    "request_type": "Trash/Recycling",
    "request_reason": "Request a Large Item Pick Up",
    "date_created": "2025-03-11T22:31:27.000",
    "date_modified": "2025-03-11T22:31:30.000",
    "request_status": "Pending",
    "responsible_agency": "Department of Sanitation",
    "final_address": "6001 Mandeville St",
    "address_councildis": "D",
    "status": "Assigned to Contractor",
    "contractor": "IV Waste",
    "rowid": "1174795",
    "final_x": "3684326.50319",
    "final_y": "555065.799577",
    "longitude": "-90.05831794919816",
    "latitude": "30.020152164580328",
    "geocoded_column": {
      "latitude": "30.020152164580328",
      "longitude": "-90.05831794919816"
    }
  },
  {
    "service_request": "2025-1174794",
    "request_type": "Drainage",
    "request_reason": "Catch Basin Clogged",
    "date_created": "2025-03-11T22:22:08.000",
    "date_modified": "2025-03-11T22:22:10.000",
    "request_status": "Pending",
    "responsible_agency": "Sewerage & Water Board ",
    "final_address": "3502 S Tonti St",
    "address_councildis": "B",
    "status": "Pending",
    "rowid": "1174794",
    "final_x": "3671184.07508",
    "final_y": "528260.998272",
    "longitude": "-90.10075507424078",
    "latitude": "29.946843684635024",
    "geocoded_column": {
      "latitude": "29.946843684635024",
      "longitude": "-90.10075507424078"
    }
  },
  {
    "service_request": "2025-1174793",
    "request_type": "General Services",
    "request_reason": "General Service Request",
    "date_created": "2025-03-11T22:02:43.000",
    "date_modified": "2025-03-11T22:02:44.000",
    "request_status": "Pending",
    "responsible_agency": "Orleans Parish Communication District",
    "final_address": "4576 Bonita Dr",
    "address_councildis": "E",
    "status": "Pending",
    "rowid": "1174793",
    "final_x": "3704502.26097",
    "final_y": "554233.7398",
    "longitude": "-89.99460008556574",
    "latitude": "30.017231589049242",
    "geocoded_column": {
      "latitude": "30.017231589049242",
      "longitude": "-89.99460008556574"
    }
  },
  {
    "service_request": "2025-1174792",
    "request_type": "Street and Traffic Signs",
    "request_reason": "Stop Sign Missing or Damaged",
    "date_created": "2025-03-11T21:59:53.000",
    "date_modified": "2025-03-11T21:59:54.000",
    "request_status": "Pending",
    "responsible_agency": "Department of Public Works",
    "final_address": "3327 Bruxelles St",
    "address_councildis": "D",
    "status": "Pending",
    "rowid": "1174792",
    "final_x": "3680200.45307",
    "final_y": "544656.875343",
    "longitude": "-90.07171709325515",
    "latitude": "29.991656949623543",
    "geocoded_column": {
      "latitude": "29.991656949623543",
      "longitude": "-90.07171709325515"
    }
  },
  {
    "service_request": "2025-1174791",
    "request_type": "Abandoned Vehicles",
    "request_reason": "Abandoned/Junk Vehicles",
    "date_created": "2025-03-11T21:25:29.000",
    "date_modified": "2025-03-11T21:25:31.000",
    "request_status": "Pending",
    "responsible_agency": "Department of Public Works",
    "final_address": "2600 St Peter St",
    "address_councildis": "D",
    "status": "Pending",
    "rowid": "1174791",
    "final_x": "3677041.96488",
    "final_y": "536519.950215",
    "longitude": "-90.08197478076852",
    "latitude": "29.969378459162648",
    "geocoded_column": {
      "latitude": "29.969378459162648",
      "longitude": "-90.08197478076852"
    }
  },
  {
    "service_request": "2025-1174790",
    "request_type": "Utility Poles",
    "request_reason": "Wires Sagging/Hanging Low",
    "date_created": "2025-03-11T21:22:37.000",
    "date_modified": "2025-03-11T21:22:39.000",
    "request_status": "Pending",
    "responsible_agency": "Utility Company Collective",
    "final_address": "2728 State St",
    "address_councildis": "A",
    "status": "Pending",
    "rowid": "1174790",
    "final_x": "3667042.09357",
    "final_y": "526629.513662",
    "longitude": "-90.11388769497545",
    "latitude": "29.942479491271758",
    "geocoded_column": {
      "latitude": "29.942479491271758",
      "longitude": "-90.11388769497545"
    }
  },
  {
    "service_request": "2025-1174789",
    "request_type": "Streetlights",
    "request_reason": "Streetlight Outage/Malfunction",
    "date_created": "2025-03-11T20:38:14.000",
    "date_modified": "2025-03-11T20:38:15.000",
    "request_status": "Pending",
    "responsible_agency": "Department of Public Works",
    "final_address": "4936 Lonely Oak Dr",
    "address_councildis": "E",
    "status": "Pending",
    "contractor": "Legacy Professional Services",
    "rowid": "1174789",
    "final_x": "3702172.29399",
    "final_y": "555366.699737",
    "longitude": "-90.00192018944705",
    "latitude": "30.02042143973628",
    "geocoded_column": {
      "latitude": "30.02042143973628",
      "longitude": "-90.00192018944705"
    }
  },
  {
    "service_request": "2025-1174788",
    "request_type": "Drainage",
    "request_reason": "Catch Basin Clogged",
    "date_created": "2025-03-11T20:25:21.000",
    "date_modified": "2025-03-11T20:25:22.000",
    "request_status": "Pending",
    "responsible_agency": "Sewerage & Water Board ",
    "final_address": "401 Treme St",
    "address_councildis": "C",
    "status": "Pending",
    "rowid": "1174788",
    "final_x": "3680172.99714",
    "final_y": "533114.428548",
    "longitude": "-90.07220510561648",
    "latitude": "29.95992004533271",
    "geocoded_column": {
      "latitude": "29.95992004533271",
      "longitude": "-90.07220510561648"
    }
  },
  {
    "service_request": "2025-1174787",
    "request_type": "Drainage",
    "request_reason": "Drainage Manhole Cover Missing or Damaged",
    "date_created": "2025-03-11T20:13:58.000",
    "date_modified": "2025-03-11T20:14:00.000",
    "request_status": "Pending",
    "responsible_agency": "Sewerage & Water Board ",
    "final_address": "4521 Palmyra St",
    "address_councildis": "A",
    "status": "Pending",
    "rowid": "1174787",
    "final_x": "3669086.82881",
    "final_y": "538919.919306",
    "longitude": "-90.10701669052456",
    "latitude": "29.976214052983764",
    "geocoded_column": {
      "latitude": "29.976214052983764",
      "longitude": "-90.10701669052456"
    }
  },
  {
    "service_request": "2025-1174786",
    "request_type": "Trash/Recycling",
    "request_reason": "Order Second Trash Cart",
    "date_created": "2025-03-11T19:22:48.000",
    "date_modified": "2025-03-11T19:22:50.000",
    "request_status": "Pending",
    "responsible_agency": "Department of Sanitation",
    "final_address": "12 Assumption Pl",
    "address_councildis": "E",
    "status": "Assigned to Contractor",
    "contractor": "Waste Pro",
    "rowid": "1174786",
    "final_x": "3726104.82566",
    "final_y": "564457.614177",
    "longitude": "-89.92594900142967",
    "latitude": "30.044631380203818",
    "geocoded_column": {
      "latitude": "30.044631380203818",
      "longitude": "-89.92594900142967"
    }
  },
  {
    "service_request": "2025-1174785",
    "request_type": "Safety & Permits",
    "request_reason": "Zoning Enforcement",
    "date_created": "2025-03-11T19:20:52.000",
    "date_modified": "2025-03-11T19:20:53.000",
    "request_status": "Pending",
    "responsible_agency": "Safety and Permits",
    "final_address": "3522 Cleveland Ave",
    "address_councildis": "B",
    "status": "Pending",
    "rowid": "1174785",
    "final_x": "3672421.34766",
    "final_y": "536745.486536",
    "longitude": "-90.09655939790119",
    "latitude": "29.970136550091482",
    "geocoded_column": {
      "latitude": "29.970136550091482",
      "longitude": "-90.09655939790119"
    }
  },
  {
    "service_request": "2025-1174784",
    "request_type": "Trash/Recycling",
    "request_reason": "Request a Large Item Pick Up",
    "date_created": "2025-03-11T19:20:46.000",
    "date_modified": "2025-03-11T19:20:48.000",
    "request_status": "Pending",
    "responsible_agency": "Department of Sanitation",
    "final_address": "12 Assumption Pl",
    "address_councildis": "E",
    "status": "Assigned to Contractor",
    "contractor": "Waste Pro",
    "rowid": "1174784",
    "final_x": "3726104.82566",
    "final_y": "564457.614177",
    "longitude": "-89.92594900142967",
    "latitude": "30.044631380203818",
    "geocoded_column": {
      "latitude": "30.044631380203818",
      "longitude": "-89.92594900142967"
    }
  },
  {
    "service_request": "2025-1174783",
    "request_type": "Trash/Recycling",
    "request_reason": "Request a Large Item Pick Up",
    "date_created": "2025-03-11T19:16:47.000",
    "date_modified": "2025-03-11T19:16:48.000",
    "request_status": "Pending",
    "responsible_agency": "Department of Sanitation",
    "final_address": "8419 Curran Rd",
    "address_councildis": "E",
    "status": "Assigned to Contractor",
    "contractor": "Waste Pro",
    "rowid": "1174783",
    "final_x": "3703473.16158",
    "final_y": "562290.101855",
    "longitude": "-89.99755485526966",
    "latitude": "30.039416477239463",
    "geocoded_column": {
      "latitude": "30.039416477239463",
      "longitude": "-89.99755485526966"
    }
  },
  {
    "service_request": "2025-1174782",
    "request_type": "Trash/Recycling",
    "request_reason": "Illegal Dumping",
    "date_created": "2025-03-11T19:14:57.000",
    "date_modified": "2025-03-11T19:15:00.000",
    "request_status": "Pending",
    "responsible_agency": "Department of Sanitation",
    "final_address": "4800 Read Blvd",
    "address_councildis": "E",
    "status": "Pending",
    "rowid": "1174782",
    "final_x": "3712638.34501",
    "final_y": "556440.655514",
    "longitude": "-89.96881059327092",
    "latitude": "30.02303585900835",
    "geocoded_column": {
      "latitude": "30.02303585900835",
      "longitude": "-89.96881059327092"
    }
  },
  {
    "service_request": "2025-1174781",
    "request_type": "Drainage",
    "request_reason": "Drainage Manhole Cover Missing or Damaged",
    "date_created": "2025-03-11T19:12:32.000",
    "date_modified": "2025-03-11T19:12:33.000",
    "request_status": "Pending",
    "responsible_agency": "Sewerage & Water Board ",
    "final_address": "3431 Pine St",
    "address_councildis": "B",
    "status": "Pending",
    "rowid": "1174781",
    "final_x": "3668499.30932",
    "final_y": "533368.087236",
    "longitude": "-90.10905960249572",
    "latitude": "29.96096564250401",
    "geocoded_column": {
      "latitude": "29.96096564250401",
      "longitude": "-90.10905960249572"
    }
  },
  {
    "service_request": "2025-1174780",
    "request_type": "Trash/Recycling",
    "request_reason": "Repair Trash Cart",
    "date_created": "2025-03-11T19:09:16.000",
    "date_modified": "2025-03-11T19:09:18.000",
    "request_status": "Pending",
    "responsible_agency": "Department of Sanitation",
    "final_address": "6631 Colbert St",
    "address_councildis": "A",
    "status": "Assigned to Contractor",
    "contractor": "IV Waste",
    "rowid": "1174780",
    "final_x": "3667899.64353",
    "final_y": "551707.169685",
    "longitude": "-90.11033513064754",
    "latitude": "30.01140948523858",
    "geocoded_column": {
      "latitude": "30.01140948523858",
      "longitude": "-90.11033513064754"
    }
  },
  {
    "service_request": "2025-1174779",
    "request_type": "Trash/Recycling",
    "request_reason": "Order Second Trash Cart",
    "date_created": "2025-03-11T19:05:42.000",
    "date_modified": "2025-03-11T19:05:44.000",
    "request_status": "Pending",
    "responsible_agency": "Department of Sanitation",
    "final_address": "6631 Colbert St",
    "address_councildis": "A",
    "status": "Assigned to Contractor",
    "contractor": "IV Waste",
    "rowid": "1174779",
    "final_x": "3667899.64353",
    "final_y": "551707.169685",
    "longitude": "-90.11033513064754",
    "latitude": "30.01140948523858",
    "geocoded_column": {
      "latitude": "30.01140948523858",
      "longitude": "-90.11033513064754"
    }
  },
  {
    "service_request": "2025-1174778",
    "request_type": "Streetlights",
    "request_reason": "Streetlight Outage/Malfunction",
    "date_created": "2025-03-11T18:59:35.000",
    "date_modified": "2025-03-11T18:59:35.000",
    "request_status": "Pending",
    "responsible_agency": "Department of Public Works",
    "final_address": "890 OKeefe Ave",
    "address_councildis": "B",
    "status": "Pending",
    "contractor": "Legacy Professional Services",
    "rowid": "1174778",
    "final_x": "3679131.56559",
    "final_y": "527912.876031",
    "longitude": "-90.0756739999201",
    "latitude": "29.945648999977013",
    "geocoded_column": {
      "latitude": "29.945648999977013",
      "longitude": "-90.0756739999201"
    }
  },
  {
    "service_request": "2025-1174777",
    "request_type": "Abandoned Vehicles",
    "request_reason": "Abandoned/Junk Vehicles",
    "date_created": "2025-03-11T18:55:00.000",
    "date_modified": "2025-03-11T18:55:01.000",
    "request_status": "Pending",
    "responsible_agency": "Department of Public Works",
    "final_address": "3402 Cherry St",
    "address_councildis": "A",
    "status": "Pending",
    "rowid": "1174777",
    "final_x": "3664127.92474",
    "final_y": "537106.422024",
    "longitude": "-90.12273895810745",
    "latitude": "29.97137253517573",
    "geocoded_column": {
      "latitude": "29.97137253517573",
      "longitude": "-90.12273895810745"
    }
  },
  {
    "service_request": "2025-1174776",
    "request_type": "Abandoned Vehicles",
    "request_reason": "Abandoned/Junk Vehicles",
    "date_created": "2025-03-11T18:54:35.000",
    "date_modified": "2025-03-11T18:54:36.000",
    "request_status": "Pending",
    "responsible_agency": "Department of Public Works",
    "final_address": "3402 Cherry St",
    "address_councildis": "A",
    "status": "Pending",
    "rowid": "1174776",
    "final_x": "3664127.92474",
    "final_y": "537106.422024",
    "longitude": "-90.12273895810745",
    "latitude": "29.97137253517573",
    "geocoded_column": {
      "latitude": "29.97137253517573",
      "longitude": "-90.12273895810745"
    }
  },
  {
    "service_request": "2025-1174775",
    "request_type": "Abandoned Vehicles",
    "request_reason": "Abandoned/Junk Vehicles",
    "date_created": "2025-03-11T18:54:21.000",
    "date_modified": "2025-03-11T18:54:23.000",
    "request_status": "Pending",
    "responsible_agency": "Department of Public Works",
    "final_address": "3402 Cherry St",
    "address_councildis": "A",
    "status": "Pending",
    "rowid": "1174775",
    "final_x": "3664127.92474",
    "final_y": "537106.422024",
    "longitude": "-90.12273895810745",
    "latitude": "29.97137253517573",
    "geocoded_column": {
      "latitude": "29.97137253517573",
      "longitude": "-90.12273895810745"
    }
  },
  {
    "service_request": "2025-1174774",
    "request_type": "Abandoned Vehicles",
    "request_reason": "Abandoned/Junk Vehicles",
    "date_created": "2025-03-11T18:52:58.000",
    "date_modified": "2025-03-11T18:53:00.000",
    "request_status": "Pending",
    "responsible_agency": "Department of Public Works",
    "final_address": "3402 Cherry St",
    "address_councildis": "A",
    "status": "Pending",
    "rowid": "1174774",
    "final_x": "3664127.92474",
    "final_y": "537106.422024",
    "longitude": "-90.12273895810745",
    "latitude": "29.97137253517573",
    "geocoded_column": {
      "latitude": "29.97137253517573",
      "longitude": "-90.12273895810745"
    }
  },
  {
    "service_request": "2025-1174773",
    "request_type": "Abandoned Vehicles",
    "request_reason": "Abandoned/Junk Vehicles",
    "date_created": "2025-03-11T18:52:24.000",
    "date_modified": "2025-03-11T18:52:25.000",
    "request_status": "Pending",
    "responsible_agency": "Department of Public Works",
    "final_address": "3402 Cherry St",
    "address_councildis": "A",
    "status": "Pending",
    "rowid": "1174773",
    "final_x": "3664127.92474",
    "final_y": "537106.422024",
    "longitude": "-90.12273895810745",
    "latitude": "29.97137253517573",
    "geocoded_column": {
      "latitude": "29.97137253517573",
      "longitude": "-90.12273895810745"
    }
  },
  {
    "service_request": "2025-1174772",
    "request_type": "Trash/Recycling",
    "request_reason": "Request a Large Item Pick Up",
    "date_created": "2025-03-11T18:43:05.000",
    "date_modified": "2025-03-11T18:43:06.000",
    "request_status": "Pending",
    "responsible_agency": "Department of Sanitation",
    "final_address": "4614 Tulip St",
    "address_councildis": "E",
    "status": "Assigned to Contractor",
    "contractor": "Waste Pro",
    "rowid": "1174772",
    "final_x": "3702079.47095",
    "final_y": "553561.229271",
    "longitude": "-90.00227974823311",
    "latitude": "30.015460051573626",
    "geocoded_column": {
      "latitude": "30.015460051573626",
      "longitude": "-90.00227974823311"
    }
  },
  {
    "service_request": "2025-1174771",
    "request_type": "Trash/Recycling",
    "request_reason": "Replace Recycling Cart",
    "date_created": "2025-03-11T18:36:07.000",
    "date_modified": "2025-03-11T18:36:08.000",
    "request_status": "Pending",
    "responsible_agency": "Department of Sanitation",
    "final_address": "7111 Camberley Dr",
    "address_councildis": "E",
    "status": "Pending",
    "rowid": "1174771",
    "final_x": "3713417.90559",
    "final_y": "564737.429794",
    "longitude": "-89.9660345547311",
    "latitude": "30.04582312249494",
    "geocoded_column": {
      "latitude": "30.04582312249494",
      "longitude": "-89.9660345547311"
    }
  },
  {
    "service_request": "2025-1174770",
    "request_type": "Street and Traffic Signs",
    "request_reason": "Stop Sign Missing or Damaged",
    "date_created": "2025-03-11T18:35:31.000",
    "date_modified": "2025-03-11T18:35:33.000",
    "request_status": "Pending",
    "responsible_agency": "Department of Public Works",
    "final_address": "JEFFERSON AVE & LA SALLE ST",
    "address_councildis": "A",
    "status": "Pending",
    "rowid": "1174770",
    "final_x": "3667816.9",
    "final_y": "523653.98",
    "longitude": "-90.1115416175428",
    "latitude": "29.934275034103145",
    "geocoded_column": {
      "latitude": "29.934275034103145",
      "longitude": "-90.1115416175428"
    }
  },
  {
    "service_request": "2025-1174769",
    "request_type": "Trash/Recycling",
    "request_reason": "Replace Recycling Cart",
    "date_created": "2025-03-11T18:23:51.000",
    "date_modified": "2025-03-11T18:23:52.000",
    "request_status": "Pending",
    "responsible_agency": "Department of Sanitation",
    "final_address": "7802 Sycamore St",
    "address_councildis": "A",
    "status": "Pending",
    "rowid": "1174769",
    "final_x": "3665106.94279",
    "final_y": "530216.040961",
    "longitude": "-90.11987751600891",
    "latitude": "29.95239777081363",
    "geocoded_column": {
      "latitude": "29.95239777081363",
      "longitude": "-90.11987751600891"
    }
  },
  {
    "service_request": "2025-1174768",
    "request_type": "Street and Traffic Signs",
    "request_reason": "One Way Sign Missing or Damaged",
    "date_created": "2025-03-11T17:45:16.000",
    "date_modified": "2025-03-11T17:45:18.000",
    "request_status": "Pending",
    "responsible_agency": "Department of Public Works",
    "final_address": "1600 St Roch Ave",
    "address_councildis": "D",
    "status": "Pending",
    "rowid": "1174768",
    "final_x": "3686258.76156",
    "final_y": "538293.784393",
    "longitude": "-90.05280486533707",
    "latitude": "29.973975896426182",
    "geocoded_column": {
      "latitude": "29.973975896426182",
      "longitude": "-90.05280486533707"
    }
  },
  {
    "service_request": "2025-1174767",
    "request_type": "General Services",
    "request_reason": "General Service Request",
    "date_created": "2025-03-11T17:43:02.000",
    "date_modified": "2025-03-11T17:43:04.000",
    "request_status": "Pending",
    "responsible_agency": "Orleans Parish Communication District",
    "final_address": "7690 Shorewood Blvd, New Orleans, Louisiana, 70128",
    "address_councildis": "E",
    "status": "Pending",
    "rowid": "1174767",
    "final_x": "3719405.08511",
    "final_y": "572959.438953",
    "longitude": "-89.94679787243963",
    "latitude": "30.0682324298829",
    "geocoded_column": {
      "latitude": "30.0682324298829",
      "longitude": "-89.94679787243963"
    }
  },
  {
    "service_request": "2025-1174766",
    "request_type": "Abandoned Vehicles",
    "request_reason": "Abandoned/Junk Vehicles",
    "date_created": "2025-03-11T17:26:22.000",
    "date_modified": "2025-03-11T17:26:23.000",
    "request_status": "Pending",
    "responsible_agency": "Department of Public Works",
    "final_address": "402 Florida Blvd",
    "address_councildis": "A",
    "status": "Pending",
    "rowid": "1174766",
    "final_x": "3667283.51879",
    "final_y": "545397.899792",
    "longitude": "-90.11249411142286",
    "latitude": "29.994079246478346",
    "geocoded_column": {
      "latitude": "29.994079246478346",
      "longitude": "-90.11249411142286"
    }
  },
  {
    "service_request": "2025-1174765",
    "request_type": "Abandoned Vehicles",
    "request_reason": "Abandoned/Junk Vehicles",
    "date_created": "2025-03-11T17:26:11.000",
    "date_modified": "2025-03-11T17:26:12.000",
    "request_status": "Pending",
    "responsible_agency": "Department of Public Works",
    "final_address": "402 Florida Blvd",
    "address_councildis": "A",
    "status": "Pending",
    "rowid": "1174765",
    "final_x": "3667283.51879",
    "final_y": "545397.899792",
    "longitude": "-90.11249411142286",
    "latitude": "29.994079246478346",
    "geocoded_column": {
      "latitude": "29.994079246478346",
      "longitude": "-90.11249411142286"
    }
  },
  {
    "service_request": "2025-1174764",
    "request_type": "Abandoned Vehicles",
    "request_reason": "Abandoned/Junk Vehicles",
    "date_created": "2025-03-11T17:25:58.000",
    "date_modified": "2025-03-11T17:26:00.000",
    "request_status": "Pending",
    "responsible_agency": "Department of Public Works",
    "final_address": "402 Florida Blvd",
    "address_councildis": "A",
    "status": "Pending",
    "rowid": "1174764",
    "final_x": "3667283.51879",
    "final_y": "545397.899792",
    "longitude": "-90.11249411142286",
    "latitude": "29.994079246478346",
    "geocoded_column": {
      "latitude": "29.994079246478346",
      "longitude": "-90.11249411142286"
    }
  },
  {
    "service_request": "2025-1174763",
    "request_type": "Abandoned Vehicles",
    "request_reason": "Abandoned/Junk Vehicles",
    "date_created": "2025-03-11T17:21:56.000",
    "date_modified": "2025-03-11T17:21:58.000",
    "request_status": "Pending",
    "responsible_agency": "Department of Public Works",
    "final_address": "402 Florida Blvd",
    "address_councildis": "A",
    "status": "Pending",
    "rowid": "1174763",
    "final_x": "3667283.51879",
    "final_y": "545397.899792",
    "longitude": "-90.11249411142286",
    "latitude": "29.994079246478346",
    "geocoded_column": {
      "latitude": "29.994079246478346",
      "longitude": "-90.11249411142286"
    }
  },
  {
    "service_request": "2025-1174762",
    "request_type": "Trash/Recycling",
    "request_reason": "Repair Recycling Cart",
    "date_created": "2025-03-11T17:19:48.000",
    "date_modified": "2025-03-11T17:19:50.000",
    "request_status": "Pending",
    "responsible_agency": "Department of Sanitation",
    "final_address": "300 BLK N Saint Patrick St",
    "address_councildis": "A",
    "status": "Pending",
    "rowid": "1174762",
    "final_x": "3669714.71631",
    "final_y": "540627.861773",
    "longitude": "-90.10497580406256",
    "latitude": "29.980891824514302",
    "geocoded_column": {
      "latitude": "29.980891824514302",
      "longitude": "-90.10497580406256"
    }
  },
  {
    "service_request": "2025-1174761",
    "request_type": "Abandoned Vehicles",
    "request_reason": "Abandoned/Junk Vehicles",
    "date_created": "2025-03-11T17:18:20.000",
    "date_modified": "2025-03-11T17:18:21.000",
    "request_status": "Pending",
    "responsible_agency": "Department of Public Works",
    "final_address": "3000 BLK Carondelet St",
    "address_councildis": "B",
    "status": "Pending",
    "rowid": "1174761",
    "final_x": "3674900.57864",
    "final_y": "522319.151016",
    "longitude": "-90.08922439143517",
    "latitude": "29.930395098681245",
    "geocoded_column": {
      "latitude": "29.930395098681245",
      "longitude": "-90.08922439143517"
    }
  },
  {
    "service_request": "2025-1174760",
    "request_type": "Roads and Streets",
    "request_reason": "Sidewalk Damaged or Missing",
    "date_created": "2025-03-11T17:18:17.000",
    "date_modified": "2025-03-11T17:18:18.000",
    "request_status": "Pending",
    "responsible_agency": "Department of Public Works",
    "final_address": "3000 BLK Upperline St",
    "address_councildis": "B",
    "status": "Pending",
    "rowid": "1174760",
    "final_x": "3669242.98005",
    "final_y": "526242.203865",
    "longitude": "-90.10695206141253",
    "latitude": "29.941349926700354",
    "geocoded_column": {
      "latitude": "29.941349926700354",
      "longitude": "-90.10695206141253"
    }
  },
  {
    "service_request": "2025-1174759",
    "request_type": "Abandoned Vehicles",
    "request_reason": "Abandoned/Junk Vehicles",
    "date_created": "2025-03-11T17:17:31.000",
    "date_modified": "2025-03-11T17:17:32.000",
    "request_status": "Pending",
    "responsible_agency": "Department of Public Works",
    "final_address": "3000 BLK Carondelet St",
    "address_councildis": "B",
    "status": "Pending",
    "rowid": "1174759",
    "final_x": "3674900.57864",
    "final_y": "522319.151016",
    "longitude": "-90.08922439143517",
    "latitude": "29.930395098681245",
    "geocoded_column": {
      "latitude": "29.930395098681245",
      "longitude": "-90.08922439143517"
    }
  },
  {
    "service_request": "2025-1174758",
    "request_type": "Abandoned Vehicles",
    "request_reason": "Abandoned/Junk Vehicles",
    "date_created": "2025-03-11T17:14:20.000",
    "date_modified": "2025-03-11T17:14:22.000",
    "request_status": "Pending",
    "responsible_agency": "Department of Public Works",
    "final_address": "3000 BLK Carondelet St",
    "address_councildis": "B",
    "status": "Pending",
    "rowid": "1174758",
    "final_x": "3674900.57864",
    "final_y": "522319.151016",
    "longitude": "-90.08922439143517",
    "latitude": "29.930395098681245",
    "geocoded_column": {
      "latitude": "29.930395098681245",
      "longitude": "-90.08922439143517"
    }
  },
  {
    "service_request": "2025-1174757",
    "request_type": "Abandoned Vehicles",
    "request_reason": "Abandoned/Junk Vehicles",
    "date_created": "2025-03-11T17:11:07.000",
    "date_modified": "2025-03-11T17:11:08.000",
    "request_status": "Pending",
    "responsible_agency": "Department of Public Works",
    "final_address": "5527 Marigny St",
    "address_councildis": "D",
    "status": "Pending",
    "rowid": "1174757",
    "final_x": "3684103.42165",
    "final_y": "553289.515159",
    "longitude": "-90.05908523060502",
    "latitude": "30.015274857417435",
    "geocoded_column": {
      "latitude": "30.015274857417435",
      "longitude": "-90.05908523060502"
    }
  },
  {
    "service_request": "2025-1174756",
    "request_type": "Abandoned Vehicles",
    "request_reason": "Abandoned/Junk Vehicles",
    "date_created": "2025-03-11T17:11:05.000",
    "date_modified": "2025-03-11T17:11:06.000",
    "request_status": "Pending",
    "responsible_agency": "Department of Public Works",
    "final_address": "5527 Marigny St",
    "address_councildis": "D",
    "status": "Pending",
    "rowid": "1174756",
    "final_x": "3684103.42165",
    "final_y": "553289.515159",
    "longitude": "-90.05908523060502",
    "latitude": "30.015274857417435",
    "geocoded_column": {
      "latitude": "30.015274857417435",
      "longitude": "-90.05908523060502"
    }
  },
  {
    "service_request": "2025-1174755",
    "request_type": "Abandoned Vehicles",
    "request_reason": "Abandoned/Junk Vehicles",
    "date_created": "2025-03-11T17:10:51.000",
    "date_modified": "2025-03-11T17:10:53.000",
    "request_status": "Pending",
    "responsible_agency": "Department of Public Works",
    "final_address": "5527 Marigny St",
    "address_councildis": "D",
    "status": "Pending",
    "rowid": "1174755",
    "final_x": "3684103.42165",
    "final_y": "553289.515159",
    "longitude": "-90.05908523060502",
    "latitude": "30.015274857417435",
    "geocoded_column": {
      "latitude": "30.015274857417435",
      "longitude": "-90.05908523060502"
    }
  },
  {
    "service_request": "2025-1174754",
    "request_type": "Abandoned Vehicles",
    "request_reason": "Abandoned/Junk Vehicles",
    "date_created": "2025-03-11T17:10:38.000",
    "date_modified": "2025-03-11T17:10:39.000",
    "request_status": "Pending",
    "responsible_agency": "Department of Public Works",
    "final_address": "5527 Marigny St",
    "address_councildis": "D",
    "status": "Pending",
    "rowid": "1174754",
    "final_x": "3684103.42165",
    "final_y": "553289.515159",
    "longitude": "-90.05908523060502",
    "latitude": "30.015274857417435",
    "geocoded_column": {
      "latitude": "30.015274857417435",
      "longitude": "-90.05908523060502"
    }
  },
  {
    "service_request": "2025-1174753",
    "request_type": "Trash/Recycling",
    "request_reason": "Missed Trash Pick-Up",
    "date_created": "2025-03-11T17:07:55.000",
    "date_modified": "2025-03-11T17:07:56.000",
    "request_status": "Pending",
    "responsible_agency": "Department of Sanitation",
    "final_address": "4604 Toulouse St",
    "address_councildis": "A",
    "status": "Assigned to Contractor",
    "contractor": "IV Waste",
    "rowid": "1174753",
    "final_x": "3670410.99143",
    "final_y": "541046.069324",
    "longitude": "-90.102762466925",
    "latitude": "29.98202121075726",
    "geocoded_column": {
      "latitude": "29.98202121075726",
      "longitude": "-90.102762466925"
    }
  },
  {
    "service_request": "2025-1174752",
    "request_type": "Trash/Recycling",
    "request_reason": "Request a Large Item Pick Up",
    "date_created": "2025-03-11T17:07:25.000",
    "date_modified": "2025-03-11T17:07:26.000",
    "request_status": "Pending",
    "responsible_agency": "Department of Sanitation",
    "final_address": "7712 Willow St",
    "address_councildis": "A",
    "status": "Assigned to Contractor",
    "contractor": "IV Waste",
    "rowid": "1174752",
    "final_x": "3663413.33031",
    "final_y": "527947.933631",
    "longitude": "-90.12530069707486",
    "latitude": "29.946210413904545",
    "geocoded_column": {
      "latitude": "29.946210413904545",
      "longitude": "-90.12530069707486"
    }
  },
  {
    "service_request": "2025-1174751",
    "request_type": "Utility Poles",
    "request_reason": "Utility Pole Leaning",
    "date_created": "2025-03-11T17:07:02.000",
    "date_modified": "2025-03-11T17:07:05.000",
    "request_status": "Pending",
    "responsible_agency": "Utility Company Collective",
    "final_address": "1000 BLK John Churchill Chase St",
    "address_councildis": "B",
    "status": "Pending",
    "rowid": "1174751",
    "final_x": "3680982.85585",
    "final_y": "526257.157575",
    "longitude": "-90.06988651376268",
    "latitude": "29.941040325579934",
    "geocoded_column": {
      "latitude": "29.941040325579934",
      "longitude": "-90.06988651376268"
    }
  },
  {
    "service_request": "2025-1174750",
    "request_type": "Trash/Recycling",
    "request_reason": "Repair Trash Cart",
    "date_created": "2025-03-11T16:58:50.000",
    "date_modified": "2025-03-11T16:58:51.000",
    "request_status": "Pending",
    "responsible_agency": "Department of Sanitation",
    "final_address": "2552 Dumaine St",
    "address_councildis": "D",
    "status": "Assigned to Contractor",
    "contractor": "IV Waste",
    "rowid": "1174750",
    "final_x": "3677602.1677",
    "final_y": "537131.789768",
    "longitude": "-90.08018448309603",
    "latitude": "29.9710439749077",
    "geocoded_column": {
      "latitude": "29.9710439749077",
      "longitude": "-90.08018448309603"
    }
  },
  {
    "service_request": "2025-1174749",
    "request_type": "General Services",
    "request_reason": "General Service Request",
    "date_created": "2025-03-11T16:50:00.000",
    "date_modified": "2025-03-11T16:50:01.000",
    "request_status": "Pending",
    "responsible_agency": "Orleans Parish Communication District",
    "final_address": "13327 Curran Rd",
    "address_councildis": "E",
    "status": "Pending",
    "rowid": "1174749",
    "final_x": "3716334.2526",
    "final_y": "570450.761639",
    "longitude": "-89.95660059237792",
    "latitude": "30.061436426785736",
    "geocoded_column": {
      "latitude": "30.061436426785736",
      "longitude": "-89.95660059237792"
    }
  },
  {
    "service_request": "2025-1174748",
    "request_type": "Trash/Recycling",
    "request_reason": "Repair Recycling Cart",
    "date_created": "2025-03-11T16:49:48.000",
    "date_modified": "2025-03-11T16:49:50.000",
    "request_status": "Pending",
    "responsible_agency": "Department of Sanitation",
    "final_address": "2537 General Pershing St",
    "address_councildis": "B",
    "status": "Pending",
    "rowid": "1174748",
    "final_x": "3670950.76065",
    "final_y": "524392.94278",
    "longitude": "-90.10162301632366",
    "latitude": "29.93621468850686",
    "geocoded_column": {
      "latitude": "29.93621468850686",
      "longitude": "-90.10162301632366"
    }
  },
  {
    "service_request": "2025-1174747",
    "request_type": "Trash/Recycling",
    "request_reason": "Request a Large Item Pick Up",
    "date_created": "2025-03-11T16:47:51.000",
    "date_modified": "2025-03-11T16:47:53.000",
    "request_status": "Pending",
    "responsible_agency": "Department of Sanitation",
    "final_address": "4650 Marigny St",
    "address_councildis": "D",
    "status": "Assigned to Contractor",
    "contractor": "IV Waste",
    "rowid": "1174747",
    "final_x": "3684365.38402",
    "final_y": "549854.593812",
    "longitude": "-90.0583783096619",
    "latitude": "30.005822060747025",
    "geocoded_column": {
      "latitude": "30.005822060747025",
      "longitude": "-90.0583783096619"
    }
  },
  {
    "service_request": "2025-1174746",
    "request_type": "General Services",
    "request_reason": "General Service Request",
    "date_created": "2025-03-11T16:46:44.000",
    "date_modified": "2025-03-11T16:46:46.000",
    "request_status": "Pending",
    "responsible_agency": "Orleans Parish Communication District",
    "final_address": "13327 Curran Rd",
    "address_councildis": "E",
    "status": "Pending",
    "rowid": "1174746",
    "final_x": "3716334.2526",
    "final_y": "570450.761639",
    "longitude": "-89.95660059237792",
    "latitude": "30.061436426785736",
    "geocoded_column": {
      "latitude": "30.061436426785736",
      "longitude": "-89.95660059237792"
    }
  },
  {
    "service_request": "2025-1174745",
    "request_type": "Trash/Recycling",
    "request_reason": "Request a Large Item Pick Up",
    "date_created": "2025-03-11T16:44:00.000",
    "date_modified": "2025-03-11T16:44:04.000",
    "request_status": "Pending",
    "responsible_agency": "Department of Sanitation",
    "final_address": "232 S Solomon St",
    "address_councildis": "A",
    "status": "Assigned to Contractor",
    "contractor": "IV Waste",
    "rowid": "1174745",
    "final_x": "3670173.91796",
    "final_y": "538120.222601",
    "longitude": "-90.1036104381259",
    "latitude": "29.973983121494967",
    "geocoded_column": {
      "latitude": "29.973983121494967",
      "longitude": "-90.1036104381259"
    }
  },
  {
    "service_request": "2025-1174744",
    "request_type": "General Services",
    "request_reason": "General Service Request",
    "date_created": "2025-03-11T16:40:28.000",
    "date_modified": "2025-03-11T16:40:29.000",
    "request_status": "Pending",
    "responsible_agency": "Orleans Parish Communication District",
    "final_address": "13327 Curran Rd",
    "address_councildis": "E",
    "status": "Pending",
    "rowid": "1174744",
    "final_x": "3716334.2526",
    "final_y": "570450.761639",
    "longitude": "-89.95660059237792",
    "latitude": "30.061436426785736",
    "geocoded_column": {
      "latitude": "30.061436426785736",
      "longitude": "-89.95660059237792"
    }
  },
  {
    "service_request": "2025-1174743",
    "request_type": "General Services",
    "request_reason": "General Service Request",
    "date_created": "2025-03-11T16:38:05.000",
    "date_modified": "2025-03-11T16:38:07.000",
    "request_status": "Pending",
    "responsible_agency": "Orleans Parish Communication District",
    "final_address": "13327 Curran Rd",
    "address_councildis": "E",
    "status": "Pending",
    "rowid": "1174743",
    "final_x": "3716334.2526",
    "final_y": "570450.761639",
    "longitude": "-89.95660059237792",
    "latitude": "30.061436426785736",
    "geocoded_column": {
      "latitude": "30.061436426785736",
      "longitude": "-89.95660059237792"
    }
  },
  {
    "service_request": "2025-1174742",
    "request_type": "Trash/Recycling",
    "request_reason": "Order Trash Cart",
    "date_created": "2025-03-11T16:37:42.000",
    "date_modified": "2025-03-11T16:37:44.000",
    "request_status": "Pending",
    "responsible_agency": "Department of Sanitation",
    "final_address": "4811 Brittany Ct",
    "address_councildis": "E",
    "status": "Assigned to Contractor",
    "contractor": "Waste Pro",
    "rowid": "1174742",
    "final_x": "3726960.11001",
    "final_y": "561428.230366",
    "longitude": "-89.92336376019024",
    "latitude": "30.03627291912662",
    "geocoded_column": {
      "latitude": "30.03627291912662",
      "longitude": "-89.92336376019024"
    }
  },
  {
    "service_request": "2025-1174741",
    "request_type": "Trash/Recycling",
    "request_reason": "Request a Large Item Pick Up",
    "date_created": "2025-03-11T16:37:15.000",
    "date_modified": "2025-03-11T16:37:17.000",
    "request_status": "Pending",
    "responsible_agency": "Department of Sanitation",
    "final_address": "509 S Cortez St",
    "address_councildis": "B",
    "status": "Assigned to Contractor",
    "contractor": "IV Waste",
    "rowid": "1174741",
    "final_x": "3671015.81671",
    "final_y": "536275.390919",
    "longitude": "-90.10101418720207",
    "latitude": "29.968885584531982",
    "geocoded_column": {
      "latitude": "29.968885584531982",
      "longitude": "-90.10101418720207"
    }
  },
  {
    "service_request": "2025-1174740",
    "request_type": "Trash/Recycling",
    "request_reason": "Return Trash Cart",
    "date_created": "2025-03-11T16:35:46.000",
    "date_modified": "2025-03-11T16:35:47.000",
    "request_status": "Pending",
    "responsible_agency": "Department of Sanitation",
    "final_address": "2136 Octavia St",
    "address_councildis": "A",
    "status": "Assigned to Contractor",
    "contractor": "IV Waste",
    "rowid": "1174740",
    "final_x": "3667454.43969",
    "final_y": "523689.891899",
    "longitude": "-90.11268468962074",
    "latitude": "29.934384402468385",
    "geocoded_column": {
      "latitude": "29.934384402468385",
      "longitude": "-90.11268468962074"
    }
  },
  {
    "service_request": "2025-1174739",
    "request_type": "Trash/Recycling",
    "request_reason": "Repair Trash Cart",
    "date_created": "2025-03-11T16:34:46.000",
    "date_modified": "2025-03-11T16:34:47.000",
    "request_status": "Pending",
    "responsible_agency": "Department of Sanitation",
    "final_address": "7 Audubon Pl",
    "address_councildis": "A",
    "status": "Assigned to Contractor",
    "contractor": "IV Waste",
    "rowid": "1174739",
    "final_x": "3664049.22676",
    "final_y": "524434.126716",
    "longitude": "-90.12341009069651",
    "latitude": "29.936530118045667",
    "geocoded_column": {
      "latitude": "29.936530118045667",
      "longitude": "-90.12341009069651"
    }
  },
  {
    "service_request": "2025-1174738",
    "request_type": "Trash/Recycling",
    "request_reason": "Replace Trash Cart",
    "date_created": "2025-03-11T16:34:09.000",
    "date_modified": "2025-03-11T16:34:14.000",
    "request_status": "Pending",
    "responsible_agency": "Department of Sanitation",
    "final_address": "2340 Prytania St",
    "address_councildis": "B",
    "status": "Assigned to Contractor",
    "contractor": "IV Waste",
    "rowid": "1174738",
    "final_x": "3677385.6285",
    "final_y": "522778.646074",
    "longitude": "-90.08136361861497",
    "latitude": "29.931584135291484",
    "geocoded_column": {
      "latitude": "29.931584135291484",
      "longitude": "-90.08136361861497"
    }
  },
  {
    "service_request": "2025-1174737",
    "request_type": "Trash/Recycling",
    "request_reason": "Request a Large Item Pick Up",
    "date_created": "2025-03-11T16:30:38.000",
    "date_modified": "2025-03-11T16:30:40.000",
    "request_status": "Pending",
    "responsible_agency": "Department of Sanitation",
    "final_address": "5427 N Villere St",
    "address_councildis": "E",
    "status": "Assigned to Contractor",
    "contractor": "Waste Pro",
    "rowid": "1174737",
    "final_x": "3697692.17168",
    "final_y": "535050.568582",
    "longitude": "-90.01681347734653",
    "latitude": "29.964701928474042",
    "geocoded_column": {
      "latitude": "29.964701928474042",
      "longitude": "-90.01681347734653"
    }
  },
  {
    "service_request": "2025-1174736",
    "request_type": "Trash/Recycling",
    "request_reason": "Order Recycling Cart",
    "date_created": "2025-03-11T16:28:22.000",
    "date_modified": "2025-03-11T16:28:24.000",
    "request_status": "Pending",
    "responsible_agency": "Department of Sanitation",
    "final_address": "2128 Valmont St",
    "address_councildis": "B",
    "status": "Pending",
    "rowid": "1174736",
    "final_x": "3668098.00045",
    "final_y": "523485.479163",
    "longitude": "-90.1106598655274",
    "latitude": "29.933803466053554",
    "geocoded_column": {
      "latitude": "29.933803466053554",
      "longitude": "-90.1106598655274"
    }
  },
  {
    "service_request": "2025-1174735",
    "request_type": "Trash/Recycling",
    "request_reason": "Missed Trash Pick-Up",
    "date_created": "2025-03-11T16:24:49.000",
    "date_modified": "2025-03-11T17:01:24.000",
    "case_close_date": "2025-03-11T12:01:22.000",
    "request_status": "Closed",
    "responsible_agency": "Department of Sanitation",
    "final_address": "811 Crystal St",
    "address_councildis": "D",
    "status": "Invalid Request",
    "contractor": "IV Waste",
    "contractor_action": "Invalid",
    "rowid": "1174735",
    "final_x": "3670435.25031",
    "final_y": "556314.391002",
    "longitude": "-90.10216768772266",
    "latitude": "30.024003047842697",
    "geocoded_column": {
      "latitude": "30.024003047842697",
      "longitude": "-90.10216768772266"
    }
  },
  {
    "service_request": "2025-1174734",
    "request_type": "Abandoned Vehicles",
    "request_reason": "Abandoned/Junk Vehicles",
    "date_created": "2025-03-11T16:23:05.000",
    "date_modified": "2025-03-11T16:23:07.000",
    "request_status": "Pending",
    "responsible_agency": "Department of Public Works",
    "final_address": "8810 Apple St",
    "address_councildis": "A",
    "status": "Pending",
    "rowid": "1174734",
    "final_x": "3663420.48755",
    "final_y": "533816.697029",
    "longitude": "-90.12508270908282",
    "latitude": "29.962347405236812",
    "geocoded_column": {
      "latitude": "29.962347405236812",
      "longitude": "-90.12508270908282"
    }
  },
  {
    "service_request": "2025-1174733",
    "request_type": "Roads and Streets",
    "request_reason": "Street Subsidence (Sinking)",
    "date_created": "2025-03-11T16:21:25.000",
    "date_modified": "2025-03-11T16:21:27.000",
    "request_status": "Pending",
    "responsible_agency": "Department of Public Works",
    "final_address": "2518 Eagle St",
    "address_councildis": "A",
    "status": "Pending",
    "rowid": "1174733",
    "final_x": "3663363.2176",
    "final_y": "533646.098501",
    "longitude": "-90.12526924004383",
    "latitude": "29.961879975414334",
    "geocoded_column": {
      "latitude": "29.961879975414334",
      "longitude": "-90.12526924004383"
    }
  },
  {
    "service_request": "2025-1174732",
    "request_type": "Trash/Recycling",
    "request_reason": "Replace Trash Cart",
    "date_created": "2025-03-11T16:16:46.000",
    "date_modified": "2025-03-11T16:16:48.000",
    "request_status": "Pending",
    "responsible_agency": "Department of Sanitation",
    "final_address": "7692 Kingsport Blvd",
    "address_councildis": "E",
    "status": "Assigned to Contractor",
    "contractor": "Waste Pro",
    "rowid": "1174732",
    "final_x": "3719591.24332",
    "final_y": "573125.367913",
    "longitude": "-89.94620304471535",
    "latitude": "30.068682469492483",
    "geocoded_column": {
      "latitude": "30.068682469492483",
      "longitude": "-89.94620304471535"
    }
  },
  {
    "service_request": "2025-1174731",
    "request_type": "Roads and Streets",
    "request_reason": "Pothole",
    "date_created": "2025-03-11T16:14:54.000",
    "date_modified": "2025-03-11T16:14:57.000",
    "request_status": "Pending",
    "responsible_agency": "Department of Public Works",
    "final_address": "941 Harmony St",
    "address_councildis": "B",
    "status": "Pending",
    "rowid": "1174731",
    "final_x": "3676019.55547",
    "final_y": "519626.210616",
    "longitude": "-90.08578450853823",
    "latitude": "29.92295693029005",
    "geocoded_column": {
      "latitude": "29.92295693029005",
      "longitude": "-90.08578450853823"
    }
  },
  {
    "service_request": "2025-1174730",
    "request_type": "Roads and Streets",
    "request_reason": "Street Subsidence (Sinking)",
    "date_created": "2025-03-11T16:13:53.000",
    "date_modified": "2025-03-11T16:13:55.000",
    "request_status": "Pending",
    "responsible_agency": "Department of Public Works",
    "final_address": "941 Harmony St",
    "address_councildis": "B",
    "status": "Pending",
    "rowid": "1174730",
    "final_x": "3676019.55547",
    "final_y": "519626.210616",
    "longitude": "-90.08578450853823",
    "latitude": "29.92295693029005",
    "geocoded_column": {
      "latitude": "29.92295693029005",
      "longitude": "-90.08578450853823"
    }
  },
  {
    "service_request": "2025-1174729",
    "request_type": "Trash/Recycling",
    "request_reason": "Change Size of Trash Cart",
    "date_created": "2025-03-11T16:13:42.000",
    "date_modified": "2025-03-11T16:13:44.000",
    "request_status": "Pending",
    "responsible_agency": "Department of Sanitation",
    "final_address": "1928 Brutus St",
    "address_councildis": "D",
    "status": "Assigned to Contractor",
    "contractor": "IV Waste",
    "rowid": "1174729",
    "final_x": "3681877.65359",
    "final_y": "550103.506964",
    "longitude": "-90.06622892761678",
    "latitude": "30.006582359201655",
    "geocoded_column": {
      "latitude": "30.006582359201655",
      "longitude": "-90.06622892761678"
    }
  },
  {
    "service_request": "2025-1174728",
    "request_type": "Trash/Recycling",
    "request_reason": "Request a Large Item Pick Up",
    "date_created": "2025-03-11T16:12:04.000",
    "date_modified": "2025-03-11T16:12:06.000",
    "request_status": "Pending",
    "responsible_agency": "Department of Sanitation",
    "final_address": "1016 Peniston St",
    "address_councildis": "B",
    "status": "Assigned to Contractor",
    "contractor": "IV Waste",
    "rowid": "1174728",
    "final_x": "3673223.40136",
    "final_y": "519553.843255",
    "longitude": "-90.09461336383293",
    "latitude": "29.922841356843385",
    "geocoded_column": {
      "latitude": "29.922841356843385",
      "longitude": "-90.09461336383293"
    }
  },
  {
    "service_request": "2025-1174727",
    "request_type": "Health Related Request",
    "request_reason": "Noise Ordinance Complaint",
    "date_created": "2025-03-11T16:11:51.000",
    "date_modified": "2025-03-11T16:12:00.000",
    "request_status": "Pending",
    "responsible_agency": "Health Department",
    "final_address": "5345 Baccich St",
    "address_councildis": "D",
    "status": "Pending",
    "rowid": "1174727",
    "final_x": "3687737.78761",
    "final_y": "552679.790294",
    "longitude": "-90.04762397909339",
    "latitude": "30.01348670726616",
    "geocoded_column": {
      "latitude": "30.01348670726616",
      "longitude": "-90.04762397909339"
    }
  },
  {
    "service_request": "2025-1174726",
    "request_type": "Trash/Recycling",
    "request_reason": "Request a Large Item Pick Up",
    "date_created": "2025-03-11T16:10:41.000",
    "date_modified": "2025-03-11T16:10:43.000",
    "request_status": "Pending",
    "responsible_agency": "Department of Sanitation",
    "final_address": "4518 Croyden Ave",
    "address_councildis": "C",
    "status": "Assigned to Contractor",
    "contractor": "Richards Disposal",
    "rowid": "1174726",
    "final_x": "3702259.59818",
    "final_y": "524132.619772",
    "longitude": "-90.00279031853512",
    "latitude": "29.934536355549838",
    "geocoded_column": {
      "latitude": "29.934536355549838",
      "longitude": "-90.00279031853512"
    }
  },
  {
    "service_request": "2025-1174725",
    "request_type": "Streetlights",
    "request_reason": "Streetlight Outage/Malfunction",
    "date_created": "2025-03-11T16:08:41.000",
    "date_modified": "2025-03-11T16:08:42.000",
    "request_status": "Pending",
    "responsible_agency": "Department of Public Works",
    "final_address": "6249 Canal Blvd",
    "address_councildis": "A",
    "status": "Pending",
    "contractor": "Legacy Professional Services",
    "rowid": "1174725",
    "final_x": "3668800.89498",
    "final_y": "549093.002515",
    "longitude": "-90.10757605162142",
    "latitude": "30.004194959285186",
    "geocoded_column": {
      "latitude": "30.004194959285186",
      "longitude": "-90.10757605162142"
    }
  },
  {
    "service_request": "2025-1174720",
    "request_type": "Trash/Recycling",
    "request_reason": "Order Recycling Cart",
    "date_created": "2025-03-11T16:02:05.000",
    "date_modified": "2025-03-11T16:02:07.000",
    "request_status": "Pending",
    "responsible_agency": "Department of Sanitation",
    "final_address": "2733 Bruxelles St",
    "address_councildis": "D",
    "status": "Pending",
    "rowid": "1174720",
    "final_x": "3680372.50338",
    "final_y": "542519.113741",
    "longitude": "-90.07124800147079",
    "latitude": "29.985773646388576",
    "geocoded_column": {
      "latitude": "29.985773646388576",
      "longitude": "-90.07124800147079"
    }
  },
  {
    "service_request": "2025-1174719",
    "request_type": "Trash/Recycling",
    "request_reason": "Order Trash Cart",
    "date_created": "2025-03-11T16:01:55.000",
    "date_modified": "2025-03-11T16:01:58.000",
    "request_status": "Pending",
    "responsible_agency": "Department of Sanitation",
    "final_address": "3668 Clematis St",
    "address_councildis": "D",
    "status": "Assigned to Contractor",
    "contractor": "IV Waste",
    "rowid": "1174719",
    "final_x": "3686054.19369",
    "final_y": "546539.084561",
    "longitude": "-90.05316000171726",
    "latitude": "29.9966538314738",
    "geocoded_column": {
      "latitude": "29.9966538314738",
      "longitude": "-90.05316000171726"
    }
  },
  {
    "service_request": "2025-1174714",
    "request_type": "Trash/Recycling",
    "request_reason": "Replace Trash Cart",
    "date_created": "2025-03-11T15:59:16.000",
    "date_modified": "2025-03-11T15:59:18.000",
    "request_status": "Pending",
    "responsible_agency": "Department of Sanitation",
    "final_address": "2733 Bruxelles St",
    "address_councildis": "D",
    "status": "Assigned to Contractor",
    "contractor": "IV Waste",
    "rowid": "1174714",
    "final_x": "3680372.50338",
    "final_y": "542519.113741",
    "longitude": "-90.07124800147079",
    "latitude": "29.985773646388576",
    "geocoded_column": {
      "latitude": "29.985773646388576",
      "longitude": "-90.07124800147079"
    }
  },
  {
    "service_request": "2025-1174712",
    "request_type": "Trash/Recycling",
    "request_reason": "Request a Large Item Pick Up",
    "date_created": "2025-03-11T15:55:39.000",
    "date_modified": "2025-03-11T15:55:41.000",
    "request_status": "Pending",
    "responsible_agency": "Department of Sanitation",
    "final_address": "6200 Eastover Dr",
    "address_councildis": "E",
    "status": "Assigned to Contractor",
    "contractor": "Waste Pro",
    "rowid": "1174712",
    "final_x": "3717498.93983",
    "final_y": "564868.848546",
    "longitude": "-89.95313159758682",
    "latitude": "30.046049938574868",
    "geocoded_column": {
      "latitude": "30.046049938574868",
      "longitude": "-89.95313159758682"
    }
  },
  {
    "service_request": "2025-1174711",
    "request_type": "Roads and Streets",
    "request_reason": "Pothole",
    "date_created": "2025-03-11T15:54:11.000",
    "date_modified": "2025-03-11T15:54:14.000",
    "request_status": "Pending",
    "responsible_agency": "Department of Public Works",
    "final_address": "5613 N Villere St",
    "address_councildis": "E",
    "status": "Pending",
    "rowid": "1174711",
    "final_x": "3698479.05207",
    "final_y": "534893.31303",
    "longitude": "-90.01433429450884",
    "latitude": "29.964244649031198",
    "geocoded_column": {
      "latitude": "29.964244649031198",
      "longitude": "-90.01433429450884"
    }
  },
  {
    "service_request": "2025-1174710",
    "request_type": "Trash/Recycling",
    "request_reason": "Request a Large Item Pick Up",
    "date_created": "2025-03-11T15:53:07.000",
    "date_modified": "2025-03-11T15:53:08.000",
    "request_status": "Pending",
    "responsible_agency": "Department of Sanitation",
    "final_address": "2421 Soniat St",
    "address_councildis": "B",
    "status": "Assigned to Contractor",
    "contractor": "IV Waste",
    "rowid": "1174710",
    "final_x": "3668573.62132",
    "final_y": "524465.110908",
    "longitude": "-90.10912530599514",
    "latitude": "29.936483175547885",
    "geocoded_column": {
      "latitude": "29.936483175547885",
      "longitude": "-90.10912530599514"
    }
  },
  {
    "service_request": "2025-1174709",
    "request_type": "Trash/Recycling",
    "request_reason": "Request a Large Item Pick Up",
    "date_created": "2025-03-11T15:50:46.000",
    "date_modified": "2025-03-11T15:50:48.000",
    "request_status": "Pending",
    "responsible_agency": "Department of Sanitation",
    "final_address": "4536 Majestic Oaks Dr",
    "address_councildis": "D",
    "status": "Assigned to Contractor",
    "contractor": "Waste Pro",
    "rowid": "1174709",
    "final_x": "3697723.85469",
    "final_y": "553403.988759",
    "longitude": "-90.01604711746657",
    "latitude": "30.01516610227324",
    "geocoded_column": {
      "latitude": "30.01516610227324",
      "longitude": "-90.01604711746657"
    }
  },
  {
    "service_request": "2025-1174708",
    "request_type": "Trash/Recycling",
    "request_reason": "Request a Large Item Pick Up",
    "date_created": "2025-03-11T15:47:51.000",
    "date_modified": "2025-03-11T15:47:53.000",
    "request_status": "Pending",
    "responsible_agency": "Department of Sanitation",
    "final_address": "419 S Alexander St",
    "address_councildis": "A",
    "status": "Assigned to Contractor",
    "contractor": "IV Waste",
    "rowid": "1174708",
    "final_x": "3669110.74631",
    "final_y": "538063.112713",
    "longitude": "-90.10697011392362",
    "latitude": "29.973857419325565",
    "geocoded_column": {
      "latitude": "29.973857419325565",
      "longitude": "-90.10697011392362"
    }
  },
  {
    "service_request": "2025-1174707",
    "request_type": "Property Maintenance",
    "request_reason": "Property Maintenance",
    "date_created": "2025-03-11T15:47:49.000",
    "date_modified": "2025-03-11T15:47:51.000",
    "request_status": "Pending",
    "responsible_agency": "Department of Code Enforcement",
    "final_address": "5701 Cameron Blvd",
    "address_councildis": "D",
    "status": "Pending",
    "rowid": "1174707",
    "final_x": "3682550.85551",
    "final_y": "553801.080151",
    "longitude": "-90.06397270340362",
    "latitude": "30.01672885714864",
    "geocoded_column": {
      "latitude": "30.01672885714864",
      "longitude": "-90.06397270340362"
    }
  },
  {
    "service_request": "2025-1174706",
    "request_type": "Trash/Recycling",
    "request_reason": "Request a Large Item Pick Up",
    "date_created": "2025-03-11T15:46:55.000",
    "date_modified": "2025-03-11T15:46:56.000",
    "request_status": "Pending",
    "responsible_agency": "Department of Sanitation",
    "final_address": "4646 Chrysler St",
    "address_councildis": "E",
    "status": "Assigned to Contractor",
    "contractor": "Waste Pro",
    "rowid": "1174706",
    "final_x": "3715263.57848",
    "final_y": "556434.709018",
    "longitude": "-89.9605157570778",
    "latitude": "30.02293328689707",
    "geocoded_column": {
      "latitude": "30.02293328689707",
      "longitude": "-89.9605157570778"
    }
  },
  {
    "service_request": "2025-1174705",
    "request_type": "Trash/Recycling",
    "request_reason": "Illegal Dumping",
    "date_created": "2025-03-11T15:46:40.000",
    "date_modified": "2025-03-11T15:46:45.000",
    "request_status": "Pending",
    "responsible_agency": "Department of Sanitation",
    "final_address": "2218 Desire St",
    "address_councildis": "D",
    "status": "Pending",
    "rowid": "1174705",
    "final_x": "3691210.50166",
    "final_y": "540011.633227",
    "longitude": "-90.03710484089052",
    "latitude": "29.97854628091489",
    "geocoded_column": {
      "latitude": "29.97854628091489",
      "longitude": "-90.03710484089052"
    }
  },
  {
    "service_request": "2025-1174704",
    "request_type": "Trash/Recycling",
    "request_reason": "Request a Large Item Pick Up",
    "date_created": "2025-03-11T15:46:07.000",
    "date_modified": "2025-03-11T15:46:08.000",
    "request_status": "Pending",
    "responsible_agency": "Department of Sanitation",
    "final_address": "2669 N Dorgenois St",
    "address_councildis": "D",
    "status": "Assigned to Contractor",
    "contractor": "IV Waste",
    "rowid": "1174704",
    "final_x": "3686959.22409",
    "final_y": "541687.638668",
    "longitude": "-90.05047264975377",
    "latitude": "29.983286255582374",
    "geocoded_column": {
      "latitude": "29.983286255582374",
      "longitude": "-90.05047264975377"
    }
  },
  {
    "service_request": "2025-1174703",
    "request_type": "Abandoned Vehicles",
    "request_reason": "Abandoned/Junk Vehicles",
    "date_created": "2025-03-11T15:44:52.000",
    "date_modified": "2025-03-11T15:44:54.000",
    "request_status": "Pending",
    "responsible_agency": "Department of Public Works",
    "final_address": "1108 Henriette Delille St",
    "address_councildis": "C",
    "status": "Pending",
    "rowid": "1174703",
    "final_x": "3682042.74511",
    "final_y": "534824.832198",
    "longitude": "-90.06624113204428",
    "latitude": "29.964566353262192",
    "geocoded_column": {
      "latitude": "29.964566353262192",
      "longitude": "-90.06624113204428"
    }
  },
  {
    "service_request": "2025-1174702",
    "request_type": "Trash/Recycling",
    "request_reason": "Request a Large Item Pick Up",
    "date_created": "2025-03-11T15:40:51.000",
    "date_modified": "2025-03-11T15:40:53.000",
    "request_status": "Pending",
    "responsible_agency": "Department of Sanitation",
    "final_address": "4318 Annunciation St",
    "address_councildis": "B",
    "status": "Assigned to Contractor",
    "contractor": "IV Waste",
    "rowid": "1174702",
    "final_x": "3671405.59195",
    "final_y": "517740.400822",
    "longitude": "-90.10041308079752",
    "latitude": "29.9179088768141",
    "geocoded_column": {
      "latitude": "29.9179088768141",
      "longitude": "-90.10041308079752"
    }
  },
  {
    "service_request": "2025-1174701",
    "request_type": "Trash/Recycling",
    "request_reason": "Order Trash Cart",
    "date_created": "2025-03-11T15:40:22.000",
    "date_modified": "2025-03-11T15:40:24.000",
    "request_status": "Pending",
    "responsible_agency": "Department of Sanitation",
    "final_address": "2560 Prancer St",
    "address_councildis": "C",
    "status": "Assigned to Contractor",
    "contractor": "Richards Disposal",
    "rowid": "1174701",
    "final_x": "3699648.8664",
    "final_y": "521478.095865",
    "longitude": "-90.01112898731013",
    "latitude": "29.927320431549578",
    "geocoded_column": {
      "latitude": "29.927320431549578",
      "longitude": "-90.01112898731013"
    }
  },
  {
    "service_request": "2025-1174700",
    "request_type": "Trash/Recycling",
    "request_reason": "Order Trash Cart",
    "date_created": "2025-03-11T15:40:21.000",
    "date_modified": "2025-03-11T15:40:23.000",
    "request_status": "Pending",
    "responsible_agency": "Department of Sanitation",
    "final_address": "3311 Chestnut St",
    "address_councildis": "B",
    "status": "Assigned to Contractor",
    "contractor": "IV Waste",
    "rowid": "1174700",
    "final_x": "3674986.88123",
    "final_y": "520460.244792",
    "longitude": "-90.08901567332931",
    "latitude": "29.925281130902267",
    "geocoded_column": {
      "latitude": "29.925281130902267",
      "longitude": "-90.08901567332931"
    }
  },
  {
    "service_request": "2025-1174699",
    "request_type": "Trash/Recycling",
    "request_reason": "Request a Large Item Pick Up",
    "date_created": "2025-03-11T15:37:42.000",
    "date_modified": "2025-03-11T15:37:44.000",
    "request_status": "Pending",
    "responsible_agency": "Department of Sanitation",
    "final_address": "5518 Freret St",
    "address_councildis": "A",
    "status": "Assigned to Contractor",
    "contractor": "IV Waste",
    "rowid": "1174699",
    "final_x": "3667409.49767",
    "final_y": "524002.47814",
    "longitude": "-90.11281605941325",
    "latitude": "29.93524523104054",
    "geocoded_column": {
      "latitude": "29.93524523104054",
      "longitude": "-90.11281605941325"
    }
  },
  {
    "service_request": "2025-1174698",
    "request_type": "Trash/Recycling",
    "request_reason": "Request a Large Item Pick Up",
    "date_created": "2025-03-11T15:32:50.000",
    "date_modified": "2025-03-11T15:32:51.000",
    "request_status": "Pending",
    "responsible_agency": "Department of Sanitation",
    "final_address": "2226 Harmony St",
    "address_councildis": "B",
    "status": "Assigned to Contractor",
    "contractor": "IV Waste",
    "rowid": "1174698",
    "final_x": "3673762.8948",
    "final_y": "523925.456636",
    "longitude": "-90.09276098891125",
    "latitude": "29.934845834872352",
    "geocoded_column": {
      "latitude": "29.934845834872352",
      "longitude": "-90.09276098891125"
    }
  },
  {
    "service_request": "2025-1174697",
    "request_type": "Trash/Recycling",
    "request_reason": "Order Recycling Cart",
    "date_created": "2025-03-11T15:32:31.000",
    "date_modified": "2025-03-11T15:32:33.000",
    "request_status": "Pending",
    "responsible_agency": "Department of Sanitation",
    "final_address": "5121 Piety Dr",
    "address_councildis": "D",
    "status": "Pending",
    "rowid": "1174697",
    "final_x": "3691267.52617",
    "final_y": "552838.00687",
    "longitude": "-90.03646623894392",
    "latitude": "30.013812369689802",
    "geocoded_column": {
      "latitude": "30.013812369689802",
      "longitude": "-90.03646623894392"
    }
  },
  {
    "service_request": "2025-1174696",
    "request_type": "Trash/Recycling",
    "request_reason": "Order Second Trash Cart",
    "date_created": "2025-03-11T15:31:13.000",
    "date_modified": "2025-03-11T15:31:14.000",
    "request_status": "Pending",
    "responsible_agency": "Department of Sanitation",
    "final_address": "5121 Piety Dr",
    "address_councildis": "D",
    "status": "Assigned to Contractor",
    "contractor": "IV Waste",
    "rowid": "1174696",
    "final_x": "3691267.52617",
    "final_y": "552838.00687",
    "longitude": "-90.03646623894392",
    "latitude": "30.013812369689802",
    "geocoded_column": {
      "latitude": "30.013812369689802",
      "longitude": "-90.03646623894392"
    }
  },
  {
    "service_request": "2025-1174695",
    "request_type": "Trash/Recycling",
    "request_reason": "Replace Trash Cart",
    "date_created": "2025-03-11T15:28:35.000",
    "date_modified": "2025-03-11T15:28:37.000",
    "request_status": "Pending",
    "responsible_agency": "Department of Sanitation",
    "final_address": "5121 Piety Dr",
    "address_councildis": "D",
    "status": "Assigned to Contractor",
    "contractor": "IV Waste",
    "rowid": "1174695",
    "final_x": "3691267.52617",
    "final_y": "552838.00687",
    "longitude": "-90.03646623894392",
    "latitude": "30.013812369689802",
    "geocoded_column": {
      "latitude": "30.013812369689802",
      "longitude": "-90.03646623894392"
    }
  },
  {
    "service_request": "2025-1174694",
    "request_type": "Trash/Recycling",
    "request_reason": "Repair Trash Cart",
    "date_created": "2025-03-11T15:27:59.000",
    "date_modified": "2025-03-11T15:28:55.000",
    "request_status": "Pending",
    "responsible_agency": "Department of Sanitation",
    "final_address": "5970 General Haig St",
    "address_councildis": "A",
    "status": "Assigned to Contractor",
    "contractor": "IV Waste",
    "rowid": "1174694",
    "final_x": "3670460.90158",
    "final_y": "546992.470929",
    "longitude": "-90.10240306312811",
    "latitude": "29.998370296989684",
    "geocoded_column": {
      "latitude": "29.998370296989684",
      "longitude": "-90.10240306312811"
    }
  },
  {
    "service_request": "2025-1174693",
    "request_type": "Roads and Streets",
    "request_reason": "Street Subsidence (Sinking)",
    "date_created": "2025-03-11T15:27:14.000",
    "date_modified": "2025-03-11T15:27:16.000",
    "request_status": "Pending",
    "responsible_agency": "Department of Public Works",
    "final_address": "DUFOSSAT ST & ATLANTA ST",
    "address_councildis": "B",
    "status": "Pending",
    "rowid": "1174693",
    "final_x": "3668110.1",
    "final_y": "520715.38",
    "longitude": "-90.11071497823261",
    "latitude": "29.92618622082001",
    "geocoded_column": {
      "latitude": "29.92618622082001",
      "longitude": "-90.11071497823261"
    }
  },
  {
    "service_request": "2025-1174692",
    "request_type": "Trash/Recycling",
    "request_reason": "Request a Large Item Pick Up",
    "date_created": "2025-03-11T15:26:06.000",
    "date_modified": "2025-03-11T15:26:07.000",
    "request_status": "Pending",
    "responsible_agency": "Department of Sanitation",
    "final_address": "4911 Magnolia St",
    "address_councildis": "B",
    "status": "Assigned to Contractor",
    "contractor": "IV Waste",
    "rowid": "1174692",
    "final_x": "3669089.46644",
    "final_y": "524648.525436",
    "longitude": "-90.10749056344149",
    "latitude": "29.936972342251075",
    "geocoded_column": {
      "latitude": "29.936972342251075",
      "longitude": "-90.10749056344149"
    }
  },
  {
    "service_request": "2025-1174691",
    "request_type": "Property Maintenance",
    "request_reason": "Property Maintenance",
    "date_created": "2025-03-11T15:24:24.000",
    "date_modified": "2025-03-11T15:24:26.000",
    "request_status": "Pending",
    "responsible_agency": "Department of Code Enforcement",
    "final_address": "4821 Chestnut St",
    "address_councildis": "B",
    "status": "Pending",
    "rowid": "1174691",
    "final_x": "3669332.68391",
    "final_y": "519396.987959",
    "longitude": "-90.10690016565421",
    "latitude": "29.922525135079614",
    "geocoded_column": {
      "latitude": "29.922525135079614",
      "longitude": "-90.10690016565421"
    }
  },
  {
    "service_request": "2025-1174690",
    "request_type": "Trash/Recycling",
    "request_reason": "Request a Large Item Pick Up",
    "date_created": "2025-03-11T15:20:42.000",
    "date_modified": "2025-03-11T15:20:44.000",
    "request_status": "Pending",
    "responsible_agency": "Department of Sanitation",
    "final_address": "2323 N Claiborne Ave",
    "address_councildis": "D",
    "status": "Assigned to Contractor",
    "contractor": "IV Waste",
    "rowid": "1174690",
    "final_x": "3685811.08342",
    "final_y": "538264.992649",
    "longitude": "-90.05421974573548",
    "latitude": "29.97391047814306",
    "geocoded_column": {
      "latitude": "29.97391047814306",
      "longitude": "-90.05421974573548"
    }
  },
  {
    "service_request": "2025-1174689",
    "request_type": "Roads and Streets",
    "request_reason": "Sidewalk Damaged or Missing",
    "date_created": "2025-03-11T15:19:33.000",
    "date_modified": "2025-03-11T15:19:34.000",
    "request_status": "Pending",
    "responsible_agency": "Department of Public Works",
    "final_address": "930 Tchoupitoulas St",
    "address_councildis": "B",
    "status": "Pending",
    "rowid": "1174689",
    "final_x": "3681818.94268",
    "final_y": "526717.783102",
    "longitude": "-90.06723076795356",
    "latitude": "29.942281516185407",
    "geocoded_column": {
      "latitude": "29.942281516185407",
      "longitude": "-90.06723076795356"
    }
  },
  {
    "service_request": "2025-1174688",
    "request_type": "Street and Traffic Signs",
    "request_reason": "Additional Signage Request",
    "date_created": "2025-03-11T15:19:11.000",
    "date_modified": "2025-03-11T15:19:12.000",
    "request_status": "Pending",
    "responsible_agency": "Department of Public Works",
    "final_address": "2222 Tulane Ave",
    "address_councildis": "B",
    "status": "Pending",
    "rowid": "1174688",
    "final_x": "3675891.51131",
    "final_y": "532857.471172",
    "longitude": "-90.0857339437974",
    "latitude": "29.959342375659908",
    "geocoded_column": {
      "latitude": "29.959342375659908",
      "longitude": "-90.0857339437974"
    }
  },
  {
    "service_request": "2025-1174687",
    "request_type": "Trash/Recycling",
    "request_reason": "Order Trash Cart",
    "date_created": "2025-03-11T15:15:49.000",
    "date_modified": "2025-03-11T15:15:52.000",
    "request_status": "Pending",
    "responsible_agency": "Department of Sanitation",
    "final_address": "1615 Elizardi Blvd",
    "address_councildis": "C",
    "status": "Assigned to Contractor",
    "contractor": "Richards Disposal",
    "rowid": "1174687",
    "final_x": "3694604.96042",
    "final_y": "525107.763005",
    "longitude": "-90.0269206191598",
    "latitude": "29.937459850075346",
    "geocoded_column": {
      "latitude": "29.937459850075346",
      "longitude": "-90.0269206191598"
    }
  },
  {
    "service_request": "2025-1174686",
    "request_type": "Street and Traffic Signs",
    "request_reason": "Stop Sign Missing or Damaged",
    "date_created": "2025-03-11T15:12:29.000",
    "date_modified": "2025-03-11T15:12:31.000",
    "request_status": "Pending",
    "responsible_agency": "Department of Public Works",
    "final_address": "HAGAN ST & ST ANN ST",
    "address_councildis": "A",
    "status": "Pending",
    "rowid": "1174686",
    "final_x": "3674891.5",
    "final_y": "538766.88",
    "longitude": "-90.08868904941411",
    "latitude": "29.975621151963754",
    "geocoded_column": {
      "latitude": "29.975621151963754",
      "longitude": "-90.08868904941411"
    }
  },
  {
    "service_request": "2025-1174685",
    "request_type": "Roads and Streets",
    "request_reason": "Street Subsidence (Sinking)",
    "date_created": "2025-03-11T15:11:46.000",
    "date_modified": "2025-03-11T15:12:10.000",
    "request_status": "Pending",
    "responsible_agency": "Department of Public Works",
    "final_address": "1500 Music St",
    "address_councildis": "C",
    "status": "Pending",
    "rowid": "1174685",
    "final_x": "3686692.41686",
    "final_y": "537963.037449",
    "longitude": "-90.05144697351635",
    "latitude": "29.973053125500062",
    "geocoded_column": {
      "latitude": "29.973053125500062",
      "longitude": "-90.05144697351635"
    }
  },
  {
    "service_request": "2025-1174684",
    "request_type": "Trash/Recycling",
    "request_reason": "Request a Large Item Pick Up",
    "date_created": "2025-03-11T15:09:23.000",
    "date_modified": "2025-03-11T15:09:25.000",
    "request_status": "Pending",
    "responsible_agency": "Department of Sanitation",
    "final_address": "4034 Hollygrove St",
    "address_councildis": "A",
    "status": "Assigned to Contractor",
    "contractor": "IV Waste",
    "rowid": "1174684",
    "final_x": "3666460.58145",
    "final_y": "538127.919433",
    "longitude": "-90.1153377763723",
    "latitude": "29.974113341408575",
    "geocoded_column": {
      "latitude": "29.974113341408575",
      "longitude": "-90.1153377763723"
    }
  },
  {
    "service_request": "2025-1174683",
    "request_type": "Trash/Recycling",
    "request_reason": "Request a Large Item Pick Up",
    "date_created": "2025-03-11T15:04:07.000",
    "date_modified": "2025-03-11T15:04:12.000",
    "request_status": "Pending",
    "responsible_agency": "Department of Sanitation",
    "final_address": "3925 Tall Pines Dr",
    "address_councildis": "C",
    "status": "Assigned to Contractor",
    "contractor": "Richards Disposal",
    "rowid": "1174683",
    "final_x": "3704698.85143",
    "final_y": "512971.343665",
    "longitude": "-89.99550111085217",
    "latitude": "29.903768596455386",
    "geocoded_column": {
      "latitude": "29.903768596455386",
      "longitude": "-89.99550111085217"
    }
  },
  {
    "service_request": "2025-1174682",
    "request_type": "Trash/Recycling",
    "request_reason": "Request a Large Item Pick Up",
    "date_created": "2025-03-11T15:02:02.000",
    "date_modified": "2025-03-11T15:02:04.000",
    "request_status": "Pending",
    "responsible_agency": "Department of Sanitation",
    "final_address": "1330 Elysian Fields Ave",
    "address_councildis": "C",
    "status": "Assigned to Contractor",
    "contractor": "IV Waste",
    "rowid": "1174682",
    "final_x": "3684841.88316",
    "final_y": "537300.307592",
    "longitude": "-90.05731461893313",
    "latitude": "29.971287644189463",
    "geocoded_column": {
      "latitude": "29.971287644189463",
      "longitude": "-90.05731461893313"
    }
  },
  {
    "service_request": "2025-1174681",
    "request_type": "Streetlights",
    "request_reason": "Streetlight Outage/Malfunction",
    "date_created": "2025-03-11T15:01:57.000",
    "date_modified": "2025-03-11T15:01:58.000",
    "request_status": "Pending",
    "responsible_agency": "Department of Public Works",
    "final_address": "8006 Mullet St",
    "address_councildis": "E",
    "status": "Pending",
    "contractor": "Legacy Professional Services",
    "rowid": "1174681",
    "final_x": "3698656.93104",
    "final_y": "561170.798622",
    "longitude": "-90.01281625046893",
    "latitude": "30.0364923281965",
    "geocoded_column": {
      "latitude": "30.0364923281965",
      "longitude": "-90.01281625046893"
    }
  },
  {
    "service_request": "2025-1174680",
    "request_type": "Trash/Recycling",
    "request_reason": "Request a Large Item Pick Up",
    "date_created": "2025-03-11T14:59:57.000",
    "date_modified": "2025-03-11T14:59:59.000",
    "request_status": "Pending",
    "responsible_agency": "Department of Sanitation",
    "final_address": "4239 St Charles Ave Unit G",
    "address_councildis": "B",
    "status": "Assigned to Contractor",
    "contractor": "IV Waste",
    "rowid": "1174680",
    "final_x": "3671318.72999",
    "final_y": "521024.008377",
    "longitude": "-90.1005757494473",
    "latitude": "29.926940321527358",
    "geocoded_column": {
      "latitude": "29.926940321527358",
      "longitude": "-90.1005757494473"
    }
  },
  {
    "service_request": "2025-1174679",
    "request_type": "Property Maintenance",
    "request_reason": "Property Maintenance",
    "date_created": "2025-03-11T14:59:23.000",
    "date_modified": "2025-03-11T14:59:24.000",
    "request_status": "Pending",
    "responsible_agency": "Department of Code Enforcement",
    "final_address": "2901 Ursulines Ave",
    "address_councildis": "A",
    "status": "Pending",
    "rowid": "1174679",
    "final_x": "3676827.44923",
    "final_y": "538882.582665",
    "longitude": "-90.08257079262258",
    "latitude": "29.975881330528857",
    "geocoded_column": {
      "latitude": "29.975881330528857",
      "longitude": "-90.08257079262258"
    }
  },
  {
    "service_request": "2025-1174678",
    "request_type": "Drainage",
    "request_reason": "Drainage Manhole Cover Missing or Damaged",
    "date_created": "2025-03-11T14:57:09.000",
    "date_modified": "2025-03-11T14:57:11.000",
    "request_status": "Pending",
    "responsible_agency": "Sewerage & Water Board ",
    "final_address": "2648 Piety St",
    "address_councildis": "D",
    "status": "Pending",
    "rowid": "1174678",
    "final_x": "3691316.28713",
    "final_y": "541837.640076",
    "longitude": "-90.03670547120271",
    "latitude": "29.98356385608901",
    "geocoded_column": {
      "latitude": "29.98356385608901",
      "longitude": "-90.03670547120271"
    }
  },
  {
    "service_request": "2025-1174677",
    "request_type": "Trash/Recycling",
    "request_reason": "Illegal Dumping",
    "date_created": "2025-03-11T14:54:35.000",
    "date_modified": "2025-03-11T14:54:36.000",
    "request_status": "Pending",
    "responsible_agency": "Department of Sanitation",
    "final_address": "LAW ST & ST ROCH AVE",
    "address_councildis": "D",
    "status": "Pending",
    "rowid": "1174677",
    "final_x": "3686016.5",
    "final_y": "541935.18",
    "longitude": "-90.05344152262006",
    "latitude": "29.98399589426497",
    "geocoded_column": {
      "latitude": "29.98399589426497",
      "longitude": "-90.05344152262006"
    }
  },
  {
    "service_request": "2025-1174676",
    "request_type": "Trash/Recycling",
    "request_reason": "Missed Trash Pick-Up",
    "date_created": "2025-03-11T14:53:40.000",
    "date_modified": "2025-03-11T14:53:42.000",
    "request_status": "Pending",
    "responsible_agency": "Department of Sanitation",
    "final_address": "5631 Carlisle Ct",
    "address_councildis": "C",
    "status": "Assigned to Contractor",
    "contractor": "Richards Disposal",
    "rowid": "1174676",
    "final_x": "3704458.48279",
    "final_y": "516508.616757",
    "longitude": "-89.99612942905648",
    "latitude": "29.91350260303831",
    "geocoded_column": {
      "latitude": "29.91350260303831",
      "longitude": "-89.99612942905648"
    }
  },
  {
    "service_request": "2025-1174675",
    "request_type": "New Orleans Recreation Development Commission (NORDC)",
    "request_reason": "Facilities and Parks Maintenance/Clean Up",
    "date_created": "2025-03-11T14:52:25.000",
    "date_modified": "2025-03-11T14:52:26.000",
    "request_status": "Pending",
    "responsible_agency": "New Orleans Recreation Development Commission",
    "final_address": "2501 Chippewa St",
    "address_councildis": "B",
    "status": "Pending",
    "rowid": "1174675",
    "final_x": "3678525.63522",
    "final_y": "520119.787",
    "longitude": "-90.07785671778836",
    "latitude": "29.924238841528204",
    "geocoded_column": {
      "latitude": "29.924238841528204",
      "longitude": "-90.07785671778836"
    }
  },
  {
    "service_request": "2025-1174674",
    "request_type": "Trash/Recycling",
    "request_reason": "Missed Trash Pick-Up",
    "date_created": "2025-03-11T14:51:37.000",
    "date_modified": "2025-03-11T14:51:40.000",
    "request_status": "Pending",
    "responsible_agency": "Department of Sanitation",
    "final_address": "5631 Carlisle Ct",
    "address_councildis": "C",
    "status": "Assigned to Contractor",
    "contractor": "Richards Disposal",
    "rowid": "1174674",
    "final_x": "3704458.48279",
    "final_y": "516508.616757",
    "longitude": "-89.99612942905648",
    "latitude": "29.91350260303831",
    "geocoded_column": {
      "latitude": "29.91350260303831",
      "longitude": "-89.99612942905648"
    }
  },
  {
    "service_request": "2025-1174673",
    "request_type": "Street and Traffic Signs",
    "request_reason": "Additional Signage Request",
    "date_created": "2025-03-11T14:49:56.000",
    "date_modified": "2025-03-11T14:49:58.000",
    "request_status": "Pending",
    "responsible_agency": "Department of Public Works",
    "final_address": "4616 St Anthony Ave",
    "address_councildis": "D",
    "status": "Pending",
    "rowid": "1174673",
    "final_x": "3682317.24508",
    "final_y": "549581.634643",
    "longitude": "-90.06485839820837",
    "latitude": "30.00513402456354",
    "geocoded_column": {
      "latitude": "30.00513402456354",
      "longitude": "-90.06485839820837"
    }
  },
  {
    "service_request": "2025-1174672",
    "request_type": "Trash/Recycling",
    "request_reason": "Request a Large Item Pick Up",
    "date_created": "2025-03-11T14:49:36.000",
    "date_modified": "2025-03-11T14:49:58.000",
    "request_status": "Pending",
    "responsible_agency": "Department of Sanitation",
    "final_address": "1316 Treme St",
    "address_councildis": "C",
    "status": "Assigned to Contractor",
    "contractor": "IV Waste",
    "rowid": "1174672",
    "final_x": "3682269.9149",
    "final_y": "535649.331398",
    "longitude": "-90.06549493786753",
    "latitude": "29.966826533363562",
    "geocoded_column": {
      "latitude": "29.966826533363562",
      "longitude": "-90.06549493786753"
    }
  },
  {
    "service_request": "2025-1174671",
    "request_type": "Trash/Recycling",
    "request_reason": "Illegal Dumping",
    "date_created": "2025-03-11T14:46:47.000",
    "date_modified": "2025-03-11T14:46:49.000",
    "request_status": "Pending",
    "responsible_agency": "Department of Sanitation",
    "final_address": "4970 Kendall Dr",
    "address_councildis": "D",
    "status": "Pending",
    "rowid": "1174671",
    "final_x": "3690147.55132",
    "final_y": "551942.458326",
    "longitude": "-90.0400367080367",
    "latitude": "30.011384748871897",
    "geocoded_column": {
      "latitude": "30.011384748871897",
      "longitude": "-90.0400367080367"
    }
  },
  {
    "service_request": "2025-1174670",
    "request_type": "Parks & Parkways",
    "request_reason": "Request Tree Service (Right of Way/Public Property)",
    "date_created": "2025-03-11T14:44:47.000",
    "date_modified": "2025-03-11T14:45:50.000",
    "request_status": "Pending",
    "responsible_agency": "Department of Parks & Parkway",
    "final_address": "1812 River Oaks Dr",
    "address_councildis": "C",
    "status": "Pending",
    "rowid": "1174670",
    "final_x": "3701737.1345",
    "final_y": "524062.673212",
    "longitude": "-90.00444227368297",
    "latitude": "29.934360698258704",
    "geocoded_column": {
      "latitude": "29.934360698258704",
      "longitude": "-90.00444227368297"
    }
  },
  {
    "service_request": "2025-1174669",
    "request_type": "Trash/Recycling",
    "request_reason": "Replace Trash Cart",
    "date_created": "2025-03-11T14:42:37.000",
    "date_modified": "2025-03-11T14:42:39.000",
    "request_status": "Pending",
    "responsible_agency": "Department of Sanitation",
    "final_address": "4860 Palace St",
    "address_councildis": "E",
    "status": "Assigned to Contractor",
    "contractor": "Waste Pro",
    "rowid": "1174669",
    "final_x": "3729196.72698",
    "final_y": "562241.160671",
    "longitude": "-89.91626395073607",
    "latitude": "30.038432275512328",
    "geocoded_column": {
      "latitude": "30.038432275512328",
      "longitude": "-89.91626395073607"
    }
  },
  {
    "service_request": "2025-1174668",
    "request_type": "Abandoned Vehicles",
    "request_reason": "Abandoned/Junk Vehicles",
    "date_created": "2025-03-11T14:41:20.000",
    "date_modified": "2025-03-11T14:41:21.000",
    "request_status": "Pending",
    "responsible_agency": "Department of Public Works",
    "final_address": "1810 St Roch Ave",
    "address_councildis": "D",
    "status": "Pending",
    "rowid": "1174668",
    "final_x": "3686063.25244",
    "final_y": "539086.581514",
    "longitude": "-90.05339435723614",
    "latitude": "29.976161816842065",
    "geocoded_column": {
      "latitude": "29.976161816842065",
      "longitude": "-90.05339435723614"
    }
  },
  {
    "service_request": "2025-1174667",
    "request_type": "Street and Traffic Signs",
    "request_reason": "Stop Sign Missing or Damaged",
    "date_created": "2025-03-11T14:37:22.000",
    "date_modified": "2025-03-11T14:37:23.000",
    "request_status": "Pending",
    "responsible_agency": "Department of Public Works",
    "final_address": "MARAIS ST & LESSEPS ST",
    "address_councildis": "D",
    "status": "Pending",
    "rowid": "1174667",
    "final_x": "3692790.6",
    "final_y": "535435.28",
    "longitude": "-90.03227844431703",
    "latitude": "29.965913690926847",
    "geocoded_column": {
      "latitude": "29.965913690926847",
      "longitude": "-90.03227844431703"
    }
  },
  {
    "service_request": "2025-1174666",
    "request_type": "Trash/Recycling",
    "request_reason": "Order Trash Cart",
    "date_created": "2025-03-11T14:37:07.000",
    "date_modified": "2025-03-11T14:37:09.000",
    "request_status": "Pending",
    "responsible_agency": "Department of Sanitation",
    "final_address": "14516 Tilbury Rd",
    "address_councildis": "E",
    "status": "Assigned to Contractor",
    "contractor": "Waste Pro",
    "rowid": "1174666",
    "final_x": "3720738.67046",
    "final_y": "572982.967401",
    "longitude": "-89.94258128076322",
    "latitude": "30.068252684897015",
    "geocoded_column": {
      "latitude": "30.068252684897015",
      "longitude": "-89.94258128076322"
    }
  },
  {
    "service_request": "2025-1174665",
    "request_type": "Trash/Recycling",
    "request_reason": "Missed Trash Pick-Up",
    "date_created": "2025-03-11T14:35:29.000",
    "date_modified": "2025-03-11T15:15:12.000",
    "case_close_date": "2025-03-11T10:15:12.000",
    "request_status": "Closed",
    "responsible_agency": "Department of Sanitation",
    "final_address": "4405 Duplessis St",
    "address_councildis": "D",
    "status": "Invalid Request",
    "contractor": "IV Waste",
    "contractor_action": "Invalid",
    "rowid": "1174665",
    "final_x": "3678357.53678",
    "final_y": "548579.382675",
    "longitude": "-90.0774026620997",
    "latitude": "30.002498124667664",
    "geocoded_column": {
      "latitude": "30.002498124667664",
      "longitude": "-90.0774026620997"
    }
  },
  {
    "service_request": "2025-1174664",
    "request_type": "Parks & Parkways",
    "request_reason": "Request Tree Service (Right of Way/Public Property)",
    "date_created": "2025-03-11T14:32:30.000",
    "date_modified": "2025-03-11T14:33:25.000",
    "request_status": "Pending",
    "responsible_agency": "Department of Parks & Parkway",
    "final_address": "4622 Mithra St",
    "address_councildis": "D",
    "status": "Pending",
    "rowid": "1174664",
    "final_x": "3690981.66672",
    "final_y": "553415.444631",
    "longitude": "-90.03734877002196",
    "latitude": "30.015409002150466",
    "geocoded_column": {
      "latitude": "30.015409002150466",
      "longitude": "-90.03734877002196"
    }
  },
  {
    "service_request": "2025-1174663",
    "request_type": "Abandoned Vehicles",
    "request_reason": "Abandoned/Junk Vehicles",
    "date_created": "2025-03-11T14:31:18.000",
    "date_modified": "2025-03-11T14:31:20.000",
    "request_status": "Pending",
    "responsible_agency": "Department of Public Works",
    "final_address": "6966 General Diaz St",
    "address_councildis": "A",
    "status": "Pending",
    "rowid": "1174663",
    "final_x": "3670016.12385",
    "final_y": "553803.040215",
    "longitude": "-90.10357721641559",
    "latitude": "30.017110103983274",
    "geocoded_column": {
      "latitude": "30.017110103983274",
      "longitude": "-90.10357721641559"
    }
  },
  {
    "service_request": "2025-1174662",
    "request_type": "Trash/Recycling",
    "request_reason": "Request a Large Item Pick Up",
    "date_created": "2025-03-11T14:30:13.000",
    "date_modified": "2025-03-11T14:30:15.000",
    "request_status": "Pending",
    "responsible_agency": "Department of Sanitation",
    "final_address": "1330 Music St",
    "address_councildis": "C",
    "status": "Assigned to Contractor",
    "contractor": "IV Waste",
    "rowid": "1174662",
    "final_x": "3686734.59196",
    "final_y": "537442.4402",
    "longitude": "-90.05133217182288",
    "latitude": "29.971620367883666",
    "geocoded_column": {
      "latitude": "29.971620367883666",
      "longitude": "-90.05133217182288"
    }
  },
  {
    "service_request": "2025-1174661",
    "request_type": "Abandoned Vehicles",
    "request_reason": "Abandoned/Junk Vehicles",
    "date_created": "2025-03-11T14:29:48.000",
    "date_modified": "2025-03-11T14:29:49.000",
    "request_status": "Pending",
    "responsible_agency": "Department of Public Works",
    "final_address": "1417 Arts St",
    "address_councildis": "C",
    "status": "Pending",
    "rowid": "1174661",
    "final_x": "3687142.14556",
    "final_y": "537748.003016",
    "longitude": "-90.05003425168466",
    "latitude": "29.972448014332016",
    "geocoded_column": {
      "latitude": "29.972448014332016",
      "longitude": "-90.05003425168466"
    }
  },
  {
    "service_request": "2025-1174660",
    "request_type": "Abandoned Vehicles",
    "request_reason": "Abandoned/Junk Vehicles",
    "date_created": "2025-03-11T14:29:08.000",
    "date_modified": "2025-03-11T14:29:11.000",
    "request_status": "Pending",
    "responsible_agency": "Department of Public Works",
    "final_address": "636 N St Patrick St",
    "address_councildis": "A",
    "status": "Pending",
    "rowid": "1174660",
    "final_x": "3670407.37345",
    "final_y": "541468.74446",
    "longitude": "-90.10275955692858",
    "latitude": "29.98318353024724",
    "geocoded_column": {
      "latitude": "29.98318353024724",
      "longitude": "-90.10275955692858"
    }
  },
  {
    "service_request": "2025-1174659",
    "request_type": "Abandoned Vehicles",
    "request_reason": "Abandoned/Junk Vehicles",
    "date_created": "2025-03-11T14:25:49.000",
    "date_modified": "2025-03-11T14:25:50.000",
    "request_status": "Pending",
    "responsible_agency": "Department of Public Works",
    "final_address": "4422 Stephen Girard Ave",
    "address_councildis": "D",
    "status": "Pending",
    "rowid": "1174659",
    "final_x": "3690707.13891",
    "final_y": "550115.8285",
    "longitude": "-90.03833397112834",
    "latitude": "30.006344811445373",
    "geocoded_column": {
      "latitude": "30.006344811445373",
      "longitude": "-90.03833397112834"
    }
  },
  {
    "service_request": "2025-1174658",
    "request_type": "Trash/Recycling",
    "request_reason": "Order Recycling Cart",
    "date_created": "2025-03-11T14:25:39.000",
    "date_modified": "2025-03-11T14:26:29.000",
    "request_status": "Pending",
    "responsible_agency": "Department of Sanitation",
    "final_address": "2800 Dante St",
    "address_councildis": "A",
    "status": "Pending",
    "rowid": "1174658",
    "final_x": "3665289.91405",
    "final_y": "533164.440196",
    "longitude": "-90.11920112858269",
    "latitude": "29.96049957781298",
    "geocoded_column": {
      "latitude": "29.96049957781298",
      "longitude": "-90.11920112858269"
    }
  },
  {
    "service_request": "2025-1174657",
    "request_type": "Trash/Recycling",
    "request_reason": "Order Recycling Cart",
    "date_created": "2025-03-11T14:23:49.000",
    "date_modified": "2025-03-11T14:23:51.000",
    "request_status": "Pending",
    "responsible_agency": "Department of Sanitation",
    "final_address": "2827 Chippewa St",
    "address_councildis": "B",
    "status": "Pending",
    "rowid": "1174657",
    "final_x": "3677652.10184",
    "final_y": "519466.050615",
    "longitude": "-90.08063671991081",
    "latitude": "29.922467566918623",
    "geocoded_column": {
      "latitude": "29.922467566918623",
      "longitude": "-90.08063671991081"
    }
  },
  {
    "service_request": "2025-1174656",
    "request_type": "Trash/Recycling",
    "request_reason": "Request a Large Item Pick Up",
    "date_created": "2025-03-11T14:21:03.000",
    "date_modified": "2025-03-11T14:21:18.000",
    "request_status": "Pending",
    "responsible_agency": "Department of Sanitation",
    "final_address": "3016 Baudin St",
    "address_councildis": "B",
    "status": "Assigned to Contractor",
    "contractor": "IV Waste",
    "rowid": "1174656",
    "final_x": "3673222.02024",
    "final_y": "534655.364934",
    "longitude": "-90.09410217486334",
    "latitude": "29.964365632386254",
    "geocoded_column": {
      "latitude": "29.964365632386254",
      "longitude": "-90.09410217486334"
    }
  },